$GPGGA,195735.002,4037.5885,N,11131.5787,W,1,07,1.2,2761.0,M,-16.3,M,,0000*51
$GPGSA,M,3,22,14,18,19,09,21,27,,,,,,2.1,1.2,1.7*33
$GPRMC,195735.002,A,4037.5885,N,11131.5787,W,8.46,246.37,270211,,,A*75
$GPGGA,195735.998,4037.5880,N,11131.5817,W,1,09,1.0,2761.9,M,-16.3,M,,0000*5D
$GPGSA,M,3,22,14,18,19,09,06,03,21,27,,,,1.8,1.0,1.5*3C
$GPRMC,195735.998,A,4037.5880,N,11131.5817,W,8.63,250.30,270211,,,A*7B
$GPGGA,195737.002,4037.5873,N,11131.5850,W,1,09,1.0,2762.9,M,-16.3,M,,0000*59
$GPGSA,M,3,22,14,18,19,09,06,03,21,27,,,,1.8,1.0,1.5*3C
$GPGSV,3,1,11,22,73,008,36,14,67,212,35,18,49,069,37,19,33,285,39*73
$GPGSV,3,2,11,09,28,060,33,06,28,234,28,03,26,247,30,21,21,138,36*74
$GPGSV,3,3,11,27,17,043,32,15,02,047,,11,01,316,*4C
$GPRMC,195737.002,A,4037.5873,N,11131.5850,W,8.59,248.52,270211,,,A*78
$GPGGA,195738.000,4037.5868,N,11131.5882,W,1,08,1.0,2764.5,M,-16.3,M,,0000*5A
$GPGSA,M,3,22,14,18,19,09,03,21,27,,,,,1.8,1.0,1.5*3A
$GPRMC,195738.000,A,4037.5868,N,11131.5882,W,9.45,241.42,270211,,,A*74
$GPGGA,195739.000,4037.5856,N,11131.5910,W,1,08,1.0,2765.7,M,-16.3,M,,0000*5F
$GPGSA,M,3,22,14,18,19,09,06,21,27,,,,,1.9,1.0,1.6*3D
$GPRMC,195739.000,A,4037.5856,N,11131.5910,W,9.09,245.11,270211,,,A*78
$GPGGA,195739.998,4037.5843,N,11131.5940,W,1,09,1.0,2767.3,M,-16.3,M,,0000*51
$GPGSA,M,3,22,14,18,19,09,06,03,21,27,,,,1.8,1.0,1.5*3C
$GPRMC,195739.998,A,4037.5843,N,11131.5940,W,8.83,245.50,270211,,,A*77
$GPGGA,195741.003,4037.5833,N,11131.5969,W,1,09,1.0,2768.0,M,-16.3,M,,0000*55
$GPGSA,M,3,22,14,18,19,09,06,03,21,27,,,,1.8,1.0,1.5*3C
$GPRMC,195741.003,A,4037.5833,N,11131.5969,W,9.00,250.92,270211,,,A*7F
$GPGGA,195742.001,4037.5825,N,11131.6004,W,1,08,1.6,2768.9,M,-16.3,M,,0000*5C
$GPGSA,M,3,22,14,18,19,09,06,03,27,,,,,2.3,1.6,1.6*32
$GPGSV,3,1,11,22,73,008,37,14,67,212,36,18,49,069,36,19,33,285,40*7E
$GPGSV,3,2,11,09,28,060,30,06,28,234,28,03,26,247,36,21,21,138,*74
$GPGSV,3,3,11,27,17,043,30,15,02,047,34,11,01,316,*49
$GPRMC,195742.001,A,4037.5825,N,11131.6004,W,9.70,250.45,270211,,,A*75
$GPGGA,195742.998,4037.5816,N,11131.6038,W,1,08,1.0,2770.3,M,-16.3,M,,0000*5F
$GPGSA,M,3,22,14,18,19,09,03,21,27,,,,,1.8,1.0,1.5*3A
$GPRMC,195742.998,A,4037.5816,N,11131.6038,W,9.17,245.40,270211,,,A*73
$GPGGA,195744.001,4037.5805,N,11131.6067,W,1,09,1.0,2771.4,M,-16.3,M,,0000*5F
$GPGSA,M,3,22,14,18,19,09,06,03,21,27,,,,1.8,1.0,1.5*3C
$GPRMC,195744.001,A,4037.5805,N,11131.6067,W,8.90,245.92,270211,,,A*75
$GPGGA,195744.999,4037.5795,N,11131.6098,W,1,08,1.6,2772.2,M,-16.3,M,,0000*53
$GPGSA,M,3,22,14,18,19,09,06,03,27,,,,,2.3,1.6,1.6*32
$GPRMC,195744.999,A,4037.5795,N,11131.6098,W,9.17,243.84,270211,,,A*74
$GPGGA,195745.999,4037.5785,N,11131.6127,W,1,08,1.6,2772.2,M,-16.3,M,,0000*56
$GPGSA,M,3,22,14,18,19,09,06,03,27,,,,,2.3,1.6,1.6*32
$GPRMC,195745.999,A,4037.5785,N,11131.6127,W,8.91,250.86,270211,,,A*7E
$GPGGA,195746.999,4037.5776,N,11131.6158,W,1,08,1.0,2771.3,M,-16.3,M,,0000*55
$GPGSA,M,3,22,14,18,19,09,03,21,27,,,,,1.8,1.0,1.5*3A
$GPGSV,3,1,11,22,73,008,34,14,67,212,35,18,49,069,35,19,33,285,39*73
$GPGSV,3,2,11,09,28,060,33,06,28,234,,03,26,247,38,21,21,138,29*78
$GPGSV,3,3,11,27,17,043,31,15,02,047,30,11,01,316,*4C
$GPRMC,195746.999,A,4037.5776,N,11131.6158,W,9.15,248.47,270211,,,A*70
$GPGGA,195747.999,4037.5767,N,11131.6191,W,1,09,1.0,2772.0,M,-16.3,M,,0000*50
$GPGSA,M,3,22,14,18,19,09,06,03,21,27,,,,1.8,1.0,1.5*3C
$GPRMC,195747.999,A,4037.5767,N,11131.6191,W,9.25,249.00,270211,,,A*75
$GPGGA,195749.000,4037.5758,N,11131.6222,W,1,08,1.2,2773.4,M,-16.3,M,,0000*56
$GPGSA,M,3,22,14,18,19,09,06,03,21,,,,,2.1,1.2,1.8*3C
$GPRMC,195749.000,A,4037.5758,N,11131.6222,W,8.94,244.77,270211,,,A*73
$GPGGA,195749.998,4037.5747,N,11131.6254,W,1,08,1.6,2774.4,M,-16.3,M,,0000*52
$GPGSA,M,3,22,14,18,19,09,06,03,27,,,,,2.3,1.6,1.6*32
$GPRMC,195749.998,A,4037.5747,N,11131.6254,W,8.95,247.03,270211,,,A*75
$GPGGA,195751.002,4037.5735,N,11131.6283,W,1,09,1.0,2775.0,M,-16.3,M,,0000*5C
$GPGSA,M,3,22,14,18,19,09,06,03,21,27,,,,1.8,1.0,1.5*3C
$GPRMC,195751.002,A,4037.5735,N,11131.6283,W,8.91,247.44,270211,,,A*7E
$GPGGA,195752.000,4037.5723,N,11131.6317,W,1,08,1.0,2776.0,M,-16.3,M,,0000*54
$GPGSA,M,3,22,14,18,19,09,03,21,27,,,,,1.8,1.0,1.5*3A
$GPGSV,3,1,11,22,73,008,36,14,67,212,38,18,49,069,35,19,33,285,39*7C
$GPGSV,3,2,11,09,28,060,32,06,28,234,,03,26,247,33,21,21,138,30*7A
$GPGSV,3,3,11,27,17,043,35,15,02,047,30,11,01,316,*48
$GPRMC,195752.000,A,4037.5723,N,11131.6317,W,9.31,245.12,270211,,,A*7E
$GPGGA,195752.997,4037.5710,N,11131.6352,W,1,07,1.9,2775.7,M,-16.3,M,,0000*50
$GPGSA,M,3,22,14,18,19,09,03,27,,,,,,2.6,1.9,1.8*30
$GPRMC,195752.997,A,4037.5710,N,11131.6352,W,9.20,240.95,270211,,,A*72
$GPGGA,195754.003,4037.5700,N,11131.6377,W,1,08,1.6,2775.7,M,-16.3,M,,0000*54
$GPGSA,M,3,22,14,18,19,09,06,03,27,,,,,2.3,1.6,1.6*32
$GPRMC,195754.003,A,4037.5700,N,11131.6377,W,8.78,246.28,270211,,,A*7A
$GPGGA,195754.997,4037.5684,N,11131.6408,W,1,07,1.9,2777.6,M,-16.3,M,,0000*51
$GPGSA,M,3,22,14,18,19,09,03,27,,,,,,2.6,1.9,1.8*30
$GPRMC,195754.997,A,4037.5684,N,11131.6408,W,8.89,246.70,270211,,,A*7F
$GPGGA,195756.003,4037.5672,N,11131.6439,W,1,08,1.6,2778.6,M,-16.3,M,,0000*53
$GPGSA,M,3,22,14,18,19,09,06,03,27,,,,,2.3,1.6,1.6*32
$GPRMC,195756.003,A,4037.5672,N,11131.6439,W,9.17,244.84,270211,,,A*7D
$GPGGA,195756.996,4037.5666,N,11131.6471,W,1,09,1.0,2778.7,M,-16.3,M,,0000*59
$GPGSA,M,3,22,14,18,19,09,06,03,21,27,,,,1.8,1.0,1.5*3C
$GPGSV,3,1,11,22,73,008,36,14,67,212,36,18,49,069,36,19,33,285,39*71
$GPGSV,3,2,11,09,28,060,32,06,28,234,26,03,26,247,30,21,21,138,23*7F
$GPGSV,3,3,11,27,17,043,33,15,02,047,30,11,01,316,*4E
$GPRMC,195756.996,A,4037.5666,N,11131.6471,W,8.77,250.29,270211,,,A*74
$GPGGA,195758.004,4037.5655,N,11131.6501,W,1,08,1.0,2779.9,M,-16.3,M,,0000*5D
$GPGSA,M,3,22,14,18,19,09,03,21,27,,,,,1.8,1.0,1.5*3A
$GPRMC,195758.004,A,4037.5655,N,11131.6501,W,9.20,247.63,270211,,,A*75
$GPGGA,195758.998,4037.5648,N,11131.6534,W,1,08,1.6,2780.6,M,-16.3,M,,0000*54
$GPGSA,M,3,22,14,18,19,09,06,03,27,,,,,2.3,1.6,1.6*32
$GPRMC,195758.998,A,4037.5648,N,11131.6534,W,8.79,248.35,270211,,,A*72
$GPGGA,195800.000,4037.5635,N,11131.6561,W,1,08,1.6,2782.1,M,-16.3,M,,0000*51
$GPGSA,M,3,22,14,18,19,09,06,03,27,,,,,2.3,1.6,1.6*32
$GPRMC,195800.000,A,4037.5635,N,11131.6561,W,8.59,242.37,270211,,,A*78
$GPGGA,195801.000,4037.5621,N,11131.6589,W,1,08,1.2,2782.2,M,-16.3,M,,0000*54
$GPGSA,M,3,22,14,18,19,09,06,03,21,,,,,2.1,1.2,1.8*3C
$GPRMC,195801.000,A,4037.5621,N,11131.6589,W,8.88,243.55,270211,,,A*73
$GPGGA,195802.002,4037.5606,N,11131.6614,W,1,08,1.0,2781.9,M,-16.3,M,,0000*5D
$GPGSA,M,3,22,14,18,19,09,03,21,27,,,,,1.8,1.0,1.5*3A
$GPGSV,3,1,11,22,73,008,35,14,67,212,34,18,49,069,35,19,33,285,36*7C
$GPGSV,3,2,11,09,28,060,32,06,28,234,,03,26,247,30,21,21,138,22*7A
$GPGSV,3,3,11,27,17,043,30,15,02,047,,11,01,316,*4E
$GPRMC,195802.002,A,4037.5606,N,11131.6614,W,8.85,244.09,270211,,,A*73
$GPGGA,195802.999,4037.5595,N,11131.6645,W,1,08,1.0,2782.9,M,-16.3,M,,0000*58
$GPGSA,M,3,22,14,18,19,09,03,21,27,,,,,1.8,1.0,1.5*3A
$GPRMC,195802.999,A,4037.5595,N,11131.6645,W,8.51,242.16,270211,,,A*74
$GPGGA,195803.997,4037.5584,N,11131.6671,W,1,09,1.0,2782.8,M,-16.3,M,,0000*50
$GPGSA,M,3,22,14,18,19,09,06,03,21,27,,,,1.8,1.0,1.5*3C
$GPRMC,195803.997,A,4037.5584,N,11131.6671,W,9.06,244.50,270211,,,A*7B
$GPGGA,195805.002,4037.5575,N,11131.6704,W,1,08,1.0,2783.3,M,-16.3,M,,0000*55
$GPGSA,M,3,22,14,18,19,09,03,21,27,,,,,1.8,1.0,1.5*3A
$GPRMC,195805.002,A,4037.5575,N,11131.6704,W,8.97,242.76,270211,,,A*7E
$GPGGA,195806.000,4037.5561,N,11131.6727,W,1,08,1.6,2784.6,M,-16.3,M,,0000*54
$GPGSA,M,3,22,14,18,19,09,06,03,27,,,,,2.3,1.6,1.6*32
$GPRMC,195806.000,A,4037.5561,N,11131.6727,W,9.40,241.40,270211,,,A*76
$GPGGA,195806.997,4037.5549,N,11131.6759,W,1,07,1.2,2785.3,M,-16.3,M,,0000*5F
$GPGSA,M,3,22,14,18,19,09,21,27,,,,,,2.0,1.2,1.7*32
$GPGSV,3,1,11,22,73,008,35,14,67,212,36,18,49,069,36,19,33,285,39*72
$GPGSV,3,2,11,09,28,060,33,06,28,234,,03,26,247,,21,21,138,26*7C
$GPGSV,3,3,11,27,17,043,30,15,02,047,29,11,01,316,*45
$GPRMC,195806.997,A,4037.5549,N,11131.6759,W,8.92,240.04,270211,,,A*7D
$GPGGA,195808.002,4037.5539,N,11131.6787,W,1,08,1.6,2784.8,M,-16.3,M,,0000*51
$GPGSA,M,3,22,14,18,19,09,06,03,27,,,,,2.3,1.6,1.6*32
$GPRMC,195808.002,A,4037.5539,N,11131.6787,W,9.05,240.32,270211,,,A*78
$GPGGA,195809.000,4037.5528,N,11131.6818,W,1,05,2.2,2785.0,M,-16.3,M,,0000*58
$GPGSA,M,3,22,14,18,19,03,,,,,,,,3.6,2.2,2.9*37
$GPRMC,195809.000,A,4037.5528,N,11131.6818,W,9.90,248.15,270211,,,A*73
$GPGGA,195809.999,4037.5521,N,11131.6849,W,1,09,1.0,2786.9,M,-16.3,M,,0000*5B
$GPGSA,M,3,22,14,18,19,09,06,03,21,27,,,,1.8,1.0,1.5*3C
$GPRMC,195809.999,A,4037.5521,N,11131.6849,W,9.38,246.07,270211,,,A*78
$GPGGA,195810.998,4037.5509,N,11131.6876,W,1,08,1.0,2785.6,M,-16.3,M,,0000*59
$GPGSA,M,3,22,14,18,19,09,03,21,27,,,,,1.8,1.0,1.5*3A
$GPRMC,195810.998,A,4037.5509,N,11131.6876,W,8.62,246.39,270211,,,A*74
$GPGGA,195812.003,4037.5503,N,11131.6908,W,1,09,1.0,2786.3,M,-16.3,M,,0000*55
$GPGSA,M,3,22,14,18,19,09,06,03,21,27,,,,1.8,1.0,1.5*3C
$GPGSV,3,1,11,22,73,008,36,14,67,212,37,18,49,069,36,19,33,285,38*71
$GPGSV,3,2,11,09,28,060,30,06,28,234,24,03,26,247,35,21,21,138,30*78
$GPGSV,3,3,11,27,17,043,30,15,02,047,33,11,01,316,*4E
$GPRMC,195812.003,A,4037.5503,N,11131.6908,W,9.20,247.08,270211,,,A*7B
$GPGGA,195812.999,4037.5490,N,11131.6936,W,1,08,1.0,2785.5,M,-16.3,M,,0000*5D
$GPGSA,M,3,22,14,18,19,09,06,21,27,,,,,1.9,1.0,1.5*3E
$GPRMC,195812.999,A,4037.5490,N,11131.6936,W,9.01,247.59,270211,,,A*70
$GPGGA,195814.000,4037.5484,N,11131.6969,W,1,09,1.0,2787.8,M,-16.3,M,,0000*53
$GPGSA,M,3,22,14,18,19,09,06,03,21,27,,,,1.8,1.0,1.5*3C
$GPRMC,195814.000,A,4037.5484,N,11131.6969,W,9.18,243.23,270211,,,A*71
$GPGGA,195814.999,4037.5465,N,11131.6996,W,1,08,1.0,2788.8,M,-16.3,M,,0000*5B
$GPGSA,M,3,22,14,18,19,09,03,21,27,,,,,1.8,1.0,1.5*3A
$GPRMC,195814.999,A,4037.5465,N,11131.6996,W,8.99,243.53,270211,,,A*78
$GPGGA,195815.999,4037.5452,N,11131.7028,W,1,08,1.0,2791.4,M,-16.3,M,,0000*57
$GPGSA,M,3,22,14,18,19,09,03,21,27,,,,,1.8,1.0,1.5*3A
$GPRMC,195815.999,A,4037.5452,N,11131.7028,W,9.50,242.49,270211,,,A*7E
$GPGGA,195817.001,4037.5436,N,11131.7057,W,1,08,1.0,2791.0,M,-16.3,M,,0000*53
$GPGSA,M,3,22,14,18,19,06,03,21,27,,,,,1.8,1.0,1.5*35
$GPGSV,3,1,11,22,72,012,37,14,69,213,37,18,48,070,35,19,33,283,39*78
$GPGSV,3,2,11,09,28,059,,06,27,232,33,03,25,245,30,21,20,139,32*78
$GPGSV,3,3,11,27,17,042,31,15,01,047,30,11,02,316,*4D
$GPRMC,195817.001,A,4037.5436,N,11131.7057,W,9.00,243.39,270211,,,A*7D
$GPGGA,195817.998,4037.5424,N,11131.7088,W,1,08,1.0,2791.9,M,-16.3,M,,0000*52
$GPGSA,M,3,22,14,18,19,09,06,21,27,,,,,1.9,1.0,1.5*3E
$GPRMC,195817.998,A,4037.5424,N,11131.7088,W,9.89,241.36,270211,,,A*79
$GPGGA,195819.001,4037.5407,N,11131.7116,W,1,09,1.0,2792.7,M,-16.3,M,,0000*5E
$GPGSA,M,3,22,14,18,19,09,06,03,21,27,,,,1.8,1.0,1.5*3C
$GPRMC,195819.001,A,4037.5407,N,11131.7116,W,9.32,245.64,270211,,,A*7A
$GPGGA,195820.001,4037.5402,N,11131.7146,W,1,09,1.0,2794.9,M,-16.3,M,,0000*5C
$GPGSA,M,3,22,14,18,19,09,06,03,21,27,,,,1.8,1.0,1.5*3C
$GPRMC,195820.001,A,4037.5402,N,11131.7146,W,8.97,246.01,270211,,,A*7E
$GPGGA,195820.999,4037.5391,N,11131.7175,W,1,09,1.0,2795.8,M,-16.3,M,,0000*59
$GPGSA,M,3,22,14,18,19,09,06,03,21,27,,,,1.8,1.0,1.5*3C
$GPRMC,195820.999,A,4037.5391,N,11131.7175,W,9.32,244.20,270211,,,A*74
$GPGGA,195822.000,4037.5384,N,11131.7204,W,1,08,1.0,2797.7,M,-16.3,M,,0000*5F
$GPGSA,M,3,22,14,18,19,09,03,21,27,,,,,1.8,1.0,1.5*3A
$GPGSV,3,1,11,22,72,012,36,14,69,213,36,18,48,070,35,19,33,283,39*78
$GPGSV,3,2,11,09,28,059,30,06,27,232,,03,25,245,33,21,20,139,31*7B
$GPGSV,3,3,11,27,17,042,31,11,02,316,,15,01,047,29*45
$GPRMC,195822.000,A,4037.5384,N,11131.7204,W,9.10,244.23,270211,,,A*7D
$GPGGA,195822.997,4037.5374,N,11131.7232,W,1,08,1.0,2797.0,M,-16.3,M,,0000*55
$GPGSA,M,3,22,14,18,19,06,03,21,27,,,,,1.8,1.0,1.5*35
$GPRMC,195822.997,A,4037.5374,N,11131.7232,W,8.89,244.63,270211,,,A*75
$GPGGA,195824.003,4037.5360,N,11131.7263,W,1,08,1.0,2797.0,M,-16.3,M,,0000*56
$GPGSA,M,3,22,14,18,19,09,03,21,27,,,,,1.8,1.0,1.5*3A
$GPRMC,195824.003,A,4037.5360,N,11131.7263,W,8.56,244.75,270211,,,A*73
$GPGGA,195824.999,4037.5356,N,11131.7293,W,1,08,1.0,2798.2,M,-16.3,M,,0000*5B
$GPGSA,M,3,22,14,18,19,06,03,21,27,,,,,1.8,1.0,1.5*35
$GPRMC,195824.999,A,4037.5356,N,11131.7293,W,9.02,246.47,270211,,,A*70
$GPGGA,195826.001,4037.5343,N,11131.7321,W,1,09,1.0,2798.4,M,-16.3,M,,0000*5A
$GPGSA,M,3,22,14,18,19,09,06,03,21,27,,,,1.8,1.0,1.5*3C
$GPRMC,195826.001,A,4037.5343,N,11131.7321,W,9.20,242.77,270211,,,A*71
$GPGGA,195826.998,4037.5326,N,11131.7353,W,1,08,1.0,2800.1,M,-16.3,M,,0000*5F
$GPGSA,M,3,22,14,18,19,09,03,21,27,,,,,1.8,1.0,1.5*3A
$GPGSV,3,1,11,22,72,012,36,14,69,213,37,18,48,070,35,19,33,283,39*79
$GPGSV,3,2,11,09,28,059,31,06,27,232,,03,25,245,32,21,20,139,31*7B
$GPGSV,3,3,11,27,17,042,34,11,02,316,,15,01,047,30*48
$GPRMC,195826.998,A,4037.5326,N,11131.7353,W,9.51,240.23,270211,,,A*7B
$GPGGA,195828.002,4037.5312,N,11131.7380,W,1,09,1.0,2800.1,M,-16.3,M,,0000*53
$GPGSA,M,3,22,14,18,19,09,06,03,21,27,,,,1.8,1.0,1.5*3C
$GPRMC,195828.002,A,4037.5312,N,11131.7380,W,9.07,239.58,270211,,,A*77
$GPGGA,195829.000,4037.5295,N,11131.7409,W,1,09,1.0,2800.6,M,-16.3,M,,0000*5F
$GPGSA,M,3,22,14,18,19,09,06,03,21,27,,,,1.8,1.0,1.5*3C
$GPRMC,195829.000,A,4037.5295,N,11131.7409,W,9.06,245.85,270211,,,A*76
$GPGGA,195829.995,4037.5284,N,11131.7439,W,1,09,1.0,2801.0,M,-16.3,M,,0000*5E
$GPGSA,M,3,22,14,18,19,09,06,03,21,27,,,,1.8,1.0,1.5*3C
$GPRMC,195829.995,A,4037.5284,N,11131.7439,W,9.17,245.15,270211,,,A*79
$GPGGA,195831.000,4037.5271,N,11131.7470,W,1,09,1.0,2802.9,M,-16.3,M,,0000*5F
$GPGSA,M,3,22,14,18,19,09,06,03,21,27,,,,1.8,1.0,1.5*3C
$GPRMC,195831.000,A,4037.5271,N,11131.7470,W,9.36,241.48,270211,,,A*7D
$GPGGA,195832.002,4037.5258,N,11131.7497,W,1,08,1.0,2802.4,M,-16.3,M,,0000*50
$GPGSA,M,3,22,14,18,19,09,03,21,27,,,,,1.8,1.0,1.5*3A
$GPGSV,3,1,11,22,72,012,36,14,69,213,36,18,48,070,36,19,33,283,40*75
$GPGSV,3,2,11,09,28,059,32,06,27,232,,03,25,245,29,21,20,139,29*7B
$GPGSV,3,3,11,27,17,042,29,11,02,316,,15,01,047,34*40
$GPRMC,195832.002,A,4037.5258,N,11131.7497,W,8.60,242.26,270211,,,A*77
$GPGGA,195832.998,4037.5247,N,11131.7524,W,1,09,1.0,2804.7,M,-16.3,M,,0000*59
$GPGSA,M,3,22,14,18,19,09,06,03,21,27,,,,1.8,1.0,1.5*3C
$GPRMC,195832.998,A,4037.5247,N,11131.7524,W,8.80,243.50,270211,,,A*74
$GPGGA,195834.000,4037.5234,N,11131.7552,W,1,09,1.0,2805.1,M,-16.3,M,,0000*55
$GPGSA,M,3,22,14,18,19,09,06,03,21,27,,,,1.8,1.0,1.5*3C
$GPRMC,195834.000,A,4037.5234,N,11131.7552,W,8.98,248.00,270211,,,A*78
$GPGGA,195835.000,4037.5227,N,11131.7585,W,1,09,1.0,2805.6,M,-16.3,M,,0000*5B
$GPGSA,M,3,22,14,18,19,09,06,03,21,27,,,,1.8,1.0,1.5*3C
$GPRMC,195835.000,A,4037.5227,N,11131.7585,W,9.08,244.17,270211,,,A*73
$GPGGA,195836.003,4037.5217,N,11131.7617,W,1,08,1.0,2805.9,M,-16.3,M,,0000*5E
$GPGSA,M,3,22,14,18,19,09,03,21,27,,,,,1.8,1.0,1.5*3A
$GPRMC,195836.003,A,4037.5217,N,11131.7617,W,9.57,243.58,270211,,,A*7E
$GPGGA,195837.000,4037.5210,N,11131.7645,W,1,08,1.0,2806.3,M,-16.3,M,,0000*55
$GPGSA,M,3,22,14,18,19,09,03,21,27,,,,,1.8,1.0,1.5*3A
$GPGSV,3,1,11,22,72,012,36,14,69,213,36,18,48,070,36,19,33,283,39*7B
$GPGSV,3,2,11,09,28,059,30,06,27,232,,03,25,245,32,21,20,139,31*7A
$GPGSV,3,3,11,27,17,042,33,11,02,316,,15,01,047,28*46
$GPRMC,195837.000,A,4037.5210,N,11131.7645,W,8.94,244.05,270211,,,A*7D
$GPGGA,195837.999,4037.5200,N,11131.7674,W,1,08,1.0,2806.9,M,-16.3,M,,0000*55
$GPGSA,M,3,22,14,18,19,06,03,21,27,,,,,1.8,1.0,1.5*35
$GPRMC,195837.999,A,4037.5200,N,11131.7674,W,8.94,249.73,270211,,,A*7B
$GPGGA,195838.999,4037.5196,N,11131.7710,W,1,09,1.0,2807.6,M,-16.3,M,,0000*5A
$GPGSA,M,3,22,14,18,19,09,06,03,21,27,,,,1.8,1.0,1.5*3C
$GPRMC,195838.999,A,4037.5196,N,11131.7710,W,9.33,246.36,270211,,,A*79
$GPGGA,195839.997,4037.5184,N,11131.7740,W,1,08,1.2,2808.0,M,-16.3,M,,0000*59
$GPGSA,M,3,22,14,18,19,09,06,03,21,,,,,2.1,1.2,1.8*3C
$GPRMC,195839.997,A,4037.5184,N,11131.7740,W,9.24,240.47,270211,,,A*76
$GPGGA,195841.000,4037.5172,N,11131.7771,W,1,08,1.2,2808.3,M,-16.3,M,,0000*59
$GPGSA,M,3,22,14,18,19,09,06,03,21,,,,,2.1,1.2,1.8*3C
$GPRMC,195841.000,A,4037.5172,N,11131.7771,W,9.17,244.21,270211,,,A*71
$GPGGA,195842.003,4037.5156,N,11131.7799,W,1,05,4.6,2808.9,M,-16.3,M,,0000*5F
$GPGSA,M,3,22,14,19,06,03,,,,,,,,8.4,4.6,7.0*3F
$GPGSV,3,1,11,22,72,012,30,14,69,213,36,18,48,070,,19,33,283,36*77
$GPGSV,3,2,11,09,28,059,,06,27,232,36,03,25,245,34,21,20,139,*78
$GPGSV,3,3,11,27,17,042,,11,02,316,,15,01,047,*4C
$GPRMC,195842.003,A,4037.5156,N,11131.7799,W,8.81,241.06,270211,,,A*7F
$GPGGA,195842.999,4037.5149,N,11131.7827,W,1,09,1.0,2810.0,M,-16.3,M,,0000*5E
$GPGSA,M,3,22,14,18,19,09,06,03,21,27,,,,1.8,1.0,1.5*3C
$GPRMC,195842.999,A,4037.5149,N,11131.7827,W,9.18,244.84,270211,,,A*7F
$GPGGA,195844.000,4037.5142,N,11131.7860,W,1,09,1.0,2811.2,M,-16.3,M,,0000*5A
$GPGSA,M,3,22,14,18,19,09,06,03,21,27,,,,1.8,1.0,1.5*3C
$GPRMC,195844.000,A,4037.5142,N,11131.7860,W,9.23,242.78,270211,,,A*75
$GPGGA,195845.000,4037.5130,N,11131.7890,W,1,09,1.0,2812.0,M,-16.3,M,,0000*50
$GPGSA,M,3,22,14,18,19,09,06,03,21,27,,,,1.8,1.0,1.5*3C
$GPRMC,195845.000,A,4037.5130,N,11131.7890,W,9.01,247.02,270211,,,A*76
$GPGGA,195846.000,4037.5122,N,11131.7920,W,1,09,1.0,2814.2,M,-16.3,M,,0000*5E
$GPGSA,M,3,22,14,18,19,09,06,03,21,27,,,,1.8,1.0,1.5*3C
$GPRMC,195846.000,A,4037.5122,N,11131.7920,W,9.05,245.42,270211,,,A*7E
$GPGGA,195846.999,4037.5117,N,11131.7947,W,1,08,1.0,2815.0,M,-16.3,M,,0000*52
$GPGSA,M,3,22,14,19,09,06,03,21,27,,,,,1.8,1.0,1.5*35
$GPGSV,3,1,11,22,72,012,36,14,69,213,39,18,48,070,,19,33,283,38*70
$GPGSV,3,2,11,09,28,059,35,06,27,232,36,03,25,245,39,21,20,139,30*70
$GPGSV,3,3,11,27,17,042,33,11,02,316,32,15,01,047,*4D
$GPRMC,195846.999,A,4037.5117,N,11131.7947,W,8.89,245.37,270211,,,A*77
$GPGGA,195847.996,4037.5100,N,11131.7971,W,1,09,1.0,2815.5,M,-16.3,M,,0000*5B
$GPGSA,M,3,22,14,18,19,09,06,03,21,27,,,,1.8,1.0,1.5*3C
$GPRMC,195847.996,A,4037.5100,N,11131.7971,W,9.15,243.18,270211,,,A*75
$GPGGA,195849.004,4037.5089,N,11131.7999,W,1,08,1.6,2816.4,M,-16.3,M,,0000*54
$GPGSA,M,3,22,14,18,19,09,06,03,27,,,,,2.3,1.6,1.6*32
$GPRMC,195849.004,A,4037.5089,N,11131.7999,W,8.97,242.43,270211,,,A*7B
$GPGGA,195849.999,4037.5078,N,11131.8034,W,1,08,1.6,2818.1,M,-16.3,M,,0000*5D
$GPGSA,M,3,22,14,18,19,09,06,03,27,,,,,2.3,1.6,1.6*32
$GPRMC,195849.999,A,4037.5078,N,11131.8034,W,9.29,244.00,270211,,,A*7C
$GPGGA,195850.999,4037.5069,N,11131.8065,W,1,08,1.6,2819.4,M,-16.3,M,,0000*55
$GPGSA,M,3,22,14,18,19,09,06,03,27,,,,,2.3,1.6,1.6*32
$GPRMC,195850.999,A,4037.5069,N,11131.8065,W,8.95,242.68,270211,,,A*7E
$GPGGA,195851.998,4037.5052,N,11131.8095,W,1,07,1.9,2820.3,M,-16.3,M,,0000*5F
$GPGSA,M,3,22,14,18,19,09,03,27,,,,,,2.6,1.9,1.8*30
$GPGSV,3,1,11,22,72,012,33,14,69,213,38,18,48,070,35,19,33,283,39*73
$GPGSV,3,2,11,09,28,059,36,06,27,232,,03,25,245,39,21,20,139,*75
$GPGSV,3,3,11,27,17,042,35,11,02,316,27,15,01,047,*4F
$GPRMC,195851.998,A,4037.5052,N,11131.8095,W,9.11,242.70,270211,,,A*7D
$GPGGA,195853.003,4037.5038,N,11131.8125,W,1,09,1.0,2821.8,M,-16.3,M,,0000*5D
$GPGSA,M,3,22,14,18,19,09,06,03,21,27,,,,1.8,1.0,1.5*3C
$GPRMC,195853.003,A,4037.5038,N,11131.8125,W,9.00,241.45,270211,,,A*77
$GPGGA,195853.998,4037.5028,N,11131.8156,W,1,08,1.0,2823.2,M,-16.3,M,,0000*5A
$GPGSA,M,3,22,14,18,19,09,03,21,27,,,,,1.8,1.0,1.5*3A
$GPRMC,195853.998,A,4037.5028,N,11131.8156,W,9.24,239.40,270211,,,A*75
$GPGGA,195855.002,4037.5013,N,11131.8182,W,1,08,1.6,2823.9,M,-16.3,M,,0000*5A
$GPGSA,M,3,22,14,18,19,09,06,03,27,,,,,2.3,1.6,1.6*32
$GPRMC,195855.002,A,4037.5013,N,11131.8182,W,9.20,234.83,270211,,,A*7E
$GPGGA,195856.001,4037.5000,N,11131.8218,W,1,09,1.0,2823.6,M,-16.3,M,,0000*50
$GPGSA,M,3,22,14,18,19,09,06,03,21,27,,,,1.8,1.0,1.5*3C
$GPRMC,195856.001,A,4037.5000,N,11131.8218,W,9.48,246.45,270211,,,A*7D
$GPGGA,195856.997,4037.4991,N,11131.8253,W,1,07,1.9,2824.1,M,-16.3,M,,0000*5E
$GPGSA,M,3,22,14,18,19,09,03,27,,,,,,2.6,1.9,1.8*30
$GPGSV,3,1,11,22,72,012,38,14,69,213,37,18,48,070,34,19,33,283,39*76
$GPGSV,3,2,11,09,28,059,37,06,27,232,,03,25,245,29,21,20,139,*75
$GPGSV,3,3,11,27,17,042,31,11,02,316,35,15,01,047,29*43
$GPRMC,195856.997,A,4037.4991,N,11131.8253,W,9.78,248.67,270211,,,A*79
$GPGGA,195858.003,4037.4980,N,11131.8285,W,1,09,1.0,2823.5,M,-16.3,M,,0000*5B
$GPGSA,M,3,22,14,18,19,09,06,03,21,27,,,,1.8,1.0,1.5*3C
$GPRMC,195858.003,A,4037.4980,N,11131.8285,W,8.92,250.38,270211,,,A*7E
$GPGGA,195858.997,4037.4978,N,11131.8316,W,1,07,1.1,2824.9,M,-16.3,M,,0000*57
$GPGSA,M,3,22,18,19,09,06,21,27,,,,,,2.1,1.1,1.8*3C
$GPRMC,195858.997,A,4037.4978,N,11131.8316,W,8.04,246.98,270211,,,A*74
$GPGGA,195900.001,4037.4967,N,11131.8343,W,1,05,4.5,2824.6,M,-16.3,M,,0000*5F
$GPGSA,M,3,22,18,19,09,27,,,,,,,,5.5,4.5,3.0*31
$GPRMC,195900.001,A,4037.4967,N,11131.8343,W,9.18,245.62,270211,,,A*7A
$GPGGA,195900.999,4037.4953,N,11131.8365,W,1,06,1.8,2824.4,M,-16.3,M,,0000*5D
$GPGSA,M,3,22,18,19,09,06,27,,,,,,,2.6,1.8,1.9*30
$GPRMC,195900.999,A,4037.4953,N,11131.8365,W,7.91,241.33,270211,,,A*7E
$GPGGA,195902.001,4037.4947,N,11131.8390,W,1,04,2.8,2825.0,M,-16.3,M,,0000*5C
$GPGSA,M,3,14,19,06,03,,,,,,,,,3.0,2.8,1.0*3E
$GPGSV,3,1,11,22,72,012,,14,69,213,31,18,48,070,,19,33,283,36*73
$GPGSV,3,2,11,09,28,059,,06,27,232,26,03,25,245,31,21,20,139,*7C
$GPGSV,3,3,11,27,17,042,,11,02,316,,15,01,047,35*4A
$GPRMC,195902.001,A,4037.4947,N,11131.8390,W,6.44,244.25,270211,,,A*70
$GPGGA,195903.000,4037.4940,N,11131.8411,W,0,00,,2825.6,M,-16.3,M,,0000*72
$GPGSA,M,1,,,,,,,,,,,,,,,*12
$GPRMC,195903.000,V,4037.4940,N,11131.8411,W,,,270211,,,N*62
$GPGGA,195903.998,4037.4942,N,11131.8422,W,1,04,3.2,2826.6,M,-16.3,M,,0000*51
$GPGSA,M,3,22,18,19,03,,,,,,,,,5.7,3.2,4.7*3C
$GPRMC,195903.998,A,4037.4942,N,11131.8422,W,3.86,256.88,270211,,,A*7C
$GPGGA,195905.000,4037.4935,N,11131.8432,W,1,04,3.2,2827.3,M,-16.3,M,,0000*5A
$GPGSA,M,3,22,18,19,03,,,,,,,,,5.7,3.2,4.7*3C
$GPRMC,195905.000,A,4037.4935,N,11131.8432,W,4.19,234.33,270211,,,A*76
$GPGGA,195906.000,4037.4924,N,11131.8438,W,1,04,3.2,2826.3,M,-16.3,M,,0000*52
$GPGSA,M,3,22,18,19,03,,,,,,,,,5.7,3.2,4.7*3C
$GPRMC,195906.000,A,4037.4924,N,11131.8438,W,5.91,232.40,270211,,,A*7C
$GPGGA,195907.000,4037.4923,N,11131.8462,W,1,09,1.0,2826.8,M,-16.3,M,,0000*5D
$GPGSA,M,3,22,18,19,03,14,09,06,21,27,,,,1.8,1.0,1.5*3C
$GPGSV,3,1,11,22,72,014,36,14,69,213,31,18,47,070,27,19,33,283,41*7A
$GPGSV,3,2,11,09,28,058,31,06,26,232,37,03,25,245,40,21,20,139,27*7D
$GPGSV,3,3,11,27,17,042,37,15,01,047,28,11,03,316,46*41
$GPRMC,195907.000,A,4037.4923,N,11131.8462,W,6.74,243.18,270211,,,A*76
$GPGGA,195908.000,4037.4924,N,11131.8483,W,1,08,1.0,2825.4,M,-16.3,M,,0000*54
$GPGSA,M,3,22,19,03,14,09,06,21,27,,,,,1.8,1.0,1.5*35
$GPRMC,195908.000,A,4037.4924,N,11131.8483,W,6.67,240.44,270211,,,A*79
$GPGGA,195909.000,4037.4919,N,11131.8501,W,1,08,1.0,2823.7,M,-16.3,M,,0000*55
$GPGSA,M,3,22,19,03,14,09,06,21,27,,,,,1.8,1.0,1.5*35
$GPRMC,195909.000,A,4037.4919,N,11131.8501,W,5.57,235.36,270211,,,A*7A
$GPGGA,195910.000,4037.4918,N,11131.8517,W,1,08,1.0,2823.5,M,-16.3,M,,0000*59
$GPGSA,M,3,22,19,03,14,09,06,21,27,,,,,1.8,1.0,1.5*35
$GPRMC,195910.000,A,4037.4918,N,11131.8517,W,4.35,241.10,270211,,,A*76
$GPGGA,195911.000,4037.4920,N,11131.8521,W,1,09,1.0,2821.8,M,-16.3,M,,0000*58
$GPGSA,M,3,22,18,19,03,14,09,06,21,27,,,,1.8,1.0,1.5*3C
$GPRMC,195911.000,A,4037.4920,N,11131.8521,W,0.42,120.45,270211,,,A*79
$GPGGA,195912.000,4037.4928,N,11131.8518,W,1,08,1.0,2821.7,M,-16.3,M,,0000*57
$GPGSA,M,3,18,19,03,14,09,06,21,27,,,,,2.1,1.0,1.8*3B
$GPGSV,3,1,11,22,72,014,,14,69,213,28,18,47,070,43,19,33,283,32*71
$GPGSV,3,2,11,09,28,058,45,06,26,232,28,03,25,245,28,21,20,139,37*7F
$GPGSV,3,3,11,27,17,042,44,15,01,047,27,11,03,316,32*49
$GPRMC,195912.000,A,4037.4928,N,11131.8518,W,0.95,35.85,270211,,,A*4B
$GPGGA,195913.000,4037.4931,N,11131.8518,W,1,09,1.0,2820.9,M,-16.3,M,,0000*50
$GPGSA,M,3,22,18,19,03,14,09,06,21,27,,,,1.8,1.0,1.5*3C
$GPRMC,195913.000,A,4037.4931,N,11131.8518,W,0.43,14.19,270211,,,A*4F
$GPGGA,195914.000,4037.4935,N,11131.8521,W,1,09,1.0,2820.4,M,-16.3,M,,0000*54
$GPGSA,M,3,22,18,19,03,14,09,06,21,27,,,,1.8,1.0,1.5*3C
$GPRMC,195914.000,A,4037.4935,N,11131.8521,W,0.38,349.39,270211,,,A*73
$GPGGA,195915.000,4037.4938,N,11131.8519,W,1,09,1.0,2819.8,M,-16.3,M,,0000*55
$GPGSA,M,3,22,18,19,03,14,09,06,21,27,,,,1.8,1.0,1.5*3C
$GPRMC,195915.000,A,4037.4938,N,11131.8519,W,0.86,318.32,270211,,,A*7E
$GPGGA,195916.000,4037.4943,N,11131.8521,W,1,08,1.0,2819.4,M,-16.3,M,,0000*5C
$GPGSA,M,3,22,18,19,14,09,06,21,27,,,,,1.8,1.0,1.5*3F
$GPRMC,195916.000,A,4037.4943,N,11131.8521,W,0.98,313.57,270211,,,A*7D
$GPGGA,195917.000,4037.4945,N,11131.8523,W,1,08,1.0,2819.0,M,-16.3,M,,0000*5D
$GPGSA,M,3,22,18,19,14,09,06,21,27,,,,,1.8,1.0,1.5*3F
$GPGSV,3,1,11,22,72,014,40,14,69,213,29,18,47,070,44,19,33,282,34*74
$GPGSV,3,2,11,09,28,058,45,06,26,232,28,03,25,245,,21,20,139,36*74
$GPGSV,3,3,11,27,17,042,43,11,03,316,33,15,01,047,*4A
$GPRMC,195917.000,A,4037.4945,N,11131.8523,W,0.63,287.92,270211,,,A*79
$GPGGA,195917.997,4037.4946,N,11131.8525,W,1,06,1.2,2818.8,M,-16.3,M,,0000*5A
$GPGSA,M,3,22,18,19,09,21,27,,,,,,,2.2,1.2,1.9*3B
$GPRMC,195917.997,A,4037.4946,N,11131.8525,W,0.63,1.28,270211,,,A*76
$GPGGA,195919.003,4037.4947,N,11131.8523,W,1,07,1.1,2818.7,M,-16.3,M,,0000*5A
$GPGSA,M,3,22,18,19,09,06,21,27,,,,,,2.1,1.1,1.8*3C
$GPRMC,195919.003,A,4037.4947,N,11131.8523,W,0.10,178.66,270211,,,A*7A
$GPGGA,195920.001,4037.4947,N,11131.8524,W,1,08,1.0,2818.7,M,-16.3,M,,0000*5B
$GPGSA,M,3,22,18,19,09,06,03,21,27,,,,,2.1,1.0,1.8*3E
$GPRMC,195920.001,A,4037.4947,N,11131.8524,W,0.37,343.89,270211,,,A*7B
$GPGGA,195921.000,4037.4947,N,11131.8524,W,1,08,1.0,2818.5,M,-16.3,M,,0000*59
$GPGSA,M,3,22,18,19,09,06,03,21,27,,,,,2.1,1.0,1.8*3E
$GPRMC,195921.000,A,4037.4947,N,11131.8524,W,0.70,312.94,270211,,,A*70
$GPGGA,195921.999,4037.4949,N,11131.8526,W,1,08,1.0,2818.4,M,-16.3,M,,0000*5D
$GPGSA,M,3,22,14,18,19,09,03,21,27,,,,,1.8,1.0,1.5*3A
$GPGSV,3,1,11,22,72,014,35,14,69,213,24,18,47,070,37,19,33,282,38*73
$GPGSV,3,2,11,09,28,058,36,06,26,232,,03,25,245,28,21,20,139,31*77
$GPGSV,3,3,11,27,17,042,30,11,03,316,36,15,01,047,*4B
$GPRMC,195921.999,A,4037.4949,N,11131.8526,W,1.35,308.89,270211,,,A*72
$GPGGA,195922.998,4037.4952,N,11131.8527,W,1,06,1.2,2818.1,M,-16.3,M,,0000*5D
$GPGSA,M,3,22,18,19,09,21,27,,,,,,,2.2,1.2,1.9*3B
$GPRMC,195922.998,A,4037.4952,N,11131.8527,W,0.68,34.34,270211,,,A*48
$GPGGA,195924.001,4037.4955,N,11131.8528,W,1,07,1.1,2818.1,M,-16.3,M,,0000*58
$GPGSA,M,3,22,18,19,09,06,21,27,,,,,,2.1,1.1,1.8*3C
$GPRMC,195924.001,A,4037.4955,N,11131.8528,W,1.92,327.16,270211,,,A*7A
$GPGGA,195925.000,4037.4957,N,11131.8528,W,1,07,1.1,2818.1,M,-16.3,M,,0000*5A
$GPGSA,M,3,22,18,19,09,06,21,27,,,,,,2.1,1.1,1.8*3C
$GPRMC,195925.000,A,4037.4957,N,11131.8528,W,0.23,43.59,270211,,,A*49
$GPGGA,195925.999,4037.4957,N,11131.8527,W,1,06,1.3,2818.2,M,-16.3,M,,0000*5C
$GPGSA,M,3,22,18,09,06,21,27,,,,,,,2.3,1.3,1.9*35
$GPRMC,195925.999,A,4037.4957,N,11131.8527,W,0.52,28.68,270211,,,A*46
$GPGGA,195927.002,4037.4959,N,11131.8526,W,1,09,1.0,2817.8,M,-16.3,M,,0000*53
$GPGSA,M,3,22,14,18,19,09,06,03,21,27,,,,1.8,1.0,1.5*3C
$GPGSV,3,1,11,22,72,014,35,14,69,213,28,18,47,070,39,19,33,282,25*7D
$GPGSV,3,2,11,09,28,058,39,06,26,232,25,03,25,245,31,21,20,139,39*7F
$GPGSV,3,3,11,27,17,042,30,11,03,316,,15,01,047,29*45
$GPRMC,195927.002,A,4037.4959,N,11131.8526,W,0.65,1.61,270211,,,A*76
$GPGGA,195927.999,4037.4963,N,11131.8523,W,1,08,1.0,2817.9,M,-16.3,M,,0000*54
$GPGSA,M,3,22,14,18,19,09,06,21,27,,,,,1.8,1.0,1.5*3F
$GPRMC,195927.999,A,4037.4963,N,11131.8523,W,1.01,43.77,270211,,,A*43
$GPGGA,195928.998,4037.4965,N,11131.8522,W,1,09,1.0,2818.0,M,-16.3,M,,0000*5A
$GPGSA,M,3,22,14,18,19,09,06,03,21,27,,,,1.8,1.0,1.5*3C
$GPRMC,195928.998,A,4037.4965,N,11131.8522,W,0.70,346.76,270211,,,A*7A
$GPGGA,195930.000,4037.4968,N,11131.8523,W,1,08,1.2,2817.8,M,-16.3,M,,0000*53
$GPGSA,M,3,22,14,18,09,06,03,21,27,,,,,1.9,1.2,1.5*37
$GPRMC,195930.000,A,4037.4968,N,11131.8523,W,1.49,5.19,270211,,,A*71
$GPGGA,195931.002,4037.4968,N,11131.8519,W,1,09,1.0,2817.1,M,-16.3,M,,0000*53
$GPGSA,M,3,22,14,18,19,09,06,03,21,27,,,,1.8,1.0,1.5*3C
$GPRMC,195931.002,A,4037.4968,N,11131.8519,W,1.24,33.28,270211,,,A*47
$GPGGA,195931.999,4037.4973,N,11131.8512,W,1,08,1.0,2817.7,M,-16.3,M,,0000*5E
$GPGSA,M,3,22,14,18,19,09,06,21,27,,,,,1.8,1.0,1.5*3F
$GPGSV,3,1,11,22,72,014,33,14,69,213,29,18,47,070,38,19,33,282,34*7B
$GPGSV,3,2,11,09,28,058,38,06,26,232,35,03,25,245,,21,20,139,39*7D
$GPGSV,3,3,11,27,17,042,36,11,03,316,,15,01,047,23*49
$GPRMC,195931.999,A,4037.4973,N,11131.8512,W,2.07,52.26,270211,,,A*46
$GPGGA,195932.998,4037.4977,N,11131.8507,W,1,08,1.0,2817.8,M,-16.3,M,,0000*53
$GPGSA,M,3,22,14,18,19,09,06,21,27,,,,,1.8,1.0,1.5*3F
$GPRMC,195932.998,A,4037.4977,N,11131.8507,W,2.16,39.95,270211,,,A*41
$GPGGA,195933.999,4037.4981,N,11131.8503,W,1,08,1.0,2817.5,M,-16.3,M,,0000*53
$GPGSA,M,3,22,18,19,09,06,03,21,27,,,,,2.1,1.0,1.8*3E
$GPRMC,195933.999,A,4037.4981,N,11131.8503,W,2.05,44.40,270211,,,A*4C
$GPGGA,195934.998,4037.4985,N,11131.8498,W,1,09,1.0,2816.8,M,-16.3,M,,0000*5F
$GPGSA,M,3,22,14,18,19,09,06,03,21,27,,,,1.8,1.0,1.5*3C
$GPRMC,195934.998,A,4037.4985,N,11131.8498,W,2.28,40.21,270211,,,A*41
$GPGGA,195936.003,4037.4989,N,11131.8491,W,1,08,1.0,2817.1,M,-16.3,M,,0000*5A
$GPGSA,M,3,14,18,19,09,06,03,21,27,,,,,2.1,1.0,1.8*3B
$GPRMC,195936.003,A,4037.4989,N,11131.8491,W,2.53,28.45,270211,,,A*4D
$GPGGA,195936.997,4037.4995,N,11131.8483,W,1,08,1.0,2817.1,M,-16.3,M,,0000*50
$GPGSA,M,3,22,14,18,19,09,06,21,27,,,,,1.8,1.0,1.5*3F
$GPGSV,3,1,11,22,72,014,34,14,69,213,33,18,47,070,36,19,33,282,30*7D
$GPGSV,3,2,11,09,28,058,36,06,26,232,36,03,25,245,,21,20,139,39*70
$GPGSV,3,3,11,27,17,042,30,11,03,316,26,15,01,047,22*4A
$GPRMC,195936.997,A,4037.4995,N,11131.8483,W,1.76,45.92,270211,,,A*42
$GPGGA,195938.002,4037.4997,N,11131.8481,W,1,08,1.0,2816.4,M,-16.3,M,,0000*5F
$GPGSA,M,3,22,18,19,09,06,03,21,27,,,,,2.1,1.0,1.8*3E
$GPRMC,195938.002,A,4037.4997,N,11131.8481,W,1.11,41.57,270211,,,A*45
$GPGGA,195939.000,4037.5001,N,11131.8483,W,1,09,1.0,2815.7,M,-16.3,M,,0000*58
$GPGSA,M,3,22,14,18,19,09,06,03,21,27,,,,1.8,1.0,1.5*3C
$GPRMC,195939.000,A,4037.5001,N,11131.8483,W,1.08,30.52,270211,,,A*48
$GPGGA,195939.998,4037.5005,N,11131.8479,W,1,09,1.0,2816.0,M,-16.3,M,,0000*55
$GPGSA,M,3,22,14,18,19,09,06,03,21,27,,,,1.8,1.0,1.5*3C
$GPRMC,195939.998,A,4037.5005,N,11131.8479,W,1.16,42.43,270211,,,A*4B
$GPGGA,195941.001,4037.5009,N,11131.8477,W,1,07,1.0,2815.7,M,-16.3,M,,0000*5B
$GPGSA,M,3,18,19,09,06,03,21,27,,,,,,3.0,1.0,2.8*3D
$GPRMC,195941.001,A,4037.5009,N,11131.8477,W,1.25,46.14,270211,,,A*49
$GPGGA,195942.000,4037.5011,N,11131.8473,W,1,09,1.0,2814.6,M,-16.3,M,,0000*5A
$GPGSA,M,3,22,14,18,19,09,06,03,21,27,,,,1.8,1.0,1.5*3C
$GPGSV,3,1,11,22,72,014,25,14,69,213,27,18,47,070,36,19,33,282,24*7D
$GPGSV,3,2,11,09,28,058,35,06,26,232,30,03,25,245,34,21,20,139,30*7B
$GPGSV,3,3,11,27,17,042,30,11,03,316,29,15,01,047,*45
$GPRMC,195942.000,A,4037.5011,N,11131.8473,W,1.72,64.48,270211,,,A*4D
$GPGGA,195943.001,4037.5014,N,11131.8468,W,1,07,1.0,2814.0,M,-16.3,M,,0000*5D
$GPGSA,M,3,18,19,09,06,03,21,27,,,,,,3.0,1.0,2.8*3D
$GPRMC,195943.001,A,4037.5014,N,11131.8468,W,2.36,44.82,270211,,,A*45
$GPGGA,195944.002,4037.5017,N,11131.8461,W,1,08,1.0,2813.2,M,-16.3,M,,0000*59
$GPGSA,M,3,22,18,19,09,06,03,21,27,,,,,2.1,1.0,1.8*3E
$GPRMC,195944.002,A,4037.5017,N,11131.8461,W,2.35,54.71,270211,,,A*45
$GPGGA,195945.000,4037.5021,N,11131.8454,W,1,08,1.6,2812.0,M,-16.3,M,,0000*5C
$GPGSA,M,3,22,14,18,19,09,06,03,27,,,,,2.3,1.6,1.6*32
$GPRMC,195945.000,A,4037.5021,N,11131.8454,W,2.39,65.30,270211,,,A*4E
$GPGGA,195946.000,4037.5027,N,11131.8446,W,1,06,1.9,2812.5,M,-16.3,M,,0000*5E
$GPGSA,M,3,22,14,18,19,06,03,,,,,,,3.3,1.9,2.7*32
$GPRMC,195946.000,A,4037.5027,N,11131.8446,W,2.91,42.07,270211,,,A*4B
$GPGGA,195947.001,4037.5033,N,11131.8436,W,1,06,1.8,2812.5,M,-16.3,M,,0000*5D
$GPGSA,M,3,22,14,19,09,06,03,,,,,,,2.6,1.8,1.9*3A
$GPGSV,3,1,11,22,72,014,27,14,69,213,26,18,47,070,,19,33,282,38*76
$GPGSV,3,2,11,09,28,058,22,06,26,232,39,03,25,245,37,21,20,139,*74
$GPGSV,3,3,11,27,17,042,,11,03,316,36,15,01,047,*48
$GPRMC,195947.001,A,4037.5033,N,11131.8436,W,2.58,50.42,270211,,,A*4E
$GPGGA,195947.998,4037.5037,N,11131.8427,W,1,05,4.4,2812.5,M,-16.3,M,,0000*5A
$GPGSA,M,3,22,14,19,06,03,,,,,,,,8.0,4.4,6.7*3F
$GPRMC,195947.998,A,4037.5037,N,11131.8427,W,2.99,66.86,270211,,,A*43
$GPGGA,195949.001,4037.5037,N,11131.8418,W,1,08,1.6,2812.7,M,-16.3,M,,0000*59
$GPGSA,M,3,22,14,18,19,09,06,03,27,,,,,2.3,1.6,1.6*32
$GPRMC,195949.001,A,4037.5037,N,11131.8418,W,1.40,102.61,270211,,,A*75
$GPGGA,195950.002,4037.5035,N,11131.8415,W,1,04,2.8,2812.8,M,-16.3,M,,0000*53
$GPGSA,M,3,14,19,06,03,,,,,,,,,3.0,2.8,1.0*3E
$GPRMC,195950.002,A,4037.5035,N,11131.8415,W,0.29,23.71,270211,,,A*4C
$GPGGA,195950.998,4037.5034,N,11131.8411,W,1,08,1.6,2812.2,M,-16.3,M,,0000*57
$GPGSA,M,3,22,14,18,19,09,06,03,27,,,,,2.3,1.6,1.6*32
$GPRMC,195950.998,A,4037.5034,N,11131.8411,W,0.21,178.23,270211,,,A*73
$GPGGA,195951.999,4037.5026,N,11131.8408,W,1,05,4.4,2812.3,M,-16.3,M,,0000*57
$GPGSA,M,3,22,14,19,06,03,,,,,,,,8.0,4.4,6.7*3F
$GPGSV,3,1,11,22,72,014,20,14,69,213,35,18,47,070,,19,33,282,36*7D
$GPGSV,3,2,11,09,28,058,,06,26,232,39,03,25,245,39,21,20,139,*7A
$GPGSV,3,3,11,27,17,042,,11,03,316,32,15,01,047,*4C
$GPRMC,195951.999,A,4037.5026,N,11131.8408,W,0.59,163.45,270211,,,A*7D
$GPGGA,195953.001,4037.5028,N,11131.8405,W,1,08,1.6,2810.8,M,-16.3,M,,0000*5D
$GPGSA,M,3,22,14,18,19,09,06,03,27,,,,,2.3,1.6,1.6*32
$GPRMC,195953.001,A,4037.5028,N,11131.8405,W,0.40,77.60,270211,,,A*4F
$GPGGA,195953.997,4037.5023,N,11131.8408,W,1,07,1.7,2811.9,M,-16.3,M,,0000*53
$GPGSA,M,3,22,14,18,19,09,06,03,,,,,,2.6,1.7,1.9*3C
$GPRMC,195953.997,A,4037.5023,N,11131.8408,W,0.46,110.52,270211,,,A*78
$GPGGA,195955.005,4037.5020,N,11131.8407,W,1,07,1.8,2811.9,M,-16.3,M,,0000*54
$GPGSA,M,3,14,18,19,09,06,03,27,,,,,,2.8,1.8,2.1*33
$GPRMC,195955.005,A,4037.5020,N,11131.8407,W,0.31,96.94,270211,,,A*45
$GPGGA,195955.999,4037.5020,N,11131.8402,W,1,07,1.8,2811.7,M,-16.3,M,,0000*53
$GPGSA,M,3,14,18,19,09,06,03,27,,,,,,2.8,1.8,2.1*33
$GPRMC,195955.999,A,4037.5020,N,11131.8402,W,0.64,149.08,270211,,,A*7A
$GPGGA,195957.000,4037.5019,N,11131.8404,W,1,06,1.9,2812.1,M,-16.3,M,,0000*51
$GPGSA,M,3,22,14,18,19,06,03,,,,,,,3.3,1.9,2.7*32
$GPGSV,3,1,11,22,72,014,26,14,69,213,36,18,47,070,31,19,33,282,36*7A
$GPGSV,3,2,11,09,28,058,,06,26,232,39,03,25,245,40,21,20,139,*74
$GPGSV,3,3,11,27,17,042,,11,03,316,32,15,01,047,22*4C
$GPRMC,195957.000,A,4037.5019,N,11131.8404,W,0.33,77.74,270211,,,A*48
$GPGGA,195957.997,4037.5019,N,11131.8404,W,1,05,2.1,2811.8,M,-16.3,M,,0000*54
$GPGSA,M,3,14,18,19,06,03,,,,,,,,3.7,2.1,3.1*3A
$GPRMC,195957.997,A,4037.5019,N,11131.8404,W,0.61,154.18,270211,,,A*72
$GPGGA,195959.000,4037.5015,N,11131.8402,W,1,05,2.1,2810.4,M,-16.3,M,,0000*5A
$GPGSA,M,3,14,18,19,06,03,,,,,,,,3.7,2.1,3.1*3A
$GPRMC,195959.000,A,4037.5015,N,11131.8402,W,0.92,158.43,270211,,,A*7F
$GPGGA,200000.002,4037.5010,N,11131.8398,W,1,06,1.9,2809.8,M,-16.3,M,,0000*5F
$GPGSA,M,3,14,18,19,06,03,27,,,,,,,2.9,1.9,2.2*39
$GPRMC,200000.002,A,4037.5010,N,11131.8398,W,0.97,147.52,270211,,,A*7D
$GPGGA,200001.006,4037.5007,N,11131.8398,W,1,05,2.1,2808.3,M,-16.3,M,,0000*5E
$GPGSA,M,3,14,18,19,06,03,,,,,,,,3.7,2.1,3.1*3A
$GPRMC,200001.006,A,4037.5007,N,11131.8398,W,1.18,148.69,270211,,,A*7F
$GPGGA,200001.992,4037.5008,N,11131.8395,W,1,05,4.4,2808.9,M,-16.3,M,,0000*51
$GPGSA,M,3,22,14,19,06,03,,,,,,,,7.9,4.4,6.6*38
$GPGSV,3,1,11,22,72,014,28,14,69,213,36,18,47,070,,19,33,282,36*76
$GPGSV,3,2,11,09,28,058,,06,26,232,40,03,25,245,39,21,20,139,*74
$GPGSV,3,3,11,27,17,042,,11,03,316,34,15,01,047,*4A
$GPRMC,200001.992,A,4037.5008,N,11131.8395,W,0.88,60.02,270211,,,A*47
$GPGGA,200002.999,4037.5013,N,11131.8396,W,1,07,1.7,2807.3,M,-16.3,M,,0000*51
$GPGSA,M,3,22,14,18,19,06,03,27,,,,,,2.4,1.7,1.7*3C
$GPRMC,200002.999,A,4037.5013,N,11131.8396,W,1.01,50.71,270211,,,A*41
$GPGGA,200004.001,4037.5017,N,11131.8394,W,1,05,2.0,2806.1,M,-16.3,M,,0000*5C
$GPGSA,M,3,14,19,06,03,27,,,,,,,,3.0,2.0,2.3*33
$GPRMC,200004.001,A,4037.5017,N,11131.8394,W,0.55,76.07,270211,,,A*4C
$GPGGA,200005.003,4037.5023,N,11131.8397,W,1,04,2.8,2803.4,M,-16.3,M,,0000*52
$GPGSA,M,3,14,19,06,03,,,,,,,,,3.0,2.8,1.0*3E
$GPRMC,200005.003,A,4037.5023,N,11131.8397,W,0.73,16.07,270211,,,A*49
$GPGGA,200005.998,4037.5029,N,11131.8396,W,1,06,1.9,2803.2,M,-16.3,M,,0000*54
$GPGSA,M,3,22,14,18,19,06,03,,,,,,,3.3,1.9,2.7*32
$GPRMC,200005.998,A,4037.5029,N,11131.8396,W,0.38,40.59,270211,,,A*4E
$GPGGA,200006.999,4037.5032,N,11131.8396,W,1,05,4.4,2803.2,M,-16.3,M,,0000*57
$GPGSA,M,3,22,14,19,06,03,,,,,,,,7.9,4.4,6.6*38
$GPGSV,3,1,11,22,72,014,29,14,69,213,36,18,47,070,,19,33,282,26*76
$GPGSV,3,2,11,09,28,058,,06,26,232,39,03,25,245,38,21,20,139,*7B
$GPGSV,3,3,11,27,17,042,,11,03,316,33,15,01,047,*4D
$GPRMC,200006.999,A,4037.5032,N,11131.8396,W,0.47,175.85,270211,,,A*78
$GPGGA,200008.000,4037.5030,N,11131.8404,W,1,06,3.2,2804.0,M,-16.3,M,,0000*59
$GPGSA,M,3,22,14,18,09,06,03,,,,,,,3.7,3.2,1.9*33
$GPRMC,200008.000,A,4037.5030,N,11131.8404,W,0.24,338.69,270211,,,A*7D
$GPGGA,200008.999,4037.5033,N,11131.8405,W,1,05,3.3,2805.1,M,-16.3,M,,0000*50
$GPGSA,M,3,22,14,18,06,03,,,,,,,,4.3,3.3,2.7*35
$GPRMC,200008.999,A,4037.5033,N,11131.8405,W,0.59,59.40,270211,,,A*43
$GPGGA,200009.998,4037.5030,N,11131.8397,W,1,05,2.2,2803.9,M,-16.3,M,,0000*51
$GPGSA,M,3,22,14,18,19,03,,,,,,,,3.5,2.2,2.8*35
$GPRMC,200009.998,A,4037.5030,N,11131.8397,W,0.62,145.44,270211,,,A*7C
$GPGGA,200011.002,4037.5028,N,11131.8391,W,1,06,1.8,2803.7,M,-16.3,M,,0000*59
$GPGSA,M,3,22,14,19,09,06,03,,,,,,,2.6,1.8,1.9*3A
$GPRMC,200011.002,A,4037.5028,N,11131.8391,W,0.70,49.27,270211,,,A*4B
$GPGGA,200011.998,4037.5024,N,11131.8387,W,1,05,4.4,2805.7,M,-16.3,M,,0000*54
$GPGSA,M,3,22,14,19,06,03,,,,,,,,7.9,4.4,6.6*38
$GPGSV,3,1,11,22,72,014,29,14,69,213,36,18,47,070,,19,33,282,36*77
$GPGSV,3,2,11,09,28,058,,06,26,232,39,03,25,245,39,21,20,139,*7A
$GPGSV,3,3,11,27,17,042,,11,03,316,34,15,01,047,*4A
$GPRMC,200011.998,A,4037.5024,N,11131.8387,W,0.61,2.32,270211,,,A*71
$GPGGA,200013.003,4037.5019,N,11131.8382,W,1,04,2.8,2805.6,M,-16.3,M,,0000*5C
$GPGSA,M,3,14,19,06,03,,,,,,,,,3.0,2.8,1.0*3E
$GPRMC,200013.003,A,4037.5019,N,11131.8382,W,0.77,54.26,270211,,,A*42
$GPGGA,200013.998,4037.5021,N,11131.8377,W,1,05,2.1,2804.6,M,-16.3,M,,0000*5F
$GPGSA,M,3,14,18,19,06,03,,,,,,,,3.7,2.1,3.1*3A
$GPRMC,200013.998,A,4037.5021,N,11131.8377,W,0.96,14.01,270211,,,A*46
$GPGGA,200015.001,4037.5017,N,11131.8368,W,1,06,1.9,2801.5,M,-16.3,M,,0000*55
$GPGSA,M,3,22,14,18,19,06,03,,,,,,,3.3,1.9,2.7*32
$GPRMC,200015.001,A,4037.5017,N,11131.8368,W,0.38,354.75,270211,,,A*72
$GPGGA,200015.999,4037.5019,N,11131.8366,W,1,05,2.1,2801.9,M,-16.3,M,,0000*59
$GPGSA,M,3,14,18,19,06,03,,,,,,,,3.7,2.1,3.1*3A
$GPRMC,200015.999,A,4037.5019,N,11131.8366,W,1.02,27.39,270211,,,A*4D
$GPGGA,200017.000,4037.5022,N,11131.8373,W,1,05,2.1,2802.3,M,-16.3,M,,0000*57
$GPGSA,M,3,14,18,19,06,03,,,,,,,,3.7,2.1,3.1*3A
$GPGSV,3,1,11,22,72,014,,14,69,213,36,18,47,070,26,19,33,282,36*78
$GPGSV,3,2,11,09,28,058,,06,26,232,40,03,25,245,39,21,20,139,*74
$GPGSV,3,3,11,27,17,042,,11,03,316,31,15,01,047,*4F
$GPRMC,200017.000,A,4037.5022,N,11131.8373,W,0.12,43.26,270211,,,A*46
$GPGGA,200018.001,4037.5017,N,11131.8368,W,1,06,1.9,2803.0,M,-16.3,M,,0000*5F
$GPGSA,M,3,22,14,19,06,03,27,,,,,,,2.5,1.9,1.7*3A
$GPRMC,200018.001,A,4037.5017,N,11131.8368,W,0.44,135.92,270211,,,A*78
$GPGGA,200019.002,4037.5021,N,11131.8372,W,1,05,2.1,2803.5,M,-16.3,M,,0000*5E
$GPGSA,M,3,14,18,19,06,03,,,,,,,,3.7,2.1,3.1*3A
$GPRMC,200019.002,A,4037.5021,N,11131.8372,W,0.05,78.45,270211,,,A*43
$GPGGA,200019.997,4037.5025,N,11131.8370,W,1,05,2.1,2802.4,M,-16.3,M,,0000*5D
$GPGSA,M,3,14,18,19,06,03,,,,,,,,3.7,2.1,3.1*3A
$GPRMC,200019.997,A,4037.5025,N,11131.8370,W,1.15,351.00,270211,,,A*79
$GPGGA,200021.003,4037.5026,N,11131.8369,W,1,05,2.1,2801.4,M,-16.3,M,,0000*5A
$GPGSA,M,3,14,18,19,06,03,,,,,,,,3.7,2.1,3.1*3A
$GPRMC,200021.003,A,4037.5026,N,11131.8369,W,0.72,293.06,270211,,,A*74
$GPGGA,200021.997,4037.5024,N,11131.8372,W,1,06,1.9,2800.2,M,-16.3,M,,0000*59
$GPGSA,M,3,22,14,18,19,06,03,,,,,,,3.3,1.9,2.7*32
$GPGSV,3,1,11,22,72,014,31,14,69,213,36,18,47,070,25,19,33,282,35*7A
$GPGSV,3,2,11,09,28,058,,06,26,232,39,03,25,245,39,21,20,139,*7A
$GPGSV,3,3,11,27,17,042,,11,03,316,34,15,01,047,*4A
$GPRMC,200021.997,A,4037.5024,N,11131.8372,W,0.31,162.17,270211,,,A*72
$GPGGA,200022.999,4037.5021,N,11131.8372,W,1,05,4.3,2799.3,M,-16.3,M,,0000*53
$GPGSA,M,3,22,14,19,06,03,,,,,,,,7.8,4.3,6.5*3D
$GPRMC,200022.999,A,4037.5021,N,11131.8372,W,0.46,335.60,270211,,,A*7A
$GPGGA,200023.999,4037.5018,N,11131.8370,W,1,05,4.3,2798.9,M,-16.3,M,,0000*51
$GPGSA,M,3,22,14,19,06,03,,,,,,,,7.8,4.3,6.5*3D
$GPRMC,200023.999,A,4037.5018,N,11131.8370,W,1.52,340.57,270211,,,A*71
$GPGGA,200025.000,4037.5017,N,11131.8371,W,1,08,1.6,2800.3,M,-16.3,M,,0000*59
$GPGSA,M,3,22,14,18,19,09,06,03,27,,,,,2.3,1.6,1.6*32
$GPRMC,200025.000,A,4037.5017,N,11131.8371,W,0.61,336.13,270211,,,A*70
$GPGGA,200025.999,4037.5008,N,11131.8367,W,1,05,4.3,2797.8,M,-16.3,M,,0000*5E
$GPGSA,M,3,22,14,19,06,03,,,,,,,,7.8,4.3,6.5*3D
$GPRMC,200025.999,A,4037.5008,N,11131.8367,W,1.16,185.09,270211,,,A*70
$GPGGA,200026.999,4037.4999,N,11131.8363,W,1,07,1.7,2797.5,M,-16.3,M,,0000*57
$GPGSA,M,3,22,14,18,19,06,03,27,,,,,,2.4,1.7,1.7*3C
$GPGSV,3,1,11,22,72,014,23,14,69,213,32,18,47,070,29,19,33,282,35*71
$GPGSV,3,2,11,09,28,058,,06,26,232,39,03,25,245,38,21,20,139,*7B
$GPGSV,3,3,11,27,17,042,26,11,03,316,34,15,01,047,*4E
$GPRMC,200026.999,A,4037.4999,N,11131.8363,W,1.72,191.42,270211,,,A*7F
$GPGGA,200028.002,4037.4995,N,11131.8361,W,1,07,1.7,2796.4,M,-16.3,M,,0000*5C
$GPGSA,M,3,22,14,18,19,09,06,03,,,,,,2.6,1.7,1.9*3C
$GPRMC,200028.002,A,4037.4995,N,11131.8361,W,0.49,317.20,270211,,,A*75
$GPGGA,200028.996,4037.5004,N,11131.8358,W,1,07,1.7,2795.4,M,-16.3,M,,0000*51
$GPGSA,M,3,22,14,18,19,09,06,03,,,,,,2.6,1.7,1.9*3C
$GPRMC,200028.996,A,4037.5004,N,11131.8358,W,0.58,263.68,270211,,,A*75
$GPGGA,200030.000,4037.5002,N,11131.8362,W,1,07,1.7,2795.8,M,-16.3,M,,0000*5D
$GPGSA,M,3,22,14,18,19,06,03,27,,,,,,2.4,1.7,1.7*3C
$GPRMC,200030.000,A,4037.5002,N,11131.8362,W,0.82,184.98,270211,,,A*77
$GPGGA,200031.005,4037.4994,N,11131.8351,W,1,07,1.7,2794.8,M,-16.3,M,,0000*5F
$GPGSA,M,3,22,14,18,19,06,03,27,,,,,,2.4,1.7,1.7*3C
$GPRMC,200031.005,A,4037.4994,N,11131.8351,W,0.45,175.40,270211,,,A*74
$GPGGA,200031.998,4037.4996,N,11131.8364,W,1,08,1.6,2798.5,M,-16.3,M,,0000*59
$GPGSA,M,3,22,14,18,19,09,06,03,27,,,,,2.3,1.6,1.6*32
$GPGSV,3,1,11,22,72,014,33,14,69,213,30,18,47,070,31,19,33,282,36*78
$GPGSV,3,2,11,09,28,058,33,06,26,232,36,03,25,245,35,21,20,139,*79
$GPGSV,3,3,11,27,17,042,32,11,03,316,31,15,01,047,*4E
$GPRMC,200031.998,A,4037.4996,N,11131.8364,W,1.63,208.05,270211,,,A*70
$GPGGA,200032.997,4037.4995,N,11131.8367,W,1,05,4.3,2798.9,M,-16.3,M,,0000*54
$GPGSA,M,3,22,14,19,06,03,,,,,,,,7.8,4.3,6.5*3D
$GPRMC,200032.997,A,4037.4995,N,11131.8367,W,1.03,158.82,270211,,,A*73
$GPGGA,200034.001,4037.4987,N,11131.8365,W,1,05,2.3,2800.5,M,-16.3,M,,0000*51
$GPGSA,M,3,14,19,09,03,27,,,,,,,,3.6,2.3,2.7*3D
$GPRMC,200034.001,A,4037.4987,N,11131.8365,W,1.31,113.51,270211,,,A*72
$GPGGA,200035.000,4037.4987,N,11131.8361,W,1,07,1.7,2800.1,M,-16.3,M,,0000*54
$GPGSA,M,3,22,14,18,19,09,06,03,,,,,,2.6,1.7,1.9*3C
$GPRMC,200035.000,A,4037.4987,N,11131.8361,W,0.51,125.79,270211,,,A*7E
$GPGGA,200036.004,4037.4985,N,11131.8363,W,1,08,1.6,2801.1,M,-16.3,M,,0000*5C
$GPGSA,M,3,22,14,18,19,09,06,03,27,,,,,2.3,1.6,1.6*32
$GPRMC,200036.004,A,4037.4985,N,11131.8363,W,0.29,9.92,270211,,,A*7C
$GPGGA,200036.998,4037.4992,N,11131.8376,W,1,08,1.6,2802.2,M,-16.3,M,,0000*52
$GPGSA,M,3,22,14,18,19,09,06,03,27,,,,,2.3,1.6,1.6*32
$GPGSV,3,1,11,22,72,014,35,14,69,213,35,18,47,070,30,19,33,282,39*75
$GPGSV,3,2,11,09,28,058,29,06,26,232,38,03,25,245,39,21,20,139,*70
$GPGSV,3,3,11,27,17,042,28,11,03,316,36,15,01,047,*42
$GPRMC,200036.998,A,4037.4992,N,11131.8376,W,2.65,280.19,270211,,,A*78
$GPGGA,200037.998,4037.4991,N,11131.8378,W,1,07,1.9,2802.3,M,-16.3,M,,0000*5F
$GPGSA,M,3,22,14,18,19,09,03,27,,,,,,2.6,1.9,1.8*30
$GPRMC,200037.998,A,4037.4991,N,11131.8378,W,0.87,281.38,270211,,,A*78
$GPGGA,200039.001,4037.4998,N,11131.8395,W,1,05,2.0,2804.4,M,-16.3,M,,0000*5B
$GPGSA,M,3,18,19,09,06,03,,,,,,,,5.0,2.0,4.6*36
$GPRMC,200039.001,A,4037.4998,N,11131.8395,W,2.04,253.53,270211,,,A*7E
$GPGGA,200040.003,4037.4991,N,11131.8392,W,1,06,1.9,2804.8,M,-16.3,M,,0000*5C
$GPGSA,M,3,14,19,09,06,03,27,,,,,,,2.9,1.9,2.3*38
$GPRMC,200040.003,A,4037.4991,N,11131.8392,W,1.05,264.67,270211,,,A*7D
$GPGGA,200041.000,4037.4984,N,11131.8386,W,1,06,1.9,2804.3,M,-16.3,M,,0000*54
$GPGSA,M,3,14,19,09,06,03,27,,,,,,,2.9,1.9,2.3*38
$GPRMC,200041.000,A,4037.4984,N,11131.8386,W,1.22,261.53,270211,,,A*79
$GPGGA,200042.000,4037.4978,N,11131.8386,W,1,06,1.9,2806.1,M,-16.3,M,,0000*54
$GPGSA,M,3,14,19,09,06,03,27,,,,,,,2.9,1.9,2.3*38
$GPGSV,3,1,12,22,72,016,,14,70,214,31,18,47,071,,19,33,282,46*73
$GPGSV,3,2,12,09,27,057,28,06,26,232,43,03,25,244,42,21,19,139,*79
$GPGSV,3,3,12,27,16,041,25,11,03,316,35,15,00,048,,31,00,180,*78
$GPRMC,200042.000,A,4037.4978,N,11131.8386,W,1.22,253.26,270211,,,A*7A
$GPGGA,200043.000,4037.4988,N,11131.8416,W,1,08,1.0,2808.9,M,-16.3,M,,0000*55
$GPGSA,M,3,14,19,09,06,03,27,21,22,,,,,1.8,1.0,1.5*35
$GPRMC,200043.000,A,4037.4988,N,11131.8416,W,1.79,251.58,270211,,,A*7F
$GPGGA,200044.000,4037.4995,N,11131.8437,W,1,09,1.0,2811.4,M,-16.3,M,,0000*59
$GPGSA,M,3,14,19,09,06,03,27,21,22,18,,,,1.8,1.0,1.4*3D
$GPRMC,200044.000,A,4037.4995,N,11131.8437,W,1.93,243.11,270211,,,A*7D
$GPGGA,200045.000,4037.4997,N,11131.8450,W,1,08,1.0,2811.4,M,-16.3,M,,0000*5A
$GPGSA,M,3,14,19,09,06,03,27,21,22,,,,,1.8,1.0,1.5*35
$GPRMC,200045.000,A,4037.4997,N,11131.8450,W,1.19,247.00,270211,,,A*79
$GPGGA,200046.000,4037.5015,N,11131.8474,W,1,09,1.0,2813.5,M,-16.3,M,,0000*5F
$GPGSA,M,3,14,19,09,06,03,27,21,22,18,,,,1.8,1.0,1.4*3D
$GPRMC,200046.000,A,4037.5015,N,11131.8474,W,0.98,284.13,270211,,,A*7B
$GPGGA,200047.000,4037.5020,N,11131.8480,W,1,09,1.0,2813.6,M,-16.3,M,,0000*50
$GPGSA,M,3,14,19,09,06,03,27,21,22,18,,,,1.8,1.0,1.4*3D
$GPGSV,3,1,12,22,72,016,29,14,70,214,40,18,47,071,30,19,33,282,40*7B
$GPGSV,3,2,12,09,27,057,29,06,26,232,43,03,25,244,44,21,19,139,29*75
$GPGSV,3,3,12,27,16,041,28,11,03,316,35,15,00,048,22,31,00,180,*75
$GPRMC,200047.000,A,4037.5020,N,11131.8480,W,0.08,243.33,270211,,,A*77
$GPGGA,200048.000,4037.5018,N,11131.8489,W,1,09,1.0,2813.8,M,-16.3,M,,0000*53
$GPGSA,M,3,14,19,09,06,03,27,21,22,18,,,,1.8,1.0,1.4*3D
$GPRMC,200048.000,A,4037.5018,N,11131.8489,W,0.25,211.94,270211,,,A*7F
$GPGGA,200049.000,4037.5017,N,11131.8493,W,1,09,1.0,2813.3,M,-16.3,M,,0000*5D
$GPGSA,M,3,14,19,09,06,03,27,21,22,18,,,,1.8,1.0,1.4*3D
$GPRMC,200049.000,A,4037.5017,N,11131.8493,W,0.03,175.32,270211,,,A*73
$GPGGA,200050.000,4037.5019,N,11131.8495,W,1,08,1.2,2813.1,M,-16.3,M,,0000*5C
$GPGSA,M,3,14,19,09,06,03,21,22,18,,,,,2.1,1.2,1.7*33
$GPRMC,200050.000,A,4037.5019,N,11131.8495,W,0.60,299.25,270211,,,A*71
$GPGGA,200051.000,4037.5021,N,11131.8498,W,1,09,1.0,2813.4,M,-16.3,M,,0000*5D
$GPGSA,M,3,14,19,09,06,03,27,21,22,18,,,,1.8,1.0,1.4*3D
$GPRMC,200051.000,A,4037.5021,N,11131.8498,W,1.49,264.26,270211,,,A*7D
$GPGGA,200052.000,4037.5028,N,11131.8514,W,1,09,1.0,2815.0,M,-16.3,M,,0000*50
$GPGSA,M,3,14,19,09,06,03,27,21,22,18,,,,1.8,1.0,1.4*3D
$GPGSV,3,1,12,22,72,016,33,14,70,214,36,18,47,071,28,19,33,282,43*7B
$GPGSV,3,2,12,09,27,057,32,06,26,232,44,03,25,244,45,21,19,139,22*72
$GPGSV,3,3,12,27,16,041,31,11,03,316,41,15,00,048,22,31,00,180,*7E
$GPRMC,200052.000,A,4037.5028,N,11131.8514,W,1.82,229.47,270211,,,A*7B
$GPGGA,200053.000,4037.5022,N,11131.8520,W,1,09,1.0,2815.0,M,-16.3,M,,0000*5C
$GPGSA,M,3,14,19,09,06,03,27,21,22,18,,,,1.8,1.0,1.4*3D
$GPRMC,200053.000,A,4037.5022,N,11131.8520,W,1.66,207.30,270211,,,A*71
$GPGGA,200054.000,4037.5022,N,11131.8526,W,1,09,1.0,2815.8,M,-16.3,M,,0000*55
$GPGSA,M,3,14,19,09,06,03,27,21,22,18,,,,1.8,1.0,1.4*3D
$GPRMC,200054.000,A,4037.5022,N,11131.8526,W,1.37,222.48,270211,,,A*7C
$GPGGA,200055.000,4037.5019,N,11131.8532,W,1,09,1.0,2816.1,M,-16.3,M,,0000*53
$GPGSA,M,3,14,19,09,06,03,27,21,22,18,,,,1.8,1.0,1.4*3D
$GPRMC,200055.000,A,4037.5019,N,11131.8532,W,1.73,216.22,270211,,,A*7B
$GPGGA,200056.000,4037.5016,N,11131.8538,W,1,09,1.0,2816.4,M,-16.3,M,,0000*50
$GPGSA,M,3,14,19,09,06,03,27,21,22,18,,,,1.8,1.0,1.4*3D
$GPRMC,200056.000,A,4037.5016,N,11131.8538,W,1.86,214.51,270211,,,A*71
$GPGGA,200057.000,4037.5012,N,11131.8543,W,1,09,1.0,2816.4,M,-16.3,M,,0000*59
$GPGSA,M,3,14,19,09,06,03,27,21,22,18,,,,1.8,1.0,1.4*3D
$GPGSV,3,1,12,22,72,016,31,14,70,214,37,18,47,071,28,19,33,282,43*78
$GPGSV,3,2,12,09,27,057,27,06,26,232,45,03,25,244,44,21,19,139,35*70
$GPGSV,3,3,12,27,16,041,28,11,03,316,40,15,00,048,22,31,00,180,*77
$GPRMC,200057.000,A,4037.5012,N,11131.8543,W,1.88,207.84,270211,,,A*7C
$GPGGA,200058.000,4037.5008,N,11131.8548,W,1,09,1.0,2816.4,M,-16.3,M,,0000*56
$GPGSA,M,3,14,19,09,06,03,27,21,22,18,,,,1.8,1.0,1.4*3D
$GPRMC,200058.000,A,4037.5008,N,11131.8548,W,2.06,227.59,270211,,,A*74
$GPGGA,200059.000,4037.5003,N,11131.8554,W,1,08,1.0,2816.4,M,-16.3,M,,0000*50
$GPGSA,M,3,14,19,09,06,03,27,21,22,,,,,1.8,1.0,1.5*35
$GPRMC,200059.000,A,4037.5003,N,11131.8554,W,2.07,215.67,270211,,,A*7E
$GPGGA,200100.000,4037.4998,N,11131.8557,W,1,07,1.1,2816.4,M,-16.3,M,,0000*5A
$GPGSA,M,3,14,19,06,03,27,21,22,,,,,,1.9,1.1,1.5*3C
$GPRMC,200100.000,A,4037.4998,N,11131.8557,W,1.88,193.02,270211,,,A*70
$GPGGA,200101.000,4037.4994,N,11131.8560,W,1,09,1.0,2815.9,M,-16.3,M,,0000*52
$GPGSA,M,3,14,19,06,03,27,21,22,18,09,,,,1.8,1.0,1.4*3D
$GPRMC,200101.000,A,4037.4994,N,11131.8560,W,1.87,216.97,270211,,,A*74
$GPGGA,200102.000,4037.4990,N,11131.8564,W,1,09,1.0,2815.7,M,-16.3,M,,0000*5F
$GPGSA,M,3,14,19,06,03,27,21,22,18,09,,,,1.8,1.0,1.4*3D
$GPGSV,3,1,12,22,72,016,31,14,70,214,37,18,47,071,29,19,33,282,40*7A
$GPGSV,3,2,12,09,27,057,29,06,26,232,44,03,25,244,43,21,19,139,39*74
$GPGSV,3,3,12,27,16,041,28,11,03,316,,15,00,048,21,31,00,180,*70
$GPRMC,200102.000,A,4037.4990,N,11131.8564,W,1.93,203.45,270211,,,A*79
$GPGGA,200103.000,4037.4985,N,11131.8566,W,1,09,1.0,2815.7,M,-16.3,M,,0000*58
$GPGSA,M,3,14,19,06,03,27,21,22,18,09,,,,1.8,1.0,1.4*3D
$GPRMC,200103.000,A,4037.4985,N,11131.8566,W,1.74,192.41,270211,,,A*78
$GPGGA,200104.000,4037.4980,N,11131.8568,W,1,09,1.0,2815.3,M,-16.3,M,,0000*50
$GPGSA,M,3,14,19,06,03,27,21,22,18,09,,,,1.8,1.0,1.4*3D
$GPRMC,200104.000,A,4037.4980,N,11131.8568,W,1.95,194.91,270211,,,A*70
$GPGGA,200105.003,4037.4975,N,11131.8573,W,1,08,1.0,2814.9,M,-16.3,M,,0000*58
$GPGSA,M,3,22,14,18,19,06,03,21,27,,,,,1.8,1.0,1.5*35
$GPRMC,200105.003,A,4037.4975,N,11131.8573,W,2.84,226.02,270211,,,A*71
$GPGGA,200105.999,4037.4972,N,11131.8576,W,1,09,1.0,2814.8,M,-16.3,M,,0000*50
$GPGSA,M,3,22,14,18,19,09,06,03,21,27,,,,1.8,1.0,1.4*3D
$GPRMC,200105.999,A,4037.4972,N,11131.8576,W,0.24,179.67,270211,,,A*7B
$GPGGA,200106.999,4037.4972,N,11131.8575,W,1,06,1.3,2815.1,M,-16.3,M,,0000*54
$GPGSA,M,3,14,18,09,06,21,27,,,,,,,2.3,1.3,1.9*30
$GPGSV,3,1,12,22,72,016,,14,70,214,29,18,47,071,36,19,33,281,*7E
$GPGSV,3,2,12,09,27,057,39,06,26,231,32,03,24,244,,21,19,139,39*71
$GPGSV,3,3,12,27,16,041,35,11,03,316,21,15,00,048,29,31,00,180,*77
$GPRMC,200106.999,A,4037.4972,N,11131.8575,W,1.07,69.70,270211,,,A*4D
$GPGGA,200108.000,4037.4972,N,11131.8568,W,1,08,1.2,2814.7,M,-16.3,M,,0000*57
$GPGSA,M,3,22,14,18,09,06,03,21,27,,,,,1.9,1.2,1.5*37
$GPRMC,200108.000,A,4037.4972,N,11131.8568,W,1.92,83.19,270211,,,A*41
$GPGGA,200109.001,4037.4974,N,11131.8559,W,1,08,1.2,2814.6,M,-16.3,M,,0000*52
$GPGSA,M,3,22,14,18,19,09,06,03,21,,,,,2.1,1.2,1.7*33
$GPRMC,200109.001,A,4037.4974,N,11131.8559,W,2.26,80.88,270211,,,A*42
$GPGGA,200109.999,4037.4974,N,11131.8550,W,1,07,1.0,2814.5,M,-16.3,M,,0000*5D
$GPGSA,M,3,18,19,09,06,03,21,27,,,,,,3.0,1.0,2.8*3D
$GPRMC,200109.999,A,4037.4974,N,11131.8550,W,2.48,100.69,270211,,,A*7D
$GPGGA,200111.000,4037.4971,N,11131.8541,W,1,09,1.0,2814.3,M,-16.3,M,,0000*50
$GPGSA,M,3,22,14,18,19,09,06,03,21,27,,,,1.8,1.0,1.4*3D
$GPRMC,200111.000,A,4037.4971,N,11131.8541,W,3.43,117.19,270211,,,A*73
$GPGGA,200112.001,4037.4969,N,11131.8533,W,1,07,1.3,2814.5,M,-16.3,M,,0000*55
$GPGSA,M,3,22,14,18,09,06,21,27,,,,,,2.1,1.3,1.6*3D
$GPGSV,3,1,12,22,72,016,21,14,70,214,33,18,47,071,38,19,33,281,*78
$GPGSV,3,2,12,09,27,057,36,06,26,231,35,03,24,244,,21,19,139,39*79
$GPGSV,3,3,12,27,16,041,26,11,03,316,25,15,00,048,27,31,00,180,*7F
$GPRMC,200112.001,A,4037.4969,N,11131.8533,W,1.39,87.98,270211,,,A*43
$GPGGA,200113.002,4037.4968,N,11131.8529,W,1,09,1.0,2814.2,M,-16.3,M,,0000*57
$GPGSA,M,3,22,14,18,19,09,06,03,21,27,,,,1.8,1.0,1.4*3D
$GPRMC,200113.002,A,4037.4968,N,11131.8529,W,1.11,136.26,270211,,,A*7F
$GPGGA,200114.000,4037.4965,N,11131.8524,W,1,09,1.0,2814.0,M,-16.3,M,,0000*50
$GPGSA,M,3,22,14,18,19,09,06,03,21,27,,,,1.8,1.0,1.4*3D
$GPRMC,200114.000,A,4037.4965,N,11131.8524,W,2.55,125.27,270211,,,A*7A
$GPGGA,200115.000,4037.4960,N,11131.8514,W,1,09,1.0,2813.9,M,-16.3,M,,0000*59
$GPGSA,M,3,22,14,18,19,09,06,03,21,27,,,,1.8,1.0,1.4*3D
$GPRMC,200115.000,A,4037.4960,N,11131.8514,W,4.27,115.03,270211,,,A*7B
$GPGGA,200116.000,4037.4955,N,11131.8503,W,1,09,1.0,2813.4,M,-16.3,M,,0000*57
$GPGSA,M,3,22,14,18,19,09,06,03,21,27,,,,1.7,1.0,1.4*32
$GPRMC,200116.000,A,4037.4955,N,11131.8503,W,3.13,130.36,270211,,,A*79
$GPGGA,200116.997,4037.4952,N,11131.8494,W,1,06,1.5,2813.3,M,-16.3,M,,0000*55
$GPGSA,M,3,14,18,19,06,03,21,,,,,,,2.8,1.5,2.3*33
$GPGSV,3,1,12,22,72,016,,14,70,214,34,18,47,071,37,19,33,281,33*73
$GPGSV,3,2,12,09,27,057,,06,26,231,36,03,24,244,34,21,19,139,39*78
$GPGSV,3,3,12,27,16,041,,11,03,316,,15,00,048,,31,00,180,21*7A
$GPRMC,200116.997,A,4037.4952,N,11131.8494,W,2.68,102.47,270211,,,A*7C
$GPGGA,200118.002,4037.4950,N,11131.8485,W,1,07,1.2,2813.4,M,-16.3,M,,0000*5D
$GPGSA,M,3,14,18,19,09,06,03,21,,,,,,2.3,1.2,2.0*35
$GPRMC,200118.002,A,4037.4950,N,11131.8485,W,2.69,110.18,270211,,,A*7D
$GPGGA,200118.999,4037.4945,N,11131.8474,W,1,07,1.2,2813.3,M,-16.3,M,,0000*5B
$GPGSA,M,3,14,18,19,09,06,03,21,,,,,,2.3,1.2,2.0*35
$GPRMC,200118.999,A,4037.4945,N,11131.8474,W,4.48,123.94,270211,,,A*7D
$GPGGA,200120.001,4037.4942,N,11131.8463,W,1,08,1.2,2812.9,M,-16.3,M,,0000*5D
$GPGSA,M,3,22,14,18,19,09,06,03,21,,,,,2.1,1.2,1.7*33
$GPRMC,200120.001,A,4037.4942,N,11131.8463,W,2.40,106.12,270211,,,A*78
$GPGGA,200120.998,4037.4942,N,11131.8455,W,1,09,1.0,2812.7,M,-16.3,M,,0000*5C
$GPGSA,M,3,22,14,18,19,09,06,03,21,27,,,,1.7,1.0,1.4*32
$GPRMC,200120.998,A,4037.4942,N,11131.8455,W,2.23,96.39,270211,,,A*40
$GPGGA,200122.001,4037.4944,N,11131.8447,W,1,09,1.0,2812.5,M,-16.3,M,,0000*50
$GPGSA,M,3,22,14,18,19,09,06,03,21,27,,,,1.7,1.0,1.4*32
$GPGSV,3,1,12,22,72,016,32,14,70,214,34,18,47,071,38,19,33,281,32*7C
$GPGSV,3,2,12,09,27,057,39,06,26,231,35,03,24,244,32,21,19,139,39*77
$GPGSV,3,3,12,27,16,041,30,11,03,316,,15,00,048,,31,00,180,*7A
$GPRMC,200122.001,A,4037.4944,N,11131.8447,W,1.60,99.21,270211,,,A*4C
$GPGGA,200122.998,4037.4943,N,11131.8440,W,1,09,1.0,2812.6,M,-16.3,M,,0000*5A
$GPGSA,M,3,22,14,18,19,09,06,03,21,27,,,,1.7,1.0,1.4*32
$GPRMC,200122.998,A,4037.4943,N,11131.8440,W,2.89,85.07,270211,,,A*48
$GPGGA,200124.002,4037.4944,N,11131.8432,W,1,09,1.0,2811.7,M,-16.3,M,,0000*56
$GPGSA,M,3,22,14,18,19,09,06,03,21,27,,,,1.7,1.0,1.4*32
$GPRMC,200124.002,A,4037.4944,N,11131.8432,W,2.06,85.99,270211,,,A*46
$GPGGA,200125.001,4037.4942,N,11131.8427,W,1,08,1.0,2812.2,M,-16.3,M,,0000*51
$GPGSA,M,3,14,18,19,09,06,03,21,27,,,,,2.0,1.0,1.8*3A
$GPRMC,200125.001,A,4037.4942,N,11131.8427,W,2.17,93.18,270211,,,A*48
$GPGGA,200125.999,4037.4939,N,11131.8415,W,1,09,1.0,2812.8,M,-16.3,M,,0000*5F
$GPGSA,M,3,22,14,18,19,09,06,03,21,27,,,,1.7,1.0,1.4*32
$GPRMC,200125.999,A,4037.4939,N,11131.8415,W,3.38,117.80,270211,,,A*7D
$GPGGA,200127.002,4037.4939,N,11131.8404,W,1,07,1.2,2812.0,M,-16.3,M,,0000*52
$GPGSA,M,3,22,14,18,19,09,06,21,,,,,,2.2,1.2,1.8*3C
$GPGSV,3,1,12,22,72,016,28,14,70,214,29,18,47,071,37,19,33,281,31*77
$GPGSV,3,2,12,09,27,057,38,06,26,231,32,03,24,244,,21,19,139,38*71
$GPGSV,3,3,12,27,16,041,,11,03,316,,15,00,048,34,31,00,180,*7E
$GPRMC,200127.002,A,4037.4939,N,11131.8404,W,2.55,98.57,270211,,,A*42
$GPGGA,200127.997,4037.4939,N,11131.8397,W,1,09,1.0,2811.4,M,-16.3,M,,0000*51
$GPGSA,M,3,22,14,18,19,09,06,03,21,27,,,,1.7,1.0,1.4*32
$GPRMC,200127.997,A,4037.4939,N,11131.8397,W,0.87,102.65,270211,,,A*74
$GPGGA,200129.002,4037.4939,N,11131.8391,W,1,08,1.0,2811.8,M,-16.3,M,,0000*51
$GPGSA,M,3,22,14,18,19,09,06,21,27,,,,,1.8,1.0,1.5*3F
$GPRMC,200129.002,A,4037.4939,N,11131.8391,W,2.35,73.94,270211,,,A*4B
$GPGGA,200129.999,4037.4941,N,11131.8389,W,1,08,1.0,2812.0,M,-16.3,M,,0000*57
$GPGSA,M,3,22,14,18,19,09,03,21,27,,,,,1.8,1.0,1.5*3A
$GPRMC,200129.999,A,4037.4941,N,11131.8389,W,1.18,3.43,270211,,,A*77
$GPGGA,200130.998,4037.4938,N,11131.8388,W,1,09,1.0,2812.4,M,-16.3,M,,0000*54
$GPGSA,M,3,22,14,18,19,09,06,03,21,27,,,,1.7,1.0,1.4*32
$GPRMC,200130.998,A,4037.4938,N,11131.8388,W,1.24,177.24,270211,,,A*7D
$GPGGA,200132.002,4037.4935,N,11131.8385,W,1,08,1.0,2812.4,M,-16.3,M,,0000*5D
$GPGSA,M,3,22,14,18,19,09,03,21,27,,,,,1.8,1.0,1.5*3A
$GPGSV,3,1,12,22,72,016,36,14,70,214,35,18,47,071,32,19,33,281,33*72
$GPGSV,3,2,12,09,27,057,33,06,26,231,,03,24,244,30,21,19,139,30*70
$GPGSV,3,3,12,27,16,041,29,11,03,316,30,15,00,048,34,31,00,180,*76
$GPRMC,200132.002,A,4037.4935,N,11131.8385,W,0.77,171.79,270211,,,A*7C
$GPGGA,200132.998,4037.4933,N,11131.8380,W,1,09,1.0,2812.0,M,-16.3,M,,0000*51
$GPGSA,M,3,22,14,18,19,09,06,03,21,27,,,,1.7,1.0,1.4*32
$GPRMC,200132.998,A,4037.4933,N,11131.8380,W,1.21,116.80,270211,,,A*70
$GPGGA,200133.999,4037.4928,N,11131.8375,W,1,07,1.2,2811.3,M,-16.3,M,,0000*5D
$GPGSA,M,3,22,14,19,09,06,03,21,,,,,,2.1,1.2,1.8*35
$GPRMC,200133.999,A,4037.4928,N,11131.8375,W,1.51,150.55,270211,,,A*7D
$GPGGA,200135.002,4037.4925,N,11131.8371,W,1,06,2.4,2811.6,M,-16.3,M,,0000*58
$GPGSA,M,3,22,14,18,09,21,27,,,,,,,3.5,2.4,2.6*39
$GPRMC,200135.002,A,4037.4925,N,11131.8371,W,1.18,87.48,270211,,,A*43
$GPGGA,200136.000,4037.4928,N,11131.8373,W,1,07,1.2,2810.7,M,-16.3,M,,0000*52
$GPGSA,M,3,14,18,19,09,06,03,21,,,,,,2.3,1.2,2.0*35
$GPRMC,200136.000,A,4037.4928,N,11131.8373,W,0.24,48.01,270211,,,A*4D
$GPGGA,200136.998,4037.4932,N,11131.8373,W,1,08,1.0,2810.2,M,-16.3,M,,0000*59
$GPGSA,M,3,14,18,19,09,06,03,21,27,,,,,2.0,1.0,1.7*35
$GPGSV,3,1,12,22,72,016,,14,70,214,33,18,47,071,30,19,33,281,36*76
$GPGSV,3,2,12,09,27,057,31,06,26,231,38,03,24,244,39,21,19,139,36*76
$GPGSV,3,3,12,27,16,041,27,11,03,316,,15,00,048,,31,00,180,*7C
$GPRMC,200136.998,A,4037.4932,N,11131.8373,W,0.91,147.13,270211,,,A*7D
$GPGGA,200138.002,4037.4930,N,11131.8374,W,1,09,1.0,2809.5,M,-16.3,M,,0000*56
$GPGSA,M,3,22,14,18,19,09,06,03,21,27,,,,1.7,1.0,1.4*32
$GPRMC,200138.002,A,4037.4930,N,11131.8374,W,0.14,231.07,270211,,,A*76
$GPGGA,200138.998,4037.4929,N,11131.8370,W,1,09,1.0,2810.2,M,-16.3,M,,0000*5F
$GPGSA,M,3,22,14,18,19,09,06,03,21,27,,,,1.7,1.0,1.4*32
$GPRMC,200138.998,A,4037.4929,N,11131.8370,W,0.42,143.33,270211,,,A*72
$GPGGA,200140.001,4037.4928,N,11131.8369,W,1,08,1.0,2810.4,M,-16.3,M,,0000*57
$GPGSA,M,3,22,14,18,19,09,03,21,27,,,,,1.8,1.0,1.5*3A
$GPRMC,200140.001,A,4037.4928,N,11131.8369,W,0.12,25.57,270211,,,A*4B
$GPGGA,200140.998,4037.4927,N,11131.8370,W,1,07,1.1,2811.2,M,-16.3,M,,0000*50
