$GPGGA,183336.001,1828.4227,S,07019.0225,W,1,10,0.9,-3.2,M,34.7,M,,0000*70
$GPGSA,M,3,30,18,22,16,21,06,03,31,29,25,,,1.5,0.9,1.2*35
$GPRMC,183336.001,A,1828.4227,S,07019.0225,W,0.37,157.96,300411,,,A*69
$GPGGA,183337.000,1828.4227,S,07019.0226,W,1,10,0.9,-3.9,M,34.7,M,,0000*78
$GPGSA,M,3,30,18,22,16,21,06,03,31,29,25,,,1.5,0.9,1.2*35
$GPRMC,183337.000,A,1828.4227,S,07019.0226,W,0.03,7.31,300411,,,A*64
$GPGGA,183338.000,1828.4228,S,07019.0230,W,1,10,0.9,-4.4,M,34.7,M,,0000*75
$GPGSA,M,3,30,18,22,16,21,06,03,31,29,25,,,1.5,0.9,1.2*35
$GPGSV,3,1,12,30,69,249,41,18,63,099,37,22,62,009,34,16,48,222,29*7E
$GPGSV,3,2,12,21,32,148,37,06,29,214,35,03,19,222,35,31,18,330,37*7C
$GPGSV,3,3,12,29,15,087,32,25,12,030,29,14,07,013,31,15,00,111,*70
$GPRMC,183338.000,A,1828.4228,S,07019.0230,W,0.41,157.45,300411,,,A*62
$GPGGA,183339.000,1828.4229,S,07019.0231,W,1,10,0.9,-4.0,M,34.7,M,,0000*70
$GPGSA,M,3,30,18,22,16,21,06,03,31,29,25,,,1.5,0.9,1.2*35
$GPGSV,3,1,12,30,69,249,38,18,63,099,36,22,62,009,32,16,48,222,29*77
$GPGSV,3,2,12,21,32,148,38,06,29,214,32,03,19,222,34,31,18,330,36*74
$GPGSV,3,3,12,29,15,087,32,25,12,030,29,14,07,013,34,15,00,111,*75
$GPRMC,183339.000,A,1828.4229,S,07019.0231,W,1.33,145.78,300411,,,A*6A
$GPGGA,183340.000,1828.4230,S,07019.0233,W,1,10,0.9,-4.1,M,34.7,M,,0000*75
$GPGSA,M,3,30,18,22,16,21,06,03,31,29,25,,,1.5,0.9,1.2*35
$GPRMC,183340.000,A,1828.4230,S,07019.0233,W,1.69,235.04,300411,,,A*6E
$GPGGA,183341.000,1828.4234,S,07019.0242,W,1,10,0.9,-3.9,M,34.7,M,,0000*79
$GPGSA,M,3,30,18,22,16,21,06,03,31,29,25,,,1.5,0.9,1.2*35
$GPRMC,183341.000,A,1828.4234,S,07019.0242,W,3.94,235.53,300411,,,A*6F
$GPGGA,183342.000,1828.4241,S,07019.0255,W,1,10,0.9,-3.6,M,34.7,M,,0000*71
$GPGSA,M,3,30,18,22,16,21,06,03,31,29,25,,,1.5,0.9,1.2*35
$GPRMC,183342.000,A,1828.4241,S,07019.0255,W,5.79,243.58,300411,,,A*67
$GPGGA,183343.000,1828.4251,S,07019.0275,W,1,10,0.9,-3.4,M,34.7,M,,0000*71
$GPGSA,M,3,30,18,22,16,21,06,03,31,29,25,,,1.5,0.9,1.2*35
$GPRMC,183343.000,A,1828.4251,S,07019.0275,W,7.11,233.09,300411,,,A*6A
$GPGGA,183344.000,1828.4264,S,07019.0293,W,1,10,0.9,-3.9,M,34.7,M,,0000*75
$GPGSA,M,3,30,18,22,16,21,06,03,31,29,25,,,1.5,0.9,1.2*35
$GPGSV,3,1,12,30,69,249,38,18,63,099,35,22,62,009,36,16,48,222,32*7A
$GPGSV,3,2,12,21,32,148,37,06,29,214,33,03,19,222,32,31,18,330,36*7C
$GPGSV,3,3,12,29,15,087,36,25,12,030,28,14,07,013,30,15,00,111,*74
$GPRMC,183344.000,A,1828.4264,S,07019.0293,W,8.89,237.49,300411,,,A*6D
$GPGGA,183345.000,1828.4280,S,07019.0316,W,1,10,0.9,-4.4,M,34.7,M,,0000*78
$GPGSA,M,3,30,18,22,16,21,06,03,31,29,25,,,1.5,0.9,1.2*35
$GPRMC,183345.000,A,1828.4280,S,07019.0316,W,10.53,239.84,300411,,,A*5B
$GPGGA,183346.000,1828.4296,S,07019.0347,W,1,10,0.9,-4.6,M,34.7,M,,0000*7A
$GPGSA,M,3,30,18,22,16,21,06,03,31,29,25,,,1.5,0.9,1.2*35
$GPRMC,183346.000,A,1828.4296,S,07019.0347,W,13.98,237.47,300411,,,A*5E
$GPGGA,183347.002,1828.4316,S,07019.0379,W,1,10,0.9,-5.5,M,34.7,M,,0000*7F
$GPGSA,M,3,30,18,22,16,21,06,03,31,29,25,,,1.5,0.9,1.2*35
$GPRMC,183347.002,A,1828.4316,S,07019.0379,W,13.28,235.55,300411,,,A*53
$GPGGA,183347.998,1828.4338,S,07019.0415,W,1,10,0.9,-5.4,M,34.7,M,,0000*75
$GPGSA,M,3,30,18,22,16,21,06,03,31,29,25,,,1.5,0.9,1.2*35
$GPRMC,183347.998,A,1828.4338,S,07019.0415,W,14.08,238.17,300411,,,A*56
$GPGGA,183348.999,1828.4361,S,07019.0454,W,1,10,0.9,-5.1,M,34.7,M,,0000*77
$GPGSA,M,3,30,18,22,16,21,06,03,31,29,25,,,1.5,0.9,1.2*35
$GPGSV,3,1,12,30,69,249,38,18,63,099,35,22,62,009,35,16,48,222,35*7E
$GPGSV,3,2,12,21,32,148,36,06,29,214,33,03,19,222,36,31,18,330,36*79
$GPGSV,3,3,12,29,15,087,22,25,12,030,34,14,07,013,30,15,00,111,*7C
$GPRMC,183348.999,A,1828.4361,S,07019.0454,W,15.79,236.27,300411,,,A*5B
$GPGGA,183349.999,1828.4386,S,07019.0495,W,1,10,0.9,-4.8,M,34.7,M,,0000*7A
$GPGSA,M,3,30,18,22,16,21,06,03,31,29,25,,,1.5,0.9,1.2*35
$GPRMC,183349.999,A,1828.4386,S,07019.0495,W,16.31,236.80,300411,,,A*5C
$GPGGA,183350.999,1828.4415,S,07019.0538,W,1,10,0.9,-5.4,M,34.7,M,,0000*74
$GPGSA,M,3,30,18,22,16,21,06,03,31,29,25,,,1.5,0.9,1.2*35
$GPRMC,183350.999,A,1828.4415,S,07019.0538,W,17.10,236.40,300411,,,A*51
$GPGGA,183351.998,1828.4442,S,07019.0579,W,1,10,0.9,-5.5,M,34.7,M,,0000*72
$GPGSA,M,3,30,18,22,16,21,06,03,31,29,25,,,1.5,0.9,1.2*35
$GPRMC,183351.998,A,1828.4442,S,07019.0579,W,17.77,236.06,300411,,,A*55
$GPGGA,183353.000,1828.4469,S,07019.0624,W,1,10,0.9,-6.6,M,34.7,M,,0000*7A
$GPGSA,M,3,30,18,22,16,21,06,03,31,29,25,,,1.5,0.9,1.2*35
$GPRMC,183353.000,A,1828.4469,S,07019.0624,W,18.74,237.69,300411,,,A*59
$GPGGA,183354.000,1828.4500,S,07019.0673,W,1,10,0.9,-5.8,M,34.7,M,,0000*7C
$GPGSA,M,3,30,18,22,16,21,06,03,31,29,25,,,1.5,0.9,1.2*35
$GPGSV,3,1,12,30,69,249,39,18,63,099,37,22,62,009,34,16,48,222,33*7A
$GPGSV,3,2,12,21,32,148,37,06,29,214,34,03,19,222,35,31,18,330,37*7D
$GPGSV,3,3,12,29,15,087,32,25,12,030,35,14,07,013,,15,00,111,*7F
$GPRMC,183354.000,A,1828.4500,S,07019.0673,W,19.43,237.54,300411,,,A*59
$GPGGA,183355.001,1828.4532,S,07019.0721,W,1,10,0.9,-6.9,M,34.7,M,,0000*79
$GPGSA,M,3,30,18,22,16,21,06,03,31,29,25,,,1.5,0.9,1.2*35
$GPRMC,183355.001,A,1828.4532,S,07019.0721,W,21.08,236.95,300411,,,A*56
$GPGGA,183356.000,1828.4564,S,07019.0774,W,1,10,0.9,-6.3,M,34.7,M,,0000*72
$GPGSA,M,3,30,18,22,16,21,06,03,31,29,25,,,1.5,0.9,1.2*35
$GPRMC,183356.000,A,1828.4564,S,07019.0774,W,21.37,235.33,300411,,,A*54
$GPGGA,183356.999,1828.4599,S,07019.0830,W,1,09,1.1,-6.7,M,34.7,M,,0000*73
$GPGSA,M,3,30,18,22,16,21,06,03,29,25,,,,1.7,1.1,1.3*3D
$GPRMC,183356.999,A,1828.4599,S,07019.0830,W,22.03,236.78,300411,,,A*58
$GPGGA,183357.999,1828.4633,S,07019.0881,W,1,09,1.1,-7.4,M,34.7,M,,0000*79
$GPGSA,M,3,30,18,22,16,21,06,03,29,25,,,,1.7,1.1,1.3*3D
$GPRMC,183357.999,A,1828.4633,S,07019.0881,W,21.56,237.79,300411,,,A*53
$GPGGA,183359.003,1828.4666,S,07019.0937,W,1,08,1.5,-7.0,M,34.7,M,,0000*70
$GPGSA,M,3,30,18,22,16,21,06,03,29,,,,,2.4,1.5,1.8*35
$GPGSV,3,1,12,30,69,249,38,18,63,099,36,22,62,009,34,16,48,222,32*7B
$GPGSV,3,2,12,21,32,148,38,06,29,214,31,03,19,222,35,31,18,330,*73
$GPGSV,3,3,12,29,15,087,28,25,12,030,,14,07,013,,15,00,111,*72
$GPRMC,183359.003,A,1828.4666,S,07019.0937,W,22.40,236.48,300411,,,A*5C
$GPGGA,183359.997,1828.4701,S,07019.0998,W,1,10,0.9,-7.2,M,34.7,M,,0000*77
$GPGSA,M,3,30,18,22,16,21,06,03,31,29,25,,,1.5,0.9,1.2*35
$GPRMC,183359.997,A,1828.4701,S,07019.0998,W,23.56,235.92,300411,,,A*5F
$GPGGA,183401.001,1828.4743,S,07019.1050,W,1,09,1.0,-8.3,M,34.7,M,,0000*7F
$GPGSA,M,3,30,18,22,16,21,06,03,31,25,,,,1.6,1.0,1.3*34
$GPRMC,183401.001,A,1828.4743,S,07019.1050,W,24.08,233.56,300411,,,A*5B
$GPGGA,183401.999,1828.4789,S,07019.1105,W,1,10,0.9,-7.2,M,34.7,M,,0000*7E
$GPGSA,M,3,30,18,22,16,21,06,03,31,29,25,,,1.5,0.9,1.2*35
$GPRMC,183401.999,A,1828.4789,S,07019.1105,W,24.72,230.32,300411,,,A*58
$GPGGA,183403.001,1828.4835,S,07019.1160,W,1,09,0.9,-7.6,M,34.7,M,,0000*73
$GPGSA,M,3,30,18,22,16,21,06,31,29,25,,,,1.6,0.9,1.3*34
$GPRMC,183403.001,A,1828.4835,S,07019.1160,W,25.01,228.21,300411,,,A*57
$GPGGA,183403.997,1828.4883,S,07019.1213,W,1,09,0.9,-6.6,M,34.7,M,,0000*7E
$GPGSA,M,3,30,18,22,16,21,06,31,29,25,,,,1.6,0.9,1.3*34
$GPGSV,3,1,12,30,69,249,38,18,63,099,37,22,62,009,39,16,48,222,29*7D
$GPGSV,3,2,12,21,32,148,35,06,29,214,30,03,19,222,,31,18,330,34*7E
$GPGSV,3,3,12,29,15,087,31,25,12,030,36,14,07,013,28,15,00,111,*75
$GPRMC,183403.997,A,1828.4883,S,07019.1213,W,25.00,229.12,300411,,,A*5B
$GPGGA,183405.003,1828.4931,S,07019.1269,W,1,09,0.9,-6.8,M,34.7,M,,0000*77
$GPGSA,M,3,30,18,22,16,21,06,31,29,25,,,,1.6,0.9,1.3*34
$GPRMC,183405.003,A,1828.4931,S,07019.1269,W,25.27,229.43,300411,,,A*5D
$GPGGA,183405.998,1828.4975,S,07019.1326,W,1,09,0.9,-8.2,M,34.7,M,,0000*72
$GPGSA,M,3,30,18,22,16,21,03,31,29,25,,,,1.5,0.9,1.2*33
$GPRMC,183405.998,A,1828.4975,S,07019.1326,W,24.88,230.83,300411,,,A*5C
$GPGGA,183407.002,1828.5019,S,07019.1385,W,1,10,0.9,-7.4,M,34.7,M,,0000*70
$GPGSA,M,3,30,18,22,16,21,06,03,31,29,25,,,1.5,0.9,1.2*35
$GPRMC,183407.002,A,1828.5019,S,07019.1385,W,24.94,232.55,300411,,,A*5B
$GPGGA,183407.998,1828.5058,S,07019.1444,W,1,09,1.0,-7.7,M,34.7,M,,0000*76
$GPGSA,M,3,30,18,22,16,21,06,03,31,25,,,,1.6,1.0,1.3*34
$GPRMC,183407.998,A,1828.5058,S,07019.1444,W,25.10,235.43,300411,,,A*53
$GPGGA,183409.002,1828.5097,S,07019.1507,W,1,10,0.9,-7.8,M,34.7,M,,0000*78
$GPGSA,M,3,30,18,22,16,21,06,03,31,29,25,,,1.5,0.9,1.2*35
$GPGSV,3,1,12,30,69,249,39,18,63,099,36,22,62,009,32,16,48,222,32*7C
$GPGSV,3,2,12,21,32,148,36,06,29,214,32,03,19,222,34,31,18,330,35*79
$GPGSV,3,3,12,29,15,087,30,25,12,030,31,14,07,013,,15,00,111,*79
$GPRMC,183409.002,A,1828.5097,S,07019.1507,W,24.94,237.71,300411,,,A*5C
$GPGGA,183409.998,1828.5133,S,07019.1568,W,1,09,1.0,-8.2,M,34.7,M,,0000*71
$GPGSA,M,3,30,18,22,16,06,03,31,29,25,,,,1.5,1.0,1.2*3E
$GPRMC,183409.998,A,1828.5133,S,07019.1568,W,24.19,239.77,300411,,,A*5D
$GPGGA,183411.000,1828.5167,S,07019.1633,W,1,10,0.9,-7.7,M,34.7,M,,0000*76
$GPGSA,M,3,30,18,22,16,21,06,03,31,29,25,,,1.5,0.9,1.2*35
$GPRMC,183411.000,A,1828.5167,S,07019.1633,W,25.05,243.03,300411,,,A*52
$GPGGA,183412.000,1828.5201,S,07019.1700,W,1,10,0.9,-7.9,M,34.7,M,,0000*79
$GPGSA,M,3,30,18,22,16,21,06,03,31,29,25,,,1.5,0.9,1.2*35
$GPRMC,183412.000,A,1828.5201,S,07019.1700,W,25.31,243.97,300411,,,A*59
$GPGGA,183413.002,1828.5233,S,07019.1768,W,1,09,0.9,-7.5,M,34.7,M,,0000*71
$GPGSA,M,3,30,18,22,16,21,06,31,29,25,,,,1.6,0.9,1.3*34
$GPRMC,183413.002,A,1828.5233,S,07019.1768,W,25.08,245.10,300411,,,A*56
$GPGGA,183414.000,1828.5262,S,07019.1835,W,1,09,0.9,-6.9,M,34.7,M,,0000*7A
$GPGSA,M,3,30,18,22,16,21,06,31,29,25,,,,1.6,0.9,1.3*34
$GPGSV,3,1,12,30,69,249,38,18,63,099,37,22,62,009,34,16,48,222,35*7D
$GPGSV,3,2,12,21,32,148,31,06,29,214,33,03,19,222,,31,18,330,37*7A
$GPGSV,3,3,12,29,15,087,31,25,12,030,37,14,07,013,32,15,00,111,*7F
$GPRMC,183414.000,A,1828.5262,S,07019.1835,W,24.58,247.78,300411,,,A*58
$GPGGA,183414.998,1828.5288,S,07019.1901,W,1,10,0.9,-6.6,M,34.7,M,,0000*77
$GPGSA,M,3,30,18,22,16,21,06,03,31,29,25,,,1.5,0.9,1.2*35
$GPRMC,183414.998,A,1828.5288,S,07019.1901,W,24.15,247.89,300411,,,A*55
$GPGGA,183416.000,1828.5312,S,07019.1967,W,1,10,0.9,-6.1,M,34.7,M,,0000*78
$GPGSA,M,3,30,18,22,16,21,06,03,31,29,25,,,1.5,0.9,1.2*35
$GPRMC,183416.000,A,1828.5312,S,07019.1967,W,23.90,250.46,300411,,,A*52
$GPGGA,183417.000,1828.5335,S,07019.2031,W,1,10,0.9,-7.0,M,34.7,M,,0000*75
$GPGSA,M,3,30,18,22,16,21,06,03,31,29,25,,,1.5,0.9,1.2*35
$GPRMC,183417.000,A,1828.5335,S,07019.2031,W,23.13,249.78,300411,,,A*51
$GPGGA,183417.998,1828.5359,S,07019.2092,W,1,09,0.9,-6.8,M,34.7,M,,0000*7F
$GPGSA,M,3,30,18,22,16,21,06,31,29,25,,,,1.6,0.9,1.3*34
$GPRMC,183417.998,A,1828.5359,S,07019.2092,W,22.59,246.50,300411,,,A*50
$GPGGA,183419.001,1828.5386,S,07019.2150,W,1,10,0.9,-7.2,M,34.7,M,,0000*76
$GPGSA,M,3,30,18,22,16,21,06,03,31,29,25,,,1.5,0.9,1.2*35
$GPGSV,3,1,12,30,69,249,38,18,63,099,35,22,62,009,28,16,48,222,35*72
$GPGSV,3,2,12,21,32,148,32,06,29,214,35,03,19,222,29,31,18,330,37*74
$GPGSV,3,3,12,29,15,087,29,25,12,030,30,14,07,013,34,15,00,111,*77
$GPRMC,183419.001,A,1828.5386,S,07019.2150,W,22.70,244.49,300411,,,A*5B
$GPGGA,183420.002,1828.5415,S,07019.2211,W,1,10,0.9,-6.7,M,34.7,M,,0000*70
$GPGSA,M,3,30,18,22,16,21,06,03,31,29,25,,,1.5,0.9,1.2*35
$GPRMC,183420.002,A,1828.5415,S,07019.2211,W,23.42,240.58,300411,,,A*5D
$GPGGA,183420.997,1828.5447,S,07019.2265,W,1,10,0.9,-6.6,M,34.7,M,,0000*70
$GPGSA,M,3,30,18,22,16,21,06,03,31,29,25,,,1.5,0.9,1.2*35
$GPRMC,183420.997,A,1828.5447,S,07019.2265,W,23.49,235.74,300411,,,A*5B
$GPGGA,183422.002,1828.5485,S,07019.2322,W,1,09,1.0,-5.8,M,34.7,M,,0000*76
$GPGSA,M,3,30,18,22,16,21,06,03,31,25,,,,1.6,1.0,1.3*34
$GPRMC,183422.002,A,1828.5485,S,07019.2322,W,22.80,232.99,300411,,,A*50
$GPGGA,183422.999,1828.5525,S,07019.2374,W,1,10,0.9,-5.9,M,34.7,M,,0000*74
$GPGSA,M,3,30,18,22,16,21,06,03,31,29,25,,,1.5,0.9,1.2*35
$GPRMC,183422.999,A,1828.5525,S,07019.2374,W,23.54,230.08,300411,,,A*51
$GPGGA,183423.999,1828.5570,S,07019.2427,W,1,10,0.9,-6.1,M,34.7,M,,0000*7F
$GPGSA,M,3,30,18,22,16,21,06,03,31,29,25,,,1.5,0.9,1.2*35
$GPGSV,3,1,12,30,69,249,38,18,63,099,37,22,62,009,39,16,48,222,32*77
$GPGSV,3,2,12,21,32,148,36,06,29,214,31,03,19,222,23,31,18,330,30*79
$GPGSV,3,3,12,29,15,087,33,25,12,030,37,14,07,013,29,15,00,111,*77
$GPRMC,183423.999,A,1828.5570,S,07019.2427,W,23.89,227.87,300411,,,A*50
$GPGGA,183424.999,1828.5616,S,07019.2477,W,1,10,0.9,-4.9,M,34.7,M,,0000*74
$GPGSA,M,3,30,18,22,16,21,06,03,31,29,25,,,1.5,0.9,1.2*35
$GPRMC,183424.999,A,1828.5616,S,07019.2477,W,23.51,225.10,300411,,,A*58
$GPGGA,183425.998,1828.5661,S,07019.2528,W,1,09,0.9,-5.4,M,34.7,M,,0000*7B
$GPGSA,M,3,30,18,22,16,21,06,31,29,25,,,,1.6,0.9,1.3*34
$GPRMC,183425.998,A,1828.5661,S,07019.2528,W,23.94,228.98,300411,,,A*57
$GPGGA,183427.000,1828.5703,S,07019.2580,W,1,09,0.9,-4.4,M,34.7,M,,0000*77
$GPGSA,M,3,30,18,22,16,21,06,31,29,25,,,,1.6,0.9,1.3*34
$GPRMC,183427.000,A,1828.5703,S,07019.2580,W,23.36,229.28,300411,,,A*58
$GPGGA,183428.000,1828.5750,S,07019.2630,W,1,09,0.9,-5.2,M,34.7,M,,0000*71
$GPGSA,M,3,30,18,22,16,21,06,31,29,25,,,,1.6,0.9,1.3*34
$GPRMC,183428.000,A,1828.5750,S,07019.2630,W,23.48,225.13,300411,,,A*54
$GPGGA,183429.001,1828.5798,S,07019.2679,W,1,10,0.9,-5.3,M,34.7,M,,0000*71
$GPGSA,M,3,30,18,22,16,21,06,03,31,29,25,,,1.5,0.9,1.2*35
$GPGSV,3,1,12,30,69,249,39,18,63,099,37,22,62,009,40,16,48,222,28*73
$GPGSV,3,2,12,21,32,148,29,06,29,214,32,03,19,222,25,31,18,330,32*70
$GPGSV,3,3,12,29,15,087,33,25,12,030,37,14,07,013,27,15,00,111,*79
$GPRMC,183429.001,A,1828.5798,S,07019.2679,W,23.76,224.76,300411,,,A*52
$GPGGA,183430.002,1828.5848,S,07019.2731,W,1,10,0.9,-5.7,M,34.7,M,,0000*71
$GPGSA,M,3,30,18,22,16,21,06,03,31,29,25,,,1.5,0.9,1.2*35
$GPRMC,183430.002,A,1828.5848,S,07019.2731,W,24.54,225.31,300411,,,A*53
$GPGGA,183430.997,1828.5894,S,07019.2784,W,1,08,1.0,-4.5,M,34.7,M,,0000*79
$GPGSA,M,3,30,18,22,21,06,31,29,25,,,,,1.7,1.0,1.3*3A
$GPRMC,183430.997,A,1828.5894,S,07019.2784,W,23.22,224.81,300411,,,A*55
$GPGGA,183432.003,1828.5943,S,07019.2837,W,1,10,0.9,-4.3,M,34.7,M,,0000*74
$GPGSA,M,3,30,18,22,16,21,06,03,31,29,25,,,1.5,0.9,1.2*35
$GPRMC,183432.003,A,1828.5943,S,07019.2837,W,24.19,223.69,300411,,,A*51
$GPGGA,183432.998,1828.5993,S,07019.2886,W,1,10,0.9,-5.0,M,34.7,M,,0000*7A
$GPGSA,M,3,30,18,22,16,21,06,03,31,29,25,,,1.5,0.9,1.2*35
$GPRMC,183432.998,A,1828.5993,S,07019.2886,W,23.52,225.96,300411,,,A*53
$GPGGA,183434.002,1828.6039,S,07019.2938,W,1,09,1.0,-4.6,M,34.7,M,,0000*7F
$GPGSA,M,3,30,18,22,16,21,06,03,31,25,,,,1.6,1.0,1.3*34
$GPGSV,3,1,12,30,69,249,38,18,63,099,37,22,62,009,40,16,48,222,33*78
$GPGSV,3,2,12,21,32,148,35,06,29,214,28,03,19,222,29,31,18,330,30*78
$GPGSV,3,3,12,29,15,087,,25,12,030,37,14,07,013,28,15,00,111,*76
$GPRMC,183434.002,A,1828.6039,S,07019.2938,W,23.74,226.67,300411,,,A*58
$GPGGA,183434.997,1828.6087,S,07019.2988,W,1,06,1.3,-5.1,M,34.7,M,,0000*7E
$GPGSA,M,3,30,18,22,21,03,25,,,,,,,1.9,1.3,1.4*3C
$GPRMC,183434.997,A,1828.6087,S,07019.2988,W,24.00,226.50,300411,,,A*53
$GPGGA,183436.003,1828.6134,S,07019.3043,W,1,10,0.9,-5.1,M,34.7,M,,0000*72
$GPGSA,M,3,30,18,22,16,21,06,03,31,29,25,,,1.5,0.9,1.2*35
$GPRMC,183436.003,A,1828.6134,S,07019.3043,W,23.24,225.93,300411,,,A*5E
$GPGGA,183436.998,1828.6178,S,07019.3093,W,1,09,1.1,-4.4,M,34.7,M,,0000*79
$GPGSA,M,3,30,18,22,16,21,06,03,29,25,,,,1.7,1.1,1.3*3D
$GPRMC,183436.998,A,1828.6178,S,07019.3093,W,23.39,225.17,300411,,,A*50
$GPGGA,183438.002,1828.6225,S,07019.3142,W,1,09,1.1,-3.9,M,34.7,M,,0000*71
$GPGSA,M,3,30,18,22,16,21,06,03,29,25,,,,1.7,1.1,1.3*3D
$GPRMC,183438.002,A,1828.6225,S,07019.3142,W,23.23,222.52,300411,,,A*5F
$GPGGA,183438.998,1828.6274,S,07019.3185,W,1,09,1.1,-4.6,M,34.7,M,,0000*7C
$GPGSA,M,3,30,18,22,16,21,06,03,29,25,,,,1.7,1.1,1.3*3D
$GPGSV,3,1,12,30,69,249,37,18,63,099,37,22,62,009,38,16,48,222,25*7F
$GPGSV,3,2,12,21,32,148,33,06,29,214,25,03,19,222,29,31,18,330,*70
$GPGSV,3,3,12,29,15,087,36,25,12,030,37,14,07,013,,15,00,111,*79
$GPRMC,183438.998,A,1828.6274,S,07019.3185,W,23.18,224.16,300411,,,A*54
$GPGGA,183439.998,1828.6320,S,07019.3236,W,1,10,0.9,-3.6,M,34.7,M,,0000*70
$GPGSA,M,3,30,18,22,16,21,06,03,31,29,25,,,1.5,0.9,1.2*35
$GPRMC,183439.998,A,1828.6320,S,07019.3236,W,23.04,225.83,300411,,,A*5E
$GPGGA,183441.004,1828.6366,S,07019.3282,W,1,10,0.9,-3.8,M,34.7,M,,0000*70
$GPGSA,M,3,30,18,22,16,21,06,03,31,29,25,,,1.5,0.9,1.2*35
$GPRMC,183441.004,A,1828.6366,S,07019.3282,W,23.02,225.87,300411,,,A*52
$GPGGA,183441.998,1828.6411,S,07019.3336,W,1,09,0.9,-3.1,M,34.7,M,,0000*74
$GPGSA,M,3,30,18,22,16,21,06,31,29,25,,,,1.6,0.9,1.3*34
$GPRMC,183441.998,A,1828.6411,S,07019.3336,W,24.32,226.29,300411,,,A*54
$GPGGA,183443.000,1828.6460,S,07019.3392,W,1,09,0.9,-3.1,M,34.7,M,,0000*76
$GPGSA,M,3,30,18,22,16,21,06,31,29,25,,,,1.6,0.9,1.3*34
$GPRMC,183443.000,A,1828.6460,S,07019.3392,W,24.38,227.37,300411,,,A*52
$GPGGA,183443.998,1828.6507,S,07019.3450,W,1,09,0.9,-3.3,M,34.7,M,,0000*75
$GPGSA,M,3,30,18,22,16,21,06,31,29,25,,,,1.6,0.9,1.3*34
$GPGSV,3,1,12,30,69,249,38,18,63,099,37,22,62,009,38,16,48,222,29*7C
$GPGSV,3,2,12,21,32,148,35,06,29,214,25,03,19,222,,31,18,330,36*78
$GPGSV,3,3,12,29,15,087,35,25,12,030,34,14,07,013,31,15,00,111,*7B
$GPRMC,183443.998,A,1828.6507,S,07019.3450,W,25.14,228.88,300411,,,A*57
$GPGGA,183445.000,1828.6554,S,07019.3506,W,1,09,0.9,-3.1,M,34.7,M,,0000*7D
$GPGSA,M,3,30,18,22,16,21,06,31,29,25,,,,1.6,0.9,1.3*34
$GPRMC,183445.000,A,1828.6554,S,07019.3506,W,25.17,227.95,300411,,,A*5D
$GPGGA,183446.002,1828.6601,S,07019.3564,W,1,08,1.1,-3.5,M,34.7,M,,0000*77
$GPGSA,M,3,30,18,22,16,21,31,29,25,,,,,1.9,1.1,1.5*32
$GPRMC,183446.002,A,1828.6601,S,07019.3564,W,25.31,229.08,300411,,,A*55
$GPGGA,183447.000,1828.6646,S,07019.3619,W,1,08,1.2,-3.1,M,34.7,M,,0000*79
$GPGSA,M,3,30,18,22,16,21,06,29,25,,,,,1.9,1.2,1.5*35
$GPRMC,183447.000,A,1828.6646,S,07019.3619,W,25.45,229.84,300411,,,A*5B
$GPGGA,183448.000,1828.6692,S,07019.3678,W,1,08,1.0,-2.7,M,34.7,M,,0000*7D
$GPGSA,M,3,30,18,22,21,06,31,29,25,,,,,1.7,1.0,1.3*3A
$GPRMC,183448.000,A,1828.6692,S,07019.3678,W,25.52,233.04,300411,,,A*5F
$GPGGA,183448.998,1828.6730,S,07019.3735,W,1,08,1.1,-1.4,M,34.7,M,,0000*75
$GPGSA,M,3,30,18,22,16,21,06,31,25,,,,,1.8,1.1,1.4*3F
$GPGSV,3,1,12,30,69,249,38,18,63,099,35,22,62,009,36,16,48,222,29*70
$GPGSV,3,2,12,21,32,148,37,06,29,214,23,03,19,222,,31,18,330,34*7E
$GPGSV,3,3,12,29,15,087,17,25,12,030,30,14,07,013,19,15,00,111,*75
$GPRMC,183448.998,A,1828.6730,S,07019.3735,W,24.91,236.04,300411,,,A*5D
$GPGGA,183450.000,1828.6769,S,07019.3797,W,1,08,1.1,-2.1,M,34.7,M,,0000*76
$GPGSA,M,3,30,18,22,16,21,31,29,25,,,,,1.9,1.1,1.5*32
$GPRMC,183450.000,A,1828.6769,S,07019.3797,W,25.42,236.30,300411,,,A*50
$GPGGA,183451.000,1828.6806,S,07019.3859,W,1,08,1.1,-2.2,M,34.7,M,,0000*7F
$GPGSA,M,3,30,18,22,16,21,31,29,25,,,,,1.9,1.1,1.5*32
$GPRMC,183451.000,A,1828.6806,S,07019.3859,W,24.76,237.28,300411,,,A*54
$GPGGA,183452.002,1828.6844,S,07019.3923,W,1,07,1.2,-2.8,M,34.7,M,,0000*72
$GPGSA,M,3,30,18,22,16,21,31,29,,,,,,2.0,1.2,1.6*3F
$GPRMC,183452.002,A,1828.6844,S,07019.3923,W,25.52,239.31,300411,,,A*5E
$GPGGA,183453.000,1828.6878,S,07019.3982,W,1,07,1.2,-2.2,M,34.7,M,,0000*7F
$GPGSA,M,3,30,18,22,16,21,31,29,,,,,,2.0,1.2,1.6*3F
$GPRMC,183453.000,A,1828.6878,S,07019.3982,W,25.24,241.70,300411,,,A*52
$GPGGA,183453.998,1828.6911,S,07019.4052,W,1,07,1.2,-2.3,M,34.7,M,,0000*7B
$GPGSA,M,3,30,18,22,16,21,31,29,,,,,,2.0,1.2,1.6*3F
$GPGSV,3,1,12,30,69,249,38,18,63,099,35,22,62,009,31,16,48,222,35*7A
$GPGSV,3,2,12,21,32,148,34,06,29,214,,03,19,222,,31,18,330,38*70
$GPGSV,3,3,12,29,15,087,32,25,12,030,,14,07,013,28,15,00,111,*73
$GPRMC,183453.998,A,1828.6911,S,07019.4052,W,25.64,244.87,300411,,,A*5E
$GPGGA,183455.000,1828.6943,S,07019.4121,W,1,07,1.2,-2.1,M,34.7,M,,0000*75
$GPGSA,M,3,30,18,22,16,21,31,29,,,,,,2.0,1.2,1.6*3F
$GPRMC,183455.000,A,1828.6943,S,07019.4121,W,26.02,243.51,300411,,,A*5D
$GPGGA,183456.002,1828.6975,S,07019.4189,W,1,08,1.1,-2.3,M,34.7,M,,0000*7D
$GPGSA,M,3,30,18,22,16,21,31,29,25,,,,,1.9,1.1,1.5*32
$GPRMC,183456.002,A,1828.6975,S,07019.4189,W,26.53,244.40,300411,,,A*58
$GPGGA,183457.000,1828.7006,S,07019.4259,W,1,07,1.3,-2.4,M,34.7,M,,0000*76
$GPGSA,M,3,30,18,22,16,31,29,25,,,,,,2.1,1.3,1.7*3A
$GPRMC,183457.000,A,1828.7006,S,07019.4259,W,25.77,246.47,300411,,,A*59
$GPGGA,183457.998,1828.7033,S,07019.4327,W,1,07,1.3,-2.7,M,34.7,M,,0000*73
$GPGSA,M,3,30,18,22,16,31,29,25,,,,,,2.1,1.3,1.7*3A
$GPRMC,183457.998,A,1828.7033,S,07019.4327,W,25.60,247.80,300411,,,A*53
$GPGGA,183459.000,1828.7060,S,07019.4395,W,1,07,1.3,-2.3,M,34.7,M,,0000*7E
$GPGSA,M,3,30,18,22,16,31,29,25,,,,,,2.1,1.3,1.7*3A
$GPGSV,3,1,12,30,69,249,37,18,63,099,36,22,62,009,34,16,48,222,36*70
$GPGSV,3,2,12,21,32,148,,06,29,214,,03,19,222,,31,18,330,36*79
$GPGSV,3,3,12,29,15,087,31,25,12,030,36,14,07,013,31,15,00,111,*7D
$GPRMC,183459.000,A,1828.7060,S,07019.4395,W,25.35,247.59,300411,,,A*5E
$GPGGA,183500.002,1828.7090,S,07019.4461,W,1,08,1.0,-2.3,M,34.7,M,,0000*7E
$GPGSA,M,3,30,18,22,16,06,31,29,25,,,,,1.7,1.0,1.4*39
$GPRMC,183500.002,A,1828.7090,S,07019.4461,W,25.88,245.15,300411,,,A*5E
$GPGGA,183501.000,1828.7120,S,07019.4531,W,1,08,1.0,-2.8,M,34.7,M,,0000*78
$GPGSA,M,3,30,18,22,16,06,31,29,25,,,,,1.7,1.0,1.4*39
$GPRMC,183501.000,A,1828.7120,S,07019.4531,W,25.36,244.46,300411,,,A*51
$GPGGA,183502.000,1828.7151,S,07019.4600,W,1,08,1.0,-2.4,M,34.7,M,,0000*70
$GPGSA,M,3,30,18,22,16,06,31,29,25,,,,,1.7,1.0,1.4*39
$GPRMC,183502.000,A,1828.7151,S,07019.4600,W,25.51,245.87,300411,,,A*58
$GPGGA,183503.000,1828.7182,S,07019.4666,W,1,08,1.0,-1.7,M,34.7,M,,0000*7F
$GPGSA,M,3,30,18,22,16,06,31,29,25,,,,,1.7,1.0,1.4*39
$GPRMC,183503.000,A,1828.7182,S,07019.4666,W,25.68,244.93,300411,,,A*59
$GPGGA,183503.999,1828.7212,S,07019.4737,W,1,08,1.0,-2.6,M,34.7,M,,0000*7B
$GPGSA,M,3,30,18,22,16,06,31,29,25,,,,,1.7,1.0,1.4*39
$GPGSV,3,1,12,30,69,249,37,18,63,099,36,22,62,009,36,16,48,222,37*73
$GPGSV,3,2,12,21,32,148,,06,29,214,30,03,19,222,,31,18,330,37*7B
$GPGSV,3,3,12,29,15,087,32,25,12,030,36,14,07,013,33,15,00,111,*7C
$GPRMC,183503.999,A,1828.7212,S,07019.4737,W,25.46,246.83,300411,,,A*50
$GPGGA,183505.000,1828.7239,S,07019.4804,W,1,08,1.0,-3.2,M,34.7,M,,0000*77
$GPGSA,M,3,30,18,22,16,06,31,29,25,,,,,1.7,1.0,1.4*39
$GPRMC,183505.000,A,1828.7239,S,07019.4804,W,24.91,247.37,300411,,,A*5C
$GPGGA,183505.999,1828.7270,S,07019.4873,W,1,08,1.0,-3.4,M,34.7,M,,0000*75
$GPGSA,M,3,30,18,22,16,06,31,29,25,,,,,1.7,1.0,1.4*39
$GPRMC,183505.999,A,1828.7270,S,07019.4873,W,25.72,247.25,300411,,,A*57
$GPGGA,183507.003,1828.7299,S,07019.4941,W,1,09,1.0,-3.2,M,34.7,M,,0000*7D
$GPGSA,M,3,30,18,22,16,06,03,31,29,25,,,,1.5,1.0,1.2*3E
$GPRMC,183507.003,A,1828.7299,S,07019.4941,W,24.84,243.69,300411,,,A*5C
$GPGGA,183507.998,1828.7333,S,07019.5009,W,1,09,1.0,-3.2,M,34.7,M,,0000*73
$GPGSA,M,3,30,18,22,16,06,03,31,29,25,,,,1.5,1.0,1.2*3E
$GPRMC,183507.998,A,1828.7333,S,07019.5009,W,25.87,241.02,300411,,,A*5F
$GPGGA,183508.998,1828.7370,S,07019.5076,W,1,08,1.3,-4.6,M,34.7,M,,0000*72
$GPGSA,M,3,30,18,22,16,06,03,31,25,,,,,1.9,1.3,1.4*3C
$GPGSV,3,1,12,30,69,249,37,18,63,099,36,22,62,009,31,16,48,222,28*7A
$GPGSV,3,2,12,21,32,148,,06,29,214,31,03,19,222,32,31,18,330,36*7A
$GPGSV,3,3,12,29,15,087,,25,12,030,32,14,07,013,30,15,00,111,*7A
$GPRMC,183508.998,A,1828.7370,S,07019.5076,W,24.56,239.45,300411,,,A*5E
$GPGGA,183510.001,1828.7408,S,07019.5138,W,1,08,1.3,-4.4,M,34.7,M,,0000*73
$GPGSA,M,3,30,18,22,16,06,03,31,25,,,,,1.9,1.3,1.4*3C
$GPRMC,183510.001,A,1828.7408,S,07019.5138,W,25.62,235.37,300411,,,A*52
$GPGGA,183510.998,1828.7449,S,07019.5202,W,1,07,1.3,-4.5,M,34.7,M,,0000*7B
$GPGSA,M,3,30,18,22,16,31,29,25,,,,,,2.1,1.3,1.7*3A
$GPRMC,183510.998,A,1828.7449,S,07019.5202,W,26.35,233.48,300411,,,A*5B
$GPGGA,183512.000,1828.7493,S,07019.5266,W,1,07,1.4,-5.1,M,34.7,M,,0000*76
$GPGSA,M,3,30,18,22,16,03,31,25,,,,,,2.0,1.4,1.4*37
$GPRMC,183512.000,A,1828.7493,S,07019.5266,W,26.38,230.43,300411,,,A*51
$GPGGA,183513.001,1828.7543,S,07019.5329,W,1,08,1.3,-5.3,M,34.7,M,,0000*7A
$GPGSA,M,3,30,18,22,16,06,03,31,25,,,,,1.9,1.3,1.4*3C
$GPRMC,183513.001,A,1828.7543,S,07019.5329,W,26.98,228.27,300411,,,A*56
$GPGGA,183514.004,1828.7591,S,07019.5383,W,1,08,1.3,-6.3,M,34.7,M,,0000*74
$GPGSA,M,3,30,18,22,16,06,03,31,25,,,,,1.9,1.3,1.4*3C
$GPGSV,3,1,12,30,69,249,38,18,63,099,37,22,62,009,39,16,48,222,31*74
$GPGSV,3,2,12,21,32,148,,06,29,214,30,03,19,222,36,31,18,330,32*7B
$GPGSV,3,3,12,29,15,087,,25,12,030,37,14,07,013,30,15,00,111,*7F
$GPRMC,183514.004,A,1828.7591,S,07019.5383,W,25.31,224.46,300411,,,A*50
$GPGGA,183514.996,1828.7648,S,07019.5422,W,1,08,1.3,-5.5,M,34.7,M,,0000*78
$GPGSA,M,3,30,18,22,16,06,03,31,25,,,,,1.9,1.3,1.4*3C
$GPRMC,183514.996,A,1828.7648,S,07019.5422,W,24.83,218.24,300411,,,A*5A
$GPGGA,183516.000,1828.7704,S,07019.5464,W,1,08,1.3,-5.8,M,34.7,M,,0000*7A
$GPGSA,M,3,30,18,22,16,06,03,31,25,,,,,1.9,1.3,1.4*3C
$GPRMC,183516.000,A,1828.7704,S,07019.5464,W,24.07,214.02,300411,,,A*51
$GPGGA,183517.000,1828.7756,S,07019.5508,W,1,08,1.3,-5.7,M,34.7,M,,0000*78
$GPGSA,M,3,30,18,22,16,06,03,31,25,,,,,1.9,1.3,1.4*3C
$GPRMC,183517.000,A,1828.7756,S,07019.5508,W,23.44,212.10,300411,,,A*59
$GPGGA,183518.000,1828.7813,S,07019.5542,W,1,08,1.3,-3.7,M,34.7,M,,0000*71
$GPGSA,M,3,30,18,22,16,06,03,31,25,,,,,1.9,1.3,1.4*3C
$GPRMC,183518.000,A,1828.7813,S,07019.5542,W,23.09,208.81,300411,,,A*5C
$GPGGA,183519.000,1828.7870,S,07019.5575,W,1,08,1.3,-4.9,M,34.7,M,,0000*78
$GPGSA,M,3,30,18,22,16,06,03,31,25,,,,,1.9,1.3,1.4*3C
$GPGSV,3,1,12,30,69,249,38,18,63,099,37,22,62,009,39,16,48,222,36*73
$GPGSV,3,2,12,21,32,148,,06,29,214,35,03,19,222,39,31,18,330,37*74
$GPGSV,3,3,12,29,15,087,,25,12,030,36,14,07,013,35,15,00,111,*7B
$GPRMC,183519.000,A,1828.7870,S,07019.5575,W,22.98,206.56,300411,,,A*51
$GPGGA,183520.000,1828.7924,S,07019.5603,W,1,08,1.3,-3.8,M,34.7,M,,0000*76
$GPGSA,M,3,30,18,22,16,06,03,31,25,,,,,1.9,1.3,1.4*3C
$GPRMC,183520.000,A,1828.7924,S,07019.5603,W,22.59,207.34,300411,,,A*51
$GPGGA,183521.000,1828.7981,S,07019.5629,W,1,08,1.3,-2.9,M,34.7,M,,0000*70
$GPGSA,M,3,30,18,22,16,06,03,31,25,,,,,1.9,1.3,1.4*3C
$GPRMC,183521.000,A,1828.7981,S,07019.5629,W,22.46,206.43,300411,,,A*58
$GPGGA,183522.000,1828.8039,S,07019.5654,W,1,08,1.3,-1.9,M,34.7,M,,0000*7F
$GPGSA,M,3,30,18,22,16,06,03,31,25,,,,,1.9,1.3,1.4*3C
$GPRMC,183522.000,A,1828.8039,S,07019.5654,W,22.43,207.14,300411,,,A*52
$GPGGA,183523.000,1828.8096,S,07019.5682,W,1,08,1.3,-1.5,M,34.7,M,,0000*7C
$GPGSA,M,3,30,18,22,16,06,03,31,25,,,,,1.9,1.3,1.4*3C
$GPRMC,183523.000,A,1828.8096,S,07019.5682,W,22.67,204.91,300411,,,A*55
$GPGGA,183524.000,1828.8151,S,07019.5715,W,1,08,1.3,-1.5,M,34.7,M,,0000*7E
$GPGSA,M,3,30,18,22,16,06,03,31,25,,,,,1.9,1.3,1.4*3C
$GPGSV,3,1,12,30,69,249,37,18,63,099,37,22,62,009,40,16,48,222,35*71
$GPGSV,3,2,12,21,32,148,,06,29,214,32,03,19,222,37,31,18,330,38*72
$GPGSV,3,3,12,29,15,087,,25,12,030,37,14,07,013,34,15,00,111,*7B
$GPRMC,183524.000,A,1828.8151,S,07019.5715,W,22.35,207.70,300411,,,A*5C
$GPGGA,183525.000,1828.8208,S,07019.5740,W,1,08,1.3,0.4,M,34.7,M,,0000*5D
$GPGSA,M,3,30,18,22,16,06,03,31,25,,,,,1.9,1.3,1.4*3C
$GPRMC,183525.000,A,1828.8208,S,07019.5740,W,21.99,209.10,300411,,,A*5F
$GPGGA,183526.000,1828.8261,S,07019.5772,W,1,08,1.3,0.1,M,34.7,M,,0000*55
$GPGSA,M,3,30,18,22,16,06,03,31,25,,,,,1.9,1.3,1.4*3C
$GPRMC,183526.000,A,1828.8261,S,07019.5772,W,21.74,208.92,300411,,,A*5A
$GPGGA,183527.000,1828.8314,S,07019.5801,W,1,08,1.3,0.2,M,34.7,M,,0000*5F
$GPGSA,M,3,30,18,22,16,06,03,31,25,,,,,1.9,1.3,1.4*3C
$GPRMC,183527.000,A,1828.8314,S,07019.5801,W,21.67,210.72,300411,,,A*56
$GPGGA,183528.001,1828.8370,S,07019.5830,W,1,09,1.0,0.1,M,34.7,M,,0000*50
$GPGSA,M,3,30,18,22,16,21,06,03,31,25,,,,1.6,1.0,1.3*34
$GPRMC,183528.001,A,1828.8370,S,07019.5830,W,21.71,210.61,300411,,,A*5D
$GPGGA,183529.000,1828.8430,S,07019.5854,W,1,09,1.0,-0.1,M,34.7,M,,0000*7C
$GPGSA,M,3,30,18,22,16,21,06,03,31,25,,,,1.6,1.0,1.3*34
$GPGSV,3,1,12,30,69,249,39,18,63,099,38,22,62,009,40,16,48,222,36*73
$GPGSV,3,2,12,21,32,148,37,06,29,214,31,03,19,222,37,31,18,330,39*74
$GPGSV,3,3,12,29,15,087,,25,12,030,37,14,07,013,35,15,00,111,*7A
$GPRMC,183529.000,A,1828.8430,S,07019.5854,W,21.57,210.50,300411,,,A*5A
$GPGGA,183530.000,1828.8488,S,07019.5878,W,1,09,1.0,0.3,M,34.7,M,,0000*56
$GPGSA,M,3,30,18,22,16,21,06,03,31,25,,,,1.6,1.0,1.3*34
$GPRMC,183530.000,A,1828.8488,S,07019.5878,W,21.27,209.51,300411,,,A*51
$GPGGA,183530.999,1828.8540,S,07019.5906,W,1,09,1.0,-0.1,M,34.7,M,,0000*7D
$GPGSA,M,3,30,22,18,16,21,06,03,31,25,,,,1.6,1.0,1.3*34
$GPRMC,183530.999,A,1828.8540,S,07019.5906,W,21.05,210.38,300411,,,A*52
$GPGGA,183532.000,1828.8599,S,07019.5928,W,1,09,1.0,-0.6,M,34.7,M,,0000*79
$GPGSA,M,3,30,22,18,16,21,06,03,31,25,,,,1.6,1.0,1.3*34
$GPRMC,183532.000,A,1828.8599,S,07019.5928,W,20.86,208.63,300411,,,A*5C
$GPGGA,183533.000,1828.8652,S,07019.5957,W,1,09,1.0,-1.2,M,34.7,M,,0000*71
$GPGSA,M,3,30,22,18,16,21,06,03,31,25,,,,1.6,1.0,1.3*34
$GPRMC,183533.000,A,1828.8652,S,07019.5957,W,20.73,208.01,300411,,,A*5F
$GPGGA,183534.000,1828.8705,S,07019.5990,W,1,09,1.0,-1.6,M,34.7,M,,0000*7A
$GPGSA,M,3,30,22,18,16,21,06,03,31,25,,,,1.6,1.0,1.3*34
$GPGSV,3,1,12,30,70,253,37,22,63,010,40,18,63,103,36,16,49,223,36*7B
$GPGSV,3,2,12,21,31,147,38,06,30,213,33,03,20,221,38,31,17,331,37*7C
$GPGSV,3,3,12,29,15,086,,25,10,030,37,14,08,015,35,15,00,113,*72
$GPRMC,183534.000,A,1828.8705,S,07019.5990,W,21.83,207.53,300411,,,A*56
$GPGGA,183535.000,1828.8760,S,07019.6022,W,1,09,1.0,-2.2,M,34.7,M,,0000*7C
$GPGSA,M,3,30,22,18,16,21,06,03,31,25,,,,1.6,1.0,1.3*34
$GPRMC,183535.000,A,1828.8760,S,07019.6022,W,22.19,205.09,300411,,,A*5A
$GPGGA,183536.000,1828.8816,S,07019.6050,W,1,09,1.0,-1.3,M,34.7,M,,0000*76
$GPGSA,M,3,30,22,18,16,21,06,03,31,25,,,,1.6,1.0,1.3*34
$GPRMC,183536.000,A,1828.8816,S,07019.6050,W,22.65,203.43,300411,,,A*51
$GPGGA,183537.000,1828.8878,S,07019.6072,W,1,09,1.0,-2.0,M,34.7,M,,0000*7F
$GPGSA,M,3,30,22,18,16,21,06,03,31,25,,,,1.6,1.0,1.3*34
$GPRMC,183537.000,A,1828.8878,S,07019.6072,W,23.00,199.92,300411,,,A*56
$GPGGA,183538.000,1828.8941,S,07019.6093,W,1,09,1.0,-2.6,M,34.7,M,,0000*72
$GPGSA,M,3,30,22,18,16,21,06,03,31,25,,,,1.6,1.0,1.3*34
$GPRMC,183538.000,A,1828.8941,S,07019.6093,W,23.05,195.35,300411,,,A*59
$GPGGA,183539.000,1828.9005,S,07019.6111,W,1,09,1.0,-2.3,M,34.7,M,,0000*75
$GPGSA,M,3,30,22,18,16,21,06,03,31,25,,,,1.6,1.0,1.3*34
$GPGSV,3,1,12,30,70,253,38,22,63,010,40,18,63,103,39,16,49,223,35*78
$GPGSV,3,2,12,21,31,147,33,06,30,213,38,03,20,221,40,31,17,331,36*72
$GPGSV,3,3,12,29,15,086,,25,10,030,37,14,08,015,24,15,00,113,*72
$GPRMC,183539.000,A,1828.9005,S,07019.6111,W,23.56,190.90,300411,,,A*57
$GPGGA,183539.997,1828.9069,S,07019.6126,W,1,08,1.3,-2.8,M,34.7,M,,0000*75
$GPGSA,M,3,30,22,18,16,06,03,31,25,,,,,1.9,1.3,1.4*3C
$GPRMC,183539.997,A,1828.9069,S,07019.6126,W,23.51,188.90,300411,,,A*50
$GPGGA,183541.003,1828.9136,S,07019.6128,W,1,09,1.0,-1.0,M,34.7,M,,0000*72
$GPGSA,M,3,30,22,18,16,21,06,03,31,25,,,,1.6,1.0,1.3*34
$GPRMC,183541.003,A,1828.9136,S,07019.6128,W,23.53,184.45,300411,,,A*58
$GPGGA,183541.998,1828.9201,S,07019.6130,W,1,08,1.3,-1.0,M,34.7,M,,0000*75
$GPGSA,M,3,30,22,18,16,06,03,31,25,,,,,1.9,1.3,1.4*3C
$GPRMC,183541.998,A,1828.9201,S,07019.6130,W,23.23,181.45,300411,,,A*5F
$GPGGA,183543.002,1828.9263,S,07019.6128,W,1,09,1.0,-0.2,M,34.7,M,,0000*71
$GPGSA,M,3,30,22,18,16,21,06,03,31,25,,,,1.6,1.0,1.3*34
$GPRMC,183543.002,A,1828.9263,S,07019.6128,W,23.30,176.51,300411,,,A*55
$GPGGA,183544.000,1828.9330,S,07019.6122,W,1,09,1.0,-0.3,M,34.7,M,,0000*78
$GPGSA,M,3,30,22,18,16,21,06,03,31,25,,,,1.6,1.0,1.3*34
$GPGSV,3,1,12,30,70,253,36,22,63,010,38,18,63,103,40,16,49,223,36*74
$GPGSV,3,2,12,21,31,147,29,06,30,213,40,03,20,221,37,31,17,331,35*75
$GPGSV,3,3,12,29,15,086,,25,10,030,33,14,08,015,32,15,00,113,*71
$GPRMC,183544.000,A,1828.9330,S,07019.6122,W,23.55,172.84,300411,,,A*52
$GPGGA,183545.000,1828.9394,S,07019.6108,W,1,09,1.0,-0.8,M,34.7,M,,0000*74
$GPGSA,M,3,30,22,18,16,21,06,03,31,25,,,,1.6,1.0,1.3*34
$GPRMC,183545.000,A,1828.9394,S,07019.6108,W,23.74,168.91,300411,,,A*59
$GPGGA,183545.998,1828.9459,S,07019.6093,W,1,08,1.3,-0.6,M,34.7,M,,0000*75
$GPGSA,M,3,30,22,18,16,06,03,31,25,,,,,1.9,1.3,1.4*3C
$GPRMC,183545.998,A,1828.9459,S,07019.6093,W,23.99,163.92,300411,,,A*5F
$GPGGA,183547.000,1828.9522,S,07019.6072,W,1,08,1.3,-0.3,M,34.7,M,,0000*78
$GPGSA,M,3,30,22,18,16,06,03,31,25,,,,,1.9,1.3,1.4*3C
$GPRMC,183547.000,A,1828.9522,S,07019.6072,W,23.85,161.42,300411,,,A*55
$GPGGA,183548.000,1828.9587,S,07019.6046,W,1,08,1.3,0.0,M,34.7,M,,0000*51
$GPGSA,M,3,30,22,18,16,06,03,31,25,,,,,1.9,1.3,1.4*3C
$GPRMC,183548.000,A,1828.9587,S,07019.6046,W,23.89,157.27,300411,,,A*58
$GPGGA,183549.000,1828.9647,S,07019.6018,W,1,08,1.2,0.1,M,34.7,M,,0000*54
$GPGSA,M,3,30,22,18,16,21,06,03,31,,,,,2.0,1.2,1.6*31
$GPGSV,3,1,12,30,70,253,39,22,63,010,36,18,63,103,39,16,49,223,39*74
$GPGSV,3,2,12,21,31,147,32,06,30,213,37,03,20,221,39,31,17,331,36*72
$GPGSV,3,3,12,29,15,086,,25,10,030,,14,08,015,31,15,00,113,*72
$GPRMC,183549.000,A,1828.9647,S,07019.6018,W,23.79,154.90,300411,,,A*5D
$GPGGA,183550.000,1828.9707,S,07019.5989,W,1,08,1.2,1.6,M,34.7,M,,0000*5D
$GPGSA,M,3,30,22,18,16,21,06,03,31,,,,,2.0,1.2,1.6*31
$GPRMC,183550.000,A,1828.9707,S,07019.5989,W,24.48,151.75,300411,,,A*59
$GPGGA,183550.998,1828.9765,S,07019.5957,W,1,08,1.2,1.9,M,34.7,M,,0000*5D
$GPGSA,M,3,30,22,18,16,21,06,03,31,,,,,2.0,1.2,1.6*31
$GPRMC,183550.998,A,1828.9765,S,07019.5957,W,23.67,149.97,300411,,,A*59
$GPGGA,183552.000,1828.9820,S,07019.5925,W,1,08,1.2,2.9,M,34.7,M,,0000*5F
$GPGSA,M,3,30,22,18,16,21,06,03,31,,,,,2.0,1.2,1.6*31
$GPRMC,183552.000,A,1828.9820,S,07019.5925,W,24.01,147.92,300411,,,A*54
$GPGGA,183553.004,1828.9875,S,07019.5887,W,1,08,1.2,3.4,M,34.7,M,,0000*5F
$GPGSA,M,3,30,22,18,16,21,06,03,31,,,,,2.0,1.2,1.6*31
$GPRMC,183553.004,A,1828.9875,S,07019.5887,W,23.63,147.90,300411,,,A*59
$GPGGA,183553.996,1828.9933,S,07019.5851,W,1,08,1.2,4.1,M,34.7,M,,0000*57
$GPGSA,M,3,30,22,18,16,21,06,03,31,,,,,2.0,1.2,1.6*31
$GPGSV,3,1,12,30,70,253,40,22,63,010,36,18,63,103,38,16,49,223,38*7A
$GPGSV,3,2,12,21,31,147,32,06,30,213,39,03,20,221,38,31,17,331,36*7D
$GPGSV,3,3,12,29,15,086,,25,10,030,,14,08,015,,15,00,113,*70
$GPRMC,183553.996,A,1828.9933,S,07019.5851,W,23.66,149.35,300411,,,A*57
$GPGGA,183555.000,1828.9991,S,07019.5821,W,1,08,1.2,5.5,M,34.7,M,,0000*5D
$GPGSA,M,3,30,22,18,16,21,06,03,31,,,,,2.0,1.2,1.6*31
$GPRMC,183555.000,A,1828.9991,S,07019.5821,W,23.42,154.53,300411,,,A*52
$GPGGA,183556.004,1829.0052,S,07019.5790,W,1,08,1.2,5.9,M,34.7,M,,0000*5D
$GPGSA,M,3,30,22,18,16,21,06,03,31,,,,,2.0,1.2,1.6*31
$GPRMC,183556.004,A,1829.0052,S,07019.5790,W,23.76,157.57,300411,,,A*5E
$GPGGA,183556.996,1829.0114,S,07019.5764,W,1,08,1.2,6.1,M,34.7,M,,0000*5C
$GPGSA,M,3,30,22,18,16,21,06,03,31,,,,,2.0,1.2,1.6*31
$GPRMC,183556.996,A,1829.0114,S,07019.5764,W,23.77,160.10,300411,,,A*52
$GPGGA,183558.000,1829.0176,S,07019.5740,W,1,08,1.2,6.7,M,34.7,M,,0000*50
$GPGSA,M,3,30,22,18,16,21,06,03,31,,,,,2.0,1.2,1.6*31
$GPRMC,183558.000,A,1829.0176,S,07019.5740,W,23.81,161.33,300411,,,A*51
$GPGGA,183559.002,1829.0241,S,07019.5719,W,1,07,2.0,7.7,M,34.7,M,,0000*57
$GPGSA,M,3,30,22,18,16,21,06,03,,,,,,3.7,2.0,3.2*32
$GPGSV,3,1,12,30,70,253,37,22,63,010,38,18,63,103,37,16,49,223,36*75
$GPGSV,3,2,12,21,31,147,33,06,30,213,39,03,20,221,31,31,17,331,*70
$GPGSV,3,3,12,29,15,086,,25,10,030,,14,08,015,,15,00,113,*70
$GPRMC,183559.002,A,1829.0241,S,07019.5719,W,23.95,163.82,300411,,,A*54
$GPGGA,183559.998,1829.0303,S,07019.5705,W,1,08,1.2,7.9,M,34.7,M,,0000*57
$GPGSA,M,3,30,22,18,16,21,06,03,31,,,,,2.0,1.2,1.6*31
$GPRMC,183559.998,A,1829.0303,S,07019.5705,W,23.22,168.97,300411,,,A*57
$GPGGA,183601.000,1829.0368,S,07019.5689,W,1,08,1.2,8.0,M,34.7,M,,0000*5F
$GPGSA,M,3,30,22,18,16,21,06,03,31,,,,,2.0,1.2,1.6*31
$GPRMC,183601.000,A,1829.0368,S,07019.5689,W,23.08,172.89,300411,,,A*55
$GPGGA,183602.000,1829.0434,S,07019.5678,W,1,08,1.2,7.5,M,34.7,M,,0000*56
$GPGSA,M,3,30,22,18,16,21,06,03,31,,,,,2.0,1.2,1.6*31
$GPRMC,183602.000,A,1829.0434,S,07019.5678,W,22.43,177.32,300411,,,A*5D
$GPGGA,183603.000,1829.0499,S,07019.5670,W,1,08,1.2,6.7,M,34.7,M,,0000*5B
$GPGSA,M,3,30,22,18,16,21,06,03,31,,,,,2.0,1.2,1.6*31
$GPRMC,183603.000,A,1829.0499,S,07019.5670,W,21.87,179.86,300411,,,A*59
$GPGGA,183604.000,1829.0560,S,07019.5669,W,1,08,1.2,6.1,M,34.7,M,,0000*55
$GPGSA,M,3,30,22,18,16,21,06,03,31,,,,,2.0,1.2,1.6*31
$GPGSV,3,1,12,30,70,253,37,22,63,010,39,18,63,103,39,16,49,223,34*78
$GPGSV,3,2,12,21,31,147,35,06,30,213,39,03,20,221,37,31,17,331,29*7B
$GPGSV,3,3,12,29,15,086,,25,10,030,,14,08,015,,15,00,113,*70
$GPRMC,183604.000,A,1829.0560,S,07019.5669,W,20.16,179.62,300411,,,A*52
$GPGGA,183605.000,1829.0615,S,07019.5666,W,1,08,1.2,6.0,M,34.7,M,,0000*5B
$GPGSA,M,3,30,22,18,16,21,06,03,31,,,,,2.0,1.2,1.6*31
$GPRMC,183605.000,A,1829.0615,S,07019.5666,W,18.41,180.60,300411,,,A*50
$GPGGA,183606.000,1829.0668,S,07019.5661,W,1,08,1.2,5.1,M,34.7,M,,0000*57
$GPGSA,M,3,30,22,18,16,21,06,03,31,,,,,2.0,1.2,1.6*31
$GPRMC,183606.000,A,1829.0668,S,07019.5661,W,17.21,178.96,300411,,,A*59
$GPGGA,183607.000,1829.0714,S,07019.5660,W,1,08,1.2,6.0,M,34.7,M,,0000*5F
$GPGSA,M,3,30,22,18,16,21,06,03,31,,,,,2.0,1.2,1.6*31
$GPRMC,183607.000,A,1829.0714,S,07019.5660,W,15.52,178.29,300411,,,A*51
$GPGGA,183608.000,1829.0753,S,07019.5656,W,1,08,1.2,6.9,M,34.7,M,,0000*5F
$GPGSA,M,3,30,22,18,16,21,06,03,31,,,,,2.0,1.2,1.6*31
$GPRMC,183608.000,A,1829.0753,S,07019.5656,W,13.45,176.74,300411,,,A*5E
$GPGGA,183609.000,1829.0787,S,07019.5654,W,1,08,1.2,8.3,M,34.7,M,,0000*51
$GPGSA,M,3,30,22,18,16,21,06,03,31,,,,,2.0,1.2,1.6*31
$GPGSV,3,1,12,30,70,253,36,22,63,010,39,18,63,103,40,16,49,223,35*76
$GPGSV,3,2,12,21,31,147,35,06,30,213,40,03,20,221,38,31,17,331,31*73
$GPGSV,3,3,12,29,15,086,,25,10,030,,14,08,015,,15,00,113,*70
$GPRMC,183609.000,A,1829.0787,S,07019.5654,W,11.76,177.45,300411,,,A*55
$GPGGA,183610.000,1829.0818,S,07019.5651,W,1,08,1.2,8.6,M,34.7,M,,0000*50
$GPGSA,M,3,30,22,18,16,21,06,03,31,,,,,2.0,1.2,1.6*31
$GPRMC,183610.000,A,1829.0818,S,07019.5651,W,10.29,179.34,300411,,,A*52
$GPGGA,183611.000,1829.0844,S,07019.5652,W,1,08,1.2,9.5,M,34.7,M,,0000*59
$GPGSA,M,3,30,22,18,16,21,06,03,31,,,,,2.0,1.2,1.6*31
$GPRMC,183611.000,A,1829.0844,S,07019.5652,W,9.16,179.26,300411,,,A*6E
$GPGGA,183612.000,1829.0866,S,07019.5654,W,1,08,1.2,9.7,M,34.7,M,,0000*5E
$GPGSA,M,3,30,22,18,16,21,06,03,31,,,,,2.0,1.2,1.6*31
$GPRMC,183612.000,A,1829.0866,S,07019.5654,W,7.46,177.80,300411,,,A*62
$GPGGA,183613.000,1829.0884,S,07019.5654,W,1,08,1.2,9.5,M,34.7,M,,0000*51
$GPGSA,M,3,30,22,18,16,21,06,03,31,,,,,2.0,1.2,1.6*31
$GPRMC,183613.000,A,1829.0884,S,07019.5654,W,6.38,183.37,300411,,,A*60
$GPGGA,183614.000,1829.0899,S,07019.5659,W,1,08,1.2,10.2,M,34.7,M,,0000*68
$GPGSA,M,3,30,22,18,16,21,06,03,31,,,,,2.0,1.2,1.6*31
$GPGSV,3,1,12,30,70,253,34,22,63,010,40,18,63,103,39,16,49,223,36*77
$GPGSV,3,2,12,21,31,147,29,06,30,213,39,03,20,221,37,31,17,331,32*7C
$GPGSV,3,3,12,29,15,086,,25,10,030,,14,08,015,,15,00,113,*70
$GPRMC,183614.000,A,1829.0899,S,07019.5659,W,5.34,185.23,300411,,,A*6A
$GPGGA,183615.000,1829.0910,S,07019.5657,W,1,08,1.2,10.4,M,34.7,M,,0000*61
$GPGSA,M,3,30,22,18,16,21,06,03,31,,,,,2.0,1.2,1.6*31
$GPRMC,183615.000,A,1829.0910,S,07019.5657,W,3.99,180.74,300411,,,A*63
$GPGGA,183616.002,1829.0918,S,07019.5658,W,1,07,1.8,10.9,M,34.7,M,,0000*6F
$GPGSA,M,3,30,22,18,16,06,03,31,,,,,,2.7,1.8,2.1*3B
$GPRMC,183616.002,A,1829.0918,S,07019.5658,W,2.91,177.50,300411,,,A*62
$GPGGA,183616.998,1829.0923,S,07019.5660,W,1,08,1.2,11.4,M,34.7,M,,0000*6F
$GPGSA,M,3,30,22,18,16,21,06,03,31,,,,,2.0,1.2,1.6*31
$GPRMC,183616.998,A,1829.0923,S,07019.5660,W,0.95,180.79,300411,,,A*6E
$GPGGA,183618.000,1829.0923,S,07019.5660,W,1,08,1.2,11.5,M,34.7,M,,0000*68
$GPGSA,M,3,30,22,18,16,21,06,03,31,,,,,2.0,1.2,1.6*31
$GPRMC,183618.000,A,1829.0923,S,07019.5660,W,0.34,244.40,300411,,,A*62
$GPGGA,183618.999,1829.0922,S,07019.5660,W,1,08,1.2,10.9,M,34.7,M,,0000*6D
$GPGSA,M,3,30,22,18,16,21,06,03,31,,,,,2.0,1.2,1.6*31
$GPGSV,3,1,12,30,70,253,36,22,63,010,40,18,63,103,40,16,49,223,36*7B
$GPGSV,3,2,12,21,31,147,29,06,30,213,39,03,20,221,38,31,17,331,36*77
$GPGSV,3,3,12,29,15,086,,25,10,030,,14,08,015,,15,00,113,*70
$GPRMC,183618.999,A,1829.0922,S,07019.5660,W,0.48,122.94,300411,,,A*6B
$GPGGA,183620.003,1829.0921,S,07019.5659,W,1,08,1.2,10.4,M,34.7,M,,0000*68
$GPGSA,M,3,30,22,18,16,21,06,03,31,,,,,2.0,1.2,1.6*31
$GPRMC,183620.003,A,1829.0921,S,07019.5659,W,0.31,176.08,300411,,,A*69
$GPGGA,183620.997,1829.0919,S,07019.5658,W,1,08,1.2,9.9,M,34.7,M,,0000*53
$GPGSA,M,3,30,22,18,16,21,06,03,31,,,,,2.0,1.2,1.6*31
$GPRMC,183620.997,A,1829.0919,S,07019.5658,W,0.47,96.29,300411,,,A*5A
$GPGGA,183621.999,1829.0919,S,07019.5661,W,1,08,1.2,10.9,M,34.7,M,,0000*6E
$GPGSA,M,3,30,22,18,16,21,06,03,31,,,,,2.0,1.2,1.6*31
$GPRMC,183621.999,A,1829.0919,S,07019.5661,W,0.24,220.79,300411,,,A*60
$GPGGA,183623.003,1829.0917,S,07019.5664,W,1,08,1.2,12.4,M,34.7,M,,0000*62
$GPGSA,M,3,30,22,18,16,21,06,03,31,,,,,2.0,1.2,1.6*31
$GPRMC,183623.003,A,1829.0917,S,07019.5664,W,0.38,171.94,300411,,,A*6A
$GPGGA,183623.996,1829.0919,S,07019.5664,W,1,08,1.2,12.5,M,34.7,M,,0000*68
$GPGSA,M,3,30,22,18,16,21,06,03,31,,,,,2.0,1.2,1.6*31
$GPGSV,3,1,12,30,70,253,37,22,63,010,39,18,63,103,38,16,49,223,34*79
$GPGSV,3,2,12,21,31,147,31,06,30,213,37,03,20,221,37,31,17,331,34*7D
$GPGSV,3,3,12,29,15,086,,25,10,030,,14,08,015,,15,00,113,*70
$GPRMC,183623.996,A,1829.0919,S,07019.5664,W,0.28,171.46,300411,,,A*6F
$GPGGA,183625.000,1829.0917,S,07019.5667,W,1,08,1.2,13.2,M,34.7,M,,0000*63
$GPGSA,M,3,30,22,18,16,21,06,03,31,,,,,2.0,1.2,1.6*31
$GPRMC,183625.000,A,1829.0917,S,07019.5667,W,0.42,302.38,300411,,,A*61
$GPGGA,183626.004,1829.0916,S,07019.5672,W,1,08,1.2,14.2,M,34.7,M,,0000*66
$GPGSA,M,3,30,22,18,16,21,06,03,31,,,,,2.0,1.2,1.6*31
$GPRMC,183626.004,A,1829.0916,S,07019.5672,W,0.16,108.12,300411,,,A*62
$GPGGA,183626.996,1829.0916,S,07019.5671,W,1,08,1.2,14.0,M,34.7,M,,0000*65
$GPGSA,M,3,30,22,18,16,21,06,03,31,,,,,2.0,1.2,1.6*31
$GPRMC,183626.996,A,1829.0916,S,07019.5671,W,0.57,164.75,300411,,,A*6D
$GPGGA,183628.000,1829.0914,S,07019.5666,W,1,08,1.2,12.7,M,34.7,M,,0000*68
$GPGSA,M,3,30,22,18,16,21,06,03,31,,,,,2.0,1.2,1.6*31
$GPRMC,183628.000,A,1829.0914,S,07019.5666,W,0.14,295.31,300411,,,A*6B
$GPGGA,183629.004,1829.0913,S,07019.5664,W,1,08,1.2,12.1,M,34.7,M,,0000*6E
$GPGSA,M,3,30,22,18,16,21,06,03,31,,,,,2.0,1.2,1.6*31
$GPGSV,3,1,12,30,70,253,36,22,63,010,38,18,63,103,39,16,49,223,36*7A
$GPGSV,3,2,12,21,31,147,35,06,30,213,39,03,20,221,37,31,17,331,32*71
$GPGSV,3,3,12,29,15,086,,25,10,030,,14,08,015,,15,00,113,*70
$GPRMC,183629.004,A,1829.0913,S,07019.5664,W,0.21,11.54,300411,,,A*50
$GPGGA,183629.996,1829.0912,S,07019.5666,W,1,08,1.2,12.0,M,34.7,M,,0000*6E
$GPGSA,M,3,30,22,18,16,21,06,03,31,,,,,2.0,1.2,1.6*31
$GPRMC,183629.996,A,1829.0912,S,07019.5666,W,0.31,345.14,300411,,,A*66
$GPGGA,183631.000,1829.0914,S,07019.5670,W,1,08,1.2,12.3,M,34.7,M,,0000*63
$GPGSA,M,3,30,22,18,16,21,06,03,31,,,,,2.0,1.2,1.6*31
$GPRMC,183631.000,A,1829.0914,S,07019.5670,W,0.10,184.28,300411,,,A*6B
$GPGGA,183632.004,1829.0915,S,07019.5675,W,1,08,1.2,13.0,M,34.7,M,,0000*62
$GPGSA,M,3,30,22,18,16,21,06,03,31,,,,,2.0,1.2,1.6*31
$GPRMC,183632.004,A,1829.0915,S,07019.5675,W,0.28,193.93,300411,,,A*65
$GPGGA,183632.996,1829.0915,S,07019.5680,W,1,08,1.2,13.8,M,34.7,M,,0000*62
$GPGSA,M,3,30,22,18,16,21,06,03,31,,,,,2.0,1.2,1.6*31
$GPRMC,183632.996,A,1829.0915,S,07019.5680,W,0.18,249.77,300411,,,A*60
$GPGGA,183634.000,1829.0916,S,07019.5679,W,1,08,1.2,13.6,M,34.7,M,,0000*69
$GPGSA,M,3,30,22,18,16,21,06,03,31,,,,,2.0,1.2,1.6*31
$GPGSV,3,1,12,30,70,253,37,22,63,010,39,18,63,103,39,16,49,223,36*7A
$GPGSV,3,2,12,21,31,147,35,06,30,213,38,03,20,221,38,31,17,331,32*7F
$GPGSV,3,3,12,29,15,086,,25,10,030,,14,08,015,,15,00,113,*70
$GPRMC,183634.000,A,1829.0916,S,07019.5679,W,0.25,152.50,300411,,,A*67
$GPGGA,183635.000,1829.0917,S,07019.5675,W,1,08,1.2,12.7,M,34.7,M,,0000*65
$GPGSA,M,3,30,22,18,16,21,06,03,31,,,,,2.0,1.2,1.6*31
$GPRMC,183635.000,A,1829.0917,S,07019.5675,W,0.05,58.58,300411,,,A*5A
$GPGGA,183636.000,1829.0918,S,07019.5678,W,1,08,1.2,12.9,M,34.7,M,,0000*6A
$GPGSA,M,3,30,22,18,16,21,06,03,31,,,,,2.0,1.2,1.6*31
$GPRMC,183636.000,A,1829.0918,S,07019.5678,W,0.73,293.89,300411,,,A*63
$GPGGA,183637.000,1829.0918,S,07019.5677,W,1,08,1.2,12.2,M,34.7,M,,0000*6F
$GPGSA,M,3,30,22,18,16,21,06,03,31,,,,,2.0,1.2,1.6*31
$GPRMC,183637.000,A,1829.0918,S,07019.5677,W,0.09,63.94,300411,,,A*51
$GPGGA,183638.000,1829.0919,S,07019.5679,W,1,08,1.2,12.7,M,34.7,M,,0000*6A
$GPGSA,M,3,30,22,18,16,21,06,03,31,,,,,2.0,1.2,1.6*31
$GPRMC,183638.000,A,1829.0919,S,07019.5679,W,0.32,101.76,300411,,,A*60
$GPGGA,183639.000,1829.0920,S,07019.5675,W,1,08,1.2,11.6,M,34.7,M,,0000*6F
$GPGSA,M,3,30,22,18,16,21,06,03,31,,,,,2.0,1.2,1.6*31
$GPGSV,3,1,12,30,70,253,36,22,63,010,39,18,63,103,40,16,49,223,36*75
$GPGSV,3,2,12,21,31,147,36,06,30,213,40,03,20,221,38,31,17,331,30*71
$GPGSV,3,3,12,29,15,086,,25,10,030,,14,08,015,,15,00,113,*70
$GPRMC,183639.000,A,1829.0920,S,07019.5675,W,0.19,329.94,300411,,,A*6A
$GPGGA,183640.000,1829.0920,S,07019.5677,W,1,08,1.2,11.8,M,34.7,M,,0000*6D
$GPGSA,M,3,30,22,18,16,21,06,03,31,,,,,2.0,1.2,1.6*31
$GPRMC,183640.000,A,1829.0920,S,07019.5677,W,0.33,257.91,300411,,,A*63
$GPGGA,183641.000,1829.0920,S,07019.5674,W,1,08,1.2,10.8,M,34.7,M,,0000*6E
$GPGSA,M,3,30,22,18,16,21,06,03,31,,,,,2.0,1.2,1.6*31
$GPRMC,183641.000,A,1829.0920,S,07019.5674,W,0.40,337.45,300411,,,A*6B
$GPGGA,183642.000,1829.0917,S,07019.5673,W,1,08,1.2,10.2,M,34.7,M,,0000*64
$GPGSA,M,3,30,22,18,16,21,06,03,31,,,,,2.0,1.2,1.6*31
$GPRMC,183642.000,A,1829.0917,S,07019.5673,W,0.57,314.63,300411,,,A*68
$GPGGA,183643.000,1829.0917,S,07019.5669,W,1,08,1.2,9.2,M,34.7,M,,0000*56
$GPGSA,M,3,30,22,18,16,21,06,03,31,,,,,2.0,1.2,1.6*31
$GPRMC,183643.000,A,1829.0917,S,07019.5669,W,0.13,304.25,300411,,,A*61
$GPGGA,183644.000,1829.0919,S,07019.5668,W,1,08,1.2,9.2,M,34.7,M,,0000*5E
$GPGSA,M,3,30,22,18,16,21,06,03,31,,,,,2.0,1.2,1.6*31
$GPGSV,3,1,12,30,70,253,36,22,63,010,38,18,63,103,40,16,49,223,34*76
$GPGSV,3,2,12,21,31,147,30,06,30,213,39,03,20,221,37,31,17,331,28*7F
$GPGSV,3,3,12,29,15,086,,25,10,030,,14,08,015,,15,00,113,*70
$GPRMC,183644.000,A,1829.0919,S,07019.5668,W,0.28,245.55,300411,,,A*62
$GPGGA,183645.000,1829.0916,S,07019.5669,W,1,08,1.2,9.7,M,34.7,M,,0000*54
$GPGSA,M,3,30,22,18,16,21,06,03,31,,,,,2.0,1.2,1.6*31
$GPRMC,183645.000,A,1829.0916,S,07019.5669,W,0.60,341.33,300411,,,A*64
$GPGGA,183646.000,1829.0913,S,07019.5669,W,1,08,1.2,9.7,M,34.7,M,,0000*52
$GPGSA,M,3,30,22,18,16,21,06,03,31,,,,,2.0,1.2,1.6*31
$GPRMC,183646.000,A,1829.0913,S,07019.5669,W,0.58,241.57,300411,,,A*6A
$GPGGA,183647.000,1829.0911,S,07019.5673,W,1,08,1.2,10.1,M,34.7,M,,0000*64
$GPGSA,M,3,30,22,18,16,21,06,03,31,,,,,2.0,1.2,1.6*31
$GPRMC,183647.000,A,1829.0911,S,07019.5673,W,0.39,326.38,300411,,,A*6C
$GPGGA,183648.000,1829.0910,S,07019.5673,W,1,08,1.2,11.5,M,34.7,M,,0000*6F
$GPGSA,M,3,30,22,18,16,21,06,03,31,,,,,2.0,1.2,1.6*31
$GPRMC,183648.000,A,1829.0910,S,07019.5673,W,0.38,99.32,300411,,,A*5E
$GPGGA,183649.000,1829.0909,S,07019.5670,W,1,08,1.2,10.8,M,34.7,M,,0000*69
$GPGSA,M,3,30,22,18,16,21,06,03,31,,,,,2.0,1.2,1.6*31
$GPGSV,3,1,12,30,70,253,36,22,63,010,38,18,63,103,40,16,49,223,35*77
$GPGSV,3,2,12,21,31,147,31,06,30,213,39,03,20,221,38,31,17,331,30*78
$GPGSV,3,3,12,29,15,086,,25,10,030,,14,08,015,,15,00,113,*70
$GPRMC,183649.000,A,1829.0909,S,07019.5670,W,0.73,96.11,300411,,,A*55
$GPGGA,183650.000,1829.0908,S,07019.5669,W,1,08,1.2,11.7,M,34.7,M,,0000*66
$GPGSA,M,3,30,22,18,16,21,06,03,31,,,,,2.0,1.2,1.6*31
$GPRMC,183650.000,A,1829.0908,S,07019.5669,W,0.11,177.34,300411,,,A*69
$GPGGA,183651.000,1829.0906,S,07019.5669,W,1,08,1.2,11.5,M,34.7,M,,0000*6B
$GPGSA,M,3,30,22,18,16,21,06,03,31,,,,,2.0,1.2,1.6*31
$GPRMC,183651.000,A,1829.0906,S,07019.5669,W,0.23,137.90,300411,,,A*6D
$GPGGA,183652.000,1829.0905,S,07019.5671,W,1,08,1.2,12.0,M,34.7,M,,0000*64
$GPGSA,M,3,30,22,18,16,21,06,03,31,,,,,2.0,1.2,1.6*31
$GPRMC,183652.000,A,1829.0905,S,07019.5671,W,0.28,113.81,300411,,,A*69
$GPGGA,183653.000,1829.0903,S,07019.5672,W,1,08,1.2,11.7,M,34.7,M,,0000*64
$GPGSA,M,3,30,22,18,16,21,06,03,31,,,,,2.0,1.2,1.6*31
$GPRMC,183653.000,A,1829.0903,S,07019.5672,W,0.31,263.80,300411,,,A*60
$GPGGA,183654.000,1829.0902,S,07019.5675,W,1,08,1.2,13.0,M,34.7,M,,0000*60
$GPGSA,M,3,30,22,18,16,21,06,03,31,,,,,2.0,1.2,1.6*31
$GPGSV,3,1,12,30,70,253,36,22,63,010,40,18,63,103,39,16,49,223,37*74
$GPGSV,3,2,12,21,31,147,32,06,30,213,39,03,20,221,38,31,17,331,30*7B
$GPGSV,3,3,12,29,15,086,,25,10,030,,14,08,015,,15,00,113,*70
$GPRMC,183654.000,A,1829.0902,S,07019.5675,W,0.15,154.99,300411,,,A*68
$GPGGA,183655.003,1829.0903,S,07019.5675,W,1,08,1.2,12.6,M,34.7,M,,0000*64
$GPGSA,M,3,30,22,18,16,21,06,03,31,,,,,2.0,1.2,1.6*31
$GPRMC,183655.003,A,1829.0903,S,07019.5675,W,0.13,212.92,300411,,,A*67
$GPGGA,183655.997,1829.0900,S,07019.5676,W,1,08,1.2,13.4,M,34.7,M,,0000*63
$GPGSA,M,3,30,22,18,16,21,06,03,31,,,,,2.0,1.2,1.6*31
$GPRMC,183655.997,A,1829.0900,S,07019.5676,W,0.57,18.22,300411,,,A*50
$GPGGA,183656.999,1829.0901,S,07019.5673,W,1,08,1.2,13.3,M,34.7,M,,0000*6D
$GPGSA,M,3,30,22,18,16,21,06,03,31,,,,,2.0,1.2,1.6*31
$GPRMC,183656.999,A,1829.0901,S,07019.5673,W,0.38,79.57,300411,,,A*55
$GPGGA,183658.003,1829.0903,S,07019.5675,W,1,08,1.2,14.9,M,34.7,M,,0000*60
$GPGSA,M,3,30,22,18,16,21,06,03,31,,,,,2.0,1.2,1.6*31
$GPRMC,183658.003,A,1829.0903,S,07019.5675,W,1.40,166.50,300411,,,A*63
$GPGGA,183658.999,1829.0910,S,07019.5673,W,1,07,1.8,14.5,M,34.7,M,,0000*67
$GPGSA,M,3,30,22,18,16,06,03,31,,,,,,2.7,1.8,2.1*3B
$GPGSV,3,1,12,30,70,253,37,22,63,010,37,18,63,103,37,16,49,223,39*75
$GPGSV,3,2,12,21,31,147,,06,30,213,37,03,20,221,39,31,17,331,35*70
$GPGSV,3,3,12,29,15,086,,25,10,030,,14,08,015,,15,00,113,*70
$GPRMC,183658.999,A,1829.0910,S,07019.5673,W,3.10,150.24,300411,,,A*6C
$GPGGA,183659.996,1829.0918,S,07019.5663,W,1,08,1.2,13.0,M,34.7,M,,0000*67
$GPGSA,M,3,30,22,18,16,21,06,03,31,,,,,2.0,1.2,1.6*31
$GPRMC,183659.996,A,1829.0918,S,07019.5663,W,4.81,147.81,300411,,,A*6D
$GPGGA,183701.004,1829.0929,S,07019.5660,W,1,08,1.2,12.0,M,34.7,M,,0000*69
$GPGSA,M,3,30,22,18,16,21,06,03,31,,,,,2.0,1.2,1.6*31
$GPRMC,183701.004,A,1829.0929,S,07019.5660,W,5.53,167.45,300411,,,A*66
$GPGGA,183702.000,1829.0950,S,07019.5656,W,1,08,1.2,12.2,M,34.7,M,,0000*67
$GPGSA,M,3,30,22,18,16,21,06,03,31,,,,,2.0,1.2,1.6*31
$GPRMC,183702.000,A,1829.0950,S,07019.5656,W,8.07,175.65,300411,,,A*67
$GPGGA,183702.996,1829.0975,S,07019.5656,W,1,08,1.2,13.0,M,34.7,M,,0000*65
$GPGSA,M,3,30,22,18,16,21,06,03,31,,,,,2.0,1.2,1.6*31
$GPRMC,183702.996,A,1829.0975,S,07019.5656,W,9.03,178.14,300411,,,A*68
$GPGGA,183704.004,1829.1005,S,07019.5655,W,1,08,1.2,12.9,M,34.7,M,,0000*65
$GPGSA,M,3,30,22,18,16,21,06,03,31,,,,,2.0,1.2,1.6*31
$GPGSV,3,1,12,30,70,253,36,22,63,010,40,18,63,103,41,16,49,223,36*7A
$GPGSV,3,2,12,21,31,147,31,06,30,213,39,03,20,221,40,31,17,331,32*75
$GPGSV,3,3,12,29,15,086,,25,10,030,,14,08,015,,15,00,113,*70
$GPRMC,183704.004,A,1829.1005,S,07019.5655,W,11.29,180.04,300411,,,A*57
$GPGGA,183705.000,1829.1037,S,07019.5655,W,1,08,1.2,13.2,M,34.7,M,,0000*6B
$GPGSA,M,3,30,22,18,16,21,06,03,31,,,,,2.0,1.2,1.6*31
$GPRMC,183705.000,A,1829.1037,S,07019.5655,W,12.06,177.73,300411,,,A*55
$GPGGA,183705.996,1829.1075,S,07019.5646,W,1,08,1.2,11.6,M,34.7,M,,0000*6F
$GPGSA,M,3,30,22,18,16,21,06,03,31,,,,,2.0,1.2,1.6*31
$GPRMC,183705.996,A,1829.1075,S,07019.5646,W,13.43,176.39,300411,,,A*58
$GPGGA,183707.004,1829.1116,S,07019.5644,W,1,08,1.2,11.1,M,34.7,M,,0000*6E
$GPGSA,M,3,30,22,18,16,21,06,03,31,,,,,2.0,1.2,1.6*31
$GPRMC,183707.004,A,1829.1116,S,07019.5644,W,15.23,178.24,300411,,,A*5C
$GPGGA,183708.000,1829.1161,S,07019.5642,W,1,08,1.2,11.3,M,34.7,M,,0000*61
$GPGSA,M,3,30,22,18,16,21,06,03,31,,,,,2.0,1.2,1.6*31
$GPRMC,183708.000,A,1829.1161,S,07019.5642,W,16.22,179.27,300411,,,A*51
$GPGGA,183708.996,1829.1206,S,07019.5642,W,1,08,1.2,10.7,M,34.7,M,,0000*60
$GPGSA,M,3,30,22,18,16,21,06,03,31,,,,,2.0,1.2,1.6*31
$GPGSV,3,1,12,30,70,253,35,22,63,010,38,18,63,103,40,16,49,223,35*74
$GPGSV,3,2,12,21,31,147,31,06,30,213,40,03,20,221,37,31,17,331,34*7D
$GPGSV,3,3,12,29,15,086,,25,10,030,,14,08,015,,15,00,113,*70
$GPRMC,183708.996,A,1829.1206,S,07019.5642,W,16.42,179.18,300411,,,A*5F
$GPGGA,183710.002,1829.1258,S,07019.5641,W,1,07,1.8,11.2,M,34.7,M,,0000*64
$GPGSA,M,3,30,22,18,16,06,03,31,,,,,,2.7,1.8,2.1*3B
$GPRMC,183710.002,A,1829.1258,S,07019.5641,W,17.98,177.72,300411,,,A*5E
$GPGGA,183710.998,1829.1307,S,07019.5639,W,1,08,1.2,10.4,M,34.7,M,,0000*68
$GPGSA,M,3,30,22,18,16,21,06,03,31,,,,,2.0,1.2,1.6*31
$GPRMC,183710.998,A,1829.1307,S,07019.5639,W,19.01,177.67,300411,,,A*5A
$GPGGA,183712.002,1829.1362,S,07019.5634,W,1,07,1.8,9.3,M,34.7,M,,0000*54
$GPGSA,M,3,30,22,18,16,06,03,31,,,,,,2.7,1.8,2.1*3B
$GPRMC,183712.002,A,1829.1362,S,07019.5634,W,19.61,177.15,300411,,,A*5F
$GPGGA,183712.998,1829.1415,S,07019.5638,W,1,08,1.2,9.6,M,34.7,M,,0000*55
$GPGSA,M,3,30,22,18,16,21,06,03,31,,,,,2.0,1.2,1.6*31
$GPRMC,183712.998,A,1829.1415,S,07019.5638,W,19.63,179.81,300411,,,A*5F
$GPGGA,183714.000,1829.1472,S,07019.5634,W,1,08,1.2,9.6,M,34.7,M,,0000*56
$GPGSA,M,3,30,22,18,16,21,06,03,31,,,,,2.0,1.2,1.6*31
$GPGSV,3,1,12,30,70,253,36,22,63,010,39,18,63,103,40,16,49,223,37*74
$GPGSV,3,2,12,21,31,147,31,06,30,213,40,03,20,221,36,31,17,331,35*7D
$GPGSV,3,3,12,29,15,086,,25,10,030,,14,08,015,,15,00,113,*70
$GPRMC,183714.000,A,1829.1472,S,07019.5634,W,20.57,176.76,300411,,,A*56
$GPGGA,183715.002,1829.1529,S,07019.5635,W,1,07,1.8,10.0,M,34.7,M,,0000*60
$GPGSA,M,3,30,22,18,16,06,03,31,,,,,,2.7,1.8,2.1*3B
$GPRMC,183715.002,A,1829.1529,S,07019.5635,W,20.80,179.59,300411,,,A*53
$GPGGA,183715.998,1829.1590,S,07019.5631,W,1,08,1.2,10.3,M,34.7,M,,0000*6A
$GPGSA,M,3,30,22,18,16,21,06,03,31,,,,,2.0,1.2,1.6*31
$GPRMC,183715.998,A,1829.1590,S,07019.5631,W,21.80,179.04,300411,,,A*56
$GPGGA,183717.000,1829.1652,S,07019.5632,W,1,08,1.2,10.4,M,34.7,M,,0000*69
$GPGSA,M,3,30,22,18,16,21,06,03,31,,,,,2.0,1.2,1.6*31
$GPRMC,183717.000,A,1829.1652,S,07019.5632,W,22.39,177.64,300411,,,A*5B
$GPGGA,183718.000,1829.1715,S,07019.5629,W,1,08,1.2,10.3,M,34.7,M,,0000*69
$GPGSA,M,3,30,22,18,16,21,06,03,31,,,,,2.0,1.2,1.6*31
$GPRMC,183718.000,A,1829.1715,S,07019.5629,W,23.17,176.70,300411,,,A*55
$GPGGA,183719.000,1829.1779,S,07019.5628,W,1,08,1.2,10.7,M,34.7,M,,0000*67
$GPGSA,M,3,30,22,18,16,21,06,03,31,,,,,2.0,1.2,1.6*31
$GPGSV,3,1,12,30,70,253,36,22,63,010,38,18,63,103,40,16,49,223,37*75
$GPGSV,3,2,12,21,31,147,30,06,30,213,39,03,20,221,36,31,17,331,35*72
$GPGSV,3,3,12,29,15,086,,25,10,030,,14,08,015,,15,00,113,*70
$GPRMC,183719.000,A,1829.1779,S,07019.5628,W,22.92,176.87,300411,,,A*5B
$GPGGA,183720.000,1829.1843,S,07019.5623,W,1,08,1.2,9.3,M,34.7,M,,0000*5C
$GPGSA,M,3,30,22,18,16,21,06,03,31,,,,,2.0,1.2,1.6*31
$GPRMC,183720.000,A,1829.1843,S,07019.5623,W,23.87,176.22,300411,,,A*56
$GPGGA,183721.002,1829.1908,S,07019.5623,W,1,07,1.8,9.6,M,34.7,M,,0000*51
$GPGSA,M,3,30,22,18,16,06,03,31,,,,,,2.7,1.8,2.1*3B
$GPRMC,183721.002,A,1829.1908,S,07019.5623,W,24.43,177.09,300411,,,A*5C
$GPGGA,183722.000,1829.1977,S,07019.5616,W,1,07,1.8,9.0,M,34.7,M,,0000*58
$GPGSA,M,3,30,22,18,16,06,03,31,,,,,,2.7,1.8,2.1*3B
$GPRMC,183722.000,A,1829.1977,S,07019.5616,W,24.80,176.26,300411,,,A*50
$GPGGA,183723.000,1829.2043,S,07019.5614,W,1,07,1.8,8.5,M,34.7,M,,0000*52
$GPGSA,M,3,30,22,18,16,06,03,31,,,,,,2.7,1.8,2.1*3B
$GPRMC,183723.000,A,1829.2043,S,07019.5614,W,24.19,178.31,300411,,,A*56
$GPGGA,183723.998,1829.2110,S,07019.5612,W,1,08,1.2,8.5,M,34.7,M,,0000*5E
$GPGSA,M,3,30,22,18,16,21,06,03,31,,,,,2.0,1.2,1.6*31
$GPGSV,3,1,12,30,70,253,36,22,63,010,39,18,63,103,39,16,49,223,36*7B
$GPGSV,3,2,12,21,31,147,28,06,30,213,40,03,20,221,35,31,17,331,34*77
$GPGSV,3,3,12,29,15,086,,25,10,030,,14,08,015,,15,00,113,*70
$GPRMC,183723.998,A,1829.2110,S,07019.5612,W,24.30,177.72,300411,,,A*5C
$GPGGA,183725.000,1829.2179,S,07019.5608,W,1,08,1.2,7.4,M,34.7,M,,0000*5A
$GPGSA,M,3,30,22,18,16,21,06,03,31,,,,,2.0,1.2,1.6*31
$GPRMC,183725.000,A,1829.2179,S,07019.5608,W,24.20,177.67,300411,,,A*53
$GPGGA,183726.000,1829.2248,S,07019.5607,W,1,08,1.2,6.9,M,34.7,M,,0000*5B
$GPGSA,M,3,30,22,18,16,21,06,03,31,,,,,2.0,1.2,1.6*31
$GPRMC,183726.000,A,1829.2248,S,07019.5607,W,24.46,178.82,300411,,,A*5A
$GPGGA,183726.999,1829.2316,S,07019.5608,W,1,08,1.2,6.1,M,34.7,M,,0000*5F
$GPGSA,M,3,30,22,18,16,21,06,03,31,,,,,2.0,1.2,1.6*31
$GPRMC,183726.999,A,1829.2316,S,07019.5608,W,24.68,180.56,300411,,,A*54
$GPGGA,183728.003,1829.2385,S,07019.5613,W,1,08,1.2,6.6,M,34.7,M,,0000*5C
$GPGSA,M,3,30,22,18,16,21,06,03,31,,,,,2.0,1.2,1.6*31
$GPRMC,183728.003,A,1829.2385,S,07019.5613,W,24.99,180.92,300411,,,A*56
$GPGGA,183729.000,1829.2451,S,07019.5620,W,1,08,1.2,6.4,M,34.7,M,,0000*52
$GPGSA,M,3,30,22,18,16,21,06,03,31,,,,,2.0,1.2,1.6*31
$GPGSV,3,1,12,30,70,253,37,22,63,010,39,18,63,103,39,16,49,223,36*7A
$GPGSV,3,2,12,21,31,147,31,06,30,213,39,03,20,221,37,31,17,331,36*71
$GPGSV,3,3,12,29,15,086,,25,10,030,,14,08,015,,15,00,113,*70
$GPRMC,183729.000,A,1829.2451,S,07019.5620,W,24.24,185.82,300411,,,A*58
$GPGGA,183729.996,1829.2518,S,07019.5633,W,1,08,1.2,7.6,M,34.7,M,,0000*59
$GPGSA,M,3,30,22,18,16,21,06,03,31,,,,,2.0,1.2,1.6*31
$GPRMC,183729.996,A,1829.2518,S,07019.5633,W,24.79,189.60,300411,,,A*58
$GPGGA,183731.004,1829.2588,S,07019.5647,W,1,08,1.2,7.6,M,34.7,M,,0000*58
$GPGSA,M,3,30,22,18,16,21,06,03,31,,,,,2.0,1.2,1.6*31
$GPRMC,183731.004,A,1829.2588,S,07019.5647,W,24.57,192.09,300411,,,A*50
$GPGGA,183732.000,1829.2654,S,07019.5666,W,1,08,1.2,7.7,M,34.7,M,,0000*5F
$GPGSA,M,3,30,22,18,16,21,06,03,31,,,,,2.0,1.2,1.6*31
$GPRMC,183732.000,A,1829.2654,S,07019.5666,W,25.38,196.60,300411,,,A*55
$GPGGA,183732.996,1829.2722,S,07019.5686,W,1,08,1.2,6.3,M,34.7,M,,0000*52
$GPGSA,M,3,30,22,18,16,21,06,03,31,,,,,2.0,1.2,1.6*31
$GPRMC,183732.996,A,1829.2722,S,07019.5686,W,24.96,200.13,300411,,,A*50
$GPGGA,183734.004,1829.2789,S,07019.5712,W,1,08,1.2,6.2,M,34.7,M,,0000*5A
$GPGSA,M,3,30,22,18,16,21,06,03,31,,,,,2.0,1.2,1.6*31
$GPGSV,3,1,12,30,70,253,40,22,63,010,39,18,63,103,38,16,49,223,36*7B
$GPGSV,3,2,12,21,31,147,35,06,30,213,35,03,20,221,36,31,17,331,37*79
$GPGSV,3,3,12,29,15,086,,25,10,030,,14,08,015,,15,00,113,*70
$GPRMC,183734.004,A,1829.2789,S,07019.5712,W,25.83,204.37,300411,,,A*5E
$GPGGA,183735.000,1829.2855,S,07019.5747,W,1,08,1.2,5.8,M,34.7,M,,0000*58
$GPGSA,M,3,30,22,18,16,21,06,03,31,,,,,2.0,1.2,1.6*31
$GPRMC,183735.000,A,1829.2855,S,07019.5747,W,26.96,207.72,300411,,,A*50
$GPGGA,183735.996,1829.2921,S,07019.5781,W,1,08,1.2,5.2,M,34.7,M,,0000*5C
$GPGSA,M,3,30,22,18,16,21,06,03,31,,,,,2.0,1.2,1.6*31
$GPRMC,183735.996,A,1829.2921,S,07019.5781,W,27.02,207.68,300411,,,A*59
$GPGGA,183737.002,1829.2988,S,07019.5818,W,1,09,1.0,4.8,M,34.7,M,,0000*5E
$GPGSA,M,3,30,22,18,16,21,06,03,31,25,,,,1.6,1.0,1.3*34
$GPRMC,183737.002,A,1829.2988,S,07019.5818,W,27.47,206.26,300411,,,A*59
$GPGGA,183738.000,1829.3056,S,07019.5853,W,1,09,1.0,4.6,M,34.7,M,,0000*59
$GPGSA,M,3,30,22,18,16,21,06,03,31,25,,,,1.6,1.0,1.3*34
$GPRMC,183738.000,A,1829.3056,S,07019.5853,W,26.89,205.24,300411,,,A*52
$GPGGA,183739.000,1829.3125,S,07019.5890,W,1,09,1.0,5.2,M,34.7,M,,0000*57
$GPGSA,M,3,30,22,18,16,21,06,03,31,25,,,,1.6,1.0,1.3*34
$GPGSV,3,1,12,30,70,253,39,22,63,010,40,18,63,103,37,16,49,223,36*74
$GPGSV,3,2,12,21,31,147,36,06,30,213,35,03,20,221,38,31,17,331,36*75
$GPGSV,3,3,12,29,15,086,,25,10,030,30,14,08,015,,15,00,113,*73
$GPRMC,183739.000,A,1829.3125,S,07019.5890,W,27.12,205.20,300411,,,A*5E
$GPGGA,183740.000,1829.3196,S,07019.5918,W,1,09,1.0,3.2,M,34.7,M,,0000*56
$GPGSA,M,3,30,22,18,16,21,06,03,31,25,,,,1.6,1.0,1.3*34
$GPRMC,183740.000,A,1829.3196,S,07019.5918,W,27.72,205.82,300411,,,A*57
$GPGGA,183741.000,1829.3266,S,07019.5950,W,1,09,1.0,2.1,M,34.7,M,,0000*55
$GPGSA,M,3,30,22,18,16,21,06,03,31,25,,,,1.6,1.0,1.3*34
$GPRMC,183741.000,A,1829.3266,S,07019.5950,W,27.27,204.83,300411,,,A*56
$GPGGA,183742.000,1829.3335,S,07019.5985,W,1,09,1.0,2.1,M,34.7,M,,0000*59
$GPGSA,M,3,30,22,18,16,21,06,03,31,25,,,,1.6,1.0,1.3*34
$GPRMC,183742.000,A,1829.3335,S,07019.5985,W,27.35,206.19,300411,,,A*58
$GPGGA,183743.000,1829.3403,S,07019.6017,W,1,09,1.0,2.5,M,34.7,M,,0000*5F
$GPGSA,M,3,30,22,18,16,21,06,03,31,25,,,,1.6,1.0,1.3*34
$GPRMC,183743.000,A,1829.3403,S,07019.6017,W,27.40,204.27,300411,,,A*57
