$GPGGA,205012.000,1904.8189,S,07004.8434,W,1,07,1.3,929.5,M,34.9,M,,0000*57
$GPGSA,M,3,06,03,22,14,19,16,11,,,,,,2.3,1.3,1.9*3A
$GPRMC,205012.000,A,1904.8189,S,07004.8434,W,0.90,260.66,300411,,,A*63
$GPGGA,205012.998,1904.8190,S,07004.8435,W,1,08,1.2,929.5,M,34.9,M,,0000*58
$GPGSA,M,3,06,03,22,14,19,16,30,11,,,,,2.2,1.2,1.8*38
$GPGSV,3,1,12,06,78,121,29,03,73,199,29,22,45,150,30,14,42,072,33*75
$GPGSV,3,2,12,19,40,207,36,16,40,332,33,30,25,352,27,32,24,311,*77
$GPGSV,3,3,12,18,12,140,,11,11,240,37,24,07,256,,21,01,100,*74
$GPRMC,205012.998,A,1904.8190,S,07004.8435,W,0.32,251.77,300411,,,A*68
$GPGGA,205014.001,1904.8188,S,07004.8436,W,1,08,1.2,929.9,M,34.9,M,,0000*51
$GPGSA,M,3,06,03,22,14,19,16,30,11,,,,,2.2,1.2,1.8*38
$GPRMC,205014.001,A,1904.8188,S,07004.8436,W,0.33,298.13,300411,,,A*6B
$GPGGA,205015.000,1904.8188,S,07004.8436,W,1,08,1.2,929.7,M,34.9,M,,0000*5F
$GPGSA,M,3,06,03,22,14,19,16,30,11,,,,,2.2,1.2,1.8*38
$GPRMC,205015.000,A,1904.8188,S,07004.8436,W,0.32,271.89,300411,,,A*6E
$GPGGA,205016.001,1904.8186,S,07004.8437,W,1,07,1.3,929.7,M,34.9,M,,0000*5C
$GPGSA,M,3,06,03,22,14,19,16,11,,,,,,2.3,1.3,1.9*3A
$GPRMC,205016.001,A,1904.8186,S,07004.8437,W,0.72,302.26,300411,,,A*67
$GPGGA,205017.003,1904.8187,S,07004.8439,W,1,08,1.2,929.9,M,34.9,M,,0000*50
$GPGSA,M,3,06,03,22,14,19,16,30,11,,,,,2.2,1.2,1.8*38
$GPRMC,205017.003,A,1904.8187,S,07004.8439,W,0.29,178.03,300411,,,A*6D
$GPGGA,205017.998,1904.8187,S,07004.8438,W,1,08,1.2,929.8,M,34.9,M,,0000*5B
$GPGSA,M,3,06,03,22,14,19,16,30,11,,,,,2.2,1.2,1.8*38
$GPGSV,3,1,12,06,78,121,29,03,73,199,30,22,45,150,34,14,42,072,35*7F
$GPGSV,3,2,12,19,40,207,37,16,40,332,32,30,25,352,27,32,24,311,*77
$GPGSV,3,3,12,18,12,140,,11,11,240,39,24,07,256,,21,01,100,*7A
$GPRMC,205017.998,A,1904.8187,S,07004.8438,W,0.16,224.51,300411,,,A*66
$GPGGA,205019.002,1904.8188,S,07004.8436,W,1,08,1.2,929.2,M,34.9,M,,0000*54
$GPGSA,M,3,06,03,22,14,19,16,30,11,,,,,2.2,1.2,1.8*38
$GPRMC,205019.002,A,1904.8188,S,07004.8436,W,0.06,258.59,300411,,,A*61
$GPGGA,205019.999,1904.8187,S,07004.8436,W,1,08,1.2,929.3,M,34.9,M,,0000*51
$GPGSA,M,3,06,03,22,14,19,16,30,11,,,,,2.2,1.2,1.8*38
$GPRMC,205019.999,A,1904.8187,S,07004.8436,W,0.84,9.71,300411,,,A*63
$GPGGA,205021.002,1904.8185,S,07004.8434,W,1,09,0.9,928.9,M,34.9,M,,0000*51
$GPGSA,M,3,06,03,22,14,19,16,30,18,11,,,,1.6,0.9,1.3*37
$GPRMC,205021.002,A,1904.8185,S,07004.8434,W,0.27,53.06,300411,,,A*55
$GPGGA,205021.997,1904.8184,S,07004.8436,W,1,09,0.9,929.0,M,34.9,M,,0000*5F
$GPGSA,M,3,06,03,22,14,19,16,30,18,11,,,,1.6,0.9,1.3*37
$GPRMC,205021.997,A,1904.8184,S,07004.8436,W,0.31,82.37,300411,,,A*5A
$GPGGA,205022.999,1904.8182,S,07004.8437,W,1,09,0.9,928.6,M,34.9,M,,0000*52
$GPGSA,M,3,06,03,22,14,19,16,30,18,11,,,,1.6,0.9,1.3*37
$GPGSV,3,1,12,06,78,121,30,03,73,199,31,22,45,150,32,14,42,072,30*75
$GPGSV,3,2,12,19,40,207,35,16,40,332,32,30,25,352,27,32,24,311,*75
$GPGSV,3,3,12,18,12,140,29,11,11,240,39,24,07,256,,21,01,100,*71
$GPRMC,205022.999,A,1904.8182,S,07004.8437,W,0.54,254.43,300411,,,A*69
$GPGGA,205023.999,1904.8182,S,07004.8439,W,1,09,0.9,928.8,M,34.9,M,,0000*53
$GPGSA,M,3,06,03,22,14,19,16,30,18,11,,,,1.6,0.9,1.3*37
$GPRMC,205023.999,A,1904.8182,S,07004.8439,W,0.30,176.65,300411,,,A*63
$GPGGA,205024.999,1904.8181,S,07004.8439,W,1,09,0.9,928.6,M,34.9,M,,0000*59
$GPGSA,M,3,06,03,22,14,19,16,30,18,11,,,,1.6,0.9,1.3*37
$GPRMC,205024.999,A,1904.8181,S,07004.8439,W,0.85,13.16,300411,,,A*5F
$GPGGA,205025.998,1904.8181,S,07004.8438,W,1,09,0.9,928.5,M,34.9,M,,0000*5B
$GPGSA,M,3,06,03,22,14,19,16,30,18,11,,,,1.6,0.9,1.3*37
$GPRMC,205025.998,A,1904.8181,S,07004.8438,W,0.20,63.60,300411,,,A*57
$GPGGA,205027.003,1904.8180,S,07004.8439,W,1,09,0.9,928.4,M,34.9,M,,0000*53
$GPGSA,M,3,06,03,22,14,19,16,30,18,11,,,,1.6,0.9,1.3*37
$GPRMC,205027.003,A,1904.8180,S,07004.8439,W,0.73,324.26,300411,,,A*6A
$GPGGA,205027.997,1904.8179,S,07004.8438,W,1,09,0.9,927.2,M,34.9,M,,0000*59
$GPGSA,M,3,06,03,22,14,19,16,30,18,11,,,,1.6,0.9,1.3*37
$GPGSV,3,1,12,06,78,121,30,03,73,199,32,22,45,150,32,14,42,072,29*7E
$GPGSV,3,2,12,19,40,207,36,16,40,332,33,30,25,352,27,32,24,311,*77
$GPGSV,3,3,12,18,12,140,28,11,11,240,38,24,07,256,,21,01,100,*71
$GPRMC,205027.997,A,1904.8179,S,07004.8438,W,0.40,317.73,300411,,,A*69
$GPGGA,205029.002,1904.8177,S,07004.8438,W,1,09,0.9,926.3,M,34.9,M,,0000*5C
$GPGSA,M,3,06,03,22,14,19,16,30,18,11,,,,1.6,0.9,1.3*37
$GPRMC,205029.002,A,1904.8177,S,07004.8438,W,0.28,281.10,300411,,,A*69
$GPGGA,205030.004,1904.8178,S,07004.8440,W,1,08,1.2,926.1,M,34.9,M,,0000*5B
$GPGSA,M,3,06,03,22,14,19,16,30,11,,,,,2.2,1.2,1.8*38
$GPRMC,205030.004,A,1904.8178,S,07004.8440,W,0.58,181.01,300411,,,A*63
$GPGGA,205030.995,1904.8181,S,07004.8441,W,1,09,0.9,926.1,M,34.9,M,,0000*56
$GPGSA,M,3,06,03,22,14,19,16,30,18,11,,,,1.6,0.9,1.3*37
$GPRMC,205030.995,A,1904.8181,S,07004.8441,W,0.29,246.05,300411,,,A*6F
$GPGGA,205032.000,1904.8179,S,07004.8441,W,1,09,0.9,925.9,M,34.9,M,,0000*5D
$GPGSA,M,3,06,03,22,14,19,16,30,18,11,,,,1.6,0.9,1.3*37
$GPRMC,205032.000,A,1904.8179,S,07004.8441,W,0.39,1.95,300411,,,A*66
$GPGGA,205032.999,1904.8176,S,07004.8443,W,1,09,0.9,926.2,M,34.9,M,,0000*51
$GPGSA,M,3,06,03,22,14,19,16,30,18,11,,,,1.6,0.9,1.3*37
$GPGSV,3,1,12,06,78,121,31,03,73,199,34,22,45,150,32,14,42,072,27*77
$GPGSV,3,2,12,19,40,207,35,16,40,332,36,30,25,352,26,32,24,311,*70
$GPGSV,3,3,12,18,12,140,30,11,11,240,39,24,07,256,,21,01,100,*79
$GPRMC,205032.999,A,1904.8176,S,07004.8443,W,0.55,342.44,300411,,,A*60
$GPGGA,205033.999,1904.8175,S,07004.8444,W,1,09,0.9,926.0,M,34.9,M,,0000*56
$GPGSA,M,3,06,03,22,14,19,16,30,18,11,,,,1.6,0.9,1.3*37
$GPRMC,205033.999,A,1904.8175,S,07004.8444,W,0.38,17.60,300411,,,A*5B
$GPGGA,205035.002,1904.8175,S,07004.8441,W,1,08,1.1,924.8,M,34.9,M,,0000*5C
$GPGSA,M,3,06,03,22,14,19,16,18,11,,,,,1.8,1.1,1.4*34
$GPRMC,205035.002,A,1904.8175,S,07004.8441,W,0.40,341.21,300411,,,A*69
$GPGGA,205036.000,1904.8175,S,07004.8440,W,1,07,1.3,924.1,M,34.9,M,,0000*58
$GPGSA,M,3,06,03,22,19,16,18,11,,,,,,2.0,1.3,1.5*39
$GPRMC,205036.000,A,1904.8175,S,07004.8440,W,0.26,159.54,300411,,,A*60
$GPGGA,205036.996,1904.8174,S,07004.8441,W,1,09,0.9,923.5,M,34.9,M,,0000*58
$GPGSA,M,3,06,03,22,14,19,16,30,18,11,,,,1.6,0.9,1.3*37
$GPRMC,205036.996,A,1904.8174,S,07004.8441,W,0.41,314.95,300411,,,A*61
$GPGGA,205038.000,1904.8172,S,07004.8440,W,1,08,1.1,922.9,M,34.9,M,,0000*52
$GPGSA,M,3,06,03,22,14,19,16,18,11,,,,,1.8,1.1,1.4*34
$GPGSV,3,1,12,06,78,121,29,03,73,199,35,22,45,150,31,14,42,072,24*7F
$GPGSV,3,2,12,19,40,207,38,16,40,332,34,30,25,352,,32,24,311,*7B
$GPGSV,3,3,12,18,12,140,27,11,11,240,39,24,07,256,,21,01,100,*7F
$GPRMC,205038.000,A,1904.8172,S,07004.8440,W,0.29,101.67,300411,,,A*6B
$GPGGA,205039.000,1904.8170,S,07004.8438,W,1,09,0.9,922.4,M,34.9,M,,0000*5B
$GPGSA,M,3,06,03,22,14,19,16,30,18,11,,,,1.6,0.9,1.3*37
$GPRMC,205039.000,A,1904.8170,S,07004.8438,W,0.32,96.20,300411,,,A*51
$GPGGA,205040.001,1904.8166,S,07004.8437,W,1,08,1.1,921.9,M,34.9,M,,0000*5A
$GPGSA,M,3,06,03,22,19,16,30,18,11,,,,,1.7,1.1,1.3*3A
$GPRMC,205040.001,A,1904.8166,S,07004.8437,W,0.68,0.73,300411,,,A*60
$GPGGA,205040.999,1904.8164,S,07004.8441,W,1,09,0.9,922.6,M,34.9,M,,0000*55
$GPGSA,M,3,06,03,22,14,19,16,30,18,11,,,,1.6,0.9,1.3*37
$GPRMC,205040.999,A,1904.8164,S,07004.8441,W,0.47,305.84,300411,,,A*68
$GPGGA,205042.001,1904.8162,S,07004.8441,W,1,09,0.9,921.7,M,34.9,M,,0000*5B
$GPGSA,M,3,06,03,22,14,19,16,30,18,11,,,,1.6,0.9,1.3*37
$GPRMC,205042.001,A,1904.8162,S,07004.8441,W,0.40,343.05,300411,,,A*68
$GPGGA,205042.997,1904.8162,S,07004.8440,W,1,08,1.1,921.0,M,34.9,M,,0000*53
$GPGSA,M,3,06,03,22,19,16,30,18,11,,,,,1.7,1.1,1.3*3A
$GPGSV,3,1,12,06,78,121,29,03,73,199,36,22,45,150,33,14,42,072,*78
$GPGSV,3,2,12,19,40,207,37,16,40,332,34,30,25,352,26,32,24,311,*70
$GPGSV,3,3,12,18,12,140,30,11,11,240,39,24,07,256,,21,01,100,*79
$GPRMC,205042.997,A,1904.8162,S,07004.8440,W,0.46,268.07,300411,,,A*63
$GPGGA,205044.005,1904.8161,S,07004.8443,W,1,08,1.1,921.4,M,34.9,M,,0000*53
$GPGSA,M,3,06,03,22,19,16,30,18,11,,,,,1.7,1.1,1.3*3A
$GPRMC,205044.005,A,1904.8161,S,07004.8443,W,0.39,200.90,300411,,,A*6F
$GPGGA,205044.995,1904.8162,S,07004.8443,W,1,06,1.4,921.0,M,34.9,M,,0000*5F
$GPGSA,M,3,06,03,19,16,18,11,,,,,,,2.0,1.4,1.5*3E
$GPRMC,205044.995,A,1904.8162,S,07004.8443,W,0.23,327.92,300411,,,A*61
$GPGGA,205046.003,1904.8159,S,07004.8445,W,1,09,0.9,920.8,M,34.9,M,,0000*5F
$GPGSA,M,3,06,03,22,14,19,16,30,18,11,,,,1.6,0.9,1.3*37
$GPRMC,205046.003,A,1904.8159,S,07004.8445,W,0.70,278.42,300411,,,A*6B
$GPGGA,205047.004,1904.8158,S,07004.8447,W,1,07,1.3,920.4,M,34.9,M,,0000*53
$GPGSA,M,3,06,03,22,19,16,18,11,,,,,,2.0,1.3,1.5*39
$GPRMC,205047.004,A,1904.8158,S,07004.8447,W,0.46,264.18,300411,,,A*69
$GPGGA,205047.994,1904.8158,S,07004.8448,W,1,09,0.9,920.1,M,34.9,M,,0000*5C
$GPGSA,M,3,06,03,22,14,19,16,30,18,11,,,,1.6,0.9,1.3*37
$GPGSV,3,1,12,06,78,121,29,03,73,199,37,22,45,150,31,14,42,072,27*7E
$GPGSV,3,2,12,19,40,207,37,16,40,332,36,30,25,352,25,32,24,311,*71
$GPGSV,3,3,12,18,12,140,29,11,11,240,39,24,07,256,,21,01,100,*71
$GPRMC,205047.994,A,1904.8158,S,07004.8448,W,0.17,192.08,300411,,,A*69
$GPGGA,205049.000,1904.8155,S,07004.8447,W,1,09,0.9,919.5,M,34.9,M,,0000*5A
$GPGSA,M,3,06,03,22,14,19,16,30,18,11,,,,1.6,0.9,1.3*37
$GPRMC,205049.000,A,1904.8155,S,07004.8447,W,0.11,165.12,300411,,,A*64
$GPGGA,205050.001,1904.8155,S,07004.8447,W,1,07,1.3,919.1,M,34.9,M,,0000*52
$GPGSA,M,3,06,03,22,19,16,18,11,,,,,,2.0,1.3,1.5*39
$GPRMC,205050.001,A,1904.8155,S,07004.8447,W,0.21,256.41,300411,,,A*6B
$GPGGA,205051.000,1904.8156,S,07004.8446,W,1,07,1.3,918.2,M,34.9,M,,0000*52
$GPGSA,M,3,06,03,22,19,16,18,11,,,,,,2.0,1.3,1.5*39
$GPRMC,205051.000,A,1904.8156,S,07004.8446,W,0.24,215.23,300411,,,A*6F
$GPGGA,205052.003,1904.8157,S,07004.8447,W,1,08,1.1,918.1,M,34.9,M,,0000*5C
$GPGSA,M,3,06,03,22,19,16,30,18,11,,,,,1.7,1.1,1.3*3A
$GPRMC,205052.003,A,1904.8157,S,07004.8447,W,1.05,318.17,300411,,,A*66
$GPGGA,205052.996,1904.8157,S,07004.8447,W,1,08,1.1,917.0,M,34.9,M,,0000*57
$GPGSA,M,3,06,03,22,19,16,30,18,11,,,,,1.7,1.1,1.3*3A
$GPGSV,3,1,12,06,78,121,29,03,73,199,36,22,45,150,30,14,42,072,*7B
$GPGSV,3,2,12,19,40,207,37,16,40,332,36,30,25,352,24,32,24,311,*70
$GPGSV,3,3,12,18,12,140,28,11,11,240,40,24,07,256,24,21,01,100,*78
$GPRMC,205052.996,A,1904.8157,S,07004.8447,W,0.13,299.31,300411,,,A*69
$GPGGA,205054.000,1904.8155,S,07004.8448,W,1,08,1.1,916.9,M,34.9,M,,0000*52
$GPGSA,M,3,06,03,22,19,16,30,18,11,,,,,1.7,1.1,1.3*3A
$GPRMC,205054.000,A,1904.8155,S,07004.8448,W,0.35,357.44,300411,,,A*61
$GPGGA,205055.002,1904.8156,S,07004.8448,W,1,08,1.1,916.8,M,34.9,M,,0000*53
$GPGSA,M,3,06,03,22,19,16,30,18,11,,,,,1.7,1.1,1.3*3A
$GPRMC,205055.002,A,1904.8156,S,07004.8448,W,0.12,107.91,300411,,,A*6B
$GPGGA,205056.004,1904.8155,S,07004.8449,W,1,08,1.1,916.3,M,34.9,M,,0000*5F
$GPGSA,M,3,06,03,22,14,19,16,18,11,,,,,1.8,1.1,1.4*34
$GPRMC,205056.004,A,1904.8155,S,07004.8449,W,0.74,270.35,300411,,,A*61
$GPGGA,205056.996,1904.8156,S,07004.8451,W,1,09,0.9,916.1,M,34.9,M,,0000*5D
$GPGSA,M,3,06,03,22,14,19,16,30,18,11,,,,1.6,0.9,1.3*37
$GPRMC,205056.996,A,1904.8156,S,07004.8451,W,0.54,290.51,300411,,,A*67
$GPGGA,205058.000,1904.8153,S,07004.8453,W,1,08,1.1,916.0,M,34.9,M,,0000*5B
$GPGSA,M,3,06,03,22,14,19,16,18,11,,,,,1.8,1.1,1.4*34
$GPGSV,3,1,12,06,78,121,29,03,73,199,37,22,45,150,30,14,42,072,25*7D
$GPGSV,3,2,12,19,40,207,37,16,40,332,34,30,25,352,,32,24,311,*74
$GPGSV,3,3,12,18,12,140,28,11,11,240,39,24,07,256,,21,01,100,*70
$GPRMC,205058.000,A,1904.8153,S,07004.8453,W,0.40,291.32,300411,,,A*69
$GPGGA,205058.996,1904.8151,S,07004.8451,W,1,08,1.1,915.4,M,34.9,M,,0000*5A
$GPGSA,M,3,06,03,22,19,16,30,18,11,,,,,1.7,1.1,1.3*3A
$GPRMC,205058.996,A,1904.8151,S,07004.8451,W,0.04,32.63,300411,,,A*50
$GPGGA,205100.005,1904.8150,S,07004.8451,W,1,08,1.1,914.7,M,34.9,M,,0000*56
$GPGSA,M,3,06,03,22,14,19,16,18,11,,,,,1.8,1.1,1.4*34
$GPRMC,205100.005,A,1904.8150,S,07004.8451,W,0.25,75.69,300411,,,A*54
$GPGGA,205101.000,1904.8147,S,07004.8450,W,1,08,1.1,914.0,M,34.9,M,,0000*52
$GPGSA,M,3,06,03,22,14,19,16,18,11,,,,,1.8,1.1,1.4*34
$GPRMC,205101.000,A,1904.8147,S,07004.8450,W,0.29,300.23,300411,,,A*64
$GPGGA,205101.998,1904.8143,S,07004.8449,W,1,09,0.9,913.5,M,34.9,M,,0000*5C
$GPGSA,M,3,06,03,22,14,19,16,30,18,11,,,,1.6,0.9,1.3*37
$GPRMC,205101.998,A,1904.8143,S,07004.8449,W,0.82,327.67,300411,,,A*64
$GPGGA,205103.003,1904.8140,S,07004.8448,W,1,08,1.1,913.1,M,34.9,M,,0000*5B
$GPGSA,M,3,06,03,22,14,19,16,18,11,,,,,1.8,1.1,1.4*34
$GPGSV,3,1,12,06,78,121,28,03,73,199,35,22,45,150,26,14,42,072,31*7C
$GPGSV,3,2,12,19,40,207,36,16,40,332,35,30,25,352,,32,24,311,*74
$GPGSV,3,3,12,18,12,140,29,11,11,240,38,24,07,256,25,21,01,100,*77
$GPRMC,205103.003,A,1904.8140,S,07004.8448,W,0.28,53.84,300411,,,A*52
$GPGGA,205103.996,1904.8142,S,07004.8445,W,1,09,0.9,912.6,M,34.9,M,,0000*5F
$GPGSA,M,3,06,03,22,14,19,16,30,18,11,,,,1.6,0.9,1.3*37
$GPRMC,205103.996,A,1904.8142,S,07004.8445,W,0.26,195.52,300411,,,A*66
$GPGGA,205105.001,1904.8141,S,07004.8445,W,1,08,1.1,912.1,M,34.9,M,,0000*52
$GPGSA,M,3,06,03,22,14,19,16,18,11,,,,,1.8,1.1,1.4*34
$GPRMC,205105.001,A,1904.8141,S,07004.8445,W,0.19,67.71,300411,,,A*55
$GPGGA,205105.998,1904.8141,S,07004.8443,W,1,08,1.1,911.5,M,34.9,M,,0000*5A
$GPGSA,M,3,06,03,22,14,19,16,18,11,,,,,1.8,1.1,1.4*34
$GPRMC,205105.998,A,1904.8141,S,07004.8443,W,0.25,229.65,300411,,,A*68
$GPGGA,205107.003,1904.8141,S,07004.8441,W,1,08,1.0,911.0,M,34.9,M,,0000*55
$GPGSA,M,3,06,03,14,19,16,30,18,11,,,,,1.6,1.0,1.3*3F
$GPRMC,205107.003,A,1904.8141,S,07004.8441,W,0.32,127.97,300411,,,A*65
$GPGGA,205107.999,1904.8144,S,07004.8442,W,1,08,1.1,911.3,M,34.9,M,,0000*5B
$GPGSA,M,3,06,03,22,14,19,16,18,11,,,,,1.8,1.1,1.4*34
$GPGSV,3,1,12,06,78,121,27,03,73,199,36,22,45,150,27,14,42,072,29*78
$GPGSV,3,2,12,19,40,207,37,16,40,332,29,30,25,352,,32,24,311,*78
$GPGSV,3,3,12,18,12,140,27,11,11,240,38,24,07,256,23,21,01,100,*7F
$GPRMC,205107.999,A,1904.8144,S,07004.8442,W,0.85,143.38,300411,,,A*62
$GPGGA,205109.000,1904.8146,S,07004.8439,W,1,07,1.1,911.0,M,34.9,M,,0000*5E
$GPGSA,M,3,03,22,14,19,16,18,11,,,,,,1.9,1.1,1.6*31
$GPRMC,205109.000,A,1904.8146,S,07004.8439,W,0.52,87.54,300411,,,A*52
$GPGGA,205109.996,1904.8144,S,07004.8439,W,1,07,1.1,911.0,M,34.9,M,,0000*5A
$GPGSA,M,3,06,03,14,19,16,18,11,,,,,,1.8,1.1,1.4*34
$GPRMC,205109.996,A,1904.8144,S,07004.8439,W,0.62,24.80,300411,,,A*55
$GPGGA,205111.004,1904.8142,S,07004.8440,W,1,07,1.0,911.6,M,34.9,M,,0000*5E
$GPGSA,M,3,03,14,19,16,32,18,11,,,,,,1.9,1.0,1.6*31
$GPRMC,205111.004,A,1904.8142,S,07004.8440,W,0.14,53.15,300411,,,A*5B
$GPGGA,205111.997,1904.8144,S,07004.8442,W,1,07,1.0,912.2,M,34.9,M,,0000*5E
$GPGSA,M,3,03,14,19,16,32,18,11,,,,,,1.9,1.0,1.6*31
$GPRMC,205111.997,A,1904.8144,S,07004.8442,W,0.46,207.89,300411,,,A*6D
$GPGGA,205113.005,1904.8146,S,07004.8443,W,1,07,1.0,912.7,M,34.9,M,,0000*58
$GPGSA,M,3,03,14,19,16,32,18,11,,,,,,1.9,1.0,1.6*31
$GPGSV,3,1,12,06,78,121,,03,73,199,37,22,45,150,,14,42,072,31*70
$GPGSV,3,2,12,19,40,207,37,16,40,332,32,30,25,352,,32,24,311,27*77
$GPGSV,3,3,12,18,12,140,30,11,11,240,38,24,07,256,,21,01,100,*78
$GPRMC,205113.005,A,1904.8146,S,07004.8443,W,0.22,136.67,300411,,,A*6D
$GPGGA,205113.998,1904.8147,S,07004.8442,W,1,06,1.1,912.6,M,34.9,M,,0000*54
$GPGSA,M,3,03,14,19,16,18,11,,,,,,,2.0,1.1,1.7*3A
$GPRMC,205113.998,A,1904.8147,S,07004.8442,W,0.37,308.87,300411,,,A*65
$GPGGA,205114.997,1904.8147,S,07004.8445,W,1,07,1.0,912.6,M,34.9,M,,0000*5B
$GPGSA,M,3,03,14,19,16,32,18,11,,,,,,1.9,1.0,1.6*31
$GPRMC,205114.997,A,1904.8147,S,07004.8445,W,0.46,314.80,300411,,,A*66
$GPGGA,205116.003,1904.8147,S,07004.8444,W,1,07,1.0,912.3,M,34.9,M,,0000*59
$GPGSA,M,3,03,14,19,16,30,18,11,,,,,,1.8,1.0,1.5*31
$GPRMC,205116.003,A,1904.8147,S,07004.8444,W,0.21,0.06,300411,,,A*68
$GPGGA,205117.000,1904.8145,S,07004.8442,W,1,08,1.2,911.9,M,34.9,M,,0000*5B
$GPGSA,M,3,06,03,22,19,16,32,18,11,,,,,1.8,1.2,1.4*33
$GPRMC,205117.000,A,1904.8145,S,07004.8442,W,0.28,59.18,300411,,,A*54
$GPGGA,205117.997,1904.8145,S,07004.8442,W,1,08,1.0,912.1,M,34.9,M,,0000*55
$GPGSA,M,3,06,03,14,19,16,32,18,11,,,,,1.7,1.0,1.3*3C
$GPGSV,3,1,12,06,78,121,27,03,73,199,33,22,45,150,,14,42,072,30*70
$GPGSV,3,2,12,19,40,207,37,16,40,332,34,30,25,352,,32,24,311,29*7F
$GPGSV,3,3,12,18,12,140,28,11,11,240,38,24,07,256,,21,01,100,*71
$GPRMC,205117.997,A,1904.8145,S,07004.8442,W,0.49,169.92,300411,,,A*64
$GPGGA,205119.001,1904.8149,S,07004.8440,W,1,06,1.1,911.7,M,34.9,M,,0000*59
$GPGSA,M,3,03,14,19,16,18,11,,,,,,,2.0,1.1,1.7*3A
$GPRMC,205119.001,A,1904.8149,S,07004.8440,W,0.73,147.88,300411,,,A*6C
$GPGGA,205120.001,1904.8150,S,07004.8437,W,1,06,1.1,911.2,M,34.9,M,,0000*5E
$GPGSA,M,3,03,14,19,16,18,11,,,,,,,2.0,1.1,1.7*3A
$GPRMC,205120.001,A,1904.8150,S,07004.8437,W,0.22,133.29,300411,,,A*62
$GPGGA,205121.001,1904.8152,S,07004.8441,W,1,06,1.1,911.5,M,34.9,M,,0000*5B
$GPGSA,M,3,03,14,19,16,18,11,,,,,,,2.0,1.1,1.7*3A
$GPRMC,205121.001,A,1904.8152,S,07004.8441,W,0.75,327.88,300411,,,A*6E
$GPGGA,205122.002,1904.8145,S,07004.8439,W,1,07,1.0,910.4,M,34.9,M,,0000*52
$GPGSA,M,3,03,14,19,16,30,18,11,,,,,,1.8,1.0,1.5*31
$GPRMC,205122.002,A,1904.8145,S,07004.8439,W,0.84,340.28,300411,,,A*62
$GPGGA,205122.998,1904.8142,S,07004.8436,W,1,06,1.1,910.1,M,34.9,M,,0000*55
$GPGSA,M,3,03,14,19,16,18,11,,,,,,,2.0,1.1,1.7*3A
$GPGSV,3,1,12,06,78,121,,03,73,199,36,22,45,150,,14,42,072,33*73
$GPGSV,3,2,12,19,40,207,37,16,40,332,34,30,25,352,,32,24,311,*74
$GPGSV,3,3,12,18,12,140,30,11,11,240,38,24,07,256,,21,01,100,*78
$GPRMC,205122.998,A,1904.8142,S,07004.8436,W,0.13,37.28,300411,,,A*5D
$GPGGA,205124.000,1904.8138,S,07004.8439,W,1,06,1.1,910.1,M,34.9,M,,0000*59
$GPGSA,M,3,03,14,19,16,18,11,,,,,,,2.0,1.1,1.7*3A
$GPRMC,205124.000,A,1904.8138,S,07004.8439,W,0.36,279.78,300411,,,A*6B
$GPGGA,205125.000,1904.8138,S,07004.8442,W,1,06,1.1,910.5,M,34.9,M,,0000*50
$GPGSA,M,3,03,14,19,16,18,11,,,,,,,2.0,1.1,1.7*3A
$GPRMC,205125.000,A,1904.8138,S,07004.8442,W,0.51,263.01,300411,,,A*62
$GPGGA,205125.999,1904.8137,S,07004.8443,W,1,06,1.1,910.7,M,34.9,M,,0000*55
$GPGSA,M,3,03,14,19,16,18,11,,,,,,,2.0,1.1,1.7*3A
$GPRMC,205125.999,A,1904.8137,S,07004.8443,W,0.25,332.72,300411,,,A*67
$GPGGA,205127.002,1904.8137,S,07004.8440,W,1,07,1.1,910.5,M,34.9,M,,0000*5C
$GPGSA,M,3,03,22,14,19,16,18,11,,,,,,1.9,1.1,1.6*31
$GPRMC,205127.002,A,1904.8137,S,07004.8440,W,0.37,166.85,300411,,,A*65
$GPGGA,205128.002,1904.8135,S,07004.8438,W,1,07,1.1,910.0,M,34.9,M,,0000*5B
$GPGSA,M,3,03,22,14,19,16,18,11,,,,,,1.9,1.1,1.6*31
$GPGSV,3,1,12,06,78,121,,03,73,199,34,22,45,150,24,14,42,072,33*77
$GPGSV,3,2,12,19,40,207,37,16,40,332,33,30,25,352,,32,24,311,*73
$GPGSV,3,3,12,18,12,140,30,11,11,240,38,24,07,256,,21,01,100,*78
$GPRMC,205128.002,A,1904.8135,S,07004.8438,W,0.27,261.93,300411,,,A*65
$GPGGA,205129.001,1904.8135,S,07004.8438,W,1,07,1.1,910.3,M,34.9,M,,0000*5A
$GPGSA,M,3,03,22,14,19,16,18,11,,,,,,1.9,1.1,1.6*31
$GPRMC,205129.001,A,1904.8135,S,07004.8438,W,0.29,205.27,300411,,,A*64
$GPGGA,205130.001,1904.8136,S,07004.8436,W,1,07,1.1,909.9,M,34.9,M,,0000*5D
$GPGSA,M,3,03,22,14,19,16,18,11,,,,,,1.9,1.1,1.6*31
$GPRMC,205130.001,A,1904.8136,S,07004.8436,W,0.59,205.90,300411,,,A*6A
$GPGGA,205130.999,1904.8136,S,07004.8438,W,1,07,1.1,909.9,M,34.9,M,,0000*5B
$GPGSA,M,3,03,22,14,19,16,18,11,,,,,,1.9,1.1,1.6*31
$GPRMC,205130.999,A,1904.8136,S,07004.8438,W,0.20,56.88,300411,,,A*5F
$GPGGA,205132.003,1904.8137,S,07004.8436,W,1,07,1.1,909.4,M,34.9,M,,0000*51
$GPGSA,M,3,03,22,14,19,16,18,11,,,,,,1.9,1.1,1.6*31
$GPRMC,205132.003,A,1904.8137,S,07004.8436,W,0.17,116.83,300411,,,A*62
$GPGGA,205132.999,1904.8138,S,07004.8436,W,1,07,1.1,909.6,M,34.9,M,,0000*56
$GPGSA,M,3,03,22,14,19,16,18,11,,,,,,1.9,1.1,1.6*31
$GPGSV,3,1,12,06,78,121,,03,73,199,33,22,45,150,29,14,42,072,31*7F
$GPGSV,3,2,12,19,40,207,38,16,40,332,32,30,25,352,,32,24,311,*7D
$GPGSV,3,3,12,18,12,140,29,11,11,240,37,24,07,256,23,21,01,100,*7E
$GPRMC,205132.999,A,1904.8138,S,07004.8436,W,0.51,180.37,300411,,,A*65
$GPGGA,205134.002,1904.8138,S,07004.8433,W,1,07,1.1,909.0,M,34.9,M,,0000*58
$GPGSA,M,3,03,22,14,19,16,18,11,,,,,,1.9,1.1,1.6*31
$GPRMC,205134.002,A,1904.8138,S,07004.8433,W,0.43,150.08,300411,,,A*6F
$GPGGA,205134.999,1904.8138,S,07004.8435,W,1,08,1.0,909.8,M,34.9,M,,0000*53
$GPGSA,M,3,03,22,14,19,16,32,18,11,,,,,1.8,1.0,1.5*33
$GPRMC,205134.999,A,1904.8138,S,07004.8435,W,0.58,187.64,300411,,,A*68
$GPGGA,205136.001,1904.8139,S,07004.8437,W,1,07,1.1,909.9,M,34.9,M,,0000*55
$GPGSA,M,3,03,22,14,19,16,18,11,,,,,,1.9,1.1,1.6*31
$GPRMC,205136.001,A,1904.8139,S,07004.8437,W,0.21,190.07,300411,,,A*6C
$GPGGA,205137.004,1904.8136,S,07004.8437,W,1,07,1.1,909.9,M,34.9,M,,0000*5E
$GPGSA,M,3,03,22,14,19,16,18,11,,,,,,1.9,1.1,1.6*31
$GPRMC,205137.004,A,1904.8136,S,07004.8437,W,0.32,302.18,300411,,,A*62
$GPGGA,205138.000,1904.8138,S,07004.8436,W,1,07,1.1,910.2,M,34.9,M,,0000*59
$GPGSA,M,3,03,22,14,19,16,18,11,,,,,,1.9,1.1,1.6*31
$GPGSV,3,1,12,06,78,121,,03,73,199,32,22,45,150,29,14,42,072,29*77
$GPGSV,3,2,12,19,40,207,38,16,40,332,34,30,25,352,,32,24,311,*7B
$GPGSV,3,3,12,18,12,140,31,11,11,240,35,24,07,256,,21,01,100,*74
$GPRMC,205138.000,A,1904.8138,S,07004.8436,W,0.30,231.88,300411,,,A*6C
$GPGGA,205139.000,1904.8141,S,07004.8438,W,1,07,1.1,910.9,M,34.9,M,,0000*53
$GPGSA,M,3,03,22,14,19,16,18,11,,,,,,1.9,1.1,1.6*31
$GPRMC,205139.000,A,1904.8141,S,07004.8438,W,0.52,264.28,300411,,,A*63
$GPGGA,205139.999,1904.8143,S,07004.8442,W,1,08,1.0,911.3,M,34.9,M,,0000*50
$GPGSA,M,3,03,22,14,19,16,32,18,11,,,,,1.8,1.0,1.5*33
$GPRMC,205139.999,A,1904.8143,S,07004.8442,W,0.23,242.94,300411,,,A*60
$GPGGA,205141.001,1904.8143,S,07004.8442,W,1,08,1.0,911.0,M,34.9,M,,0000*54
$GPGSA,M,3,06,03,14,19,16,32,18,11,,,,,1.7,1.0,1.3*3C
$GPRMC,205141.001,A,1904.8143,S,07004.8442,W,0.10,206.06,300411,,,A*6C
$GPGGA,205141.998,1904.8149,S,07004.8439,W,1,08,1.2,911.8,M,34.9,M,,0000*51
$GPGSA,M,3,06,03,22,19,16,32,18,11,,,,,1.8,1.2,1.4*33
$GPRMC,205141.998,A,1904.8149,S,07004.8439,W,0.48,190.16,300411,,,A*63
$GPGGA,205143.001,1904.8150,S,07004.8441,W,1,08,1.2,912.5,M,34.9,M,,0000*53
$GPGSA,M,3,06,03,22,14,19,16,32,11,,,,,2.3,1.2,1.9*3A
$GPGSV,3,1,12,06,78,121,27,03,73,199,32,22,45,150,29,14,42,072,28*73
$GPGSV,3,2,12,19,40,207,34,16,40,332,34,30,25,352,,32,24,311,30*74
$GPGSV,3,3,12,18,12,140,,11,11,240,39,24,07,256,25,21,01,100,*7D
$GPRMC,205143.001,A,1904.8150,S,07004.8441,W,0.38,21.36,300411,,,A*51
$GPGGA,205144.001,1904.8148,S,07004.8441,W,1,08,1.2,912.2,M,34.9,M,,0000*5A
$GPGSA,M,3,06,03,22,19,16,32,18,11,,,,,1.8,1.2,1.4*33
$GPRMC,205144.001,A,1904.8148,S,07004.8441,W,0.46,70.22,300411,,,A*57
$GPGGA,205144.999,1904.8148,S,07004.8441,W,1,08,1.5,912.4,M,34.9,M,,0000*53
$GPGSA,M,3,06,03,22,19,16,30,32,11,,,,,2.6,1.5,2.1*35
$GPRMC,205144.999,A,1904.8148,S,07004.8441,W,0.70,313.90,300411,,,A*65
$GPGGA,205146.001,1904.8143,S,07004.8443,W,1,10,0.9,912.6,M,34.9,M,,0000*56
$GPGSA,M,3,06,03,22,14,19,16,30,32,18,11,,,1.5,0.9,1.3*35
$GPRMC,205146.001,A,1904.8143,S,07004.8443,W,0.37,62.14,300411,,,A*5C
$GPGGA,205146.998,1904.8145,S,07004.8442,W,1,07,1.3,912.5,M,34.9,M,,0000*56
$GPGSA,M,3,06,03,22,19,16,18,11,,,,,,1.9,1.3,1.4*32
$GPRMC,205146.998,A,1904.8145,S,07004.8442,W,0.54,322.64,300411,,,A*67
$GPGGA,205148.000,1904.8148,S,07004.8440,W,1,07,1.3,913.1,M,34.9,M,,0000*5A
$GPGSA,M,3,06,03,22,19,16,18,11,,,,,,1.9,1.3,1.4*32
$GPGSV,3,1,12,06,78,121,28,03,73,199,35,22,45,150,30,14,42,072,*79
$GPGSV,3,2,12,19,40,207,37,16,40,332,36,30,25,352,,32,24,311,*76
$GPGSV,3,3,12,18,12,140,28,11,11,240,40,24,07,256,,21,01,100,*7E
$GPRMC,205148.000,A,1904.8148,S,07004.8440,W,0.17,336.25,300411,,,A*69
$GPGGA,205149.000,1904.8147,S,07004.8438,W,1,07,1.3,913.5,M,34.9,M,,0000*5F
$GPGSA,M,3,06,03,22,19,16,18,11,,,,,,1.9,1.3,1.4*32
$GPRMC,205149.000,A,1904.8147,S,07004.8438,W,0.04,358.21,300411,,,A*66
$GPGGA,205150.000,1904.8148,S,07004.8439,W,1,07,1.3,914.2,M,34.9,M,,0000*59
$GPGSA,M,3,06,03,22,19,16,18,11,,,,,,1.9,1.3,1.4*32
$GPRMC,205150.000,A,1904.8148,S,07004.8439,W,0.53,286.66,300411,,,A*63
$GPGGA,205151.000,1904.8149,S,07004.8437,W,1,06,2.1,913.9,M,34.9,M,,0000*5B
$GPGSA,M,3,06,03,22,19,16,11,,,,,,,3.5,2.1,2.8*3B
$GPRMC,205151.000,A,1904.8149,S,07004.8437,W,0.52,167.08,300411,,,A*68
$GPGGA,205152.001,1904.8149,S,07004.8437,W,1,07,1.3,913.8,M,34.9,M,,0000*58
$GPGSA,M,3,06,03,22,19,16,18,11,,,,,,1.9,1.3,1.4*32
$GPRMC,205152.001,A,1904.8149,S,07004.8437,W,0.23,100.25,300411,,,A*62
$GPGGA,205152.999,1904.8150,S,07004.8436,W,1,07,1.3,913.6,M,34.9,M,,0000*57
$GPGSA,M,3,06,03,22,19,16,18,11,,,,,,1.9,1.3,1.4*32
$GPGSV,3,1,12,06,78,121,30,03,73,199,34,22,45,150,31,14,42,072,*70
$GPGSV,3,2,12,19,40,207,37,16,40,332,33,30,25,352,,32,24,311,*73
$GPGSV,3,3,12,18,12,140,27,11,11,240,40,24,07,256,,21,01,100,*71
$GPRMC,205152.999,A,1904.8150,S,07004.8436,W,0.10,316.84,300411,,,A*6D
$GPGGA,205154.001,1904.8150,S,07004.8438,W,1,07,1.3,913.5,M,34.9,M,,0000*54
$GPGSA,M,3,06,03,22,19,16,18,11,,,,,,1.9,1.3,1.4*32
$GPRMC,205154.001,A,1904.8150,S,07004.8438,W,0.34,295.29,300411,,,A*66
$GPGGA,205154.999,1904.8146,S,07004.8438,W,1,07,1.3,912.8,M,34.9,M,,0000*57
$GPGSA,M,3,06,03,22,19,16,18,11,,,,,,1.9,1.3,1.4*32
$GPRMC,205154.999,A,1904.8146,S,07004.8438,W,0.27,336.97,300411,,,A*66
$GPGGA,205155.999,1904.8147,S,07004.8438,W,1,07,1.3,912.7,M,34.9,M,,0000*58
$GPGSA,M,3,06,03,22,19,16,18,11,,,,,,1.9,1.3,1.4*32
$GPRMC,205155.999,A,1904.8147,S,07004.8438,W,0.08,298.21,300411,,,A*63
$GPGGA,205156.996,1904.8146,S,07004.8438,W,1,09,0.9,912.8,M,34.9,M,,0000*5F
$GPGSA,M,3,06,03,22,14,19,16,30,18,11,,,,1.6,0.9,1.3*37
$GPRMC,205156.996,A,1904.8146,S,07004.8438,W,0.33,359.45,300411,,,A*68
$GPGGA,205158.002,1904.8146,S,07004.8438,W,1,07,1.3,913.0,M,34.9,M,,0000*59
$GPGSA,M,3,06,03,22,19,16,18,11,,,,,,1.9,1.3,1.4*32
$GPGSV,3,1,12,06,78,121,31,03,73,199,35,22,45,150,33,14,42,072,*72
$GPGSV,3,2,12,19,40,207,35,16,40,332,36,30,25,352,,32,24,311,*74
$GPGSV,3,3,12,18,12,140,27,11,11,240,40,24,07,256,,21,01,100,*71
$GPRMC,205158.002,A,1904.8146,S,07004.8438,W,0.46,226.21,300411,,,A*6B
$GPGGA,205159.002,1904.8150,S,07004.8441,W,1,08,1.1,913.4,M,34.9,M,,0000*58
$GPGSA,M,3,06,03,22,19,16,30,18,11,,,,,1.7,1.1,1.3*3A
$GPRMC,205159.002,A,1904.8150,S,07004.8441,W,0.12,244.87,300411,,,A*6A
$GPGGA,205200.000,1904.8151,S,07004.8442,W,1,08,1.1,913.0,M,34.9,M,,0000*53
$GPGSA,M,3,06,03,22,19,16,30,18,11,,,,,1.7,1.1,1.3*3A
$GPRMC,205200.000,A,1904.8151,S,07004.8442,W,0.31,334.93,300411,,,A*67
$GPGGA,205200.998,1904.8148,S,07004.8442,W,1,07,1.3,912.8,M,34.9,M,,0000*57
$GPGSA,M,3,06,03,22,19,16,18,11,,,,,,1.9,1.3,1.4*32
$GPRMC,205200.998,A,1904.8148,S,07004.8442,W,0.08,38.56,300411,,,A*5B
$GPGGA,205202.000,1904.8147,S,07004.8442,W,1,07,1.3,912.8,M,34.9,M,,0000*52
$GPGSA,M,3,06,03,22,19,16,18,11,,,,,,1.9,1.3,1.4*32
$GPRMC,205202.000,A,1904.8147,S,07004.8442,W,0.23,203.21,300411,,,A*6D
$GPGGA,205203.001,1904.8148,S,07004.8443,W,1,08,1.1,912.7,M,34.9,M,,0000*5E
$GPGSA,M,3,06,03,22,19,16,30,18,11,,,,,1.7,1.1,1.3*3A
$GPGSV,3,1,12,06,78,121,30,03,73,199,36,22,45,150,33,14,42,072,*70
$GPGSV,3,2,12,19,40,207,36,16,40,332,34,30,25,352,24,32,24,311,*73
$GPGSV,3,3,12,18,12,140,24,11,11,240,40,24,07,256,,21,01,100,*72
$GPRMC,205203.001,A,1904.8148,S,07004.8443,W,0.32,201.23,300411,,,A*63
$GPGGA,205204.000,1904.8146,S,07004.8443,W,1,08,1.1,912.5,M,34.9,M,,0000*54
$GPGSA,M,3,06,03,22,14,19,16,18,11,,,,,1.8,1.1,1.4*34
$GPRMC,205204.000,A,1904.8146,S,07004.8443,W,0.10,198.53,300411,,,A*6F
$GPGGA,205204.997,1904.8147,S,07004.8443,W,1,08,1.1,912.3,M,34.9,M,,0000*54
$GPGSA,M,3,06,03,22,14,19,16,18,11,,,,,1.8,1.1,1.4*34
$GPRMC,205204.997,A,1904.8147,S,07004.8443,W,0.23,268.36,300411,,,A*66
$GPGGA,205206.000,1904.8149,S,07004.8442,W,1,08,1.1,912.4,M,34.9,M,,0000*59
$GPGSA,M,3,06,03,22,14,19,16,18,11,,,,,1.8,1.1,1.4*34
$GPRMC,205206.000,A,1904.8149,S,07004.8442,W,0.29,134.37,300411,,,A*6D
$GPGGA,205207.003,1904.8150,S,07004.8442,W,1,07,1.3,911.7,M,34.9,M,,0000*5E
$GPGSA,M,3,06,03,22,14,19,16,11,,,,,,2.3,1.3,1.9*3A
$GPRMC,205207.003,A,1904.8150,S,07004.8442,W,0.67,101.12,300411,,,A*6C
$GPGGA,205207.997,1904.8152,S,07004.8441,W,1,08,1.1,911.1,M,34.9,M,,0000*50
$GPGSA,M,3,06,03,22,14,19,16,18,11,,,,,1.8,1.1,1.4*34
$GPGSV,3,1,12,06,78,121,30,03,73,199,34,22,45,150,32,14,42,072,30*70
$GPGSV,3,2,12,19,40,207,34,16,40,332,35,30,25,352,,32,24,311,*76
$GPGSV,3,3,12,18,12,140,29,11,11,240,41,24,07,256,,21,01,100,*7E
$GPRMC,205207.997,A,1904.8152,S,07004.8441,W,0.19,239.46,300411,,,A*69
$GPGGA,205209.001,1904.8151,S,07004.8443,W,1,09,1.0,911.4,M,34.9,M,,0000*5C
$GPGSA,M,3,06,03,22,14,19,16,32,18,11,,,,1.7,1.0,1.3*3C
$GPRMC,205209.001,A,1904.8151,S,07004.8443,W,0.34,286.87,300411,,,A*66
$GPGGA,205210.003,1904.8154,S,07004.8448,W,1,07,1.3,912.7,M,34.9,M,,0000*55
$GPGSA,M,3,06,03,22,14,19,16,11,,,,,,2.3,1.3,1.9*3A
$GPRMC,205210.003,A,1904.8154,S,07004.8448,W,0.41,44.35,300411,,,A*55
$GPGGA,205210.996,1904.8156,S,07004.8449,W,1,07,1.3,912.5,M,34.9,M,,0000*51
$GPGSA,M,3,06,03,22,14,19,16,11,,,,,,2.3,1.3,1.9*3A
$GPRMC,205210.996,A,1904.8156,S,07004.8449,W,0.68,327.96,300411,,,A*67
$GPGGA,205212.001,1904.8156,S,07004.8452,W,1,07,1.3,912.6,M,34.9,M,,0000*5D
$GPGSA,M,3,06,03,22,14,19,16,11,,,,,,2.3,1.3,1.9*3A
$GPRMC,205212.001,A,1904.8156,S,07004.8452,W,0.09,92.75,300411,,,A*5F
$GPGGA,205213.007,1904.8159,S,07004.8457,W,1,08,1.1,913.8,M,34.9,M,,0000*52
$GPGSA,M,3,06,03,22,14,19,16,18,11,,,,,1.8,1.1,1.4*34
$GPGSV,3,1,12,06,78,121,29,03,73,199,35,22,45,150,36,14,42,072,32*7F
$GPGSV,3,2,12,19,40,207,35,16,40,332,37,30,25,352,,32,24,311,*75
$GPGSV,3,3,12,18,12,140,24,11,11,240,41,24,07,256,,21,01,100,*73
$GPRMC,205213.007,A,1904.8159,S,07004.8457,W,0.33,3.33,300411,,,A*61
$GPGGA,205213.995,1904.8162,S,07004.8462,W,1,08,1.2,914.7,M,34.9,M,,0000*55
$GPGSA,M,3,06,03,22,14,19,16,30,11,,,,,2.2,1.2,1.8*38
$GPRMC,205213.995,A,1904.8162,S,07004.8462,W,0.33,12.58,300411,,,A*50
$GPGGA,205215.000,1904.8162,S,07004.8460,W,1,07,1.3,914.4,M,34.9,M,,0000*59
$GPGSA,M,3,06,03,22,14,19,16,11,,,,,,2.3,1.3,1.9*3A
$GPRMC,205215.000,A,1904.8162,S,07004.8460,W,0.17,354.66,300411,,,A*6B
$GPGGA,205216.001,1904.8159,S,07004.8459,W,1,08,1.1,913.7,M,34.9,M,,0000*50
$GPGSA,M,3,06,03,22,14,19,16,18,11,,,,,1.8,1.1,1.4*34
$GPRMC,205216.001,A,1904.8159,S,07004.8459,W,0.28,351.92,300411,,,A*69
$GPGGA,205216.997,1904.8160,S,07004.8458,W,1,07,1.3,913.6,M,34.9,M,,0000*51
$GPGSA,M,3,06,03,22,14,19,16,11,,,,,,2.3,1.3,1.9*3A
$GPRMC,205216.997,A,1904.8160,S,07004.8458,W,0.32,359.28,300411,,,A*66
$GPGGA,205218.000,1904.8163,S,07004.8459,W,1,07,1.3,914.0,M,34.9,M,,0000*5B
$GPGSA,M,3,06,03,22,14,19,16,11,,,,,,2.3,1.3,1.9*3A
$GPGSV,3,1,12,06,78,121,27,03,73,199,37,22,45,150,36,14,42,072,32*73
$GPGSV,3,2,12,19,40,207,36,16,40,332,36,30,25,352,,32,24,311,*77
$GPGSV,3,3,12,18,12,140,,11,11,240,41,24,07,256,,21,01,100,*75
$GPRMC,205218.000,A,1904.8163,S,07004.8459,W,0.31,68.14,300411,,,A*50
$GPGGA,205219.000,1904.8162,S,07004.8457,W,1,07,1.3,913.9,M,34.9,M,,0000*5B
$GPGSA,M,3,06,03,22,14,19,16,11,,,,,,2.3,1.3,1.9*3A
$GPRMC,205219.000,A,1904.8162,S,07004.8457,W,0.15,127.47,300411,,,A*64
$GPGGA,205220.001,1904.8163,S,07004.8459,W,1,07,1.3,914.4,M,34.9,M,,0000*55
$GPGSA,M,3,06,03,22,14,19,16,11,,,,,,2.3,1.3,1.9*3A
$GPRMC,205220.001,A,1904.8163,S,07004.8459,W,0.37,66.31,300411,,,A*55
$GPGGA,205220.998,1904.8166,S,07004.8454,W,1,10,0.9,914.0,M,34.9,M,,0000*5D
$GPGSA,M,3,06,03,22,14,19,16,30,32,18,11,,,1.5,0.9,1.3*35
$GPRMC,205220.998,A,1904.8166,S,07004.8454,W,0.59,317.89,300411,,,A*6A
$GPGGA,205222.001,1904.8167,S,07004.8453,W,1,08,1.1,913.8,M,34.9,M,,0000*5F
$GPGSA,M,3,06,03,22,14,19,16,18,11,,,,,1.8,1.1,1.4*34
$GPRMC,205222.001,A,1904.8167,S,07004.8453,W,0.12,30.57,300411,,,A*5D
$GPGGA,205223.001,1904.8168,S,07004.8455,W,1,07,1.2,914.0,M,34.9,M,,0000*54
$GPGSA,M,3,03,22,14,19,16,32,11,,,,,,2.5,1.2,2.2*32
$GPGSV,3,1,12,06,78,121,,03,73,199,36,22,45,150,33,14,42,072,33*73
$GPGSV,3,2,12,19,40,207,35,16,40,332,35,30,25,352,,32,24,311,27*72
$GPGSV,3,3,12,18,12,140,,11,11,240,41,24,07,256,,21,01,100,*75
$GPRMC,205223.001,A,1904.8168,S,07004.8455,W,0.11,79.38,300411,,,A*52
$GPGGA,205224.001,1904.8169,S,07004.8454,W,1,08,1.0,913.6,M,34.9,M,,0000*5F
$GPGSA,M,3,03,22,14,19,16,32,18,11,,,,,1.8,1.0,1.5*33
$GPRMC,205224.001,A,1904.8169,S,07004.8454,W,0.47,144.24,300411,,,A*64
$GPGGA,205224.999,1904.8169,S,07004.8458,W,1,07,1.2,914.7,M,34.9,M,,0000*50
$GPGSA,M,3,03,22,14,19,16,32,11,,,,,,2.5,1.2,2.2*32
$GPRMC,205224.999,A,1904.8169,S,07004.8458,W,0.43,178.90,300411,,,A*64
$GPGGA,205226.001,1904.8171,S,07004.8458,W,1,07,1.2,914.9,M,34.9,M,,0000*5D
$GPGSA,M,3,03,22,14,19,16,32,11,,,,,,2.5,1.2,2.2*32
$GPRMC,205226.001,A,1904.8171,S,07004.8458,W,0.24,283.74,300411,,,A*6B
$GPGGA,205227.001,1904.8173,S,07004.8458,W,1,07,1.2,914.9,M,34.9,M,,0000*5E
$GPGSA,M,3,03,22,14,19,16,30,11,,,,,,2.4,1.2,2.1*32
$GPRMC,205227.001,A,1904.8173,S,07004.8458,W,0.19,273.92,300411,,,A*61
$GPGGA,205228.000,1904.8172,S,07004.8455,W,1,07,1.2,913.3,M,34.9,M,,0000*51
$GPGSA,M,3,03,22,14,19,16,32,11,,,,,,2.5,1.2,2.2*32
$GPGSV,3,1,12,06,78,121,,03,73,199,33,22,45,150,35,14,42,072,31*72
$GPGSV,3,2,12,19,40,207,36,16,40,332,36,30,25,352,,32,24,311,30*74
$GPGSV,3,3,12,18,12,140,,11,11,240,39,24,07,256,21,21,01,100,*79
$GPRMC,205228.000,A,1904.8172,S,07004.8455,W,0.34,159.64,300411,,,A*6E
$GPGGA,205228.997,1904.8175,S,07004.8453,W,1,06,1.3,913.3,M,34.9,M,,0000*57
$GPGSA,M,3,03,22,14,19,16,11,,,,,,,2.6,1.3,2.2*31
$GPRMC,205228.997,A,1904.8175,S,07004.8453,W,0.67,178.99,300411,,,A*6F
$GPGGA,205230.002,1904.8173,S,07004.8452,W,1,06,1.6,913.1,M,34.9,M,,0000*5B
$GPGSA,M,3,03,22,19,16,30,11,,,,,,,2.8,1.6,2.3*3D
$GPRMC,205230.002,A,1904.8173,S,07004.8452,W,0.45,247.74,300411,,,A*68
$GPGGA,205231.001,1904.8174,S,07004.8453,W,1,07,1.1,913.6,M,34.9,M,,0000*5E
$GPGSA,M,3,03,22,14,19,16,18,11,,,,,,1.9,1.1,1.6*31
$GPRMC,205231.001,A,1904.8174,S,07004.8453,W,0.47,273.51,300411,,,A*6E
$GPGGA,205231.997,1904.8172,S,07004.8449,W,1,07,1.1,913.2,M,34.9,M,,0000*51
$GPGSA,M,3,03,22,14,19,16,18,11,,,,,,1.9,1.1,1.6*31
$GPRMC,205231.997,A,1904.8172,S,07004.8449,W,0.94,31.92,300411,,,A*50
$GPGGA,205233.002,1904.8171,S,07004.8450,W,1,06,1.3,913.5,M,34.9,M,,0000*59
$GPGSA,M,3,03,22,14,19,16,11,,,,,,,2.6,1.3,2.2*31
$GPGSV,3,1,12,06,78,121,,03,73,199,36,22,45,150,35,14,42,072,30*76
$GPGSV,3,2,12,19,40,207,34,16,40,332,35,30,25,352,,32,24,311,*76
$GPGSV,3,3,12,18,12,140,,11,11,240,31,24,07,256,25,21,01,100,*75
$GPRMC,205233.002,A,1904.8171,S,07004.8450,W,0.19,272.06,300411,,,A*61
$GPGGA,205234.002,1904.8170,S,07004.8452,W,1,06,1.3,913.3,M,34.9,M,,0000*5B
$GPGSA,M,3,03,22,14,19,16,11,,,,,,,2.6,1.3,2.2*31
$GPRMC,205234.002,A,1904.8170,S,07004.8452,W,0.68,246.22,300411,,,A*62
$GPGGA,205234.998,1904.8169,S,07004.8453,W,1,08,1.1,913.8,M,34.9,M,,0000*5F
$GPGSA,M,3,06,03,22,14,19,16,18,11,,,,,1.8,1.1,1.4*34
$GPRMC,205234.998,A,1904.8169,S,07004.8453,W,0.61,311.50,300411,,,A*6E
$GPGGA,205236.000,1904.8168,S,07004.8451,W,1,06,1.3,913.3,M,34.9,M,,0000*51
$GPGSA,M,3,03,22,14,19,16,11,,,,,,,2.6,1.3,2.2*31
$GPRMC,205236.000,A,1904.8168,S,07004.8451,W,0.08,339.54,300411,,,A*66
$GPGGA,205236.999,1904.8165,S,07004.8452,W,1,08,1.1,912.9,M,34.9,M,,0000*51
$GPGSA,M,3,06,03,22,14,19,16,18,11,,,,,1.8,1.1,1.4*34
$GPRMC,205236.999,A,1904.8165,S,07004.8452,W,0.40,262.26,300411,,,A*67
$GPGGA,205237.998,1904.8164,S,07004.8451,W,1,07,1.3,912.8,M,34.9,M,,0000*5F
$GPGSA,M,3,06,03,22,14,19,16,11,,,,,,2.3,1.3,1.9*3A
$GPGSV,3,1,12,06,78,121,26,03,73,199,33,22,45,150,31,14,42,072,31*72
$GPGSV,3,2,12,19,40,207,32,16,40,332,33,30,25,352,,32,24,311,*76
$GPGSV,3,3,12,18,12,140,,11,11,240,36,24,07,256,27,21,01,100,*70
$GPRMC,205237.998,A,1904.8164,S,07004.8451,W,0.44,262.58,300411,,,A*68
$GPGGA,205239.001,1904.8167,S,07004.8449,W,1,07,1.3,913.2,M,34.9,M,,0000*59
$GPGSA,M,3,06,03,22,14,19,16,11,,,,,,2.3,1.3,1.9*3A
$GPRMC,205239.001,A,1904.8167,S,07004.8449,W,0.39,115.30,300411,,,A*62
$GPGGA,205240.000,1904.8164,S,07004.8444,W,1,07,1.3,912.4,M,34.9,M,,0000*5F
$GPGSA,M,3,06,03,22,14,19,16,11,,,,,,2.3,1.3,1.9*3A
$GPRMC,205240.000,A,1904.8164,S,07004.8444,W,0.37,18.22,300411,,,A*52
$GPGGA,205240.999,1904.8165,S,07004.8438,W,1,07,1.3,911.4,M,34.9,M,,0000*5F
$GPGSA,M,3,06,03,22,14,19,16,11,,,,,,2.3,1.3,1.9*3A
$GPRMC,205240.999,A,1904.8165,S,07004.8438,W,0.49,146.06,300411,,,A*64
$GPGGA,205242.004,1904.8164,S,07004.8437,W,1,07,1.3,911.8,M,34.9,M,,0000*52
$GPGSA,M,3,06,03,22,14,19,16,11,,,,,,2.3,1.3,1.9*3A
$GPRMC,205242.004,A,1904.8164,S,07004.8437,W,0.60,263.13,300411,,,A*6E
$GPGGA,205242.998,1904.8162,S,07004.8437,W,1,07,1.3,911.9,M,34.9,M,,0000*59
$GPGSA,M,3,06,03,22,14,19,16,11,,,,,,2.3,1.3,1.9*3A
$GPGSV,3,1,12,06,78,121,25,03,73,199,36,22,45,150,30,14,42,072,28*7D
$GPGSV,3,2,12,19,40,207,30,16,40,332,31,30,25,352,,32,24,311,*76
$GPGSV,3,3,12,18,12,140,,11,11,240,30,24,07,256,24,21,01,100,*75
$GPRMC,205242.998,A,1904.8162,S,07004.8437,W,0.76,343.31,300411,,,A*60
$GPGGA,205243.999,1904.8159,S,07004.8436,W,1,06,1.3,910.7,M,34.9,M,,0000*5E
$GPGSA,M,3,03,22,14,19,16,11,,,,,,,2.6,1.3,2.2*31
$GPRMC,205243.999,A,1904.8159,S,07004.8436,W,0.52,313.79,300411,,,A*66
$GPGGA,205244.997,1904.8161,S,07004.8439,W,1,07,1.3,911.5,M,34.9,M,,0000*51
$GPGSA,M,3,06,03,22,14,19,16,11,,,,,,2.3,1.3,1.9*3A
$GPRMC,205244.997,A,1904.8161,S,07004.8439,W,0.22,320.15,300411,,,A*66
$GPGGA,205246.002,1904.8163,S,07004.8439,W,1,06,1.4,911.4,M,34.9,M,,0000*53
$GPGSA,M,3,06,03,22,14,16,11,,,,,,,2.4,1.4,2.0*38
$GPRMC,205246.002,A,1904.8163,S,07004.8439,W,0.29,290.63,300411,,,A*63
$GPGGA,205246.998,1904.8161,S,07004.8441,W,1,07,1.2,911.2,M,34.9,M,,0000*55
$GPGSA,M,3,03,22,14,19,16,32,11,,,,,,2.5,1.2,2.2*32
$GPRMC,205246.998,A,1904.8161,S,07004.8441,W,0.25,282.47,300411,,,A*6D
$GPGGA,205248.003,1904.8160,S,07004.8445,W,1,06,1.3,912.0,M,34.9,M,,0000*54
$GPGSA,M,3,03,22,19,16,18,11,,,,,,,2.1,1.3,1.6*3D
$GPGSV,3,1,12,06,78,121,,03,73,199,32,22,45,150,29,14,42,072,*7C
$GPGSV,3,2,12,19,40,207,31,16,40,332,32,30,25,352,,32,24,311,*74
$GPGSV,3,3,12,18,12,140,24,11,11,240,33,24,07,256,28,21,01,100,*7C
$GPRMC,205248.003,A,1904.8160,S,07004.8445,W,0.30,162.01,300411,,,A*66
$GPGGA,205248.997,1904.8163,S,07004.8445,W,1,07,1.2,912.2,M,34.9,M,,0000*51
$GPGSA,M,3,03,22,14,19,16,32,11,,,,,,2.5,1.2,2.2*32
$GPRMC,205248.997,A,1904.8163,S,07004.8445,W,0.48,217.11,300411,,,A*6E
$GPGGA,205250.003,1904.8162,S,07004.8451,W,1,08,1.2,912.8,M,34.9,M,,0000*5D
$GPGSA,M,3,06,03,22,14,19,16,32,11,,,,,2.3,1.2,1.9*3A
$GPRMC,205250.003,A,1904.8162,S,07004.8451,W,0.37,35.72,300411,,,A*58
$GPGGA,205250.998,1904.8161,S,07004.8453,W,1,08,1.2,912.9,M,34.9,M,,0000*56
$GPGSA,M,3,06,03,22,14,19,16,32,11,,,,,2.3,1.2,1.9*3A
$GPRMC,205250.998,A,1904.8161,S,07004.8453,W,1.13,284.39,300411,,,A*62
$GPGGA,205252.002,1904.8163,S,07004.8455,W,1,08,1.1,913.3,M,34.9,M,,0000*52
$GPGSA,M,3,06,03,22,14,19,32,18,11,,,,,1.7,1.1,1.3*3A
$GPRMC,205252.002,A,1904.8163,S,07004.8455,W,1.94,240.68,300411,,,A*6D
$GPGGA,205252.998,1904.8164,S,07004.8455,W,1,08,1.0,913.1,M,34.9,M,,0000*5C
$GPGSA,M,3,06,03,14,19,16,32,18,11,,,,,1.7,1.0,1.3*3C
$GPGSV,3,1,12,06,78,121,25,03,73,199,34,22,45,150,,14,42,072,31*74
$GPGSV,3,2,12,19,40,207,34,16,40,332,29,30,25,352,,32,24,311,32*7A
$GPGSV,3,3,12,18,12,140,27,11,11,240,36,24,07,256,28,21,01,100,*7A
$GPRMC,205252.998,A,1904.8164,S,07004.8455,W,2.00,244.01,300411,,,A*65
$GPGGA,205253.999,1904.8169,S,07004.8462,W,1,07,1.3,912.9,M,34.9,M,,0000*50
$GPGSA,M,3,06,03,14,19,16,32,11,,,,,,2.4,1.3,2.0*36
$GPRMC,205253.999,A,1904.8169,S,07004.8462,W,3.23,246.56,300411,,,A*6C
$GPGGA,205255.003,1904.8175,S,07004.8467,W,1,09,1.0,912.8,M,34.9,M,,0000*58
$GPGSA,M,3,06,03,22,14,19,16,32,18,11,,,,1.7,1.0,1.3*3C
$GPRMC,205255.003,A,1904.8175,S,07004.8467,W,3.76,234.39,300411,,,A*64
$GPGGA,205255.997,1904.8181,S,07004.8480,W,1,08,1.2,913.6,M,34.9,M,,0000*52
$GPGSA,M,3,06,03,22,14,19,16,32,11,,,,,2.3,1.2,1.9*3A
$GPRMC,205255.997,A,1904.8181,S,07004.8480,W,4.14,237.34,300411,,,A*6F
$GPGGA,205257.000,1904.8185,S,07004.8484,W,1,06,1.1,912.8,M,34.9,M,,0000*55
$GPGSA,M,3,22,14,19,32,18,11,,,,,,,2.3,1.1,2.1*39
$GPRMC,205257.000,A,1904.8185,S,07004.8484,W,3.80,260.89,300411,,,A*64
$GPGGA,205258.000,1904.8188,S,07004.8497,W,1,09,1.0,913.2,M,34.9,M,,0000*50
$GPGSA,M,3,06,03,22,14,19,16,32,18,11,,,,1.7,1.0,1.3*3C
$GPGSV,3,1,12,06,78,121,32,03,73,199,30,22,45,150,29,14,42,072,36*7A
$GPGSV,3,2,12,19,40,207,36,16,40,332,28,30,25,352,,32,24,311,38*73
$GPGSV,3,3,12,18,12,140,32,11,11,240,27,24,07,256,,21,01,100,*74
$GPRMC,205258.000,A,1904.8188,S,07004.8497,W,5.29,268.66,300411,,,A*68
$GPGGA,205259.003,1904.8192,S,07004.8508,W,1,08,1.1,913.4,M,34.9,M,,0000*58
$GPGSA,M,3,06,03,22,14,19,16,32,18,,,,,1.9,1.1,1.5*35
$GPRMC,205259.003,A,1904.8192,S,07004.8508,W,4.99,263.51,300411,,,A*63
$GPGGA,205259.998,1904.8197,S,07004.8521,W,1,07,1.2,912.9,M,34.9,M,,0000*5D
$GPGSA,M,3,06,22,14,19,16,32,18,,,,,,2.1,1.2,1.7*3C
$GPRMC,205259.998,A,1904.8197,S,07004.8521,W,5.80,258.44,300411,,,A*63
$GPGGA,205300.999,1904.8204,S,07004.8538,W,1,09,1.0,913.6,M,34.9,M,,0000*52
$GPGSA,M,3,06,03,22,14,19,16,32,18,11,,,,1.7,1.0,1.3*3C
$GPRMC,205300.999,A,1904.8204,S,07004.8538,W,7.15,244.85,300411,,,A*60
$GPGGA,205301.998,1904.8213,S,07004.8559,W,1,08,1.1,914.9,M,34.9,M,,0000*5B
$GPGSA,M,3,06,03,22,14,19,16,18,11,,,,,1.8,1.1,1.4*34
$GPRMC,205301.998,A,1904.8213,S,07004.8559,W,7.10,249.86,300411,,,A*6A
$GPGGA,205303.001,1904.8222,S,07004.8581,W,1,08,1.1,916.2,M,34.9,M,,0000*5E
$GPGSA,M,3,06,03,22,14,19,16,18,11,,,,,1.8,1.1,1.4*34
$GPGSV,3,1,12,06,78,121,27,03,73,199,32,22,45,150,30,14,42,072,34*76
$GPGSV,3,2,12,19,40,207,39,16,40,332,32,30,25,352,,32,24,311,*7C
$GPGSV,3,3,12,18,12,140,30,11,11,240,34,24,07,256,,21,01,100,*74
$GPRMC,205303.001,A,1904.8222,S,07004.8581,W,7.37,242.35,300411,,,A*60
$GPGGA,205304.000,1904.8232,S,07004.8604,W,1,08,1.1,916.9,M,34.9,M,,0000*5C
$GPGSA,M,3,06,03,22,14,19,16,11,18,,,,,1.8,1.1,1.4*34
$GPRMC,205304.000,A,1904.8232,S,07004.8604,W,8.88,241.93,300411,,,A*6D
$GPGGA,205304.998,1904.8245,S,07004.8628,W,1,08,1.1,917.3,M,34.9,M,,0000*51
$GPGSA,M,3,06,03,22,14,19,16,11,18,,,,,1.8,1.1,1.4*34
$GPRMC,205304.998,A,1904.8245,S,07004.8628,W,10.60,240.36,300411,,,A*5A
$GPGGA,205306.000,1904.8262,S,07004.8660,W,1,06,1.6,918.7,M,34.9,M,,0000*50
$GPGSA,M,3,03,22,14,19,11,18,,,,,,,2.3,1.6,1.6*38
$GPRMC,205306.000,A,1904.8262,S,07004.8660,W,12.95,243.10,300411,,,A*56
$GPGGA,205307.000,1904.8284,S,07004.8699,W,1,06,1.3,921.0,M,34.9,M,,0000*57
$GPGSA,M,3,03,22,14,19,16,18,,,,,,,2.5,1.3,2.1*38
$GPRMC,205307.000,A,1904.8284,S,07004.8699,W,14.95,235.25,300411,,,A*58
$GPGGA,205308.003,1904.8311,S,07004.8736,W,1,08,1.1,921.3,M,34.9,M,,0000*5D
$GPGSA,M,3,06,03,22,14,19,16,11,18,,,,,1.8,1.1,1.4*34
$GPGSV,3,1,12,06,79,113,27,03,74,199,29,22,44,150,30,14,42,074,27*7E
$GPGSV,3,2,12,19,41,206,28,16,39,333,31,32,25,310,,30,24,353,*70
$GPGSV,3,3,12,11,12,239,35,18,11,140,30,24,08,255,,20,01,309,*7D
$GPRMC,205308.003,A,1904.8311,S,07004.8736,W,16.93,234.80,300411,,,A*57
$GPGGA,205308.997,1904.8340,S,07004.8777,W,1,06,1.8,921.0,M,34.9,M,,0000*5C
$GPGSA,M,3,06,03,14,19,11,18,,,,,,,2.4,1.8,1.6*37
$GPRMC,205308.997,A,1904.8340,S,07004.8777,W,18.73,233.83,300411,,,A*56
$GPGGA,205310.000,1904.8371,S,07004.8822,W,1,06,2.0,921.9,M,34.9,M,,0000*5D
$GPGSA,M,3,06,03,22,14,19,11,,,,,,,2.8,2.0,1.9*36
$GPRMC,205310.000,A,1904.8371,S,07004.8822,W,20.48,234.30,300411,,,A*59
$GPGGA,205311.003,1904.8404,S,07004.8872,W,1,05,6.2,922.2,M,34.9,M,,0000*52
$GPGSA,M,3,06,03,19,16,11,,,,,,,,9.5,6.2,7.3*38
$GPRMC,205311.003,A,1904.8404,S,07004.8872,W,21.02,234.87,300411,,,A*58
$GPGGA,205312.000,1904.8444,S,07004.8921,W,1,08,1.1,921.1,M,34.9,M,,0000*58
$GPGSA,M,3,06,03,22,14,19,16,11,18,,,,,1.8,1.1,1.4*34
$GPRMC,205312.000,A,1904.8444,S,07004.8921,W,22.00,231.75,300411,,,A*52
$GPGGA,205312.998,1904.8485,S,07004.8971,W,1,07,1.3,920.0,M,34.9,M,,0000*55
$GPGSA,M,3,06,03,22,19,16,11,18,,,,,,1.9,1.3,1.4*32
$GPGSV,3,1,12,06,79,113,31,03,74,199,27,22,44,150,29,14,42,074,*7A
$GPGSV,3,2,12,19,41,206,35,16,39,333,26,32,25,310,,30,24,353,*7A
$GPGSV,3,3,12,11,12,239,34,18,11,140,27,24,08,255,,20,01,309,*7A
$GPRMC,205312.998,A,1904.8485,S,07004.8971,W,23.69,231.86,300411,,,A*50
$GPGGA,205313.999,1904.8528,S,07004.9031,W,1,06,2.0,919.4,M,34.9,M,,0000*50
$GPGSA,M,3,06,03,22,14,19,11,,,,,,,2.8,2.0,1.9*36
$GPRMC,205313.999,A,1904.8528,S,07004.9031,W,25.36,233.76,300411,,,A*5B
$GPGGA,205314.999,1904.8578,S,07004.9091,W,1,06,2.0,919.7,M,34.9,M,,0000*5B
$GPGSA,M,3,06,03,22,14,19,11,,,,,,,2.8,2.0,1.9*36
$GPRMC,205314.999,A,1904.8578,S,07004.9091,W,26.29,230.23,300411,,,A*5D
$GPGGA,205315.998,1904.8625,S,07004.9155,W,1,06,2.0,920.8,M,34.9,M,,0000*5C
$GPGSA,M,3,06,03,22,14,19,11,,,,,,,2.8,2.0,1.9*36
$GPRMC,205315.998,A,1904.8625,S,07004.9155,W,25.86,234.22,300411,,,A*5C
$GPGGA,205317.002,1904.8666,S,07004.9218,W,1,06,2.0,920.5,M,34.9,M,,0000*54
$GPGSA,M,3,06,03,22,14,19,11,,,,,,,2.8,2.0,1.9*36
$GPRMC,205317.002,A,1904.8666,S,07004.9218,W,26.84,237.40,300411,,,A*5F
$GPGGA,205317.998,1904.8712,S,07004.9287,W,1,06,2.0,920.6,M,34.9,M,,0000*59
$GPGSA,M,3,06,03,22,14,19,11,,,,,,,2.8,2.0,1.9*36
$GPGSV,3,1,12,06,79,113,25,03,74,199,25,22,44,150,33,14,42,074,34*71
$GPGSV,3,2,12,19,41,206,39,16,39,333,,32,25,310,,30,24,353,*72
$GPGSV,3,3,12,11,12,239,30,18,11,140,,24,08,255,,20,01,309,*7B
$GPRMC,205317.998,A,1904.8712,S,07004.9287,W,28.12,235.60,300411,,,A*50
$GPGGA,205319.000,1904.8751,S,07004.9358,W,1,06,2.0,920.7,M,34.9,M,,0000*5A
$GPGSA,M,3,06,03,22,14,19,11,,,,,,,2.8,2.0,1.9*36
$GPRMC,205319.000,A,1904.8751,S,07004.9358,W,28.63,239.00,300411,,,A*5E
$GPGGA,205320.001,1904.8789,S,07004.9425,W,1,06,1.6,919.3,M,34.9,M,,0000*52
$GPGSA,M,3,06,22,14,19,11,18,,,,,,,2.4,1.6,1.7*3B
$GPRMC,205320.001,A,1904.8789,S,07004.9425,W,28.51,241.79,300411,,,A*5D
$GPGGA,205321.001,1904.8830,S,07004.9496,W,1,06,1.6,917.8,M,34.9,M,,0000*53
$GPGSA,M,3,06,22,14,19,11,18,,,,,,,2.4,1.6,1.7*3B
$GPRMC,205321.001,A,1904.8830,S,07004.9496,W,28.43,241.50,300411,,,A*51
$GPGGA,205322.000,1904.8873,S,07004.9568,W,1,06,1.6,916.3,M,34.9,M,,0000*5C
$GPGSA,M,3,06,22,14,19,11,18,,,,,,,2.4,1.6,1.7*3B
$GPRMC,205322.000,A,1904.8873,S,07004.9568,W,29.40,242.74,300411,,,A*53
$GPGGA,205322.998,1904.8911,S,07004.9648,W,1,05,2.2,917.2,M,34.9,M,,0000*54
$GPGSA,M,3,03,22,14,19,11,,,,,,,,3.2,2.2,2.3*30
$GPGSV,3,1,12,06,79,113,,03,74,199,20,22,44,150,29,14,42,074,35*79
$GPGSV,3,2,12,19,41,206,39,16,39,333,,32,25,310,,30,24,353,*72
$GPGSV,3,3,12,11,12,239,36,18,11,140,,24,08,255,31,20,01,309,*7F
$GPRMC,205322.998,A,1904.8911,S,07004.9648,W,29.21,244.28,300411,,,A*57
$GPGGA,205324.000,1904.8949,S,07004.9725,W,1,07,1.3,917.0,M,34.9,M,,0000*5F
$GPGSA,M,3,06,03,22,14,19,16,11,,,,,,2.3,1.3,1.9*3A
$GPRMC,205324.000,A,1904.8949,S,07004.9725,W,29.03,243.97,300411,,,A*5D
$GPGGA,205325.000,1904.8985,S,07004.9798,W,1,05,3.0,916.3,M,34.9,M,,0000*59
$GPGSA,M,3,03,22,14,19,18,,,,,,,,4.6,3.0,3.5*3E
$GPRMC,205325.000,A,1904.8985,S,07004.9798,W,28.81,243.84,300411,,,A*53
$GPGGA,205326.002,1904.9022,S,07004.9875,W,1,06,2.0,916.4,M,34.9,M,,0000*54
$GPGSA,M,3,06,03,22,14,19,11,,,,,,,2.8,2.0,1.9*36
$GPRMC,205326.002,A,1904.9022,S,07004.9875,W,28.92,243.42,300411,,,A*53
$GPGGA,205326.998,1904.9063,S,07004.9951,W,1,07,1.6,916.4,M,34.9,M,,0000*58
$GPGSA,M,3,06,03,22,14,19,11,18,,,,,,2.2,1.6,1.5*3C
$GPRMC,205326.998,A,1904.9063,S,07004.9951,W,29.02,242.41,300411,,,A*51
$GPGGA,205328.003,1904.9102,S,07005.0025,W,1,04,3.6,915.8,M,34.9,M,,0000*57
$GPGSA,M,3,22,14,19,11,,,,,,,,,6.9,3.6,5.9*35
$GPGSV,3,1,12,06,79,113,,03,74,199,,22,44,150,29,14,42,074,35*7B
$GPGSV,3,2,12,19,41,206,39,16,39,333,,32,25,310,,30,24,353,*72
$GPGSV,3,3,12,11,12,239,37,18,11,140,,24,08,255,37,20,01,309,*78
$GPRMC,205328.003,A,1904.9102,S,07005.0025,W,28.87,242.37,300411,,,A*5D
$GPGGA,205329.000,1904.9142,S,07005.0098,W,1,04,3.6,915.6,M,34.9,M,,0000*59
$GPGSA,M,3,22,14,19,11,,,,,,,,,6.9,3.6,5.9*35
$GPRMC,205329.000,A,1904.9142,S,07005.0098,W,28.39,241.61,300411,,,A*58
$GPGGA,205330.001,1904.9167,S,07005.0178,W,1,06,1.1,915.6,M,34.9,M,,0000*5F
$GPGSA,M,3,22,14,19,16,11,18,,,,,,,2.4,1.1,2.1*38
$GPRMC,205330.001,A,1904.9167,S,07005.0178,W,29.00,243.17,300411,,,A*51
$GPGGA,205330.999,1904.9207,S,07005.0250,W,1,05,1.5,914.4,M,34.9,M,,0000*5F
$GPGSA,M,3,22,14,19,16,11,,,,,,,,3.8,1.5,3.6*3E
$GPRMC,205330.999,A,1904.9207,S,07005.0250,W,29.62,242.88,300411,,,A*56
$GPGGA,205332.000,1904.9246,S,07005.0323,W,1,06,1.3,913.2,M,34.9,M,,0000*50
$GPGSA,M,3,03,22,14,19,16,11,,,,,,,2.6,1.3,2.2*31
$GPRMC,205332.000,A,1904.9246,S,07005.0323,W,28.79,244.39,300411,,,A*5A
$GPGGA,205333.000,1904.9281,S,07005.0397,W,1,06,1.4,910.9,M,34.9,M,,0000*5A
$GPGSA,M,3,06,22,14,19,16,11,,,,,,,2.8,1.4,2.4*3B
$GPGSV,3,1,12,06,79,113,25,03,74,199,,22,44,150,29,14,42,074,37*7E
$GPGSV,3,2,12,19,41,206,39,16,39,333,29,32,25,310,,30,24,353,*79
$GPGSV,3,3,12,11,12,239,38,18,11,140,,24,08,255,28,20,01,309,*79
$GPRMC,205333.000,A,1904.9281,S,07005.0397,W,29.34,244.20,300411,,,A*5F
$GPGGA,205334.001,1904.9319,S,07005.0473,W,1,06,1.1,909.8,M,34.9,M,,0000*5D
$GPGSA,M,3,22,14,19,16,11,18,,,,,,,2.4,1.1,2.1*38
$GPRMC,205334.001,A,1904.9319,S,07005.0473,W,29.09,244.02,300411,,,A*5A
$GPGGA,205335.001,1904.9354,S,07005.0549,W,1,06,1.1,908.8,M,34.9,M,,0000*5C
$GPGSA,M,3,22,14,19,16,11,18,,,,,,,2.4,1.1,2.1*38
$GPRMC,205335.001,A,1904.9354,S,07005.0549,W,30.03,242.04,300411,,,A*58
$GPGGA,205335.998,1904.9395,S,07005.0621,W,1,05,2.2,908.2,M,34.9,M,,0000*5C
$GPGSA,M,3,03,22,14,19,11,,,,,,,,3.2,2.2,2.3*30
$GPRMC,205335.998,A,1904.9395,S,07005.0621,W,29.38,243.08,300411,,,A*5C
$GPGGA,205337.000,1904.9435,S,07005.0694,W,1,05,2.2,906.1,M,34.9,M,,0000*58
$GPGSA,M,3,06,22,14,19,11,,,,,,,,3.3,2.2,2.5*32
$GPRMC,205337.000,A,1904.9435,S,07005.0694,W,29.03,245.03,300411,,,A*50
$GPGGA,205338.000,1904.9473,S,07005.0772,W,1,05,2.2,906.4,M,34.9,M,,0000*59
$GPGSA,M,3,03,22,14,19,11,,,,,,,,3.1,2.2,2.3*33
$GPGSV,3,1,12,06,79,113,,03,74,199,28,22,44,150,31,14,42,074,35*78
$GPGSV,3,2,12,19,41,206,38,16,39,333,,32,25,310,,30,24,353,*73
$GPGSV,3,3,12,11,12,239,37,18,11,140,,24,08,255,37,20,01,309,*78
$GPRMC,205338.000,A,1904.9473,S,07005.0772,W,29.08,246.66,300411,,,A*5F
$GPGGA,205339.000,1904.9505,S,07005.0853,W,1,07,1.6,907.2,M,34.9,M,,0000*56
$GPGSA,M,3,06,03,22,14,19,11,18,,,,,,2.2,1.6,1.5*3C
$GPRMC,205339.000,A,1904.9505,S,07005.0853,W,29.24,246.27,300411,,,A*59
$GPGGA,205340.003,1904.9537,S,07005.0928,W,1,07,1.6,905.8,M,34.9,M,,0000*5F
$GPGSA,M,3,06,03,22,14,19,11,18,,,,,,2.2,1.6,1.5*3C
$GPRMC,205340.003,A,1904.9537,S,07005.0928,W,28.32,248.65,300411,,,A*56
$GPGGA,205340.997,1904.9565,S,07005.1008,W,1,07,1.1,905.4,M,34.9,M,,0000*5D
$GPGSA,M,3,03,22,14,19,16,11,18,,,,,,1.9,1.1,1.6*31
$GPRMC,205340.997,A,1904.9565,S,07005.1008,W,29.23,251.88,300411,,,A*55
$GPGGA,205342.001,1904.9584,S,07005.1088,W,1,08,1.1,902.1,M,34.9,M,,0000*53
$GPGSA,M,3,06,03,22,14,19,16,11,18,,,,,1.8,1.1,1.4*34
$GPRMC,205342.001,A,1904.9584,S,07005.1088,W,29.83,255.73,300411,,,A*5C
$GPGGA,205343.004,1904.9605,S,07005.1173,W,1,07,1.1,902.2,M,34.9,M,,0000*54
$GPGSA,M,3,06,22,14,19,16,11,18,,,,,,2.0,1.1,1.6*3E
$GPGSV,3,1,12,06,79,113,32,03,74,199,,22,44,150,33,14,42,074,36*72
$GPGSV,3,2,12,19,41,206,36,16,39,333,27,32,25,310,,30,24,353,*78
$GPGSV,3,3,12,11,12,239,27,18,11,140,33,24,08,255,31,20,01,309,*7F
$GPRMC,205343.004,A,1904.9605,S,07005.1173,W,29.22,256.64,300411,,,A*59
$GPGGA,205343.995,1904.9621,S,07005.1253,W,1,05,3.0,900.7,M,34.9,M,,0000*54
$GPGSA,M,3,06,22,14,19,18,,,,,,,,4.5,3.0,3.4*39
$GPRMC,205343.995,A,1904.9621,S,07005.1253,W,28.42,257.83,300411,,,A*50
$GPGGA,205345.003,1904.9634,S,07005.1332,W,1,07,1.6,899.1,M,34.9,M,,0000*57
$GPGSA,M,3,06,03,22,14,19,11,18,,,,,,2.2,1.6,1.5*3C
$GPRMC,205345.003,A,1904.9634,S,07005.1332,W,28.29,260.52,300411,,,A*57
$GPGGA,205346.002,1904.9642,S,07005.1418,W,1,07,1.1,899.2,M,34.9,M,,0000*5F
$GPGSA,M,3,06,22,14,19,16,11,18,,,,,,2.0,1.1,1.6*3E
$GPRMC,205346.002,A,1904.9642,S,07005.1418,W,29.40,263.75,300411,,,A*53
$GPGGA,205346.996,1904.9652,S,07005.1501,W,1,08,1.1,897.8,M,34.9,M,,0000*58
$GPGSA,M,3,06,03,22,14,19,16,11,18,,,,,1.8,1.1,1.4*34
$GPRMC,205346.996,A,1904.9652,S,07005.1501,W,29.08,263.18,300411,,,A*58
$GPGGA,205348.002,1904.9661,S,07005.1586,W,1,07,1.6,897.7,M,34.9,M,,0000*5A
$GPGSA,M,3,06,03,22,14,19,11,18,,,,,,2.2,1.6,1.5*3C
$GPGSV,3,1,12,06,79,113,30,03,74,199,25,22,44,150,35,14,42,074,26*70
$GPGSV,3,2,12,19,41,206,37,16,39,333,,32,25,310,,30,24,353,*7C
$GPGSV,3,3,12,11,12,239,31,18,11,140,31,24,08,255,26,20,01,309,*7C
$GPRMC,205348.002,A,1904.9661,S,07005.1586,W,29.16,262.17,300411,,,A*5C
$GPGGA,205348.998,1904.9676,S,07005.1671,W,1,08,1.1,897.2,M,34.9,M,,0000*50
$GPGSA,M,3,06,03,22,14,19,16,11,18,,,,,1.8,1.1,1.4*34
$GPRMC,205348.998,A,1904.9676,S,07005.1671,W,28.81,261.74,300411,,,A*52
$GPGGA,205350.000,1904.9685,S,07005.1758,W,1,06,2.8,897.4,M,34.9,M,,0000*55
$GPGSA,M,3,06,03,22,19,11,18,,,,,,,3.4,2.8,2.0*35
$GPRMC,205350.000,A,1904.9685,S,07005.1758,W,29.08,262.43,300411,,,A*52
$GPGGA,205351.000,1904.9693,S,07005.1841,W,1,08,1.1,896.3,M,34.9,M,,0000*56
$GPGSA,M,3,06,03,22,14,19,16,11,18,,,,,1.8,1.1,1.4*34
$GPRMC,205351.000,A,1904.9693,S,07005.1841,W,29.28,263.55,300411,,,A*57
$GPGGA,205351.998,1904.9699,S,07005.1925,W,1,07,1.1,896.1,M,34.9,M,,0000*5A
$GPGSA,M,3,06,22,14,19,16,11,18,,,,,,2.0,1.1,1.6*3E
$GPRMC,205351.998,A,1904.9699,S,07005.1925,W,28.63,264.88,300411,,,A*5F
$GPGGA,205353.002,1904.9712,S,07005.2006,W,1,08,1.1,895.4,M,34.9,M,,0000*52
$GPGSA,M,3,06,03,22,14,19,16,11,18,,,,,1.8,1.1,1.4*34
$GPGSV,3,1,12,06,79,113,30,03,74,199,24,22,44,150,36,14,42,074,37*72
$GPGSV,3,2,12,19,41,206,38,16,39,333,36,32,25,310,,30,24,353,*76
$GPGSV,3,3,12,11,12,239,31,18,11,140,32,24,08,255,32,20,01,309,*7A
$GPRMC,205353.002,A,1904.9712,S,07005.2006,W,29.39,263.34,300411,,,A*50
$GPGGA,205354.000,1904.9719,S,07005.2090,W,1,08,1.1,895.1,M,34.9,M,,0000*56
$GPGSA,M,3,06,03,22,14,19,16,11,18,,,,,1.8,1.1,1.4*34
$GPRMC,205354.000,A,1904.9719,S,07005.2090,W,29.40,263.28,300411,,,A*52
$GPGGA,205354.998,1904.9724,S,07005.2173,W,1,07,1.3,893.8,M,34.9,M,,0000*5E
$GPGSA,M,3,06,03,22,19,16,11,18,,,,,,1.9,1.3,1.4*32
$GPRMC,205354.998,A,1904.9724,S,07005.2173,W,28.89,266.05,300411,,,A*56
$GPGGA,205356.003,1904.9732,S,07005.2259,W,1,06,1.6,895.7,M,34.9,M,,0000*56
$GPGSA,M,3,03,22,14,19,11,18,,,,,,,2.3,1.6,1.6*38
$GPRMC,205356.003,A,1904.9732,S,07005.2259,W,29.26,263.70,300411,,,A*50
$GPGGA,205356.999,1904.9741,S,07005.2340,W,1,06,1.6,893.9,M,34.9,M,,0000*59
$GPGSA,M,3,06,22,14,19,11,18,,,,,,,2.4,1.6,1.7*3B
$GPRMC,205356.999,A,1904.9741,S,07005.2340,W,28.56,263.80,300411,,,A*5E
$GPGGA,205358.000,1904.9750,S,07005.2424,W,1,06,1.8,893.0,M,34.9,M,,0000*5C
$GPGSA,M,3,06,03,22,19,16,18,,,,,,,2.5,1.8,1.8*3A
$GPGSV,3,1,12,06,79,113,32,03,74,199,25,22,44,150,34,14,42,074,*77
$GPGSV,3,2,12,19,41,206,37,16,39,333,29,32,25,310,,30,24,353,*77
$GPGSV,3,3,12,11,12,239,,18,11,140,29,24,08,255,34,20,01,309,*74
$GPRMC,205358.000,A,1904.9750,S,07005.2424,W,28.27,261.64,300411,,,A*52
$GPGGA,205359.000,1904.9757,S,07005.2510,W,1,08,1.0,890.3,M,34.9,M,,0000*5A
$GPGSA,M,3,06,22,14,19,16,32,11,18,,,,,1.9,1.0,1.6*34
$GPRMC,205359.000,A,1904.9757,S,07005.2510,W,30.23,263.04,300411,,,A*5B
$GPGGA,205359.998,1904.9763,S,07005.2600,W,1,09,1.0,889.5,M,34.9,M,,0000*58
$GPGSA,M,3,06,03,22,14,19,16,32,11,18,,,,1.7,1.0,1.3*3C
$GPRMC,205359.998,A,1904.9763,S,07005.2600,W,29.25,263.18,300411,,,A*55
$GPGGA,205401.000,1904.9766,S,07005.2688,W,1,08,1.0,888.3,M,34.9,M,,0000*59
$GPGSA,M,3,06,22,14,19,16,32,11,18,,,,,1.9,1.0,1.6*34
$GPRMC,205401.000,A,1904.9766,S,07005.2688,W,29.61,262.03,300411,,,A*59
$GPGGA,205402.000,1904.9780,S,07005.2772,W,1,08,1.0,887.6,M,34.9,M,,0000*5C
$GPGSA,M,3,06,22,14,19,16,32,11,18,,,,,1.9,1.0,1.6*34
$GPRMC,205402.000,A,1904.9780,S,07005.2772,W,29.51,261.04,300411,,,A*51
$GPGGA,205402.999,1904.9797,S,07005.2857,W,1,07,1.1,885.7,M,34.9,M,,0000*56
$GPGSA,M,3,06,22,14,19,16,11,18,,,,,,2.0,1.1,1.6*3E
$GPGSV,3,1,12,06,79,113,32,03,74,199,,22,44,150,34,14,42,074,35*76
$GPGSV,3,2,12,19,41,206,37,16,39,333,31,32,25,310,,30,24,353,*7E
$GPGSV,3,3,12,11,12,239,29,18,11,140,31,24,08,255,29,20,01,309,*7A
$GPRMC,205402.999,A,1904.9797,S,07005.2857,W,29.40,258.56,300411,,,A*5B
$GPGGA,205403.999,1904.9817,S,07005.2942,W,1,07,1.6,885.6,M,34.9,M,,0000*53
$GPGSA,M,3,06,03,22,14,19,11,18,,,,,,2.2,1.6,1.5*3C
$GPRMC,205403.999,A,1904.9817,S,07005.2942,W,28.54,256.22,300411,,,A*51
$GPGGA,205404.999,1904.9839,S,07005.3022,W,1,07,1.6,885.1,M,34.9,M,,0000*51
$GPGSA,M,3,06,03,22,14,19,11,18,,,,,,2.2,1.6,1.5*3C
$GPRMC,205404.999,A,1904.9839,S,07005.3022,W,27.73,255.08,300411,,,A*55
$GPGGA,205406.001,1904.9856,S,07005.3100,W,1,06,1.6,882.8,M,34.9,M,,0000*5C
$GPGSA,M,3,06,22,14,19,11,18,,,,,,,2.4,1.6,1.7*3B
$GPRMC,205406.001,A,1904.9856,S,07005.3100,W,28.27,257.41,300411,,,A*56
$GPGGA,205407.000,1904.9875,S,07005.3182,W,1,06,1.6,882.1,M,34.9,M,,0000*5E
$GPGSA,M,3,06,22,14,19,11,18,,,,,,,2.4,1.6,1.7*3B
$GPRMC,205407.000,A,1904.9875,S,07005.3182,W,28.94,257.10,300411,,,A*51
$GPGGA,205408.000,1904.9901,S,07005.3265,W,1,06,3.0,882.5,M,34.9,M,,0000*59
$GPGSA,M,3,06,03,22,14,19,18,,,,,,,4.5,3.0,3.3*3D
$GPGSV,3,1,12,06,79,113,33,03,74,199,25,22,44,150,33,14,42,074,35*77
$GPGSV,3,2,12,19,41,206,38,16,39,333,,32,25,310,,30,24,353,*73
$GPGSV,3,3,12,11,12,239,,18,11,140,30,24,08,255,30,20,01,309,*78
$GPRMC,205408.000,A,1904.9901,S,07005.3265,W,29.30,253.57,300411,,,A*5E
$GPGGA,205408.998,1904.9923,S,07005.3344,W,1,07,1.6,883.6,M,34.9,M,,0000*54
$GPGSA,M,3,06,03,22,14,19,11,18,,,,,,2.2,1.6,1.5*3C
$GPRMC,205408.998,A,1904.9923,S,07005.3344,W,28.46,254.09,300411,,,A*58
$GPGGA,205409.999,1904.9947,S,07005.3425,W,1,07,1.6,883.0,M,34.9,M,,0000*50
$GPGSA,M,3,06,03,22,14,19,11,18,,,,,,2.2,1.6,1.5*3C
$GPRMC,205409.999,A,1904.9947,S,07005.3425,W,28.83,255.14,300411,,,A*5E
$GPGGA,205411.000,1904.9968,S,07005.3511,W,1,05,3.0,884.4,M,34.9,M,,0000*5E
$GPGSA,M,3,03,22,14,19,18,,,,,,,,4.7,3.0,3.6*3C
$GPRMC,205411.000,A,1904.9968,S,07005.3511,W,28.86,256.53,300411,,,A*50
$GPGGA,205412.003,1904.9990,S,07005.3594,W,1,07,1.6,884.2,M,34.9,M,,0000*54
$GPGSA,M,3,06,03,22,14,19,11,18,,,,,,2.2,1.6,1.5*3C
$GPRMC,205412.003,A,1904.9990,S,07005.3594,W,29.38,255.73,300411,,,A*5F
$GPGGA,205412.996,1905.0004,S,07005.3678,W,1,07,1.6,882.6,M,34.9,M,,0000*5E
$GPGSA,M,3,06,03,22,14,19,11,18,,,,,,2.2,1.6,1.5*3C
$GPGSV,3,1,12,06,79,113,31,03,74,199,28,22,44,150,34,14,42,074,37*7D
$GPGSV,3,2,12,19,41,206,37,16,39,333,,32,25,310,,30,24,353,*7C
$GPGSV,3,3,12,11,12,239,30,18,11,140,29,24,08,255,30,20,01,309,*73
$GPRMC,205412.996,A,1905.0004,S,07005.3678,W,28.70,258.44,300411,,,A*53
$GPGGA,205414.001,1905.0025,S,07005.3766,W,1,07,1.6,882.0,M,34.9,M,,0000*54
$GPGSA,M,3,06,03,22,14,19,11,18,,,,,,2.2,1.6,1.5*3C
$GPRMC,205414.001,A,1905.0025,S,07005.3766,W,29.19,256.45,300411,,,A*5E
$GPGGA,205415.002,1905.0044,S,07005.3847,W,1,06,3.0,881.7,M,34.9,M,,0000*5C
$GPGSA,M,3,06,03,22,14,19,18,,,,,,,4.5,3.0,3.3*3D
$GPRMC,205415.002,A,1905.0044,S,07005.3847,W,28.93,256.51,300411,,,A*51
$GPGGA,205415.997,1905.0065,S,07005.3925,W,1,07,1.6,881.3,M,34.9,M,,0000*5E
$GPGSA,M,3,06,03,22,14,19,11,18,,,,,,2.2,1.6,1.5*3C
$GPRMC,205415.997,A,1905.0065,S,07005.3925,W,28.43,254.12,300411,,,A*5A
$GPGGA,205417.000,1905.0089,S,07005.4003,W,1,07,1.6,880.1,M,34.9,M,,0000*50
$GPGSA,M,3,06,03,22,14,19,11,18,,,,,,2.2,1.6,1.5*3C
$GPRMC,205417.000,A,1905.0089,S,07005.4003,W,29.25,255.12,300411,,,A*57
$GPGGA,205418.002,1905.0112,S,07005.4088,W,1,06,1.6,878.4,M,34.9,M,,0000*5E
$GPGSA,M,3,06,22,14,19,11,18,,,,,,,2.4,1.6,1.7*3B
$GPGSV,3,1,12,06,79,113,29,03,74,199,,22,44,150,34,14,42,074,37*7E
$GPGSV,3,2,12,19,41,206,39,16,39,333,,32,25,310,,30,24,353,*72
$GPGSV,3,3,12,11,12,239,22,18,11,140,31,24,08,255,37,20,01,309,*7E
$GPRMC,205418.002,A,1905.0112,S,07005.4088,W,28.94,256.35,300411,,,A*57
$GPGGA,205418.998,1905.0137,S,07005.4169,W,1,07,1.6,878.1,M,34.9,M,,0000*59
$GPGSA,M,3,06,03,22,14,19,11,18,,,,,,2.2,1.6,1.5*3C
$GPRMC,205418.998,A,1905.0137,S,07005.4169,W,28.76,255.20,300411,,,A*5F
$GPGGA,205420.002,1905.0160,S,07005.4247,W,1,06,3.0,877.7,M,34.9,M,,0000*59
$GPGSA,M,3,06,03,22,14,19,18,,,,,,,4.5,3.0,3.3*3D
$GPRMC,205420.002,A,1905.0160,S,07005.4247,W,28.86,254.52,300411,,,A*58
$GPGGA,205420.999,1905.0181,S,07005.4329,W,1,05,1.7,876.4,M,34.9,M,,0000*50
$GPGSA,M,3,22,14,19,11,18,,,,,,,,2.7,1.7,2.1*3A
$GPRMC,205420.999,A,1905.0181,S,07005.4329,W,29.29,255.59,300411,,,A*5B
$GPGGA,205421.999,1905.0201,S,07005.4407,W,1,07,1.6,877.3,M,34.9,M,,0000*54
$GPGSA,M,3,06,03,22,14,19,11,18,,,,,,2.2,1.6,1.5*3C
