$GPGGA,170503.000,2033.3661,S,07010.6435,W,1,09,0.9,65.4,M,35.0,M,,0000*60
$GPGSA,M,3,21,25,18,31,30,29,22,16,06,,,,1.9,0.9,1.7*3F
$GPRMC,170503.000,A,2033.3661,S,07010.6435,W,0.22,334.27,010511,,,A*66
$GPGGA,170503.999,2033.3660,S,07010.6436,W,1,09,0.9,65.9,M,35.0,M,,0000*66
$GPGSA,M,3,21,25,18,31,30,29,22,16,06,,,,1.9,0.9,1.7*3F
$GPRMC,170503.999,A,2033.3660,S,07010.6436,W,0.30,228.85,010511,,,A*6A
$GPGGA,170505.000,2033.3664,S,07010.6434,W,1,09,0.9,65.5,M,35.0,M,,0000*63
$GPGSA,M,3,21,25,18,31,30,29,22,16,06,,,,1.9,0.9,1.7*3F
$GPGSV,3,1,11,21,68,180,40,25,44,050,37,18,41,025,34,31,40,293,37*7B
$GPGSV,3,2,11,30,38,214,30,29,30,125,31,22,21,354,31,16,14,216,37*78
$GPGSV,3,3,11,06,10,245,31,12,06,044,,03,00,249,27*43
$GPRMC,170505.000,A,2033.3664,S,07010.6434,W,0.10,231.30,010511,,,A*67
$GPGGA,170506.000,2033.3665,S,07010.6435,W,1,09,0.9,66.7,M,35.0,M,,0000*61
$GPGSA,M,3,21,25,18,31,30,29,22,16,06,,,,1.9,0.9,1.7*3F
$GPGSV,3,1,11,21,68,180,39,25,44,050,37,18,41,025,34,31,40,293,37*75
$GPGSV,3,2,11,30,38,214,31,29,30,125,31,22,21,354,30,16,14,216,37*78
$GPGSV,3,3,11,06,10,245,31,12,06,044,,03,00,249,25*41
$GPRMC,170506.000,A,2033.3665,S,07010.6435,W,0.40,203.80,010511,,,A*6B
$GPGGA,170507.000,2033.3666,S,07010.6434,W,1,09,0.9,66.3,M,35.0,M,,0000*66
$GPGSA,M,3,21,25,18,31,30,29,22,16,06,,,,1.9,0.9,1.7*3F
$GPRMC,170507.000,A,2033.3666,S,07010.6434,W,0.09,269.00,010511,,,A*61
$GPGGA,170508.000,2033.3665,S,07010.6437,W,1,09,0.9,67.0,M,35.0,M,,0000*6B
$GPGSA,M,3,21,25,18,31,30,29,22,16,06,,,,1.9,0.9,1.7*3F
$GPRMC,170508.000,A,2033.3665,S,07010.6437,W,0.15,167.81,010511,,,A*67
$GPGGA,170509.000,2033.3667,S,07010.6436,W,1,09,0.9,66.9,M,35.0,M,,0000*61
$GPGSA,M,3,21,25,18,31,30,29,22,16,06,,,,1.9,0.9,1.7*3F
$GPRMC,170509.000,A,2033.3667,S,07010.6436,W,0.22,267.39,010511,,,A*61
$GPGGA,170509.999,2033.3669,S,07010.6432,W,1,09,0.9,66.0,M,35.0,M,,0000*6B
$GPGSA,M,3,21,25,18,31,30,29,22,16,06,,,,1.9,0.9,1.7*3F
$GPRMC,170509.999,A,2033.3669,S,07010.6432,W,0.37,305.81,010511,,,A*60
$GPGGA,170511.000,2033.3672,S,07010.6428,W,1,09,0.9,65.1,M,35.0,M,,0000*68
$GPGSA,M,3,21,25,18,31,30,29,22,16,06,,,,1.9,0.9,1.7*3F
$GPGSV,3,1,11,21,68,180,40,25,44,050,37,18,41,025,31,31,40,293,38*71
$GPGSV,3,2,11,30,38,214,36,29,30,125,33,22,21,354,33,16,14,216,37*7E
$GPGSV,3,3,11,06,10,245,31,12,06,044,,03,00,249,26*42
$GPRMC,170511.000,A,2033.3672,S,07010.6428,W,0.44,265.25,010511,,,A*6C
$GPGGA,170511.997,2033.3673,S,07010.6428,W,1,08,1.0,65.1,M,35.0,M,,0000*67
$GPGSA,M,3,21,25,31,30,29,22,16,06,,,,,2.0,1.0,1.7*34
$GPRMC,170511.997,A,2033.3673,S,07010.6428,W,0.18,301.65,010511,,,A*64
$GPGGA,170513.003,2033.3675,S,07010.6423,W,1,09,0.9,64.1,M,35.0,M,,0000*64
$GPGSA,M,3,21,25,18,31,30,29,22,16,06,,,,1.9,0.9,1.7*3F
$GPRMC,170513.003,A,2033.3675,S,07010.6423,W,0.94,354.81,010511,,,A*61
$GPGGA,170514.000,2033.3674,S,07010.6423,W,1,09,0.9,64.3,M,35.0,M,,0000*63
$GPGSA,M,3,21,25,18,31,30,29,22,16,06,,,,1.9,0.9,1.7*3F
$GPRMC,170514.000,A,2033.3674,S,07010.6423,W,0.32,231.25,010511,,,A*64
$GPGGA,170515.000,2033.3677,S,07010.6424,W,1,09,0.9,65.0,M,35.0,M,,0000*64
$GPGSA,M,3,21,25,18,31,30,29,22,16,06,,,,1.9,0.9,1.7*3F
$GPRMC,170515.000,A,2033.3677,S,07010.6424,W,1.20,210.27,010511,,,A*62
$GPGGA,170516.000,2033.3682,S,07010.6424,W,1,09,0.9,65.2,M,35.0,M,,0000*6F
$GPGSA,M,3,21,25,18,31,30,29,22,16,06,,,,1.9,0.9,1.7*3F
$GPGSV,3,1,11,21,68,180,39,25,44,050,38,18,41,025,37,31,40,293,38*76
$GPGSV,3,2,11,30,38,214,32,29,30,125,30,22,21,354,29,16,14,216,38*7D
$GPGSV,3,3,11,06,10,245,33,12,06,044,,03,00,249,26*40
$GPRMC,170516.000,A,2033.3682,S,07010.6424,W,2.93,184.55,010511,,,A*6B
$GPGGA,170516.999,2033.3692,S,07010.6426,W,1,09,0.9,65.8,M,35.0,M,,0000*6F
$GPGSA,M,3,21,25,18,31,30,29,22,16,06,,,,1.9,0.9,1.7*3F
$GPRMC,170516.999,A,2033.3692,S,07010.6426,W,4.48,188.28,010511,,,A*67
$GPGGA,170517.997,2033.3706,S,07010.6425,W,1,07,1.4,65.6,M,35.0,M,,0000*63
$GPGSA,M,3,21,25,18,31,30,16,06,,,,,,2.5,1.4,2.1*32
$GPRMC,170517.997,A,2033.3706,S,07010.6425,W,5.86,173.76,010511,,,A*6B
$GPGGA,170519.000,2033.3721,S,07010.6422,W,1,08,1.1,64.9,M,35.0,M,,0000*6C
$GPGSA,M,3,21,25,18,31,30,29,16,06,,,,,2.2,1.1,1.9*30
$GPRMC,170519.000,A,2033.3721,S,07010.6422,W,7.01,172.63,010511,,,A*68
$GPGGA,170520.001,2033.3740,S,07010.6420,W,1,08,1.1,65.9,M,35.0,M,,0000*63
$GPGSA,M,3,21,25,18,31,30,29,16,06,,,,,2.2,1.1,1.9*30
$GPRMC,170520.001,A,2033.3740,S,07010.6420,W,6.92,174.35,010511,,,A*68
$GPGGA,170521.000,2033.3764,S,07010.6416,W,1,08,1.1,66.2,M,35.0,M,,0000*68
$GPGSA,M,3,21,25,18,31,30,29,16,06,,,,,2.2,1.1,1.9*30
$GPGSV,3,1,11,21,68,180,40,25,44,050,36,18,41,025,37,31,40,293,37*79
$GPGSV,3,2,11,30,38,214,37,29,30,125,22,22,21,354,,16,14,216,39*71
$GPGSV,3,3,11,06,10,245,34,12,06,044,,03,00,249,27*46
$GPRMC,170521.000,A,2033.3764,S,07010.6416,W,8.72,174.63,010511,,,A*68
$GPGGA,170522.000,2033.3786,S,07010.6423,W,1,09,0.9,67.3,M,35.0,M,,0000*69
$GPGSA,M,3,21,25,18,31,30,29,22,16,06,,,,1.9,0.9,1.7*3F
$GPRMC,170522.000,A,2033.3786,S,07010.6423,W,10.12,179.68,010511,,,A*58
$GPGGA,170523.000,2033.3816,S,07010.6422,W,1,09,0.9,66.9,M,35.0,M,,0000*64
$GPGSA,M,3,21,25,18,31,30,29,22,16,06,,,,1.9,0.9,1.7*3F
$GPRMC,170523.000,A,2033.3816,S,07010.6422,W,11.74,182.66,010511,,,A*55
$GPGGA,170523.999,2033.3850,S,07010.6422,W,1,08,1.0,66.5,M,35.0,M,,0000*6A
$GPGSA,M,3,21,25,31,30,29,22,16,06,,,,,2.0,1.0,1.7*34
$GPRMC,170523.999,A,2033.3850,S,07010.6422,W,12.63,183.39,010511,,,A*50
$GPGGA,170525.000,2033.3884,S,07010.6427,W,1,08,1.0,67.1,M,35.0,M,,0000*6C
$GPGSA,M,3,21,25,31,30,29,22,16,06,,,,,2.0,1.0,1.7*34
$GPRMC,170525.000,A,2033.3884,S,07010.6427,W,12.75,183.23,010511,,,A*5F
$GPGGA,170526.002,2033.3919,S,07010.6432,W,1,09,0.9,67.7,M,35.0,M,,0000*63
$GPGSA,M,3,21,25,18,31,30,29,22,16,06,,,,1.9,0.9,1.7*3F
$GPGSV,3,1,11,21,68,180,40,25,44,050,37,18,41,025,28,31,40,293,38*79
$GPGSV,3,2,11,30,38,214,36,29,30,125,28,22,21,354,34,16,14,216,38*7C
$GPGSV,3,3,11,06,10,245,37,12,06,044,,03,00,249,29*4B
$GPRMC,170526.002,A,2033.3919,S,07010.6432,W,13.60,184.20,010511,,,A*5E
$GPGGA,170526.998,2033.3958,S,07010.6437,W,1,09,0.9,68.5,M,35.0,M,,0000*64
$GPGSA,M,3,21,25,18,31,30,29,22,16,06,,,,1.9,0.9,1.7*3F
$GPRMC,170526.998,A,2033.3958,S,07010.6437,W,15.03,182.91,010511,,,A*5B
$GPGGA,170528.000,2033.4001,S,07010.6438,W,1,08,1.0,68.0,M,35.0,M,,0000*63
$GPGSA,M,3,21,25,31,30,29,22,16,06,,,,,2.0,1.0,1.7*34
$GPRMC,170528.000,A,2033.4001,S,07010.6438,W,16.67,183.40,010511,,,A*5C
$GPGGA,170529.002,2033.4049,S,07010.6442,W,1,09,0.9,68.5,M,35.0,M,,0000*6D
$GPGSA,M,3,21,25,18,31,30,29,22,16,06,,,,1.9,0.9,1.7*3F
$GPRMC,170529.002,A,2033.4049,S,07010.6442,W,17.34,183.24,010511,,,A*5B
$GPGGA,170529.996,2033.4097,S,07010.6446,W,1,09,0.9,68.0,M,35.0,M,,0000*6B
$GPGSA,M,3,21,25,18,31,30,29,22,16,06,,,,1.9,0.9,1.7*3F
$GPRMC,170529.996,A,2033.4097,S,07010.6446,W,17.92,184.26,010511,,,A*51
$GPGGA,170531.000,2033.4151,S,07010.6450,W,1,09,0.9,68.5,M,35.0,M,,0000*6D
$GPGSA,M,3,21,25,18,31,30,29,22,16,06,,,,1.9,0.9,1.7*3F
$GPGSV,3,1,11,21,68,180,42,25,44,050,38,18,41,025,29,31,40,293,40*7A
$GPGSV,3,2,11,30,38,214,37,29,30,125,30,22,21,354,34,16,14,216,40*7B
$GPGSV,3,3,11,06,10,245,31,12,06,044,,03,00,249,30*45
$GPRMC,170531.000,A,2033.4151,S,07010.6450,W,19.06,183.31,010511,,,A*50
$GPGGA,170532.000,2033.4205,S,07010.6455,W,1,09,0.9,68.3,M,35.0,M,,0000*6F
$GPGSA,M,3,21,25,18,31,30,29,22,16,06,,,,1.9,0.9,1.7*3F
$GPRMC,170532.000,A,2033.4205,S,07010.6455,W,20.29,184.51,010511,,,A*52
$GPGGA,170533.000,2033.4263,S,07010.6458,W,1,09,0.9,68.0,M,35.0,M,,0000*60
$GPGSA,M,3,21,25,18,31,30,29,22,16,06,,,,1.9,0.9,1.7*3F
$GPRMC,170533.000,A,2033.4263,S,07010.6458,W,21.08,182.15,010511,,,A*5A
$GPGGA,170534.000,2033.4323,S,07010.6460,W,1,09,0.9,68.1,M,35.0,M,,0000*68
$GPGSA,M,3,21,25,18,31,30,29,22,16,06,,,,1.9,0.9,1.7*3F
$GPRMC,170534.000,A,2033.4323,S,07010.6460,W,21.36,181.54,010511,,,A*58
$GPGGA,170535.002,2033.4384,S,07010.6462,W,1,08,1.3,67.9,M,35.0,M,,0000*69
$GPGSA,M,3,21,25,18,31,30,22,16,06,,,,,2.4,1.3,1.9*3F
$GPRMC,170535.002,A,2033.4384,S,07010.6462,W,21.72,180.67,010511,,,A*55
$GPGGA,170536.000,2033.4441,S,07010.6464,W,1,08,1.3,67.7,M,35.0,M,,0000*6E
$GPGSA,M,3,21,25,18,31,30,22,16,06,,,,,2.4,1.3,1.9*3F
$GPGSV,3,1,11,21,68,180,41,25,44,050,38,18,41,025,31,31,40,293,39*7E
$GPGSV,3,2,11,30,38,214,37,29,30,125,,22,21,354,34,16,14,216,41*79
$GPGSV,3,3,11,06,10,245,35,12,06,044,,03,00,249,41*47
$GPRMC,170536.000,A,2033.4441,S,07010.6464,W,21.07,182.01,010511,,,A*5C
$GPGGA,170537.001,2033.4500,S,07010.6467,W,1,09,0.9,67.1,M,35.0,M,,0000*65
$GPGSA,M,3,21,25,18,31,30,29,22,16,06,,,,1.9,0.9,1.7*3F
$GPRMC,170537.001,A,2033.4500,S,07010.6467,W,21.40,181.01,010511,,,A*5B
$GPGGA,170538.000,2033.4559,S,07010.6467,W,1,09,0.9,66.8,M,35.0,M,,0000*6F
$GPGSA,M,3,21,25,18,31,30,29,22,16,06,,,,1.9,0.9,1.7*3F
$GPRMC,170538.000,A,2033.4559,S,07010.6467,W,20.38,181.28,010511,,,A*5C
$GPGGA,170539.000,2033.4616,S,07010.6469,W,1,09,0.9,67.2,M,35.0,M,,0000*63
$GPGSA,M,3,21,25,18,31,30,29,22,16,06,,,,1.9,0.9,1.7*3F
$GPRMC,170539.000,A,2033.4616,S,07010.6469,W,20.44,182.32,010511,,,A*58
$GPGGA,170540.000,2033.4675,S,07010.6468,W,1,09,0.9,65.9,M,35.0,M,,0000*60
$GPGSA,M,3,21,25,18,31,30,29,22,16,06,,,,1.9,0.9,1.7*3F
$GPRMC,170540.000,A,2033.4675,S,07010.6468,W,20.74,182.90,010511,,,A*59
$GPGGA,170541.001,2033.4732,S,07010.6471,W,1,09,0.9,65.7,M,35.0,M,,0000*64
$GPGSA,M,3,21,25,18,31,30,29,22,16,06,,,,1.9,0.9,1.7*3F
$GPGSV,3,1,11,21,68,180,39,25,44,050,37,18,41,025,31,31,40,293,39*7E
$GPGSV,3,2,11,30,38,214,38,29,30,125,25,22,21,354,36,16,14,216,39*7C
$GPGSV,3,3,11,06,10,245,33,12,06,044,,03,00,249,40*40
$GPRMC,170541.001,A,2033.4732,S,07010.6471,W,21.51,179.44,010511,,,A*58
$GPGGA,170541.999,2033.4791,S,07010.6473,W,1,09,0.9,66.4,M,35.0,M,,0000*67
$GPGSA,M,3,21,25,18,31,30,29,22,16,06,,,,1.9,0.9,1.7*3F
$GPRMC,170541.999,A,2033.4791,S,07010.6473,W,22.88,181.59,010511,,,A*57
$GPGGA,170542.998,2033.4854,S,07010.6478,W,1,08,1.3,66.9,M,35.0,M,,0000*6F
$GPGSA,M,3,21,25,18,31,30,22,16,06,,,,,2.4,1.3,1.9*3F
$GPRMC,170542.998,A,2033.4854,S,07010.6478,W,23.76,182.15,010511,,,A*53
$GPGGA,170544.001,2033.4921,S,07010.6481,W,1,09,0.9,66.9,M,35.0,M,,0000*6F
$GPGSA,M,3,21,25,18,31,30,29,22,16,06,,,,1.9,0.9,1.7*3F
$GPRMC,170544.001,A,2033.4921,S,07010.6481,W,23.58,183.71,010511,,,A*56
$GPGGA,170544.998,2033.4987,S,07010.6486,W,1,08,1.3,67.5,M,35.0,M,,0000*6A
$GPGSA,M,3,21,25,18,31,30,22,16,06,,,,,2.4,1.3,1.9*3F
$GPRMC,170544.998,A,2033.4987,S,07010.6486,W,24.95,182.37,010511,,,A*51
$GPGGA,170546.002,2033.5060,S,07010.6490,W,1,07,1.4,67.3,M,35.0,M,,0000*6A
$GPGSA,M,3,21,25,18,31,30,16,06,,,,,,2.5,1.4,2.1*32
$GPGSV,3,1,11,21,68,180,41,25,44,050,37,18,41,025,31,31,40,293,41*7E
$GPGSV,3,2,11,30,38,214,37,29,30,125,22,22,21,354,16,16,14,216,41*79
$GPGSV,3,3,11,06,10,245,33,12,06,044,,03,00,249,37*40
$GPRMC,170546.002,A,2033.5060,S,07010.6490,W,25.51,182.55,010511,,,A*52
$GPGGA,170546.998,2033.5130,S,07010.6494,W,1,08,1.3,67.5,M,35.0,M,,0000*6E
$GPGSA,M,3,21,25,18,31,30,22,16,06,,,,,2.4,1.3,1.9*3F
$GPRMC,170546.998,A,2033.5130,S,07010.6494,W,26.35,182.27,010511,,,A*5C
$GPGGA,170548.000,2033.5203,S,07010.6498,W,1,08,1.3,67.7,M,35.0,M,,0000*65
$GPGSA,M,3,21,25,18,31,30,22,16,06,,,,,2.4,1.3,1.9*3F
$GPRMC,170548.000,A,2033.5203,S,07010.6498,W,26.08,183.00,010511,,,A*5F
$GPGGA,170549.000,2033.5276,S,07010.6500,W,1,08,1.3,68.1,M,35.0,M,,0000*6F
$GPGSA,M,3,21,25,18,31,30,22,16,06,,,,,2.4,1.3,1.9*3F
$GPRMC,170549.000,A,2033.5276,S,07010.6500,W,26.83,182.84,010511,,,A*52
$GPGGA,170550.002,2033.5351,S,07010.6503,W,1,09,0.9,67.7,M,35.0,M,,0000*61
$GPGSA,M,3,21,25,18,31,30,29,22,16,06,,,,1.9,0.9,1.7*3F
$GPRMC,170550.002,A,2033.5351,S,07010.6503,W,27.33,182.58,010511,,,A*54
$GPGGA,170550.998,2033.5428,S,07010.6508,W,1,08,1.3,68.2,M,35.0,M,,0000*69
$GPGSA,M,3,21,25,18,31,30,22,16,06,,,,,2.4,1.3,1.9*3F
$GPGSV,3,1,11,21,68,180,39,25,44,050,37,18,41,025,32,31,40,293,39*7D
$GPGSV,3,2,11,30,38,214,37,29,30,125,,22,21,354,34,16,14,216,39*76
$GPGSV,3,3,11,06,10,245,40,12,06,044,,03,00,249,38*4B
$GPRMC,170550.998,A,2033.5428,S,07010.6508,W,26.92,182.85,010511,,,A*56
$GPGGA,170551.999,2033.5504,S,07010.6510,W,1,07,1.4,68.1,M,35.0,M,,0000*64
$GPGSA,M,3,21,25,31,30,22,16,06,,,,,,2.4,1.4,1.9*31
$GPRMC,170551.999,A,2033.5504,S,07010.6510,W,27.47,182.33,010511,,,A*54
$GPGGA,170553.002,2033.5581,S,07010.6514,W,1,09,0.9,68.1,M,35.0,M,,0000*66
$GPGSA,M,3,21,25,18,31,30,29,22,16,06,,,,1.9,0.9,1.7*3F
$GPRMC,170553.002,A,2033.5581,S,07010.6514,W,27.34,183.41,010511,,,A*54
$GPGGA,170553.998,2033.5658,S,07010.6520,W,1,08,1.3,68.6,M,35.0,M,,0000*61
$GPGSA,M,3,21,25,18,31,30,22,16,06,,,,,2.4,1.3,1.9*3F
$GPRMC,170553.998,A,2033.5658,S,07010.6520,W,27.21,183.41,010511,,,A*5A
$GPGGA,170555.000,2033.5734,S,07010.6521,W,1,08,1.3,67.3,M,35.0,M,,0000*6F
$GPGSA,M,3,21,25,18,31,30,22,16,06,,,,,2.4,1.3,1.9*3F
$GPRMC,170555.000,A,2033.5734,S,07010.6521,W,27.34,182.53,010511,,,A*58
$GPGGA,170556.000,2033.5809,S,07010.6522,W,1,08,1.3,67.5,M,35.0,M,,0000*68
$GPGSA,M,3,21,25,18,31,30,22,16,06,,,,,2.4,1.3,1.9*3F
$GPGSV,3,1,11,21,68,180,40,25,44,050,37,18,41,025,31,31,40,293,39*70
$GPGSV,3,2,11,30,38,214,37,29,30,125,,22,21,354,36,16,14,216,39*74
$GPGSV,3,3,11,06,10,245,39,12,06,044,,03,00,249,40*4A
$GPRMC,170556.000,A,2033.5809,S,07010.6522,W,26.97,182.01,010511,,,A*56
$GPGGA,170557.000,2033.5884,S,07010.6525,W,1,08,1.3,67.1,M,35.0,M,,0000*6F
$GPGSA,M,3,21,25,18,31,30,22,16,06,,,,,2.4,1.3,1.9*3F
$GPRMC,170557.000,A,2033.5884,S,07010.6525,W,27.00,183.12,010511,,,A*59
$GPGGA,170557.998,2033.5960,S,07010.6529,W,1,09,0.9,68.0,M,35.0,M,,0000*64
$GPGSA,M,3,21,25,18,31,30,29,22,16,06,,,,1.9,0.9,1.7*3F
$GPRMC,170557.998,A,2033.5960,S,07010.6529,W,26.98,182.86,010511,,,A*5A
$GPGGA,170559.002,2033.6034,S,07010.6532,W,1,08,1.3,68.3,M,35.0,M,,0000*68
$GPGSA,M,3,21,25,18,31,30,22,16,06,,,,,2.4,1.3,1.9*3F
$GPRMC,170559.002,A,2033.6034,S,07010.6532,W,26.90,183.78,010511,,,A*57
$GPGGA,170600.000,2033.6111,S,07010.6535,W,1,08,1.3,68.9,M,35.0,M,,0000*6E
$GPGSA,M,3,21,25,18,31,30,22,16,06,,,,,2.4,1.3,1.9*3F
$GPRMC,170600.000,A,2033.6111,S,07010.6535,W,26.92,183.99,010511,,,A*56
$GPGGA,170601.000,2033.6185,S,07010.6540,W,1,08,1.3,69.0,M,35.0,M,,0000*68
$GPGSA,M,3,21,25,18,31,30,22,16,06,,,,,2.4,1.3,1.9*3F
$GPGSV,3,1,11,21,68,180,39,25,44,050,37,18,41,025,31,31,40,293,40*70
$GPGSV,3,2,11,30,38,214,37,29,30,125,,22,21,354,36,16,14,216,38*75
$GPGSV,3,3,11,06,10,245,39,12,06,044,,03,00,249,37*4A
$GPRMC,170601.000,A,2033.6185,S,07010.6540,W,26.90,183.49,010511,,,A*57
$GPGGA,170602.000,2033.6260,S,07010.6543,W,1,08,1.3,69.4,M,35.0,M,,0000*64
$GPGSA,M,3,21,25,18,31,30,22,16,06,,,,,2.4,1.3,1.9*3F
$GPRMC,170602.000,A,2033.6260,S,07010.6543,W,26.85,182.93,010511,,,A*5D
$GPGGA,170603.000,2033.6335,S,07010.6547,W,1,08,1.3,70.0,M,35.0,M,,0000*6C
$GPGSA,M,3,21,25,18,31,30,22,16,06,,,,,2.4,1.3,1.9*3F
$GPRMC,170603.000,A,2033.6335,S,07010.6547,W,27.02,182.87,010511,,,A*52
$GPGGA,170604.001,2033.6410,S,07010.6552,W,1,07,1.5,70.7,M,35.0,M,,0000*60
$GPGSA,M,3,21,25,18,31,30,22,06,,,,,,2.8,1.5,2.3*3B
$GPRMC,170604.001,A,2033.6410,S,07010.6552,W,27.11,183.81,010511,,,A*55
$GPGGA,170604.999,2033.6485,S,07010.6559,W,1,08,1.3,71.2,M,35.0,M,,0000*62
$GPGSA,M,3,21,25,18,31,30,22,16,06,,,,,2.4,1.3,1.9*3F
$GPRMC,170604.999,A,2033.6485,S,07010.6559,W,27.09,183.99,010511,,,A*5A
$GPGGA,170605.999,2033.6560,S,07010.6564,W,1,08,1.3,71.9,M,35.0,M,,0000*6C
$GPGSA,M,3,21,25,18,31,30,22,16,06,,,,,2.4,1.3,1.9*3F
$GPGSV,3,1,11,21,67,178,38,25,43,049,36,18,43,026,30,31,39,295,39*71
$GPGSV,3,2,11,30,39,214,36,29,29,124,,22,22,355,36,16,16,216,37*73
$GPGSV,3,3,11,06,11,244,40,12,05,043,,03,01,248,40*40
$GPRMC,170605.999,A,2033.6560,S,07010.6564,W,27.19,182.94,010511,,,A*52
$GPGGA,170607.000,2033.6635,S,07010.6568,W,1,09,0.9,71.8,M,35.0,M,,0000*63
$GPGSA,M,3,21,25,18,31,30,29,22,16,06,,,,1.9,0.9,1.7*3F
$GPRMC,170607.000,A,2033.6635,S,07010.6568,W,27.19,182.39,010511,,,A*51
$GPGGA,170608.000,2033.6711,S,07010.6568,W,1,09,0.9,71.5,M,35.0,M,,0000*66
$GPGSA,M,3,21,25,18,31,30,29,22,16,06,,,,1.9,0.9,1.7*3F
$GPRMC,170608.000,A,2033.6711,S,07010.6568,W,26.91,183.61,010511,,,A*54
$GPGGA,170608.999,2033.6785,S,07010.6572,W,1,08,1.3,71.0,M,35.0,M,,0000*66
$GPGSA,M,3,21,25,18,31,30,22,16,06,,,,,2.4,1.3,2.0*35
$GPRMC,170608.999,A,2033.6785,S,07010.6572,W,27.11,183.07,010511,,,A*52
$GPGGA,170609.999,2033.6862,S,07010.6575,W,1,08,1.3,72.7,M,34.9,M,,0000*6A
$GPGSA,M,3,21,25,18,31,30,22,16,06,,,,,2.4,1.3,2.0*35
$GPRMC,170609.999,A,2033.6862,S,07010.6575,W,27.14,182.92,010511,,,A*5A
$GPGGA,170611.000,2033.6937,S,07010.6579,W,1,09,0.9,73.2,M,34.9,M,,0000*69
$GPGSA,M,3,21,25,18,31,30,29,22,16,06,,,,1.9,0.9,1.7*3F
$GPGSV,3,1,11,21,67,178,39,25,43,049,37,18,43,026,31,31,39,295,38*71
$GPGSV,3,2,11,30,39,214,38,29,29,124,26,22,22,355,36,16,16,216,39*77
$GPGSV,3,3,11,06,11,244,41,12,05,043,,03,01,248,40*41
$GPRMC,170611.000,A,2033.6937,S,07010.6579,W,27.18,183.78,010511,,,A*5E
$GPGGA,170611.999,2033.7011,S,07010.6582,W,1,08,1.3,72.7,M,34.9,M,,0000*66
$GPGSA,M,3,21,25,18,31,30,22,16,06,,,,,2.4,1.3,2.0*35
$GPRMC,170611.999,A,2033.7011,S,07010.6582,W,26.87,182.72,010511,,,A*53
$GPGGA,170612.999,2033.7087,S,07010.6583,W,1,08,1.3,72.2,M,34.9,M,,0000*6E
$GPGSA,M,3,21,25,18,31,30,22,16,06,,,,,2.4,1.3,2.0*35
$GPRMC,170612.999,A,2033.7087,S,07010.6583,W,26.93,182.82,010511,,,A*54
$GPGGA,170614.000,2033.7160,S,07010.6587,W,1,09,0.9,71.7,M,34.9,M,,0000*61
$GPGSA,M,3,21,25,18,31,30,29,22,16,06,,,,1.9,0.9,1.7*3F
$GPRMC,170614.000,A,2033.7160,S,07010.6587,W,26.86,182.83,010511,,,A*52
$GPGGA,170615.000,2033.7236,S,07010.6589,W,1,09,0.9,71.1,M,34.9,M,,0000*68
$GPGSA,M,3,21,25,18,31,30,29,22,16,06,,,,1.9,0.9,1.7*3F
$GPRMC,170615.000,A,2033.7236,S,07010.6589,W,26.77,182.47,010511,,,A*5B
$GPGGA,170616.000,2033.7312,S,07010.6592,W,1,09,0.9,70.5,M,34.9,M,,0000*63
$GPGSA,M,3,21,25,18,31,30,29,22,16,06,,,,1.9,0.9,1.7*3F
$GPGSV,3,1,11,21,67,178,39,25,43,049,36,18,43,026,30,31,39,295,39*70
$GPGSV,3,2,11,30,39,214,36,29,29,124,28,22,22,355,35,16,16,216,38*75
$GPGSV,3,3,11,06,11,244,38,12,05,043,,03,01,248,41*4E
$GPRMC,170616.000,A,2033.7312,S,07010.6592,W,27.07,182.58,010511,,,A*5D
$GPGGA,170617.000,2033.7387,S,07010.6597,W,1,09,0.9,71.1,M,34.9,M,,0000*6E
$GPGSA,M,3,21,25,18,31,30,29,22,16,06,,,,1.9,0.9,1.7*3F
$GPRMC,170617.000,A,2033.7387,S,07010.6597,W,26.72,182.99,010511,,,A*5B
$GPGGA,170617.999,2033.7462,S,07010.6603,W,1,08,1.3,71.4,M,34.9,M,,0000*6A
$GPGSA,M,3,21,25,18,31,30,22,16,06,,,,,2.4,1.3,2.0*35
$GPRMC,170617.999,A,2033.7462,S,07010.6603,W,27.01,183.21,010511,,,A*57
$GPGGA,170619.000,2033.7535,S,07010.6608,W,1,09,0.9,71.5,M,34.9,M,,0000*6E
$GPGSA,M,3,21,25,18,31,30,29,22,16,06,,,,1.9,0.9,1.7*3F
$GPRMC,170619.000,A,2033.7535,S,07010.6608,W,27.12,182.49,010511,,,A*55
$GPGGA,170620.000,2033.7611,S,07010.6611,W,1,09,0.9,71.8,M,34.9,M,,0000*64
$GPGSA,M,3,21,25,18,31,30,29,22,16,06,,,,1.9,0.9,1.7*3F
$GPRMC,170620.000,A,2033.7611,S,07010.6611,W,27.11,182.04,010511,,,A*58
$GPGGA,170620.996,2033.7688,S,07010.6615,W,1,09,0.9,72.6,M,34.9,M,,0000*6B
$GPGSA,M,3,21,25,18,31,30,29,22,16,06,,,,1.9,0.9,1.7*3F
$GPGSV,3,1,11,21,67,178,38,25,43,049,36,18,43,026,31,31,39,295,39*70
$GPGSV,3,2,11,30,39,214,37,29,29,124,26,22,22,355,34,16,16,216,38*7B
$GPGSV,3,3,11,06,11,244,38,12,05,043,,03,01,248,41*4E
$GPRMC,170620.996,A,2033.7688,S,07010.6615,W,27.27,183.58,010511,,,A*57
$GPGGA,170622.004,2033.7763,S,07010.6622,W,1,09,0.9,72.5,M,34.9,M,,0000*68
$GPGSA,M,3,21,25,18,31,30,29,22,16,06,,,,1.9,0.9,1.7*3F
$GPRMC,170622.004,A,2033.7763,S,07010.6622,W,27.17,184.30,010511,,,A*5D
$GPGGA,170623.000,2033.7839,S,07010.6628,W,1,09,0.9,72.4,M,34.9,M,,0000*66
$GPGSA,M,3,21,25,18,31,30,29,22,16,06,,,,1.9,0.9,1.7*3F
$GPRMC,170623.000,A,2033.7839,S,07010.6628,W,27.03,182.23,010511,,,A*53
$GPGGA,170624.000,2033.7916,S,07010.6630,W,1,09,0.9,71.9,M,34.9,M,,0000*6A
$GPGSA,M,3,21,25,18,31,30,29,22,16,06,,,,1.9,0.9,1.7*3F
$GPRMC,170624.000,A,2033.7916,S,07010.6630,W,26.85,183.72,010511,,,A*5B
$GPGGA,170624.999,2033.7990,S,07010.6634,W,1,08,1.3,71.7,M,34.9,M,,0000*6D
$GPGSA,M,3,21,25,18,31,30,22,16,06,,,,,2.4,1.3,2.0*35
$GPRMC,170624.999,A,2033.7990,S,07010.6634,W,26.95,183.71,010511,,,A*5A
$GPGGA,170626.000,2033.8067,S,07010.6639,W,1,09,0.9,72.3,M,34.9,M,,0000*68
$GPGSA,M,3,21,25,18,31,30,29,22,16,06,,,,1.9,0.9,1.7*3F
$GPGSV,3,1,11,21,67,178,41,25,43,049,38,18,43,026,31,31,39,295,40*7E
$GPGSV,3,2,11,30,39,214,37,29,29,124,31,22,22,355,35,16,16,216,39*7D
$GPGSV,3,3,11,06,11,244,39,12,05,043,,03,01,248,40*4E
$GPRMC,170626.000,A,2033.8067,S,07010.6639,W,27.12,183.03,010511,,,A*59
$GPGGA,170626.996,2033.8144,S,07010.6641,W,1,09,0.9,72.7,M,34.9,M,,0000*65
$GPGSA,M,3,21,25,18,31,30,29,22,16,06,,,,1.9,0.9,1.7*3F
$GPRMC,170626.996,A,2033.8144,S,07010.6641,W,26.81,183.94,010511,,,A*55
$GPGGA,170628.000,2033.8218,S,07010.6644,W,1,09,0.9,72.0,M,34.9,M,,0000*65
$GPGSA,M,3,21,25,18,31,30,29,22,16,06,,,,1.9,0.9,1.7*3F
$GPRMC,170628.000,A,2033.8218,S,07010.6644,W,26.70,183.77,010511,,,A*51
$GPGGA,170629.000,2033.8291,S,07010.6648,W,1,09,0.9,71.5,M,34.9,M,,0000*6F
$GPGSA,M,3,21,25,18,31,30,29,22,16,06,,,,1.9,0.9,1.7*3F
$GPRMC,170629.000,A,2033.8291,S,07010.6648,W,26.74,184.49,010511,,,A*53
$GPGGA,170630.000,2033.8367,S,07010.6651,W,1,09,0.9,70.8,M,34.9,M,,0000*6B
$GPGSA,M,3,21,25,18,31,30,29,22,16,06,,,,1.9,0.9,1.7*3F
$GPRMC,170630.000,A,2033.8367,S,07010.6651,W,26.93,182.50,010511,,,A*5C
$GPGGA,170631.000,2033.8442,S,07010.6654,W,1,09,0.9,70.9,M,34.9,M,,0000*6E
$GPGSA,M,3,21,25,18,31,30,29,22,16,06,,,,1.9,0.9,1.7*3F
$GPGSV,3,1,11,21,67,178,39,25,43,049,37,18,43,026,31,31,39,295,39*70
$GPGSV,3,2,11,30,39,214,36,29,29,124,28,22,22,355,35,16,16,216,39*74
$GPGSV,3,3,11,06,11,244,38,12,05,043,,03,01,248,41*4E
$GPRMC,170631.000,A,2033.8442,S,07010.6654,W,26.65,182.47,010511,,,A*57
$GPGGA,170632.000,2033.8517,S,07010.6656,W,1,09,0.9,70.6,M,34.9,M,,0000*61
$GPGSA,M,3,21,25,18,31,30,29,22,16,06,,,,1.9,0.9,1.7*3F
$GPRMC,170632.000,A,2033.8517,S,07010.6656,W,26.92,183.35,010511,,,A*5B
$GPGGA,170633.000,2033.8592,S,07010.6659,W,1,09,0.9,71.1,M,34.9,M,,0000*64
$GPGSA,M,3,21,25,18,31,30,29,22,16,06,,,,1.9,0.9,1.7*3F
$GPRMC,170633.000,A,2033.8592,S,07010.6659,W,26.80,183.15,010511,,,A*59
$GPGGA,170634.000,2033.8667,S,07010.6664,W,1,09,0.9,70.5,M,34.9,M,,0000*61
$GPGSA,M,3,21,25,18,31,30,29,22,16,06,,,,1.9,0.9,1.7*3F
$GPRMC,170634.000,A,2033.8667,S,07010.6664,W,27.50,184.09,010511,,,A*5F
$GPGGA,170635.000,2033.8742,S,07010.6673,W,1,09,0.9,70.7,M,34.9,M,,0000*62
$GPGSA,M,3,21,25,18,31,30,29,22,16,06,,,,1.9,0.9,1.7*3F
$GPRMC,170635.000,A,2033.8742,S,07010.6673,W,26.84,183.38,010511,,,A*53
$GPGGA,170636.002,2033.8817,S,07010.6679,W,1,08,1.0,71.6,M,34.9,M,,0000*6F
$GPGSA,M,3,21,25,18,31,30,29,22,06,,,,,2.1,1.0,1.8*34
$GPGSV,3,1,11,21,67,178,40,25,43,049,38,18,43,026,31,31,39,295,39*71
$GPGSV,3,2,11,30,39,214,35,29,29,124,30,22,22,355,36,16,16,216,*77
$GPGSV,3,3,11,06,11,244,36,12,05,043,,03,01,248,40*41
$GPRMC,170636.002,A,2033.8817,S,07010.6679,W,26.79,182.13,010511,,,A*5D
$GPGGA,170636.998,2033.8890,S,07010.6682,W,1,09,0.9,71.0,M,34.9,M,,0000*61
$GPGSA,M,3,21,25,18,31,30,29,22,16,06,,,,1.9,0.9,1.7*3F
$GPRMC,170636.998,A,2033.8890,S,07010.6682,W,26.98,182.03,010511,,,A*52
$GPGGA,170638.000,2033.8963,S,07010.6687,W,1,09,0.9,71.1,M,34.9,M,,0000*6E
$GPGSA,M,3,21,25,18,31,30,29,22,16,06,,,,1.9,0.9,1.7*3F
$GPRMC,170638.000,A,2033.8963,S,07010.6687,W,25.99,183.24,010511,,,A*5A
$GPGGA,170639.000,2033.9034,S,07010.6690,W,1,09,0.9,70.8,M,34.9,M,,0000*6B
$GPGSA,M,3,21,25,18,31,30,29,22,16,06,,,,1.9,0.9,1.7*3F
$GPRMC,170639.000,A,2033.9034,S,07010.6690,W,25.60,183.73,010511,,,A*53
$GPGGA,170640.003,2033.9104,S,07010.6697,W,1,09,0.9,70.4,M,34.9,M,,0000*6F
$GPGSA,M,3,21,25,18,31,30,29,22,16,06,,,,1.9,0.9,1.7*3F
$GPRMC,170640.003,A,2033.9104,S,07010.6697,W,26.44,183.60,010511,,,A*5C
$GPGGA,170641.000,2033.9178,S,07010.6702,W,1,09,0.9,70.5,M,34.9,M,,0000*6A
$GPGSA,M,3,21,25,18,31,30,29,22,16,06,,,,2.0,0.9,1.7*35
$GPGSV,3,1,11,21,67,178,40,25,43,049,38,18,43,026,31,31,39,295,39*71
$GPGSV,3,2,11,30,39,214,36,29,29,124,31,22,22,355,36,16,16,216,39*7F
$GPGSV,3,3,11,06,11,244,38,12,05,043,,03,01,248,36*4E
$GPRMC,170641.000,A,2033.9178,S,07010.6702,W,26.58,183.59,010511,,,A*5F
$GPGGA,170642.000,2033.9254,S,07010.6707,W,1,09,0.9,71.4,M,34.9,M,,0000*61
$GPGSA,M,3,21,25,18,31,30,29,22,16,06,,,,2.0,0.9,1.7*35
$GPRMC,170642.000,A,2033.9254,S,07010.6707,W,26.80,181.99,010511,,,A*5F
$GPGGA,170643.000,2033.9329,S,07010.6707,W,1,09,0.9,71.3,M,34.9,M,,0000*6C
$GPGSA,M,3,21,25,18,31,30,29,22,16,06,,,,2.0,0.9,1.7*35
$GPRMC,170643.000,A,2033.9329,S,07010.6707,W,26.27,183.37,010511,,,A*5E
$GPGGA,170644.000,2033.9401,S,07010.6710,W,1,09,0.9,71.4,M,34.9,M,,0000*67
$GPGSA,M,3,21,25,18,31,30,29,22,16,06,,,,2.0,0.9,1.7*35
$GPRMC,170644.000,A,2033.9401,S,07010.6710,W,24.65,182.65,010511,,,A*50
$GPGGA,170645.000,2033.9467,S,07010.6715,W,1,09,0.9,71.8,M,34.9,M,,0000*6F
$GPGSA,M,3,21,25,18,31,30,29,22,16,06,,,,2.0,0.9,1.7*35
$GPRMC,170645.000,A,2033.9467,S,07010.6715,W,22.96,182.71,010511,,,A*5B
$GPGGA,170646.000,2033.9531,S,07010.6717,W,1,09,0.9,71.6,M,34.9,M,,0000*62
$GPGSA,M,3,21,25,18,31,30,29,22,16,06,,,,2.0,0.9,1.7*35
$GPGSV,3,1,11,21,67,178,39,25,43,049,37,18,43,026,29,31,39,295,38*78
$GPGSV,3,2,11,30,39,214,37,29,29,124,29,22,22,355,36,16,16,216,38*76
$GPGSV,3,3,11,06,11,244,39,12,05,043,,03,01,248,41*4F
$GPRMC,170646.000,A,2033.9531,S,07010.6717,W,22.91,183.17,010511,,,A*5E
$GPGGA,170646.998,2033.9595,S,07010.6719,W,1,09,0.9,71.8,M,34.9,M,,0000*64
$GPGSA,M,3,21,25,18,31,30,29,22,16,06,,,,2.0,0.9,1.7*35
$GPRMC,170646.998,A,2033.9595,S,07010.6719,W,23.07,182.73,010511,,,A*5B
$GPGGA,170648.002,2033.9660,S,07010.6725,W,1,09,0.9,71.6,M,34.9,M,,0000*68
$GPGSA,M,3,21,25,18,31,30,29,22,16,06,,,,2.0,0.9,1.7*35
$GPRMC,170648.002,A,2033.9660,S,07010.6725,W,23.55,183.56,010511,,,A*58
$GPGGA,170649.000,2033.9726,S,07010.6731,W,1,09,0.9,72.2,M,34.9,M,,0000*6A
$GPGSA,M,3,21,25,18,31,30,29,22,16,06,,,,2.0,0.9,1.7*35
$GPRMC,170649.000,A,2033.9726,S,07010.6731,W,23.61,184.40,010511,,,A*5A
$GPGGA,170650.000,2033.9794,S,07010.6735,W,1,09,0.9,72.3,M,34.9,M,,0000*6E
$GPGSA,M,3,21,25,18,31,30,29,22,16,06,,,,2.0,0.9,1.7*35
$GPRMC,170650.000,A,2033.9794,S,07010.6735,W,24.24,183.12,010511,,,A*59
$GPGGA,170651.000,2033.9862,S,07010.6740,W,1,09,0.9,72.7,M,34.9,M,,0000*6F
$GPGSA,M,3,21,25,18,31,30,29,22,16,06,,,,2.0,0.9,1.7*35
$GPGSV,3,1,11,21,67,178,39,25,43,049,37,18,43,026,31,31,39,295,40*7E
$GPGSV,3,2,11,30,39,214,36,29,29,124,28,22,22,355,36,16,16,216,39*77
$GPGSV,3,3,11,06,11,244,38,12,05,043,,03,01,248,41*4E
$GPRMC,170651.000,A,2033.9862,S,07010.6740,W,25.22,182.37,010511,,,A*5D
$GPGGA,170652.000,2033.9931,S,07010.6743,W,1,09,0.9,72.2,M,34.9,M,,0000*6D
$GPGSA,M,3,21,25,18,31,30,29,22,16,06,,,,2.0,0.9,1.7*35
$GPRMC,170652.000,A,2033.9931,S,07010.6743,W,25.18,182.88,010511,,,A*57
$GPGGA,170653.000,2034.0002,S,07010.6746,W,1,09,0.9,72.3,M,34.9,M,,0000*6F
$GPGSA,M,3,21,25,18,31,30,29,22,16,06,,,,2.0,0.9,1.7*35
$GPRMC,170653.000,A,2034.0002,S,07010.6746,W,25.83,183.33,010511,,,A*57
$GPGGA,170654.000,2034.0075,S,07010.6749,W,1,09,0.9,72.8,M,34.9,M,,0000*6C
$GPGSA,M,3,21,25,18,31,30,29,22,16,06,,,,2.0,0.9,1.7*35
$GPRMC,170654.000,A,2034.0075,S,07010.6749,W,25.59,183.02,010511,,,A*5A
$GPGGA,170655.000,2034.0146,S,07010.6753,W,1,09,0.9,73.1,M,34.9,M,,0000*6F
$GPGSA,M,3,21,25,18,31,30,29,22,16,06,,,,2.0,0.9,1.7*35
$GPRMC,170655.000,A,2034.0146,S,07010.6753,W,25.73,183.23,010511,,,A*5A
$GPGGA,170656.000,2034.0217,S,07010.6757,W,1,09,0.9,73.4,M,34.9,M,,0000*6A
$GPGSA,M,3,21,25,18,31,30,29,22,16,06,,,,2.0,0.9,1.7*35
$GPGSV,3,1,11,21,67,178,39,25,43,049,37,18,43,026,30,31,39,295,39*71
$GPGSV,3,2,11,30,39,214,36,29,29,124,26,22,22,355,34,16,16,216,39*7B
$GPGSV,3,3,11,06,11,244,37,12,05,043,,03,01,248,40*40
$GPRMC,170656.000,A,2034.0217,S,07010.6757,W,25.70,182.96,010511,,,A*56
$GPGGA,170656.999,2034.0291,S,07010.6759,W,1,08,1.3,73.4,M,34.9,M,,0000*69
$GPGSA,M,3,21,25,18,31,30,22,16,06,,,,,2.4,1.3,2.0*35
$GPRMC,170656.999,A,2034.0291,S,07010.6759,W,25.98,183.20,010511,,,A*55
$GPGGA,170657.998,2034.0361,S,07010.6762,W,1,08,1.3,73.3,M,34.9,M,,0000*68
$GPGSA,M,3,21,25,18,31,30,22,16,06,,,,,2.4,1.3,2.0*35
$GPRMC,170657.998,A,2034.0361,S,07010.6762,W,26.02,182.00,010511,,,A*50
$GPGGA,170659.002,2034.0436,S,07010.6765,W,1,09,0.9,73.8,M,34.9,M,,0000*6F
$GPGSA,M,3,21,25,18,31,30,29,22,16,06,,,,2.0,0.9,1.7*35
$GPRMC,170659.002,A,2034.0436,S,07010.6765,W,26.19,182.99,010511,,,A*5C
$GPGGA,170700.000,2034.0509,S,07010.6771,W,1,09,0.9,74.3,M,34.9,M,,0000*64
$GPGSA,M,3,21,25,18,31,30,29,22,16,06,,,,2.0,0.9,1.7*35
$GPRMC,170700.000,A,2034.0509,S,07010.6771,W,26.41,182.31,010511,,,A*54
$GPGGA,170701.000,2034.0581,S,07010.6776,W,1,09,0.9,74.2,M,34.9,M,,0000*63
$GPGSA,M,3,21,25,18,31,30,29,22,16,06,,,,2.0,0.9,1.7*35
$GPGSV,3,1,11,21,67,178,39,25,43,049,38,18,43,026,29,31,39,295,40*78
$GPGSV,3,2,11,30,39,214,36,29,29,124,31,22,22,355,37,16,16,216,38*7F
$GPGSV,3,3,11,06,11,244,41,12,05,043,,03,01,248,37*41
$GPRMC,170701.000,A,2034.0581,S,07010.6776,W,26.25,183.89,010511,,,A*52
$GPGGA,170702.000,2034.0654,S,07010.6781,W,1,09,0.9,74.3,M,34.9,M,,0000*62
$GPGSA,M,3,21,25,18,31,30,29,22,16,06,,,,2.0,0.9,1.7*35
$GPRMC,170702.000,A,2034.0654,S,07010.6781,W,26.73,183.77,010511,,,A*50
$GPGGA,170702.998,2034.0730,S,07010.6786,W,1,08,1.3,74.5,M,34.9,M,,0000*62
$GPGSA,M,3,21,25,18,31,30,22,16,06,,,,,2.4,1.3,2.0*35
$GPRMC,170702.998,A,2034.0730,S,07010.6786,W,26.50,185.65,010511,,,A*58
$GPGGA,170703.998,2034.0804,S,07010.6790,W,1,09,0.9,73.5,M,34.9,M,,0000*61
$GPGSA,M,3,21,25,18,31,30,29,22,16,06,,,,2.0,0.9,1.7*35
$GPRMC,170703.998,A,2034.0804,S,07010.6790,W,26.67,185.77,010511,,,A*51
$GPGGA,170705.000,2034.0878,S,07010.6799,W,1,09,0.9,74.1,M,34.9,M,,0000*6E
$GPGSA,M,3,21,25,18,31,30,29,22,16,06,,,,2.0,0.9,1.7*35
$GPRMC,170705.000,A,2034.0878,S,07010.6799,W,26.27,188.53,010511,,,A*52
$GPGGA,170706.000,2034.0950,S,07010.6810,W,1,09,0.9,74.2,M,34.9,M,,0000*6B
$GPGSA,M,3,21,25,18,31,30,29,22,16,06,,,,2.0,0.9,1.7*35
$GPGSV,3,1,11,21,67,178,41,25,43,049,38,18,43,026,30,31,39,295,38*70
$GPGSV,3,2,11,30,39,214,30,29,29,124,33,22,22,355,37,16,16,216,37*74
$GPGSV,3,3,11,06,11,244,38,12,05,043,,03,01,248,35*4D
$GPRMC,170706.000,A,2034.0950,S,07010.6810,W,25.98,188.11,010511,,,A*55
$GPGGA,170707.000,2034.1023,S,07010.6822,W,1,09,0.9,75.0,M,34.9,M,,0000*64
$GPGSA,M,3,21,25,18,31,30,29,22,16,06,,,,2.0,0.9,1.7*35
$GPRMC,170707.000,A,2034.1023,S,07010.6822,W,26.13,187.92,010511,,,A*5D
$GPGGA,170708.002,2034.1096,S,07010.6830,W,1,08,1.0,74.9,M,34.9,M,,0000*65
$GPGSA,M,3,21,25,18,31,29,22,16,06,,,,,2.1,1.0,1.8*30
$GPRMC,170708.002,A,2034.1096,S,07010.6830,W,26.57,188.49,010511,,,A*54
$GPGGA,170708.998,2034.1169,S,07010.6841,W,1,09,0.9,75.0,M,34.9,M,,0000*69
$GPGSA,M,3,21,25,18,31,30,29,22,16,06,,,,2.0,0.9,1.7*35
$GPRMC,170708.998,A,2034.1169,S,07010.6841,W,26.44,189.01,010511,,,A*56
$GPGGA,170710.000,2034.1243,S,07010.6853,W,1,09,0.9,75.4,M,34.9,M,,0000*64
$GPGSA,M,3,21,25,18,31,30,29,22,16,06,,,,2.0,0.9,1.7*35
$GPRMC,170710.000,A,2034.1243,S,07010.6853,W,26.47,189.83,010511,,,A*56
$GPGGA,170711.002,2034.1316,S,07010.6867,W,1,08,1.0,75.8,M,34.9,M,,0000*64
$GPGSA,M,3,21,25,18,31,30,29,22,06,,,,,2.1,1.0,1.8*34
$GPGSV,3,1,11,21,67,178,40,25,43,049,38,18,43,026,33,31,39,295,39*73
$GPGSV,3,2,11,30,39,214,30,29,29,124,26,22,22,355,37,16,16,216,*74
$GPGSV,3,3,11,06,11,244,40,12,05,043,,03,01,248,38*4F
$GPRMC,170711.002,A,2034.1316,S,07010.6867,W,26.36,190.90,010511,,,A*5F
$GPGGA,170712.000,2034.1388,S,07010.6880,W,1,08,1.3,75.4,M,34.9,M,,0000*64
$GPGSA,M,3,21,25,18,31,30,22,16,06,,,,,2.4,1.3,2.0*35
$GPRMC,170712.000,A,2034.1388,S,07010.6880,W,26.58,190.37,010511,,,A*55
$GPGGA,170713.000,2034.1462,S,07010.6890,W,1,08,1.3,75.0,M,34.9,M,,0000*63
$GPGSA,M,3,21,25,18,31,30,22,16,06,,,,,2.4,1.3,2.0*35
$GPRMC,170713.000,A,2034.1462,S,07010.6890,W,26.75,192.44,010511,,,A*5F
$GPGGA,170714.000,2034.1534,S,07010.6906,W,1,08,1.3,74.9,M,34.9,M,,0000*60
$GPGSA,M,3,21,25,18,31,30,22,16,06,,,,,2.4,1.3,2.0*35
$GPRMC,170714.000,A,2034.1534,S,07010.6906,W,27.15,191.86,010511,,,A*5E
$GPGGA,170715.003,2034.1609,S,07010.6920,W,1,09,0.9,74.7,M,34.9,M,,0000*6F
$GPGSA,M,3,21,25,18,31,30,29,22,16,06,,,,2.0,0.9,1.7*35
$GPRMC,170715.003,A,2034.1609,S,07010.6920,W,26.70,191.74,010511,,,A*5A
$GPGGA,170715.998,2034.1681,S,07010.6939,W,1,09,0.9,74.8,M,34.9,M,,0000*63
$GPGSA,M,3,21,25,18,31,30,29,22,16,06,,,,2.0,0.9,1.7*35
$GPGSV,3,1,11,21,67,178,39,25,43,049,39,18,43,026,36,31,39,295,39*79
$GPGSV,3,2,11,30,39,214,31,29,29,124,30,22,22,355,37,16,16,216,39*78
$GPGSV,3,3,11,06,11,244,39,12,05,043,,03,01,248,33*4A
$GPRMC,170715.998,A,2034.1681,S,07010.6939,W,27.27,192.51,010511,,,A*5E
$GPGGA,170717.000,2034.1757,S,07010.6958,W,1,09,0.9,75.2,M,34.9,M,,0000*6F
$GPGSA,M,3,21,25,18,31,30,29,22,16,06,,,,2.0,0.9,1.7*35
$GPRMC,170717.000,A,2034.1757,S,07010.6958,W,27.51,191.39,010511,,,A*55
$GPGGA,170718.000,2034.1831,S,07010.6974,W,1,09,0.9,75.2,M,34.9,M,,0000*61
$GPGSA,M,3,21,25,18,31,30,29,22,16,06,,,,2.0,0.9,1.7*35
$GPRMC,170718.000,A,2034.1831,S,07010.6974,W,26.51,193.02,010511,,,A*50
$GPGGA,170719.024,2034.1904,S,07010.6993,W,0,00,,75.3,M,34.9,M,,0000*46
$GPGSA,M,1,,,,,,,,,,,,,,,*12
$GPRMC,170719.024,V,2034.1904,S,07010.6993,W,,,010511,,,N*78
$GPGGA,170719.722,2034.1955,S,07010.7005,W,0,00,,75.3,M,34.9,M,,0000*44
$GPGSA,M,1,,,,,,,,,,,,,,,*12
$GPRMC,170719.722,V,2034.1955,S,07010.7005,W,,,010511,,,N*7A
$GPGGA,170720.000,2034.1975,S,07010.7010,W,0,00,,75.4,M,34.9,M,,0000*48
$GPGSA,M,1,,,,,,,,,,,,,,,*12
$GPGSV,3,1,11,21,66,177,,18,43,026,,25,43,048,,30,39,214,*71
$GPGSV,3,2,11,31,39,296,,29,29,123,,22,22,355,,16,16,216,*7B
$GPGSV,3,3,11,06,11,244,,12,05,043,,03,01,248,*40
$GPRMC,170720.000,V,2034.1975,S,07010.7010,W,,,010511,,,N*71
$GPGGA,170721.000,2034.2047,S,07010.7027,W,0,00,,75.5,M,34.9,M,,0000*47
$GPGSA,M,1,,,,,,,,,,,,,,,*12
$GPRMC,170721.000,V,2034.2047,S,07010.7027,W,,,010511,,,N*7F
$GPGGA,170722.000,2034.2127,S,07010.7038,W,1,06,1.6,75.6,M,34.9,M,,0000*60
$GPGSA,M,3,31,22,06,21,18,25,,,,,,,2.9,1.6,2.4*3D
$GPRMC,170722.000,A,2034.2127,S,07010.7038,W,27.05,191.97,010511,,,A*5A
$GPGGA,170723.000,2034.2204,S,07010.7053,W,1,09,0.9,75.7,M,34.9,M,,0000*6E
$GPGSA,M,3,30,29,31,22,06,21,18,25,16,,,,2.0,0.9,1.7*35
$GPRMC,170723.000,A,2034.2204,S,07010.7053,W,27.29,191.55,010511,,,A*54
$GPGGA,170724.000,2034.2290,S,07010.7058,W,1,09,0.9,75.3,M,34.9,M,,0000*6B
$GPGSA,M,3,30,29,31,22,06,21,18,25,16,,,,2.0,0.9,1.7*35
$GPRMC,170724.000,A,2034.2290,S,07010.7058,W,27.33,191.89,010511,,,A*5F
$GPGGA,170725.000,2034.2370,S,07010.7069,W,1,09,0.9,75.0,M,34.9,M,,0000*64
$GPGSA,M,3,30,29,31,22,06,21,18,25,16,,,,2.0,0.9,1.7*35
$GPGSV,3,1,11,21,66,177,44,18,43,026,39,25,43,048,44,30,39,214,34*7C
$GPGSV,3,2,11,31,39,296,44,29,29,123,32,22,22,355,40,16,16,216,43*79
$GPGSV,3,3,11,06,11,244,47,12,05,043,,03,01,248,48*4F
$GPRMC,170725.000,A,2034.2370,S,07010.7069,W,27.61,192.21,010511,,,A*55
$GPGGA,170726.000,2034.2450,S,07010.7083,W,1,09,0.9,74.5,M,34.9,M,,0000*62
$GPGSA,M,3,30,29,31,22,06,21,18,25,16,,,,2.0,0.9,1.7*35
$GPRMC,170726.000,A,2034.2450,S,07010.7083,W,27.76,192.63,010511,,,A*57
$GPGGA,170727.000,2034.2529,S,07010.7098,W,1,09,0.9,74.3,M,34.9,M,,0000*60
$GPGSA,M,3,30,29,31,22,06,21,18,25,16,,,,2.0,0.9,1.7*35
$GPRMC,170727.000,A,2034.2529,S,07010.7098,W,27.75,192.82,010511,,,A*5F
$GPGGA,170728.000,2034.2606,S,07010.7114,W,1,09,0.9,74.0,M,34.9,M,,0000*67
$GPGSA,M,3,30,29,31,22,06,21,18,25,16,,,,2.0,0.9,1.7*35
$GPRMC,170728.000,A,2034.2606,S,07010.7114,W,27.64,192.48,010511,,,A*5D
$GPGGA,170729.000,2034.2684,S,07010.7129,W,1,09,0.9,73.8,M,34.9,M,,0000*6D
$GPGSA,M,3,30,29,31,22,06,21,18,25,16,,,,2.0,0.9,1.7*35
$GPRMC,170729.000,A,2034.2684,S,07010.7129,W,27.60,192.42,010511,,,A*56
$GPGGA,170730.000,2034.2760,S,07010.7146,W,1,09,0.9,73.8,M,34.9,M,,0000*67
$GPGSA,M,3,30,29,31,22,06,21,18,25,16,,,,2.0,0.9,1.7*35
$GPGSV,3,1,11,21,66,177,44,18,43,026,38,25,43,048,44,30,39,214,34*7D
$GPGSV,3,2,11,31,39,296,44,29,29,123,32,22,22,355,40,16,16,216,42*78
$GPGSV,3,3,11,06,11,244,46,12,05,043,,03,01,248,48*4E
$GPRMC,170730.000,A,2034.2760,S,07010.7146,W,27.64,192.48,010511,,,A*52
$GPGGA,170731.000,2034.2836,S,07010.7163,W,1,09,0.9,73.7,M,34.9,M,,0000*62
$GPGSA,M,3,30,29,31,22,06,21,18,25,16,,,,2.0,0.9,1.7*35
$GPRMC,170731.000,A,2034.2836,S,07010.7163,W,27.69,192.50,010511,,,A*5C
$GPGGA,170732.000,2034.2912,S,07010.7180,W,1,09,0.9,73.6,M,34.9,M,,0000*6A
$GPGSA,M,3,30,29,31,22,06,21,18,25,16,,,,2.0,0.9,1.7*35
$GPRMC,170732.000,A,2034.2912,S,07010.7180,W,27.70,192.50,010511,,,A*5D
$GPGGA,170733.015,2034.2987,S,07010.7197,W,1,09,0.9,73.2,M,34.9,M,,0000*61
$GPGSA,M,3,21,18,25,30,31,29,22,16,06,,,,2.0,0.9,1.7*35
$GPRMC,170733.015,A,2034.2987,S,07010.7197,W,26.99,193.15,010511,,,A*54
$GPGGA,170733.986,2034.3060,S,07010.7215,W,1,09,0.9,73.3,M,34.9,M,,0000*6B
$GPGSA,M,3,21,18,25,30,31,29,22,16,06,,,,2.0,0.9,1.7*35
$GPRMC,170733.986,A,2034.3060,S,07010.7215,W,27.69,193.19,010511,,,A*5D
$GPGGA,170735.000,2034.3137,S,07010.7233,W,1,09,0.9,73.2,M,34.9,M,,0000*6C
$GPGSA,M,3,21,18,25,30,31,29,22,16,06,,,,2.0,0.9,1.7*35
$GPRMC,170735.000,A,2034.3137,S,07010.7233,W,28.33,192.40,010511,,,A*56
$GPGGA,170735.998,2034.3213,S,07010.7252,W,1,08,1.3,73.3,M,34.9,M,,0000*6D
$GPGSA,M,3,21,18,25,30,31,22,16,06,,,,,2.4,1.3,2.0*35
$GPGSV,3,1,11,21,66,177,39,18,43,026,35,25,43,048,40,30,39,214,31*7B
$GPGSV,3,2,11,31,39,296,39,29,29,123,,22,22,355,37,16,16,216,38*7E
$GPGSV,3,3,11,06,11,244,40,12,05,043,,03,01,248,40*40
$GPRMC,170735.998,A,2034.3213,S,07010.7252,W,28.02,192.36,010511,,,A*5F
$GPGGA,170736.998,2034.3289,S,07010.7272,W,1,09,0.9,73.4,M,34.9,M,,0000*62
$GPGSA,M,3,21,18,25,30,31,29,22,16,06,,,,2.0,0.9,1.7*35
$GPRMC,170736.998,A,2034.3289,S,07010.7272,W,27.55,193.40,010511,,,A*50
$GPGGA,170738.000,2034.3364,S,07010.7291,W,1,09,0.9,73.3,M,34.9,M,,0000*6C
$GPGSA,M,3,21,18,25,30,31,29,22,16,06,,,,2.0,0.9,1.7*35
$GPRMC,170738.000,A,2034.3364,S,07010.7291,W,27.67,192.94,010511,,,A*50
$GPGGA,170739.000,2034.3440,S,07010.7307,W,1,09,0.9,73.0,M,34.9,M,,0000*61
$GPGSA,M,3,21,18,25,30,31,29,22,16,06,,,,2.0,0.9,1.7*35
$GPRMC,170739.000,A,2034.3440,S,07010.7307,W,27.53,193.07,010511,,,A*52
$GPGGA,170740.000,2034.3515,S,07010.7325,W,1,09,0.9,73.1,M,34.9,M,,0000*6F
$GPGSA,M,3,21,18,25,30,31,29,22,16,06,,,,2.0,0.9,1.7*35
$GPRMC,170740.000,A,2034.3515,S,07010.7325,W,27.46,192.99,010511,,,A*5F
$GPGGA,170741.000,2034.3588,S,07010.7343,W,1,09,0.9,72.6,M,34.9,M,,0000*6C
$GPGSA,M,3,21,18,25,30,31,29,22,16,06,,,,2.0,0.9,1.7*35
$GPGSV,3,1,11,21,66,177,39,18,43,026,36,25,43,048,39,30,39,214,31*76
$GPGSV,3,2,11,31,39,296,40,29,29,123,28,22,22,355,37,16,16,216,38*7A
$GPGSV,3,3,11,06,11,244,41,12,05,043,,03,01,248,41*40
$GPRMC,170741.000,A,2034.3588,S,07010.7343,W,27.13,192.84,010511,,,A*56
$GPGGA,170742.000,2034.3662,S,07010.7361,W,1,09,0.9,72.5,M,34.9,M,,0000*6B
$GPGSA,M,3,21,18,25,30,31,29,22,16,06,,,,2.0,0.9,1.7*35
$GPRMC,170742.000,A,2034.3662,S,07010.7361,W,27.32,192.79,010511,,,A*53
$GPGGA,170743.002,2034.3737,S,07010.7378,W,1,08,1.3,72.3,M,34.9,M,,0000*6D
$GPGSA,M,3,21,18,25,30,31,22,16,06,,,,,2.4,1.3,2.0*35
$GPRMC,170743.002,A,2034.3737,S,07010.7378,W,27.46,191.62,010511,,,A*53
$GPGGA,170743.998,2034.3812,S,07010.7393,W,1,09,0.9,72.4,M,34.9,M,,0000*67
$GPGSA,M,3,21,18,25,30,31,29,22,16,06,,,,2.0,0.9,1.7*35
$GPRMC,170743.998,A,2034.3812,S,07010.7393,W,26.80,191.09,010511,,,A*52
$GPGGA,170745.003,2034.3885,S,07010.7409,W,1,09,0.9,72.1,M,34.9,M,,0000*65
$GPGSA,M,3,21,18,25,30,31,29,22,16,06,,,,2.0,0.9,1.7*35
$GPRMC,170745.003,A,2034.3885,S,07010.7409,W,26.67,192.52,010511,,,A*51
$GPGGA,170746.000,2034.3958,S,07010.7427,W,1,09,0.9,72.7,M,34.9,M,,0000*6E
$GPGSA,M,3,21,18,25,30,31,29,22,16,06,,,,2.0,0.9,1.7*35
$GPGSV,3,1,11,21,66,177,40,18,43,026,37,25,43,048,40,30,39,214,32*74
$GPGSV,3,2,11,31,39,296,39,29,29,123,28,22,22,355,37,16,16,216,38*74
$GPGSV,3,3,11,06,11,244,40,12,05,043,,03,01,248,41*41
$GPRMC,170746.000,A,2034.3958,S,07010.7427,W,26.85,191.83,010511,,,A*5F
$GPGGA,170747.000,2034.4030,S,07010.7444,W,1,09,0.9,72.2,M,34.9,M,,0000*6F
$GPGSA,M,3,21,18,25,30,31,29,22,16,06,,,,2.0,0.9,1.7*35
$GPRMC,170747.000,A,2034.4030,S,07010.7444,W,26.56,193.53,010511,,,A*5A
$GPGGA,170748.000,2034.4102,S,07010.7462,W,1,09,0.9,72.0,M,34.9,M,,0000*66
$GPGSA,M,3,21,18,25,30,31,29,22,16,06,,,,2.0,0.9,1.7*35
$GPRMC,170748.000,A,2034.4102,S,07010.7462,W,26.20,194.25,010511,,,A*56
$GPGGA,170748.999,2034.4172,S,07010.7481,W,1,08,1.3,72.1,M,34.9,M,,0000*6E
$GPGSA,M,3,21,18,25,30,31,22,16,06,,,,,2.4,1.3,2.0*35
$GPRMC,170748.999,A,2034.4172,S,07010.7481,W,26.04,194.46,010511,,,A*56
$GPGGA,170750.000,2034.4241,S,07010.7500,W,1,09,0.9,71.8,M,34.9,M,,0000*65
$GPGSA,M,3,21,18,25,30,31,29,22,16,06,,,,2.0,0.9,1.7*35
$GPRMC,170750.000,A,2034.4241,S,07010.7500,W,25.15,193.89,010511,,,A*5A
$GPGGA,170751.000,2034.4307,S,07010.7520,W,1,09,0.9,72.3,M,34.9,M,,0000*6D
$GPGSA,M,3,21,18,25,30,31,29,22,16,06,,,,2.0,0.9,1.7*35
$GPGSV,3,1,11,21,66,177,40,18,43,026,35,25,43,048,38,30,39,214,35*7E
$GPGSV,3,2,11,31,39,296,37,29,29,123,27,22,22,355,37,16,16,216,38*75
$GPGSV,3,3,11,06,11,244,40,12,05,043,,03,01,248,31*46
$GPRMC,170751.000,A,2034.4307,S,07010.7520,W,24.10,193.97,010511,,,A*51
$GPGGA,170751.999,2034.4371,S,07010.7537,W,1,08,1.3,72.3,M,34.9,M,,0000*69
$GPGSA,M,3,21,18,25,30,31,22,16,06,,,,,2.4,1.3,2.0*35
$GPRMC,170751.999,A,2034.4371,S,07010.7537,W,23.31,193.13,010511,,,A*57
$GPGGA,170753.000,2034.4435,S,07010.7553,W,1,09,0.9,72.4,M,34.9,M,,0000*6A
$GPGSA,M,3,21,18,25,30,31,29,22,16,06,,,,2.0,0.9,1.7*35
$GPRMC,170753.000,A,2034.4435,S,07010.7553,W,23.51,193.46,010511,,,A*5F
$GPGGA,170753.999,2034.4498,S,07010.7570,W,1,08,1.3,72.5,M,34.9,M,,0000*6E
$GPGSA,M,3,21,18,25,30,31,22,16,06,,,,,2.4,1.3,2.0*35
$GPRMC,170753.999,A,2034.4498,S,07010.7570,W,23.53,192.75,010511,,,A*53
$GPGGA,170754.999,2034.4563,S,07010.7584,W,1,08,1.3,71.9,M,34.9,M,,0000*68
$GPGSA,M,3,21,18,25,30,31,22,16,06,,,,,2.4,1.3,2.0*35
$GPRMC,170754.999,A,2034.4563,S,07010.7584,W,24.44,192.68,010511,,,A*57
$GPGGA,170755.998,2034.4632,S,07010.7596,W,1,08,1.3,71.5,M,34.9,M,,0000*60
$GPGSA,M,3,21,18,25,30,31,22,16,06,,,,,2.4,1.3,2.0*35
$GPGSV,3,1,11,21,66,177,41,18,43,026,33,25,43,048,37,30,39,214,36*75
$GPGSV,3,2,11,31,39,296,38,29,29,123,,22,22,355,37,16,16,216,37*70
$GPGSV,3,3,11,06,11,244,41,12,05,043,,03,01,248,41*40
$GPRMC,170755.998,A,2034.4632,S,07010.7596,W,24.69,191.67,010511,,,A*50
$GPGGA,170757.000,2034.4699,S,07010.7612,W,1,08,1.3,71.4,M,34.9,M,,0000*65
$GPGSA,M,3,21,18,25,30,31,22,16,06,,,,,2.4,1.3,2.0*35
$GPRMC,170757.000,A,2034.4699,S,07010.7612,W,24.83,192.82,010511,,,A*58
$GPGGA,170758.000,2034.4768,S,07010.7627,W,1,08,1.3,71.3,M,34.9,M,,0000*64
$GPGSA,M,3,21,18,25,30,31,22,16,06,,,,,2.4,1.3,2.0*35
$GPRMC,170758.000,A,2034.4768,S,07010.7627,W,25.24,192.33,010511,,,A*58
$GPGGA,170759.000,2034.4838,S,07010.7642,W,1,08,1.3,71.0,M,34.9,M,,0000*6F
$GPGSA,M,3,21,18,25,30,31,22,16,06,,,,,2.4,1.3,2.0*35
$GPRMC,170759.000,A,2034.4838,S,07010.7642,W,25.59,192.92,010511,,,A*51
$GPGGA,170800.000,2034.4907,S,07010.7659,W,1,08,1.3,70.6,M,34.9,M,,0000*6C
$GPGSA,M,3,21,18,25,30,31,22,16,06,,,,,2.4,1.3,2.0*35
$GPRMC,170800.000,A,2034.4907,S,07010.7659,W,25.68,192.57,010511,,,A*5E
$GPGGA,170801.000,2034.4977,S,07010.7675,W,1,08,1.3,70.7,M,34.9,M,,0000*65
$GPGSA,M,3,21,18,25,30,31,22,16,06,,,,,2.4,1.3,2.0*35
$GPGSV,3,1,11,21,66,177,40,18,43,026,33,25,43,048,37,30,39,214,35*77
$GPGSV,3,2,11,31,39,296,38,29,29,123,,22,22,355,36,16,16,216,35*73
$GPGSV,3,3,11,06,11,244,39,12,05,043,,03,01,248,40*4E
$GPRMC,170801.000,A,2034.4977,S,07010.7675,W,25.42,193.08,010511,,,A*55
$GPGGA,170802.000,2034.5047,S,07010.7690,W,1,08,1.3,70.6,M,34.9,M,,0000*67
$GPGSA,M,3,21,18,25,30,31,22,16,06,,,,,2.4,1.3,2.0*35
$GPRMC,170802.000,A,2034.5047,S,07010.7690,W,25.73,192.65,010511,,,A*5E
$GPGGA,170803.000,2034.5118,S,07010.7705,W,1,08,1.3,69.9,M,34.9,M,,0000*67
$GPGSA,M,3,21,18,25,30,31,22,16,06,,,,,2.4,1.3,2.0*35
$GPRMC,170803.000,A,2034.5118,S,07010.7705,W,25.95,192.62,010511,,,A*56
$GPGGA,170804.000,2034.5191,S,07010.7720,W,1,08,1.3,69.4,M,34.9,M,,0000*6B
$GPGSA,M,3,21,18,25,30,31,22,16,06,,,,,2.4,1.3,2.0*35
$GPRMC,170804.000,A,2034.5191,S,07010.7720,W,25.98,192.73,010511,,,A*5A
$GPGGA,170805.002,2034.5262,S,07010.7733,W,1,08,1.3,68.0,M,34.9,M,,0000*60
$GPGSA,M,3,21,18,25,30,31,22,16,06,,,,,2.4,1.3,2.0*35
$GPRMC,170805.002,A,2034.5262,S,07010.7733,W,25.94,191.70,010511,,,A*58
$GPGGA,170806.000,2034.5332,S,07010.7747,W,1,08,1.3,67.6,M,34.9,M,,0000*6F
$GPGSA,M,3,21,18,25,30,31,22,16,06,,,,,2.4,1.3,2.0*35
$GPGSV,3,1,11,21,66,177,41,18,43,026,33,25,43,048,37,30,39,214,34*77
$GPGSV,3,2,11,31,39,296,39,29,29,123,,22,22,355,37,16,16,216,37*71
$GPGSV,3,3,11,06,11,244,41,12,05,043,,03,01,248,37*41
$GPRMC,170806.000,A,2034.5332,S,07010.7747,W,25.41,192.36,010511,,,A*57
$GPGGA,170806.998,2034.5400,S,07010.7761,W,1,08,1.3,67.2,M,34.9,M,,0000*61
$GPGSA,M,3,21,18,25,30,31,22,16,06,,,,,2.4,1.3,2.0*35
$GPRMC,170806.998,A,2034.5400,S,07010.7761,W,24.51,191.65,010511,,,A*58
$GPGGA,170808.002,2034.5464,S,07010.7776,W,1,08,1.3,67.0,M,34.9,M,,0000*63
$GPGSA,M,3,21,18,25,30,31,22,16,06,,,,,2.4,1.3,2.0*35
$GPRMC,170808.002,A,2034.5464,S,07010.7776,W,22.88,193.44,010511,,,A*5B
$GPGGA,170809.000,2034.5522,S,07010.7795,W,1,08,1.3,67.6,M,34.9,M,,0000*68
$GPGSA,M,3,21,18,25,30,31,22,16,06,,,,,2.4,1.3,2.0*35
$GPRMC,170809.000,A,2034.5522,S,07010.7795,W,20.81,192.87,010511,,,A*53
$GPGGA,170810.000,2034.5573,S,07010.7809,W,1,08,1.3,67.8,M,34.9,M,,0000*60
$GPGSA,M,3,21,18,25,30,31,22,16,06,,,,,2.4,1.3,2.0*35
$GPRMC,170810.000,A,2034.5573,S,07010.7809,W,18.47,192.47,010511,,,A*58
$GPGGA,170811.000,2034.5620,S,07010.7823,W,1,08,1.3,68.3,M,34.9,M,,0000*68
$GPGSA,M,3,21,18,25,30,31,22,16,06,,,,,2.4,1.3,2.0*35
$GPGSV,3,1,11,21,66,177,40,18,43,026,32,25,43,048,37,30,39,214,36*75
$GPGSV,3,2,11,31,39,296,38,29,29,123,,22,22,355,38,16,16,216,38*70
$GPGSV,3,3,11,06,11,244,41,12,05,043,,03,01,248,41*40
$GPRMC,170811.000,A,2034.5620,S,07010.7823,W,16.52,192.71,010511,,,A*5B
$GPGGA,170812.000,2034.5662,S,07010.7833,W,1,08,1.3,68.3,M,34.9,M,,0000*6C
$GPGSA,M,3,21,18,25,30,31,22,16,06,,,,,2.4,1.3,2.0*35
$GPRMC,170812.000,A,2034.5662,S,07010.7833,W,14.39,193.41,010511,,,A*52
$GPGGA,170812.998,2034.5698,S,07010.7840,W,1,08,1.3,67.7,M,34.9,M,,0000*6E
$GPGSA,M,3,21,18,25,30,31,22,16,06,,,,,2.4,1.3,2.0*35
$GPRMC,170812.998,A,2034.5698,S,07010.7840,W,12.19,191.67,010511,,,A*59
$GPGGA,170813.998,2034.5728,S,07010.7849,W,1,09,0.9,68.2,M,34.9,M,,0000*6C
$GPGSA,M,3,21,18,25,30,31,29,22,16,06,,,,2.0,0.9,1.7*35
$GPRMC,170813.998,A,2034.5728,S,07010.7849,W,10.52,191.73,010511,,,A*53
$GPGGA,170815.000,2034.5755,S,07010.7858,W,1,09,0.9,68.0,M,34.9,M,,0000*6A
$GPGSA,M,3,21,18,25,30,31,29,22,16,06,,,,2.0,0.9,1.7*35
$GPRMC,170815.000,A,2034.5755,S,07010.7858,W,9.91,202.95,010511,,,A*61
$GPGGA,170816.000,2034.5774,S,07010.7869,W,1,09,0.9,67.9,M,34.9,M,,0000*6E
$GPGSA,M,3,21,18,25,30,31,29,22,16,06,,,,2.0,0.9,1.7*35
$GPGSV,3,1,11,21,66,177,40,18,43,026,30,25,43,048,27,30,39,214,36*76
$GPGSV,3,2,11,31,39,296,37,29,29,123,31,22,22,355,38,16,16,216,33*76
$GPGSV,3,3,11,06,11,244,34,12,05,043,,03,01,248,41*42
$GPRMC,170816.000,A,2034.5774,S,07010.7869,W,7.20,211.94,010511,,,A*64
$GPGGA,170817.001,2034.5791,S,07010.7881,W,1,07,1.0,67.8,M,34.9,M,,0000*64
$GPGSA,M,3,21,30,31,29,22,16,06,,,,,,2.0,1.0,1.8*3C
$GPRMC,170817.001,A,2034.5791,S,07010.7881,W,6.46,223.54,010511,,,A*65
$GPGGA,170818.002,2034.5801,S,07010.7890,W,1,08,1.0,67.1,M,34.9,M,,0000*68
$GPGSA,M,3,21,25,30,31,29,22,16,06,,,,,2.0,1.0,1.8*3B
$GPRMC,170818.002,A,2034.5801,S,07010.7890,W,5.26,231.39,010511,,,A*62
$GPGGA,170818.997,2034.5800,S,07010.7889,W,1,09,0.9,66.6,M,34.9,M,,0000*6B
$GPGSA,M,3,21,18,25,30,31,29,22,16,06,,,,2.0,0.9,1.7*35
$GPRMC,170818.997,A,2034.5800,S,07010.7889,W,1.01,238.38,010511,,,A*67
$GPGGA,170820.000,2034.5803,S,07010.7892,W,1,09,0.9,66.5,M,34.9,M,,0000*6D
$GPGSA,M,3,21,18,25,30,31,29,22,16,06,,,,2.0,0.9,1.7*35
$GPRMC,170820.000,A,2034.5803,S,07010.7892,W,0.84,272.50,010511,,,A*6E
$GPGGA,170821.003,2034.5799,S,07010.7890,W,1,09,0.9,66.0,M,34.9,M,,0000*64
$GPGSA,M,3,21,18,25,30,31,29,22,16,06,,,,2.0,0.9,1.7*35
$GPGSV,3,1,11,21,66,177,41,18,43,026,30,25,43,048,36,30,39,214,37*76
$GPGSV,3,2,11,31,39,296,39,29,29,123,28,22,22,355,37,16,16,216,36*7A
$GPGSV,3,3,11,06,11,244,37,12,05,043,,03,01,248,42*42
$GPRMC,170821.003,A,2034.5799,S,07010.7890,W,0.58,280.16,010511,,,A*6C
$GPGGA,170822.000,2034.5797,S,07010.7892,W,1,09,0.9,66.2,M,34.9,M,,0000*6A
$GPGSA,M,3,21,18,25,30,31,29,22,16,06,,,,2.0,0.9,1.7*35
$GPRMC,170822.000,A,2034.5797,S,07010.7892,W,0.37,197.87,010511,,,A*64
$GPGGA,170822.998,2034.5793,S,07010.7887,W,1,09,0.9,65.8,M,34.9,M,,0000*6B
$GPGSA,M,3,21,18,25,30,31,29,22,16,06,,,,2.0,0.9,1.7*35
$GPRMC,170822.998,A,2034.5793,S,07010.7887,W,0.30,88.87,010511,,,A*54
$GPGGA,170824.002,2034.5790,S,07010.7880,W,1,09,0.9,65.4,M,34.9,M,,0000*6F
$GPGSA,M,3,21,18,25,30,31,29,22,16,06,,,,2.0,0.9,1.7*35
$GPRMC,170824.002,A,2034.5790,S,07010.7880,W,0.07,49.46,010511,,,A*58
$GPGGA,170824.998,2034.5794,S,07010.7880,W,1,09,0.9,65.0,M,34.9,M,,0000*65
$GPGSA,M,3,21,18,25,30,31,29,22,16,06,,,,2.0,0.9,1.7*35
$GPRMC,170824.998,A,2034.5794,S,07010.7880,W,0.29,261.28,010511,,,A*6A
$GPGGA,170826.002,2034.5792,S,07010.7879,W,1,09,0.9,65.1,M,34.9,M,,0000*6C
$GPGSA,M,3,21,18,25,30,31,29,22,16,06,,,,2.0,0.9,1.7*35
$GPGSV,3,1,11,21,66,177,41,18,43,026,36,25,43,048,34,30,39,214,37*72
$GPGSV,3,2,11,31,39,296,38,29,29,123,31,22,22,355,37,16,16,216,37*72
$GPGSV,3,3,11,06,11,244,38,12,05,043,,03,01,248,41*4E
$GPRMC,170826.002,A,2034.5792,S,07010.7879,W,0.28,322.93,010511,,,A*65
$GPGGA,170827.000,2034.5790,S,07010.7875,W,1,09,0.9,64.2,M,34.9,M,,0000*63
$GPGSA,M,3,21,18,25,30,31,29,22,16,06,,,,2.0,0.9,1.7*35
$GPRMC,170827.000,A,2034.5790,S,07010.7875,W,0.36,222.54,010511,,,A*6D
$GPGGA,170828.000,2034.5791,S,07010.7875,W,1,09,0.9,64.1,M,34.9,M,,0000*6E
$GPGSA,M,3,21,18,25,30,31,29,22,16,06,,,,2.0,0.9,1.7*35
$GPRMC,170828.000,A,2034.5791,S,07010.7875,W,0.24,244.99,010511,,,A*61
$GPGGA,170829.000,2034.5790,S,07010.7877,W,1,09,0.9,64.6,M,34.9,M,,0000*6B
$GPGSA,M,3,21,18,25,30,31,29,22,16,06,,,,2.0,0.9,1.7*35
$GPRMC,170829.000,A,2034.5790,S,07010.7877,W,0.32,284.07,010511,,,A*6F
$GPGGA,170830.000,2034.5786,S,07010.7882,W,1,09,0.9,65.3,M,34.9,M,,0000*6A
$GPGSA,M,3,21,18,25,30,31,29,22,16,06,,,,2.0,0.9,1.7*35
$GPRMC,170830.000,A,2034.5786,S,07010.7882,W,0.28,310.73,010511,,,A*6E
$GPGGA,170831.000,2034.5785,S,07010.7883,W,1,09,0.9,65.5,M,34.9,M,,0000*6F
$GPGSA,M,3,21,18,25,30,31,29,22,16,06,,,,2.0,0.9,1.7*35
$GPGSV,3,1,11,21,66,177,40,18,43,026,32,25,43,048,34,30,39,214,37*77
$GPGSV,3,2,11,31,39,296,38,29,29,123,32,22,22,355,38,16,16,216,37*7E
$GPGSV,3,3,11,06,11,244,37,12,05,043,,03,01,248,41*41
$GPRMC,170831.000,A,2034.5785,S,07010.7883,W,0.44,341.67,010511,,,A*66
$GPGGA,170832.000,2034.5785,S,07010.7883,W,1,09,0.9,66.1,M,34.9,M,,0000*6B
$GPGSA,M,3,21,18,25,30,31,29,22,16,06,,,,2.0,0.9,1.7*35
$GPRMC,170832.000,A,2034.5785,S,07010.7883,W,0.20,306.52,010511,,,A*62
$GPGGA,170833.000,2034.5786,S,07010.7884,W,1,09,0.9,66.0,M,34.9,M,,0000*6F
$GPGSA,M,3,21,18,25,30,31,29,22,16,06,,,,2.0,0.9,1.7*35
$GPRMC,170833.000,A,2034.5786,S,07010.7884,W,0.11,26.15,010511,,,A*57
$GPGGA,170833.996,2034.5785,S,07010.7888,W,1,09,0.9,66.5,M,34.9,M,,0000*63
$GPGSA,M,3,21,18,25,30,31,29,22,16,06,,,,2.0,0.9,1.7*35
$GPRMC,170833.996,A,2034.5785,S,07010.7888,W,0.33,317.24,010511,,,A*6D
$GPGGA,170835.000,2034.5786,S,07010.7888,W,1,09,0.9,66.0,M,34.9,M,,0000*65
$GPGSA,M,3,21,18,25,30,31,29,22,16,06,,,,2.0,0.9,1.7*35
$GPRMC,170835.000,A,2034.5786,S,07010.7888,W,0.67,317.94,010511,,,A*64
$GPGGA,170836.000,2034.5781,S,07010.7890,W,1,09,0.9,66.4,M,34.9,M,,0000*6C
$GPGSA,M,3,21,18,25,30,31,29,22,16,06,,,,2.0,0.9,1.7*35
$GPGSV,3,1,11,21,66,177,41,18,43,026,32,25,43,048,33,30,39,214,37*71
$GPGSV,3,2,11,31,39,296,38,29,29,123,32,22,22,355,38,16,16,216,37*7E
$GPGSV,3,3,11,06,11,244,37,12,05,043,,03,01,248,43*43
$GPRMC,170836.000,A,2034.5781,S,07010.7890,W,0.55,308.95,010511,,,A*67
$GPGGA,170837.000,2034.5780,S,07010.7893,W,1,09,0.9,66.5,M,34.9,M,,0000*6E
$GPGSA,M,3,21,18,25,30,31,29,22,16,06,,,,2.0,0.9,1.7*35
$GPRMC,170837.000,A,2034.5780,S,07010.7893,W,0.65,324.80,010511,,,A*6D
$GPGGA,170838.000,2034.5778,S,07010.7895,W,1,09,0.9,66.8,M,34.9,M,,0000*6D
$GPGSA,M,3,21,18,25,30,31,29,22,16,06,,,,2.0,0.9,1.7*35
$GPRMC,170838.000,A,2034.5778,S,07010.7895,W,0.90,301.35,010511,,,A*60
$GPGGA,170839.000,2034.5778,S,07010.7898,W,1,09,0.9,66.7,M,34.9,M,,0000*6E
$GPGSA,M,3,21,18,25,30,31,29,22,16,06,,,,2.0,0.9,1.7*35
$GPRMC,170839.000,A,2034.5778,S,07010.7898,W,0.38,284.36,010511,,,A*61
$GPGGA,170840.000,2034.5779,S,07010.7899,W,1,09,0.9,66.6,M,34.9,M,,0000*61
$GPGSA,M,3,21,18,25,30,31,29,22,16,06,,,,2.0,0.9,1.7*35
$GPRMC,170840.000,A,2034.5779,S,07010.7899,W,0.50,296.87,010511,,,A*68
$GPGGA,170841.000,2034.5779,S,07010.7903,W,1,09,0.9,67.3,M,34.9,M,,0000*66
$GPGSA,M,3,21,18,25,30,31,29,22,16,06,,,,2.0,0.9,1.7*35
$GPGSV,3,1,11,21,66,177,41,18,43,026,32,25,43,048,32,30,39,214,36*71
$GPGSV,3,2,11,31,39,296,38,29,29,123,31,22,22,355,36,16,16,216,36*72
$GPGSV,3,3,11,06,11,244,37,12,05,043,,03,01,248,40*40
$GPRMC,170841.000,A,2034.5779,S,07010.7903,W,0.50,304.22,010511,,,A*6E
$GPGGA,170842.000,2034.5772,S,07010.7908,W,1,09,0.9,68.0,M,34.9,M,,0000*69
$GPGSA,M,3,21,18,25,30,31,29,22,16,06,,,,2.0,0.9,1.7*35
$GPRMC,170842.000,A,2034.5772,S,07010.7908,W,0.55,335.06,010511,,,A*6C
$GPGGA,170843.002,2034.5770,S,07010.7902,W,1,08,1.0,67.2,M,34.9,M,,0000*66
$GPGSA,M,3,21,18,25,30,31,29,22,16,,,,,2.2,1.0,2.0*3D
$GPRMC,170843.002,A,2034.5770,S,07010.7902,W,0.32,336.50,010511,,,A*66
$GPGGA,170843.999,2034.5769,S,07010.7904,W,1,09,0.9,66.9,M,34.9,M,,0000*60
$GPGSA,M,3,21,18,25,30,31,29,22,16,06,,,,2.0,0.9,1.7*35
$GPRMC,170843.999,A,2034.5769,S,07010.7904,W,0.30,337.18,010511,,,A*6C
$GPGGA,170845.002,2034.5767,S,07010.7905,W,1,09,0.9,67.6,M,34.9,M,,0000*6C
$GPGSA,M,3,21,18,25,30,31,29,22,16,06,,,,2.0,0.9,1.7*35
$GPRMC,170845.002,A,2034.5767,S,07010.7905,W,0.36,80.41,010511,,,A*5B
$GPGGA,170845.996,2034.5767,S,07010.7904,W,1,09,0.9,67.5,M,34.9,M,,0000*6A
$GPGSA,M,3,21,18,25,30,31,29,22,16,06,,,,2.0,0.9,1.7*35
$GPGSV,3,1,11,21,66,177,41,18,43,026,31,25,43,048,32,30,39,214,36*72
$GPGSV,3,2,11,31,39,296,38,29,29,123,31,22,22,355,38,16,16,216,37*7D
$GPGSV,3,3,11,06,11,244,38,12,05,043,,03,01,248,41*4E
$GPRMC,170845.996,A,2034.5767,S,07010.7904,W,0.16,277.53,010511,,,A*65
$GPGGA,170847.000,2034.5768,S,07010.7899,W,1,09,0.9,66.6,M,34.9,M,,0000*66
$GPGSA,M,3,21,18,25,30,31,29,22,16,06,,,,2.0,0.9,1.7*35
$GPRMC,170847.000,A,2034.5768,S,07010.7899,W,1.05,310.41,010511,,,A*6B
$GPGGA,170848.000,2034.5767,S,07010.7901,W,1,09,0.9,66.3,M,34.9,M,,0000*63
$GPGSA,M,3,21,18,25,30,31,29,22,16,06,,,,2.0,0.9,1.7*35
$GPRMC,170848.000,A,2034.5767,S,07010.7901,W,0.89,326.36,010511,,,A*6B
$GPGGA,170849.000,2034.5765,S,07010.7896,W,1,09,0.9,65.6,M,34.9,M,,0000*69
$GPGSA,M,3,21,18,25,30,31,29,22,16,06,,,,2.0,0.9,1.7*35
$GPRMC,170849.000,A,2034.5765,S,07010.7896,W,0.61,278.62,010511,,,A*6A
$GPGGA,170850.000,2034.5765,S,07010.7895,W,1,09,0.9,64.9,M,34.9,M,,0000*6C
$GPGSA,M,3,21,18,25,30,31,29,22,16,06,,,,2.0,0.9,1.7*35
$GPRMC,170850.000,A,2034.5765,S,07010.7895,W,0.49,342.33,010511,,,A*67
$GPGGA,170851.000,2034.5765,S,07010.7897,W,1,09,0.9,64.6,M,34.9,M,,0000*60
$GPGSA,M,3,21,18,25,30,31,29,22,16,06,,,,2.0,0.9,1.8*3A
$GPGSV,3,1,11,21,66,177,41,18,43,026,33,25,43,048,34,30,39,214,37*77
$GPGSV,3,2,11,31,39,296,38,29,29,123,34,22,22,355,37,16,16,216,37*77
$GPGSV,3,3,11,06,11,244,37,12,05,043,,03,01,248,41*41
$GPRMC,170851.000,A,2034.5765,S,07010.7897,W,0.69,287.91,010511,,,A*66
$GPGGA,170852.000,2034.5767,S,07010.7898,W,1,09,0.9,64.3,M,34.9,M,,0000*6B
$GPGSA,M,3,21,18,25,30,31,29,22,16,06,,,,2.0,0.9,1.8*3A
$GPRMC,170852.000,A,2034.5767,S,07010.7898,W,0.30,309.05,010511,,,A*6E
$GPGGA,170853.000,2034.5764,S,07010.7894,W,1,09,0.9,63.6,M,34.9,M,,0000*67
$GPGSA,M,3,21,18,25,30,31,29,22,16,06,,,,2.0,0.9,1.8*3A
$GPRMC,170853.000,A,2034.5764,S,07010.7894,W,0.09,264.31,010511,,,A*67
$GPGGA,170854.003,2034.5762,S,07010.7893,W,1,09,0.9,63.1,M,34.9,M,,0000*65
$GPGSA,M,3,21,18,25,30,31,29,22,16,06,,,,2.0,0.9,1.8*3A
$GPRMC,170854.003,A,2034.5762,S,07010.7893,W,0.41,313.61,010511,,,A*6A
$GPGGA,170855.000,2034.5761,S,07010.7891,W,1,09,0.9,62.9,M,34.9,M,,0000*6F
$GPGSA,M,3,21,18,25,30,31,29,22,16,06,,,,2.0,0.9,1.8*3A
$GPRMC,170855.000,A,2034.5761,S,07010.7891,W,0.03,69.72,010511,,,A*53
$GPGGA,170856.000,2034.5761,S,07010.7892,W,1,09,0.9,63.1,M,34.9,M,,0000*66
$GPGSA,M,3,21,18,25,30,31,29,22,16,06,,,,2.0,0.9,1.8*3A
$GPGSV,3,1,11,21,66,177,40,18,43,026,32,25,43,048,32,30,39,214,36*70
$GPGSV,3,2,11,31,39,296,38,29,29,123,33,22,22,355,37,16,16,216,37*70
$GPGSV,3,3,11,06,11,244,37,12,05,043,,03,01,248,41*41
$GPRMC,170856.000,A,2034.5761,S,07010.7892,W,0.11,79.26,010511,,,A*50
$GPGGA,170856.997,2034.5762,S,07010.7893,W,1,09,0.9,63.8,M,34.9,M,,0000*6A
$GPGSA,M,3,21,18,25,30,31,29,22,16,06,,,,2.0,0.9,1.8*3A
$GPRMC,170856.997,A,2034.5762,S,07010.7893,W,0.02,269.12,010511,,,A*63
$GPGGA,170857.999,2034.5761,S,07010.7895,W,1,09,0.9,63.6,M,34.9,M,,0000*6E
$GPGSA,M,3,21,18,25,30,31,29,22,16,06,,,,2.0,0.9,1.8*3A
$GPRMC,170857.999,A,2034.5761,S,07010.7895,W,1.02,294.38,010511,,,A*62
$GPGGA,170859.002,2034.5761,S,07010.7897,W,1,08,1.3,64.0,M,34.9,M,,0000*62
$GPGSA,M,3,21,18,25,30,31,22,16,06,,,,,2.4,1.3,2.0*35
$GPRMC,170859.002,A,2034.5761,S,07010.7897,W,0.14,7.44,010511,,,A*60
$GPGGA,170900.001,2034.5761,S,07010.7895,W,1,09,0.9,63.7,M,34.9,M,,0000*64
$GPGSA,M,3,21,18,25,30,31,29,22,16,06,,,,2.0,0.9,1.8*3A
$GPRMC,170900.001,A,2034.5761,S,07010.7895,W,0.25,16.52,010511,,,A*59
$GPGGA,170901.000,2034.5760,S,07010.7891,W,1,09,0.9,63.5,M,34.9,M,,0000*63
$GPGSA,M,3,21,18,25,30,31,29,22,16,06,,,,2.0,0.9,1.8*3A
$GPGSV,3,1,11,21,66,177,41,18,43,026,32,25,43,048,36,30,39,214,38*7B
$GPGSV,3,2,11,31,39,296,38,29,29,123,31,22,22,355,37,16,16,216,37*72
$GPGSV,3,3,11,06,11,244,37,12,05,043,,03,01,248,42*42
$GPRMC,170901.000,A,2034.5760,S,07010.7891,W,0.17,289.21,010511,,,A*6D
$GPGGA,170902.000,2034.5759,S,07010.7888,W,1,09,0.9,63.1,M,34.9,M,,0000*66
$GPGSA,M,3,21,18,25,30,31,29,22,16,06,,,,2.0,0.9,1.8*3A
$GPRMC,170902.000,A,2034.5759,S,07010.7888,W,0.28,276.13,010511,,,A*61
$GPGGA,170903.002,2034.5759,S,07010.7889,W,1,09,0.9,63.3,M,34.9,M,,0000*66
$GPGSA,M,3,21,18,25,30,31,29,22,16,06,,,,2.0,0.9,1.8*3A
$GPRMC,170903.002,A,2034.5759,S,07010.7889,W,0.05,326.52,010511,,,A*6D
$GPGGA,170903.998,2034.5759,S,07010.7890,W,1,08,1.0,63.7,M,34.9,M,,0000*69
$GPGSA,M,3,21,18,30,31,29,22,16,06,,,,,2.0,1.0,1.8*35
$GPRMC,170903.998,A,2034.5759,S,07010.7890,W,0.17,93.32,010511,,,A*57
$GPGGA,170905.000,2034.5759,S,07010.7889,W,1,09,0.9,64.1,M,34.9,M,,0000*67
$GPGSA,M,3,21,18,25,30,31,29,22,16,06,,,,2.0,0.9,1.8*3A
$GPRMC,170905.000,A,2034.5759,S,07010.7889,W,0.41,252.74,010511,,,A*6F
$GPGGA,170906.000,2034.5759,S,07010.7892,W,1,09,0.9,64.7,M,34.9,M,,0000*68
$GPGSA,M,3,21,18,25,30,31,29,22,16,06,,,,2.0,0.9,1.8*3A
$GPGSV,3,1,11,21,65,176,41,18,44,027,31,25,42,048,31,30,40,214,37*7B
$GPGSV,3,2,11,31,38,297,38,29,29,122,30,22,23,355,37,16,17,216,37*72
$GPGSV,3,3,11,06,11,243,37,12,04,043,,03,02,247,41*4B
$GPRMC,170906.000,A,2034.5759,S,07010.7892,W,0.49,269.97,010511,,,A*6B
$GPGGA,170907.001,2034.5761,S,07010.7892,W,1,09,0.9,64.4,M,34.9,M,,0000*60
$GPGSA,M,3,21,18,25,30,31,29,22,16,06,,,,2.0,0.9,1.8*3A
$GPRMC,170907.001,A,2034.5761,S,07010.7892,W,0.48,297.71,010511,,,A*68
$GPGGA,170907.995,2034.5762,S,07010.7893,W,1,09,0.9,64.6,M,34.9,M,,0000*64
$GPGSA,M,3,21,18,25,30,31,29,22,16,06,,,,2.0,0.9,1.8*3A
$GPRMC,170907.995,A,2034.5762,S,07010.7893,W,0.26,292.46,010511,,,A*67
$GPGGA,170909.000,2034.5761,S,07010.7894,W,1,09,0.9,65.0,M,34.9,M,,0000*6C
$GPGSA,M,3,21,18,25,30,31,29,22,16,06,,,,2.0,0.9,1.8*3A
$GPRMC,170909.000,A,2034.5761,S,07010.7894,W,0.33,310.04,010511,,,A*61
$GPGGA,170910.000,2034.5760,S,07010.7898,W,1,09,0.9,65.5,M,34.9,M,,0000*6C
$GPGSA,M,3,21,18,25,30,31,29,22,16,06,,,,2.0,0.9,1.8*3A
$GPRMC,170910.000,A,2034.5760,S,07010.7898,W,1.14,298.30,010511,,,A*66
$GPGGA,170911.004,2034.5757,S,07010.7896,W,1,09,0.9,65.0,M,34.9,M,,0000*66
$GPGSA,M,3,21,18,25,30,31,29,22,16,06,,,,2.0,0.9,1.8*3A
$GPGSV,3,1,11,21,65,176,41,18,44,027,31,25,42,048,31,30,40,214,36*7A
$GPGSV,3,2,11,31,38,297,38,29,29,122,30,22,23,355,37,16,17,216,37*72
