$GPGGA,023814.999,1404.9768,S,07544.0016,W,1,08,1.1,424.3,M,15.2,M,,0000*5D
$GPGSA,M,3,24,11,23,13,20,32,17,07,,,,,2.0,1.1,1.8*32
$GPGSV,3,1,10,24,65,081,36,11,60,035,40,23,60,189,37,13,59,274,40*7F
$GPGSV,3,2,10,20,40,168,32,32,28,137,31,17,27,251,36,07,20,348,31*75
$GPGSV,3,3,10,19,07,018,22,31,02,140,*7B
$GPRMC,023814.999,A,1404.9768,S,07544.0016,W,18.86,307.05,160411,,,A*55
$GPGGA,023816.002,1404.9736,S,07544.0055,W,1,08,1.1,423.2,M,15.2,M,,0000*5E
$GPGSA,M,3,24,11,23,13,20,32,17,07,,,,,2.0,1.1,1.8*32
$GPRMC,023816.002,A,1404.9736,S,07544.0055,W,18.72,308.99,160411,,,A*51
$GPGGA,023816.998,1404.9702,S,07544.0099,W,1,07,1.5,423.2,M,15.2,M,,0000*58
$GPGSA,M,3,24,11,23,13,20,32,17,,,,,,3.1,1.5,2.7*3D
$GPRMC,023816.998,A,1404.9702,S,07544.0099,W,18.95,308.31,160411,,,A*57
$GPGGA,023818.002,1404.9669,S,07544.0141,W,1,08,1.1,423.2,M,15.2,M,,0000*5F
$GPGSA,M,3,24,11,23,13,20,32,17,07,,,,,2.1,1.1,1.8*33
$GPRMC,023818.002,A,1404.9669,S,07544.0141,W,18.96,311.17,160411,,,A*54
$GPGGA,023819.000,1404.9633,S,07544.0187,W,1,08,1.0,422.3,M,15.2,M,,0000*58
$GPGSA,M,3,24,11,23,13,20,32,17,07,,,,,2.1,1.0,1.8*32
$GPRMC,023819.000,A,1404.9633,S,07544.0187,W,20.08,311.71,160411,,,A*5E
$GPGGA,023819.996,1404.9597,S,07544.0226,W,1,08,1.0,420.0,M,15.2,M,,0000*5A
$GPGSA,M,3,24,11,23,13,20,32,17,07,,,,,2.1,1.0,1.8*32
$GPGSV,3,1,10,24,65,081,36,11,60,035,37,23,60,189,36,13,59,274,39*70
$GPGSV,3,2,10,20,40,168,31,32,28,137,30,17,27,251,37,07,20,348,29*7F
$GPGSV,3,3,10,19,07,018,,31,02,140,*7B
$GPRMC,023819.996,A,1404.9597,S,07544.0226,W,19.05,310.90,160411,,,A*54
$GPGGA,023821.000,1404.9561,S,07544.0269,W,1,08,1.0,421.1,M,15.2,M,,0000*55
$GPGSA,M,3,24,11,23,13,20,32,17,07,,,,,2.1,1.0,1.8*32
$GPRMC,023821.000,A,1404.9561,S,07544.0269,W,19.56,308.58,160411,,,A*50
$GPGGA,023822.004,1404.9526,S,07544.0312,W,1,08,1.0,420.8,M,15.2,M,,0000*54
$GPGSA,M,3,24,11,23,13,20,32,17,07,,,,,2.1,1.0,1.8*32
$GPRMC,023822.004,A,1404.9526,S,07544.0312,W,20.05,310.15,160411,,,A*55
$GPGGA,023823.000,1404.9490,S,07544.0358,W,1,06,1.6,420.6,M,15.2,M,,0000*55
$GPGSA,M,3,24,11,23,13,32,17,,,,,,,3.2,1.6,2.8*30
$GPRMC,023823.000,A,1404.9490,S,07544.0358,W,19.47,310.35,160411,,,A*5C
$GPGGA,023823.996,1404.9456,S,07544.0401,W,1,08,1.0,419.9,M,15.2,M,,0000*5F
$GPGSA,M,3,24,11,23,13,20,32,17,07,,,,,2.1,1.0,1.8*32
$GPRMC,023823.996,A,1404.9456,S,07544.0401,W,19.11,311.19,160411,,,A*57
$GPGGA,023825.003,1404.9418,S,07544.0443,W,1,08,1.0,418.7,M,15.2,M,,0000*5F
$GPGSA,M,3,24,11,23,13,20,32,17,07,,,,,2.1,1.0,1.8*32
$GPGSV,3,1,10,24,65,081,37,11,60,035,39,23,60,189,38,13,59,274,39*71
$GPGSV,3,2,10,20,40,168,29,32,28,137,32,17,27,251,39,07,20,348,30*72
$GPGSV,3,3,10,19,07,018,,31,02,140,*7B
$GPRMC,023825.003,A,1404.9418,S,07544.0443,W,20.44,309.32,160411,,,A*52
$GPGGA,023825.999,1404.9382,S,07544.0486,W,1,07,1.5,417.4,M,15.2,M,,0000*5E
$GPGSA,M,3,24,11,23,13,20,32,17,,,,,,3.1,1.5,2.7*3D
$GPRMC,023825.999,A,1404.9382,S,07544.0486,W,20.41,310.71,160411,,,A*5F
$GPGGA,023827.004,1404.9345,S,07544.0535,W,1,08,1.0,416.2,M,15.2,M,,0000*5E
$GPGSA,M,3,24,13,11,23,20,32,17,07,,,,,2.1,1.0,1.8*32
$GPRMC,023827.004,A,1404.9345,S,07544.0535,W,20.20,308.04,160411,,,A*5E
$GPGGA,023827.997,1404.9312,S,07544.0576,W,1,08,1.0,415.5,M,15.2,M,,0000*5C
$GPGSA,M,3,24,13,11,23,20,32,17,07,,,,,2.1,1.0,1.8*32
$GPRMC,023827.997,A,1404.9312,S,07544.0576,W,19.89,309.58,160411,,,A*59
$GPGGA,023828.996,1404.9278,S,07544.0626,W,1,08,1.0,416.2,M,15.2,M,,0000*5D
$GPGSA,M,3,24,13,11,23,20,32,17,07,,,,,2.1,1.0,1.8*32
$GPRMC,023828.996,A,1404.9278,S,07544.0626,W,20.37,308.62,160411,,,A*5B
$GPGGA,023830.004,1404.9241,S,07544.0673,W,1,08,1.0,415.3,M,15.2,M,,0000*5E
$GPGSA,M,3,24,13,11,23,20,32,17,07,,,,,2.1,1.0,1.8*32
$GPGSV,3,1,10,24,64,078,36,13,59,271,39,11,59,034,39,23,58,187,37*73
$GPGSV,3,2,10,20,40,166,21,32,28,135,33,17,28,252,36,07,21,349,31*75
$GPGSV,3,3,10,19,06,018,,31,01,140,*79
$GPRMC,023830.004,A,1404.9241,S,07544.0673,W,21.59,307.60,160411,,,A*5E
$GPGGA,023830.999,1404.9201,S,07544.0721,W,1,07,1.5,416.2,M,15.2,M,,0000*59
$GPGSA,M,3,24,13,11,23,20,32,17,,,,,,3.1,1.5,2.7*3D
$GPRMC,023830.999,A,1404.9201,S,07544.0721,W,20.44,309.60,160411,,,A*52
$GPGGA,023832.002,1404.9163,S,07544.0765,W,1,08,1.0,415.6,M,15.2,M,,0000*5A
$GPGSA,M,3,24,13,11,23,20,32,17,07,,,,,2.1,1.0,1.8*32
$GPRMC,023832.002,A,1404.9163,S,07544.0765,W,21.22,307.93,160411,,,A*5F
$GPGGA,023832.997,1404.9122,S,07544.0811,W,1,07,1.3,413.9,M,15.2,M,,0000*53
$GPGSA,M,3,24,13,11,23,20,17,07,,,,,,2.6,1.3,2.3*3F
$GPRMC,023832.997,A,1404.9122,S,07544.0811,W,21.13,310.96,160411,,,A*52
$GPGGA,023834.002,1404.9082,S,07544.0859,W,1,08,1.0,414.6,M,15.2,M,,0000*53
$GPGSA,M,3,24,13,11,23,20,32,17,07,,,,,2.1,1.0,1.8*32
$GPRMC,023834.002,A,1404.9082,S,07544.0859,W,21.62,309.57,160411,,,A*55
$GPGGA,023835.000,1404.9044,S,07544.0905,W,1,08,1.0,413.4,M,15.2,M,,0000*57
$GPGSA,M,3,24,13,11,23,20,32,17,07,,,,,2.1,1.0,1.8*32
$GPGSV,3,1,10,24,64,078,36,13,59,271,39,11,59,034,39,23,58,187,36*72
$GPGSV,3,2,10,20,40,166,28,32,28,135,33,17,28,252,38,07,21,349,31*72
$GPGSV,3,3,10,19,06,018,,31,01,140,*79
$GPRMC,023835.000,A,1404.9044,S,07544.0905,W,22.20,309.31,160411,,,A*51
$GPGGA,023835.999,1404.9000,S,07544.0954,W,1,07,1.5,410.3,M,15.2,M,,0000*54
$GPGSA,M,3,24,13,11,23,20,32,17,,,,,,3.1,1.5,2.7*3D
$GPRMC,023835.999,A,1404.9000,S,07544.0954,W,22.60,309.74,160411,,,A*59
$GPGGA,023837.000,1404.8957,S,07544.1003,W,1,07,1.1,409.5,M,15.2,M,,0000*55
$GPGSA,M,3,24,13,11,23,32,17,07,,,,,,2.1,1.1,1.8*31
$GPRMC,023837.000,A,1404.8957,S,07544.1003,W,22.59,309.61,160411,,,A*5C
$GPGGA,023838.001,1404.8911,S,07544.1051,W,1,08,1.0,409.3,M,15.2,M,,0000*56
$GPGSA,M,3,24,13,11,23,20,32,17,07,,,,,2.1,1.0,1.8*32
$GPRMC,023838.001,A,1404.8911,S,07544.1051,W,22.53,309.43,160411,,,A*5D
$GPGGA,023839.001,1404.8869,S,07544.1099,W,1,08,1.0,409.2,M,15.2,M,,0000*5C
$GPGSA,M,3,24,13,11,23,20,32,17,07,,,,,2.1,1.0,1.8*32
$GPRMC,023839.001,A,1404.8869,S,07544.1099,W,22.81,309.87,160411,,,A*51
$GPGGA,023840.001,1404.8830,S,07544.1151,W,1,08,1.0,410.4,M,15.2,M,,0000*55
$GPGSA,M,3,24,13,11,23,20,32,17,07,,,,,2.1,1.0,1.8*32
$GPGSV,3,1,10,24,64,078,36,13,59,271,40,11,59,034,39,23,58,187,37*7D
$GPGSV,3,2,10,20,40,166,30,32,28,135,31,17,28,252,38,07,21,349,30*78
$GPGSV,3,3,10,19,06,018,,31,01,140,*79
$GPRMC,023840.001,A,1404.8830,S,07544.1151,W,22.43,308.30,160411,,,A*55
$GPGGA,023841.001,1404.8785,S,07544.1202,W,1,08,1.0,409.1,M,15.2,M,,0000*5D
$GPGSA,M,3,24,13,11,23,20,32,17,07,,,,,2.1,1.0,1.8*32
$GPRMC,023841.001,A,1404.8785,S,07544.1202,W,23.01,308.39,160411,,,A*5E
$GPGGA,023842.001,1404.8745,S,07544.1257,W,1,08,1.0,408.2,M,15.2,M,,0000*50
$GPGSA,M,3,24,13,11,23,20,32,17,07,,,,,2.1,1.0,1.8*32
$GPRMC,023842.001,A,1404.8745,S,07544.1257,W,22.87,309.59,160411,,,A*59
$GPGGA,023843.001,1404.8705,S,07544.1304,W,1,08,1.0,405.9,M,15.2,M,,0000*54
$GPGSA,M,3,24,13,11,23,20,32,17,07,,,,,2.1,1.0,1.8*32
$GPRMC,023843.001,A,1404.8705,S,07544.1304,W,22.50,309.12,160411,,,A*5E
$GPGGA,023843.999,1404.8665,S,07544.1353,W,1,06,1.6,404.7,M,15.2,M,,0000*5E
$GPGSA,M,3,24,13,11,23,32,17,,,,,,,3.2,1.6,2.8*30
$GPRMC,023843.999,A,1404.8665,S,07544.1353,W,22.98,308.75,160411,,,A*57
$GPGGA,023845.000,1404.8625,S,07544.1405,W,1,08,1.0,407.4,M,15.2,M,,0000*59
$GPGSA,M,3,24,13,11,23,20,32,17,07,,,,,2.1,1.0,1.8*32
$GPGSV,3,1,10,24,64,078,36,13,59,271,40,11,59,034,39,23,58,187,37*7D
$GPGSV,3,2,10,20,40,166,27,32,28,135,32,17,28,252,39,07,21,349,30*7C
$GPGSV,3,3,10,19,06,018,26,31,01,140,*7D
$GPRMC,023845.000,A,1404.8625,S,07544.1405,W,22.75,309.91,160411,,,A*50
$GPGGA,023846.002,1404.8585,S,07544.1454,W,1,08,1.0,404.5,M,15.2,M,,0000*57
$GPGSA,M,3,24,13,11,23,20,32,17,07,,,,,2.1,1.0,1.8*32
$GPRMC,023846.002,A,1404.8585,S,07544.1454,W,22.26,308.56,160411,,,A*50
$GPGGA,023847.000,1404.8542,S,07544.1512,W,1,08,1.0,403.9,M,15.2,M,,0000*57
$GPGSA,M,3,24,13,11,23,20,32,17,07,,,,,2.1,1.0,1.8*32
$GPRMC,023847.000,A,1404.8542,S,07544.1512,W,22.78,309.38,160411,,,A*59
$GPGGA,023848.000,1404.8502,S,07544.1564,W,1,08,1.0,404.5,M,15.2,M,,0000*56
$GPGSA,M,3,24,13,11,23,20,32,17,07,,,,,2.1,1.0,1.8*32
$GPRMC,023848.000,A,1404.8502,S,07544.1564,W,22.37,309.95,160411,,,A*5F
$GPGGA,023849.000,1404.8462,S,07544.1613,W,1,08,1.0,404.1,M,15.2,M,,0000*57
$GPGSA,M,3,24,13,11,23,20,32,17,07,,,,,2.1,1.0,1.8*32
$GPRMC,023849.000,A,1404.8462,S,07544.1613,W,21.94,311.19,160411,,,A*5D
$GPGGA,023850.000,1404.8422,S,07544.1660,W,1,08,1.0,402.5,M,15.2,M,,0000*5D
$GPGSA,M,3,24,13,11,23,20,32,17,07,,,,,2.1,1.0,1.8*32
$GPGSV,3,1,10,24,64,078,36,13,59,271,40,11,59,034,38,23,58,187,37*7C
$GPGSV,3,2,10,20,40,166,29,32,28,135,30,17,28,252,36,07,21,349,29*77
$GPGSV,3,3,10,19,06,018,,31,01,140,*79
$GPRMC,023850.000,A,1404.8422,S,07544.1660,W,21.51,310.65,160411,,,A*56
$GPGGA,023851.000,1404.8382,S,07544.1709,W,1,08,1.0,403.5,M,15.2,M,,0000*5E
$GPGSA,M,3,24,13,11,23,20,32,17,07,,,,,2.1,1.0,1.8*32
$GPRMC,023851.000,A,1404.8382,S,07544.1709,W,21.90,310.09,160411,,,A*53
$GPGGA,023852.000,1404.8341,S,07544.1758,W,1,08,1.0,403.4,M,15.2,M,,0000*57
$GPGSA,M,3,24,13,11,23,20,32,17,07,,,,,2.1,1.0,1.8*32
$GPRMC,023852.000,A,1404.8341,S,07544.1758,W,20.75,309.74,160411,,,A*53
$GPGGA,023852.996,1404.8302,S,07544.1802,W,1,08,1.0,402.1,M,15.2,M,,0000*52
$GPGSA,M,3,24,13,11,23,20,32,17,07,,,,,2.1,1.0,1.8*32
$GPRMC,023852.996,A,1404.8302,S,07544.1802,W,19.98,310.11,160411,,,A*50
$GPGGA,023854.000,1404.8266,S,07544.1848,W,1,08,1.0,401.9,M,15.2,M,,0000*54
$GPGSA,M,3,24,13,11,23,20,32,17,07,,,,,2.1,1.0,1.8*32
$GPRMC,023854.000,A,1404.8266,S,07544.1848,W,19.34,309.37,160411,,,A*57
$GPGGA,023855.002,1404.8231,S,07544.1889,W,1,07,1.5,401.1,M,15.2,M,,0000*5A
$GPGSA,M,3,24,13,11,23,20,32,17,,,,,,3.1,1.5,2.7*3D
$GPGSV,3,1,10,24,64,078,37,13,59,271,40,11,59,034,39,23,58,187,37*7C
$GPGSV,3,2,10,20,40,166,29,32,28,135,30,17,28,252,37,07,21,349,*7D
$GPGSV,3,3,10,19,06,018,,31,01,140,*79
$GPRMC,023855.002,A,1404.8231,S,07544.1889,W,18.18,311.73,160411,,,A*5D
$GPGGA,023856.002,1404.8199,S,07544.1926,W,1,08,1.0,401.4,M,15.2,M,,0000*53
$GPGSA,M,3,24,13,11,23,20,32,17,07,,,,,2.1,1.0,1.8*32
$GPRMC,023856.002,A,1404.8199,S,07544.1926,W,15.75,314.71,160411,,,A*5A
$GPGGA,023856.996,1404.8172,S,07544.1956,W,1,08,1.0,400.9,M,15.2,M,,0000*59
$GPGSA,M,3,24,13,11,23,20,32,17,07,,,,,2.1,1.0,1.8*32
$GPRMC,023856.996,A,1404.8172,S,07544.1956,W,13.68,313.36,160411,,,A*52
$GPGGA,023858.002,1404.8147,S,07544.1979,W,1,07,1.1,400.8,M,15.2,M,,0000*57
$GPGSA,M,3,24,13,11,23,32,17,07,,,,,,2.1,1.1,1.8*31
$GPRMC,023858.002,A,1404.8147,S,07544.1979,W,11.82,315.12,160411,,,A*55
$GPGGA,023859.001,1404.8128,S,07544.2000,W,1,08,1.0,400.3,M,15.2,M,,0000*5D
$GPGSA,M,3,24,13,11,23,20,32,17,07,,,,,2.1,1.0,1.8*32
$GPRMC,023859.001,A,1404.8128,S,07544.2000,W,9.59,320.26,160411,,,A*64
$GPGGA,023900.000,1404.8113,S,07544.2013,W,1,07,1.1,399.6,M,15.2,M,,0000*57
$GPGSA,M,3,24,13,11,23,32,17,07,,,,,,2.1,1.1,1.8*31
$GPGSV,3,1,10,24,64,078,36,13,59,271,39,11,59,034,40,23,58,187,35*7F
$GPGSV,3,2,10,20,40,166,,32,28,135,28,17,28,252,38,07,21,349,31*72
$GPGSV,3,3,10,19,06,018,,31,01,140,*79
$GPRMC,023900.000,A,1404.8113,S,07544.2013,W,6.57,317.02,160411,,,A*61
$GPGGA,023901.001,1404.8102,S,07544.2023,W,1,08,1.0,399.7,M,15.2,M,,0000*5B
$GPGSA,M,3,24,13,11,23,20,32,17,07,,,,,2.1,1.0,1.8*32
$GPRMC,023901.001,A,1404.8102,S,07544.2023,W,4.13,314.11,160411,,,A*61
$GPGGA,023902.001,1404.8099,S,07544.2026,W,1,08,1.0,398.2,M,15.2,M,,0000*5A
$GPGSA,M,3,24,13,11,23,20,32,17,07,,,,,2.1,1.0,1.8*32
$GPRMC,023902.001,A,1404.8099,S,07544.2026,W,1.90,331.10,160411,,,A*6C
$GPGGA,023902.999,1404.8096,S,07544.2023,W,1,06,2.0,400.8,M,15.2,M,,0000*59
$GPGSA,M,3,24,13,11,23,17,07,,,,,,,3.8,2.0,3.3*33
$GPRMC,023902.999,A,1404.8096,S,07544.2023,W,0.73,348.62,160411,,,A*69
$GPGGA,023904.002,1404.8097,S,07544.2020,W,1,08,1.0,399.2,M,15.2,M,,0000*56
$GPGSA,M,3,24,13,11,23,20,32,17,07,,,,,2.1,1.0,1.8*32
$GPRMC,023904.002,A,1404.8097,S,07544.2020,W,0.20,62.19,160411,,,A*57
$GPGGA,023904.997,1404.8106,S,07544.2014,W,1,08,1.0,397.1,M,15.2,M,,0000*50
$GPGSA,M,3,24,13,11,23,20,32,17,07,,,,,2.1,1.0,1.8*32
$GPGSV,3,1,10,24,64,078,38,13,59,271,39,11,59,034,37,23,58,187,36*72
$GPGSV,3,2,10,20,40,166,35,32,28,135,35,17,28,252,35,07,21,349,31*75
$GPGSV,3,3,10,19,06,018,,31,01,140,*79
$GPRMC,023904.997,A,1404.8106,S,07544.2014,W,0.37,216.70,160411,,,A*64
$GPGGA,023906.002,1404.8109,S,07544.2013,W,1,08,1.0,398.8,M,15.2,M,,0000*59
$GPGSA,M,3,24,13,11,23,20,32,17,07,,,,,2.1,1.0,1.8*32
$GPRMC,023906.002,A,1404.8109,S,07544.2013,W,0.24,305.45,160411,,,A*6C
$GPGGA,023907.001,1404.8103,S,07544.2015,W,1,08,1.0,398.6,M,15.2,M,,0000*59
$GPGSA,M,3,24,13,11,23,20,32,17,07,,,,,2.1,1.0,1.8*32
$GPRMC,023907.001,A,1404.8103,S,07544.2015,W,0.27,334.07,160411,,,A*65
$GPGGA,023908.001,1404.8098,S,07544.2019,W,1,08,1.0,400.4,M,15.2,M,,0000*5D
$GPGSA,M,3,24,13,11,23,20,32,17,07,,,,,2.1,1.0,1.8*32
$GPRMC,023908.001,A,1404.8098,S,07544.2019,W,0.05,321.44,160411,,,A*66
$GPGGA,023908.999,1404.8099,S,07544.2017,W,1,07,1.5,400.6,M,15.2,M,,0000*52
$GPGSA,M,3,24,13,11,23,20,32,17,,,,,,3.1,1.5,2.7*3D
$GPRMC,023908.999,A,1404.8099,S,07544.2017,W,0.37,78.53,160411,,,A*59
$GPGGA,023910.002,1404.8095,S,07544.2015,W,1,08,1.0,401.1,M,15.2,M,,0000*52
$GPGSA,M,3,24,13,11,23,20,32,17,07,,,,,2.1,1.0,1.8*32
$GPGSV,3,1,10,24,64,078,37,13,59,271,40,11,59,034,40,23,58,187,37*72
$GPGSV,3,2,10,20,40,166,33,32,28,135,31,17,28,252,34,07,21,349,32*75
$GPGSV,3,3,10,19,06,018,,31,01,140,*79
$GPRMC,023910.002,A,1404.8095,S,07544.2015,W,0.29,108.76,160411,,,A*6B
$GPGGA,023911.001,1404.8094,S,07544.2012,W,1,07,1.3,401.2,M,15.2,M,,0000*59
$GPGSA,M,3,24,13,11,23,20,17,07,,,,,,2.7,1.3,2.3*3E
$GPRMC,023911.001,A,1404.8094,S,07544.2012,W,0.57,126.94,160411,,,A*66
$GPGGA,023912.000,1404.8095,S,07544.2011,W,1,08,1.0,401.3,M,15.2,M,,0000*54
$GPGSA,M,3,24,13,11,23,20,32,17,07,,,,,2.1,1.0,1.8*32
$GPRMC,023912.000,A,1404.8095,S,07544.2011,W,0.16,323.90,160411,,,A*60
$GPGGA,023912.999,1404.8094,S,07544.2011,W,1,07,1.3,400.7,M,15.2,M,,0000*55
$GPGSA,M,3,24,13,11,23,20,17,07,,,,,,2.7,1.3,2.3*3E
$GPRMC,023912.999,A,1404.8094,S,07544.2011,W,0.45,305.06,160411,,,A*65
$GPGGA,023914.001,1404.8091,S,07544.2011,W,1,07,1.3,400.7,M,15.2,M,,0000*5E
$GPGSA,M,3,24,13,11,23,20,17,07,,,,,,2.7,1.3,2.3*3E
$GPRMC,023914.001,A,1404.8091,S,07544.2011,W,0.65,325.45,160411,,,A*69
$GPGGA,023915.006,1404.8091,S,07544.2017,W,1,07,1.3,401.0,M,15.2,M,,0000*58
$GPGSA,M,3,24,13,11,23,20,17,07,,,,,,2.7,1.3,2.3*3E
$GPGSV,3,1,10,24,64,078,32,13,59,271,39,11,59,034,37,23,58,187,35*7B
$GPGSV,3,2,10,20,40,166,26,32,28,135,,17,28,252,33,07,21,349,28*7F
$GPGSV,3,3,10,19,06,018,,31,01,140,*79
$GPRMC,023915.006,A,1404.8091,S,07544.2017,W,1.16,311.08,160411,,,A*62
$GPGGA,023915.998,1404.8089,S,07544.2022,W,1,08,1.0,400.8,M,15.2,M,,0000*5C
$GPGSA,M,3,24,13,11,23,20,32,17,07,,,,,2.1,1.0,1.8*32
$GPRMC,023915.998,A,1404.8089,S,07544.2022,W,0.28,179.77,160411,,,A*6B
$GPGGA,023917.001,1404.8089,S,07544.2025,W,1,08,1.0,401.4,M,15.2,M,,0000*5D
$GPGSA,M,3,24,13,11,23,20,32,17,07,,,,,2.1,1.0,1.8*32
$GPRMC,023917.001,A,1404.8089,S,07544.2025,W,0.22,320.55,160411,,,A*63
$GPGGA,023918.001,1404.8088,S,07544.2028,W,1,08,1.0,401.4,M,15.2,M,,0000*5E
$GPGSA,M,3,24,13,11,23,20,32,17,07,,,,,2.1,1.0,1.8*32
$GPRMC,023918.001,A,1404.8088,S,07544.2028,W,0.13,327.69,160411,,,A*6A
$GPGGA,023918.996,1404.8089,S,07544.2028,W,1,08,1.0,402.5,M,15.2,M,,0000*5A
$GPGSA,M,3,24,13,11,23,20,32,17,07,,,,,2.1,1.0,1.8*32
$GPRMC,023918.996,A,1404.8089,S,07544.2028,W,0.16,101.83,160411,,,A*6B
$GPGGA,023920.005,1404.8088,S,07544.2031,W,1,08,1.0,404.2,M,15.2,M,,0000*5A
$GPGSA,M,3,24,13,11,23,20,32,17,07,,,,,2.1,1.0,1.8*32
$GPGSV,3,1,10,24,64,078,37,13,59,271,41,11,59,034,39,23,58,187,38*72
$GPGSV,3,2,10,20,40,166,31,32,28,135,32,17,28,252,33,07,21,349,34*75
$GPGSV,3,3,10,19,06,018,30,31,01,140,*7A
$GPRMC,023920.005,A,1404.8088,S,07544.2031,W,0.92,354.83,160411,,,A*64
$GPGGA,023920.993,1404.8087,S,07544.2033,W,1,07,1.1,405.4,M,15.2,M,,0000*58
$GPGSA,M,3,24,13,11,23,32,17,07,,,,,,2.1,1.1,1.8*31
$GPRMC,023920.993,A,1404.8087,S,07544.2033,W,0.36,114.16,160411,,,A*6B
$GPGGA,023922.006,1404.8087,S,07544.2036,W,1,08,1.0,406.7,M,15.2,M,,0000*54
$GPGSA,M,3,24,13,11,23,20,32,17,07,,,,,2.1,1.0,1.8*32
$GPRMC,023922.006,A,1404.8087,S,07544.2036,W,0.39,320.67,160411,,,A*65
$GPGGA,023923.001,1404.8085,S,07544.2038,W,1,08,1.0,407.8,M,15.2,M,,0000*50
$GPGSA,M,3,24,13,11,23,20,32,17,07,,,,,2.1,1.0,1.8*32
$GPRMC,023923.001,A,1404.8085,S,07544.2038,W,0.30,9.87,160411,,,A*60
$GPGGA,023923.996,1404.8085,S,07544.2039,W,1,07,1.1,408.7,M,15.2,M,,0000*58
$GPGSA,M,3,24,13,11,23,32,17,07,,,,,,2.1,1.1,1.8*31
$GPRMC,023923.996,A,1404.8085,S,07544.2039,W,0.58,246.72,160411,,,A*6B
$GPGGA,023925.004,1404.8085,S,07544.2037,W,1,08,1.0,408.8,M,15.2,M,,0000*53
$GPGSA,M,3,24,13,11,23,20,32,17,07,,,,,2.1,1.0,1.8*32
$GPGSV,3,1,10,24,64,078,38,13,59,271,41,11,59,034,39,23,58,187,36*73
$GPGSV,3,2,10,20,40,166,27,32,28,135,36,17,28,252,34,07,21,349,34*71
$GPGSV,3,3,10,19,06,018,31,31,01,140,*7B
$GPRMC,023925.004,A,1404.8085,S,07544.2037,W,0.64,303.36,160411,,,A*6E
$GPGGA,023925.995,1404.8082,S,07544.2039,W,1,07,1.1,409.2,M,15.2,M,,0000*5E
$GPGSA,M,3,24,13,11,23,32,17,07,,,,,,2.1,1.1,1.8*31
$GPRMC,023925.995,A,1404.8082,S,07544.2039,W,0.33,327.83,160411,,,A*6C
$GPGGA,023926.999,1404.8079,S,07544.2040,W,1,08,1.0,411.2,M,15.2,M,,0000*5C
$GPGSA,M,3,24,13,11,23,20,32,17,07,,,,,2.1,1.0,1.8*32
$GPRMC,023926.999,A,1404.8079,S,07544.2040,W,0.35,226.88,160411,,,A*64
$GPGGA,023928.004,1404.8081,S,07544.2037,W,1,08,1.0,409.7,M,15.2,M,,0000*54
$GPGSA,M,3,24,13,11,23,20,32,17,07,,,,,2.1,1.0,1.8*32
$GPRMC,023928.004,A,1404.8081,S,07544.2037,W,0.37,247.94,160411,,,A*68
$GPGGA,023929.004,1404.8081,S,07544.2041,W,1,08,1.0,411.9,M,15.2,M,,0000*53
$GPGSA,M,3,24,13,11,23,20,32,17,07,,,,,2.1,1.0,1.8*32
$GPRMC,023929.004,A,1404.8081,S,07544.2041,W,0.40,336.27,160411,,,A*67
$GPGGA,023929.997,1404.8078,S,07544.2039,W,1,08,1.0,411.9,M,15.2,M,,0000*59
$GPGSA,M,3,24,13,11,23,20,32,17,07,,,,,2.1,1.0,1.8*32
$GPGSV,3,1,10,24,64,078,37,13,59,271,41,11,59,034,39,23,58,187,37*7D
$GPGSV,3,2,10,20,40,166,29,32,28,135,32,17,28,252,33,07,21,349,35*7D
$GPGSV,3,3,10,19,06,018,,31,01,140,*79
$GPRMC,023929.997,A,1404.8078,S,07544.2039,W,0.34,319.17,160411,,,A*60
$GPGGA,023931.000,1404.8081,S,07544.2039,W,1,08,1.0,414.1,M,15.2,M,,0000*5C
$GPGSA,M,3,24,13,11,23,20,32,17,07,,,,,2.1,1.0,1.8*32
$GPRMC,023931.000,A,1404.8081,S,07544.2039,W,0.23,303.65,160411,,,A*60
$GPGGA,023931.998,1404.8076,S,07544.2041,W,1,08,1.0,414.3,M,15.2,M,,0000*51
$GPGSA,M,3,24,13,11,23,20,32,17,07,,,,,2.1,1.0,1.8*32
$GPRMC,023931.998,A,1404.8076,S,07544.2041,W,0.94,345.61,160411,,,A*65
$GPGGA,023932.999,1404.8074,S,07544.2042,W,1,08,1.0,415.7,M,15.2,M,,0000*57
$GPGSA,M,3,24,13,11,23,20,32,17,07,,,,,2.1,1.0,1.8*32
$GPRMC,023932.999,A,1404.8074,S,07544.2042,W,0.38,321.27,160411,,,A*60
$GPGGA,023934.000,1404.8074,S,07544.2040,W,1,08,1.0,414.9,M,15.2,M,,0000*55
$GPGSA,M,3,24,13,11,23,20,32,17,07,,,,,2.1,1.0,1.8*32
$GPRMC,023934.000,A,1404.8074,S,07544.2040,W,0.23,321.50,160411,,,A*67
$GPGGA,023935.000,1404.8077,S,07544.2041,W,1,08,1.0,416.2,M,15.2,M,,0000*5F
$GPGSA,M,3,24,13,11,23,20,32,17,07,,,,,2.1,1.0,1.8*32
$GPGSV,3,1,10,24,64,078,37,13,59,271,40,11,59,034,39,23,58,187,37*7C
$GPGSV,3,2,10,20,40,166,34,32,28,135,33,17,28,252,33,07,21,349,35*70
$GPGSV,3,3,10,19,06,018,,31,01,140,*79
$GPRMC,023935.000,A,1404.8077,S,07544.2041,W,0.21,167.28,160411,,,A*69
$GPGGA,023936.000,1404.8076,S,07544.2037,W,1,08,1.0,414.3,M,15.2,M,,0000*5F
$GPGSA,M,3,24,13,11,23,20,32,17,07,,,,,2.1,1.0,1.8*32
$GPRMC,023936.000,A,1404.8076,S,07544.2037,W,0.26,94.57,160411,,,A*58
$GPGGA,023937.001,1404.8073,S,07544.2037,W,1,08,1.0,416.6,M,15.2,M,,0000*5D
$GPGSA,M,3,24,13,11,23,20,32,17,07,,,,,2.1,1.0,1.8*32
$GPRMC,023937.001,A,1404.8073,S,07544.2037,W,0.20,121.76,160411,,,A*67
$GPGGA,023938.000,1404.8075,S,07544.2035,W,1,08,1.0,416.3,M,15.2,M,,0000*52
$GPGSA,M,3,24,13,11,23,20,32,17,07,,,,,2.1,1.0,1.8*32
$GPRMC,023938.000,A,1404.8075,S,07544.2035,W,0.33,109.16,160411,,,A*63
$GPGGA,023938.997,1404.8078,S,07544.2032,W,1,08,1.0,414.7,M,15.2,M,,0000*59
$GPGSA,M,3,24,13,11,23,20,32,17,07,,,,,2.1,1.0,1.8*32
$GPRMC,023938.997,A,1404.8078,S,07544.2032,W,0.55,169.93,160411,,,A*65
$GPGGA,023940.002,1404.8081,S,07544.2027,W,1,08,1.0,413.4,M,15.2,M,,0000*55
$GPGSA,M,3,24,13,11,23,20,32,17,07,,,,,2.1,1.0,1.8*32
$GPGSV,3,1,10,24,64,078,36,13,59,271,40,11,59,034,39,23,58,187,38*72
$GPGSV,3,2,10,20,40,166,34,32,28,135,36,17,28,252,35,07,21,349,33*75
$GPGSV,3,3,10,19,06,018,,31,01,140,*79
$GPRMC,023940.002,A,1404.8081,S,07544.2027,W,0.24,110.81,160411,,,A*66
$GPGGA,023941.001,1404.8085,S,07544.2025,W,1,08,1.0,414.7,M,15.2,M,,0000*55
$GPGSA,M,3,24,13,11,23,20,32,17,07,,,,,2.1,1.0,1.8*32
$GPRMC,023941.001,A,1404.8085,S,07544.2025,W,0.47,135.04,160411,,,A*6D
$GPGGA,023942.001,1404.8087,S,07544.2025,W,1,08,1.0,414.1,M,15.2,M,,0000*52
$GPGSA,M,3,24,13,11,23,20,32,17,07,,,,,2.1,1.0,1.8*32
$GPRMC,023942.001,A,1404.8087,S,07544.2025,W,0.82,141.74,160411,,,A*61
$GPGGA,023943.001,1404.8089,S,07544.2024,W,1,08,1.0,413.4,M,15.2,M,,0000*5E
$GPGSA,M,3,24,13,11,23,20,32,17,07,,,,,2.1,1.0,1.8*32
$GPRMC,023943.001,A,1404.8089,S,07544.2024,W,0.45,183.97,160411,,,A*67
$GPGGA,023944.001,1404.8091,S,07544.2025,W,1,08,1.0,414.5,M,15.2,M,,0000*57
$GPGSA,M,3,24,13,11,23,20,32,17,07,,,,,2.1,1.0,1.8*32
$GPRMC,023944.001,A,1404.8091,S,07544.2025,W,0.52,84.98,160411,,,A*57
$GPGGA,023945.001,1404.8090,S,07544.2025,W,1,08,1.0,415.7,M,15.2,M,,0000*54
$GPGSA,M,3,24,13,11,23,20,32,17,07,,,,,2.1,1.0,1.8*32
$GPGSV,3,1,10,24,64,078,39,13,59,271,39,11,59,034,39,23,58,187,37*7C
$GPGSV,3,2,10,20,40,166,35,32,28,135,36,17,28,252,26,07,21,349,31*74
$GPGSV,3,3,10,19,06,018,,31,01,140,*79
$GPRMC,023945.001,A,1404.8090,S,07544.2025,W,0.60,217.65,160411,,,A*6C
$GPGGA,023946.001,1404.8090,S,07544.2026,W,1,08,1.0,416.0,M,15.2,M,,0000*50
$GPGSA,M,3,24,13,11,23,20,32,17,07,,,,,2.1,1.0,1.8*32
$GPRMC,023946.001,A,1404.8090,S,07544.2026,W,0.41,138.72,160411,,,A*67
$GPGGA,023947.001,1404.8092,S,07544.2028,W,1,08,1.0,416.9,M,15.2,M,,0000*54
$GPGSA,M,3,24,13,11,23,20,32,17,07,,,,,2.1,1.0,1.8*32
$GPRMC,023947.001,A,1404.8092,S,07544.2028,W,0.74,107.85,160411,,,A*68
$GPGGA,023948.001,1404.8094,S,07544.2028,W,1,08,1.0,418.6,M,15.2,M,,0000*5C
$GPGSA,M,3,24,13,11,23,20,32,17,07,,,,,2.1,1.0,1.8*32
$GPRMC,023948.001,A,1404.8094,S,07544.2028,W,0.29,195.14,160411,,,A*6A
$GPGGA,023949.001,1404.8094,S,07544.2027,W,1,08,1.0,418.7,M,15.2,M,,0000*53
$GPGSA,M,3,24,13,11,23,20,32,17,07,,,,,2.1,1.0,1.8*32
$GPRMC,023949.001,A,1404.8094,S,07544.2027,W,0.28,339.34,160411,,,A*63
$GPGGA,023950.001,1404.8096,S,07544.2032,W,1,08,1.0,420.6,M,15.2,M,,0000*57
$GPGSA,M,3,24,13,11,23,20,32,17,07,,,,,2.1,1.0,1.8*32
$GPGSV,3,1,10,24,64,078,38,13,59,271,40,11,59,034,39,23,58,187,37*73
$GPGSV,3,2,10,20,40,166,30,32,28,135,36,17,28,252,32,07,21,349,30*75
$GPGSV,3,3,10,19,06,018,,31,01,140,*79
$GPRMC,023950.001,A,1404.8096,S,07544.2032,W,0.31,317.03,160411,,,A*6D
$GPGGA,023951.001,1404.8095,S,07544.2033,W,1,08,1.0,419.6,M,15.2,M,,0000*5E
$GPGSA,M,3,24,13,11,23,20,32,17,07,,,,,2.1,1.0,1.8*32
$GPRMC,023951.001,A,1404.8095,S,07544.2033,W,0.05,256.19,160411,,,A*66
$GPGGA,023952.001,1404.8094,S,07544.2034,W,1,08,1.0,421.2,M,15.2,M,,0000*54
$GPGSA,M,3,24,13,11,23,20,32,17,07,,,,,2.1,1.0,1.8*32
$GPRMC,023952.001,A,1404.8094,S,07544.2034,W,0.23,169.70,160411,,,A*67
$GPGGA,023953.001,1404.8096,S,07544.2033,W,1,08,1.0,421.7,M,15.2,M,,0000*55
$GPGSA,M,3,24,13,11,23,20,32,17,07,,,,,2.1,1.0,1.8*32
$GPRMC,023953.001,A,1404.8096,S,07544.2033,W,0.36,184.43,160411,,,A*64
$GPGGA,023954.001,1404.8095,S,07544.2033,W,1,08,1.0,422.0,M,15.2,M,,0000*55
$GPGSA,M,3,24,13,11,23,20,32,17,07,,,,,2.1,1.0,1.8*32
$GPRMC,023954.001,A,1404.8095,S,07544.2033,W,0.17,204.76,160411,,,A*6E
$GPGGA,023955.001,1404.8094,S,07544.2033,W,1,08,1.0,422.1,M,15.2,M,,0000*54
$GPGSA,M,3,24,13,11,23,20,32,17,07,,,,,2.1,1.0,1.8*32
$GPGSV,3,1,10,24,64,078,37,13,59,271,40,11,59,034,40,23,58,187,36*73
$GPGSV,3,2,10,20,40,166,32,32,28,135,31,17,28,252,36,07,21,349,34*70
$GPGSV,3,3,10,19,06,018,,31,01,140,*79
$GPRMC,023955.001,A,1404.8094,S,07544.2033,W,0.31,119.46,160411,,,A*66
$GPGGA,023956.001,1404.8093,S,07544.2035,W,1,08,1.0,420.9,M,15.2,M,,0000*5C
$GPGSA,M,3,24,13,11,23,20,32,17,07,,,,,2.1,1.0,1.8*32
$GPRMC,023956.001,A,1404.8093,S,07544.2035,W,0.23,118.72,160411,,,A*61
$GPGGA,023957.001,1404.8090,S,07544.2036,W,1,08,1.0,419.5,M,15.2,M,,0000*5B
$GPGSA,M,3,24,13,11,23,20,32,17,07,,,,,2.1,1.0,1.8*32
$GPRMC,023957.001,A,1404.8090,S,07544.2036,W,0.07,78.83,160411,,,A*5F
$GPGGA,023958.001,1404.8087,S,07544.2035,W,1,08,1.0,420.1,M,15.2,M,,0000*5F
$GPGSA,M,3,24,13,11,23,20,32,17,07,,,,,2.1,1.0,1.8*32
$GPRMC,023958.001,A,1404.8087,S,07544.2035,W,0.96,343.27,160411,,,A*68
$GPGGA,023959.000,1404.8088,S,07544.2040,W,1,08,1.0,419.8,M,15.2,M,,0000*51
$GPGSA,M,3,24,13,11,23,20,32,17,07,,,,,2.1,1.0,1.8*32
$GPRMC,023959.000,A,1404.8088,S,07544.2040,W,0.34,330.05,160411,,,A*69
$GPGGA,023959.996,1404.8089,S,07544.2042,W,1,08,1.0,419.6,M,15.2,M,,0000*5A
$GPGSA,M,3,24,13,11,23,20,32,17,07,,,,,2.1,1.0,1.8*32
$GPGSV,3,1,10,24,64,078,36,13,59,271,39,11,59,034,39,23,58,187,35*71
$GPGSV,3,2,10,20,40,166,32,32,28,135,31,17,28,252,36,07,21,349,35*71
$GPGSV,3,3,10,19,06,018,,31,01,140,*79
$GPRMC,023959.996,A,1404.8089,S,07544.2042,W,0.98,299.89,160411,,,A*6C
$GPGGA,024001.004,1404.8087,S,07544.2050,W,1,08,1.0,419.3,M,15.2,M,,0000*53
$GPGSA,M,3,24,13,11,23,20,32,17,07,,,,,2.1,1.0,1.8*32
$GPRMC,024001.004,A,1404.8087,S,07544.2050,W,1.90,310.81,160411,,,A*61
$GPGGA,024002.000,1404.8079,S,07544.2056,W,1,08,1.0,418.5,M,15.2,M,,0000*54
$GPGSA,M,3,24,13,11,23,20,32,17,07,,,,,2.1,1.0,1.8*32
$GPRMC,024002.000,A,1404.8079,S,07544.2056,W,2.22,320.50,160411,,,A*64
$GPGGA,024002.996,1404.8075,S,07544.2062,W,1,08,1.0,418.8,M,15.2,M,,0000*54
$GPGSA,M,3,24,13,11,23,20,32,17,07,,,,,2.1,1.0,1.8*32
$GPRMC,024002.996,A,1404.8075,S,07544.2062,W,2.56,312.59,160411,,,A*62
$GPGGA,024004.004,1404.8070,S,07544.2066,W,1,08,1.0,418.0,M,15.2,M,,0000*59
$GPGSA,M,3,24,13,11,23,20,32,17,07,,,,,2.1,1.0,1.8*32
$GPRMC,024004.004,A,1404.8070,S,07544.2066,W,3.23,310.53,160411,,,A*6C
$GPGGA,024005.000,1404.8067,S,07544.2069,W,1,08,1.0,420.6,M,15.2,M,,0000*58
$GPGSA,M,3,24,13,11,23,20,32,17,07,,,,,2.1,1.0,1.8*32
$GPGSV,3,1,10,24,64,078,37,13,59,271,39,11,59,034,39,23,58,187,38*7D
$GPGSV,3,2,10,20,40,166,35,32,28,135,32,17,28,252,35,07,21,349,35*76
$GPGSV,3,3,10,19,06,018,24,31,01,140,*7F
$GPRMC,024005.000,A,1404.8067,S,07544.2069,W,2.25,309.43,160411,,,A*6E
$GPGGA,024005.998,1404.8062,S,07544.2074,W,1,07,1.3,420.1,M,15.2,M,,0000*52
$GPGSA,M,3,24,13,11,23,20,17,07,,,,,,2.7,1.3,2.3*3E
$GPRMC,024005.998,A,1404.8062,S,07544.2074,W,2.39,312.31,160411,,,A*6D
$GPGGA,024007.001,1404.8060,S,07544.2077,W,1,08,1.0,421.5,M,15.2,M,,0000*51
$GPGSA,M,3,24,13,11,23,20,32,17,07,,,,,2.1,1.0,1.8*32
$GPRMC,024007.001,A,1404.8060,S,07544.2077,W,1.68,317.28,160411,,,A*6D
$GPGGA,024008.001,1404.8057,S,07544.2080,W,1,08,1.0,422.1,M,15.2,M,,0000*55
$GPGSA,M,3,24,13,11,23,20,32,17,07,,,,,2.1,1.0,1.8*32
$GPRMC,024008.001,A,1404.8057,S,07544.2080,W,0.85,317.82,160411,,,A*6C
$GPGGA,024009.002,1404.8058,S,07544.2081,W,1,08,1.0,421.5,M,15.2,M,,0000*5E
$GPGSA,M,3,24,13,11,23,20,32,17,07,,,,,2.1,1.0,1.8*32
$GPRMC,024009.002,A,1404.8058,S,07544.2081,W,0.28,225.93,160411,,,A*67
$GPGGA,024010.000,1404.8057,S,07544.2078,W,1,08,1.0,420.7,M,15.2,M,,0000*5E
$GPGSA,M,3,24,13,11,23,20,32,17,07,,,,,2.1,1.0,1.8*32
$GPGSV,3,1,10,24,64,078,39,13,59,271,40,11,59,034,39,23,58,187,37*72
$GPGSV,3,2,10,20,40,166,36,32,28,135,35,17,28,252,38,07,21,349,32*78
$GPGSV,3,3,10,19,06,018,26,31,01,140,*7D
$GPRMC,024010.000,A,1404.8057,S,07544.2078,W,0.42,320.02,160411,,,A*64
$GPGGA,024010.999,1404.8057,S,07544.2081,W,1,08,1.0,420.5,M,15.2,M,,0000*53
$GPGSA,M,3,24,13,11,23,20,32,17,07,,,,,2.1,1.0,1.8*32
$GPRMC,024010.999,A,1404.8057,S,07544.2081,W,0.52,233.72,160411,,,A*6E
$GPGGA,024012.000,1404.8055,S,07544.2080,W,1,08,1.0,421.8,M,15.2,M,,0000*57
$GPGSA,M,3,24,13,11,23,20,32,17,07,,,,,2.1,1.0,1.8*32
$GPRMC,024012.000,A,1404.8055,S,07544.2080,W,0.22,11.84,160411,,,A*5A
$GPGGA,024013.000,1404.8057,S,07544.2073,W,1,08,1.0,422.4,M,15.2,M,,0000*57
$GPGSA,M,3,24,13,11,23,20,32,17,07,,,,,2.1,1.0,1.8*32
$GPRMC,024013.000,A,1404.8057,S,07544.2073,W,0.25,68.95,160411,,,A*5C
$GPGGA,024014.000,1404.8057,S,07544.2069,W,1,08,1.0,423.0,M,15.2,M,,0000*5E
$GPGSA,M,3,24,13,11,23,20,32,17,07,,,,,2.1,1.0,1.8*32
$GPRMC,024014.000,A,1404.8057,S,07544.2069,W,0.13,210.78,160411,,,A*6B
$GPGGA,024015.000,1404.8061,S,07544.2067,W,1,08,1.0,421.6,M,15.2,M,,0000*50
$GPGSA,M,3,24,13,11,23,20,32,17,07,,,,,2.1,1.0,1.8*32
$GPGSV,3,1,10,24,64,078,36,13,59,271,39,11,59,034,36,23,58,187,37*7C
$GPGSV,3,2,10,20,40,166,32,32,28,135,34,17,28,252,37,07,21,349,33*73
$GPGSV,3,3,10,19,06,018,,31,01,140,*79
$GPRMC,024015.000,A,1404.8061,S,07544.2067,W,0.45,208.26,160411,,,A*60
$GPGGA,024016.000,1404.8063,S,07544.2068,W,1,08,1.0,422.4,M,15.2,M,,0000*5F
$GPGSA,M,3,24,13,11,23,20,32,17,07,,,,,2.1,1.0,1.8*32
$GPRMC,024016.000,A,1404.8063,S,07544.2068,W,0.42,274.39,160411,,,A*6C
$GPGGA,024017.000,1404.8062,S,07544.2066,W,1,08,1.0,422.0,M,15.2,M,,0000*55
$GPGSA,M,3,24,13,11,23,20,32,17,07,,,,,2.1,1.0,1.8*32
$GPRMC,024017.000,A,1404.8062,S,07544.2066,W,0.40,291.84,160411,,,A*6D
$GPGGA,024018.000,1404.8063,S,07544.2063,W,1,08,1.0,421.1,M,15.2,M,,0000*5C
$GPGSA,M,3,24,13,11,23,20,32,17,07,,,,,2.1,1.0,1.8*32
$GPRMC,024018.000,A,1404.8063,S,07544.2063,W,0.33,258.27,160411,,,A*6E
$GPGGA,024019.023,1404.8063,S,07544.2064,W,0,00,,421.4,M,15.2,M,,0000*78
$GPGSA,M,1,,,,,,,,,,,,,,,*12
$GPRMC,024019.023,V,1404.8063,S,07544.2064,W,,,160411,,,N*7B
$GPGGA,024019.722,1404.8063,S,07544.2065,W,0,00,,421.6,M,15.2,M,,0000*7D
$GPGSA,M,1,,,,,,,,,,,,,,,*12
$GPGSV,3,1,11,24,64,076,,13,59,269,,11,58,033,,23,58,186,*73
$GPGSV,3,2,11,20,40,165,,32,28,135,,17,28,253,,07,22,349,*71
$GPGSV,3,3,11,19,05,019,,31,00,141,,04,00,218,*45
$GPRMC,024019.722,V,1404.8063,S,07544.2065,W,,,160411,,,N*7C
$GPGGA,024020.000,1404.8063,S,07544.2065,W,0,00,,421.7,M,15.2,M,,0000*71
$GPGSA,M,1,,,,,,,,,,,,,,,*12
$GPRMC,024020.000,V,1404.8063,S,07544.2065,W,,,160411,,,N*71
$GPGGA,024021.000,1404.8063,S,07544.2066,W,0,00,,422.0,M,15.2,M,,0000*77
$GPGSA,M,1,,,,,,,,,,,,,,,*12
$GPRMC,024021.000,V,1404.8063,S,07544.2066,W,,,160411,,,N*73
$GPGGA,024022.000,1404.8066,S,07544.2078,W,1,06,1.4,420.5,M,15.2,M,,0000*55
$GPGSA,M,3,17,07,24,13,11,20,,,,,,,2.7,1.4,2.4*3F
$GPRMC,024022.000,A,1404.8066,S,07544.2078,W,0.26,335.86,160411,,,A*6D
$GPGGA,024023.000,1404.8058,S,07544.2087,W,1,06,1.4,419.0,M,15.2,M,,0000*56
$GPGSA,M,3,17,07,24,13,11,20,,,,,,,2.7,1.4,2.4*3F
$GPRMC,024023.000,A,1404.8058,S,07544.2087,W,0.07,339.67,160411,,,A*61
$GPGGA,024024.000,1404.8056,S,07544.2090,W,1,07,1.3,418.3,M,15.2,M,,0000*5D
$GPGSA,M,3,17,07,24,13,11,20,23,,,,,,2.7,1.3,2.3*3E
$GPGSV,3,1,11,24,64,076,38,13,59,269,46,11,58,033,42,23,58,186,42*7A
$GPGSV,3,2,11,20,40,165,32,32,28,135,,17,28,253,38,07,22,349,33*7B
$GPGSV,3,3,11,19,05,019,,31,00,141,,04,00,218,*45
$GPRMC,024024.000,A,1404.8056,S,07544.2090,W,0.21,332.86,160411,,,A*6E
$GPGGA,024025.000,1404.8057,S,07544.2091,W,1,07,1.3,418.5,M,15.2,M,,0000*5A
$GPGSA,M,3,17,07,24,13,11,20,23,,,,,,2.7,1.3,2.3*3E
$GPRMC,024025.000,A,1404.8057,S,07544.2091,W,0.01,112.92,160411,,,A*68
$GPGGA,024026.000,1404.8058,S,07544.2092,W,1,08,1.0,418.7,M,15.2,M,,0000*5B
$GPGSA,M,3,17,07,24,13,11,20,23,32,,,,,2.1,1.0,1.8*32
$GPRMC,024026.000,A,1404.8058,S,07544.2092,W,0.03,64.99,160411,,,A*5E
$GPGGA,024027.000,1404.8059,S,07544.2091,W,1,08,1.0,418.3,M,15.2,M,,0000*5C
$GPGSA,M,3,17,07,24,13,11,20,23,32,,,,,2.1,1.0,1.8*32
$GPRMC,024027.000,A,1404.8059,S,07544.2091,W,0.07,242.53,160411,,,A*69
$GPGGA,024028.000,1404.8059,S,07544.2091,W,1,08,1.0,417.9,M,15.2,M,,0000*56
$GPGSA,M,3,17,07,24,13,11,20,23,32,,,,,2.1,1.0,1.8*32
$GPRMC,024028.000,A,1404.8059,S,07544.2091,W,0.07,10.61,160411,,,A*52
$GPGGA,024029.000,1404.8064,S,07544.2088,W,1,08,1.0,416.2,M,15.2,M,,0000*5B
$GPGSA,M,3,17,07,24,13,11,20,23,32,,,,,2.1,1.0,1.8*32
$GPGSV,3,1,11,24,64,076,39,13,59,269,47,11,58,033,44,23,58,186,42*7C
$GPGSV,3,2,11,20,40,165,31,32,28,135,33,17,28,253,39,07,22,349,30*7A
$GPGSV,3,3,11,19,05,019,21,31,00,141,,04,00,218,*46
$GPRMC,024029.000,A,1404.8064,S,07544.2088,W,0.06,106.19,160411,,,A*6D
$GPGGA,024030.000,1404.8071,S,07544.2085,W,1,08,1.0,416.1,M,15.2,M,,0000*59
$GPGSA,M,3,17,07,24,13,11,20,23,32,,,,,2.1,1.0,1.8*32
$GPRMC,024030.000,A,1404.8071,S,07544.2085,W,0.21,127.46,160411,,,A*60
$GPGGA,024031.000,1404.8075,S,07544.2086,W,1,08,1.0,416.8,M,15.2,M,,0000*56
$GPGSA,M,3,17,07,24,13,11,20,23,32,,,,,2.1,1.0,1.8*32
$GPRMC,024031.000,A,1404.8075,S,07544.2086,W,0.64,309.25,160411,,,A*6C
$GPGGA,024032.000,1404.8073,S,07544.2091,W,1,08,1.0,417.9,M,15.2,M,,0000*55
$GPGSA,M,3,17,07,24,13,11,20,23,32,,,,,2.1,1.0,1.8*32
$GPRMC,024032.000,A,1404.8073,S,07544.2091,W,3.15,309.38,160411,,,A*66
$GPGGA,024033.012,1404.8066,S,07544.2102,W,1,08,1.0,418.2,M,15.2,M,,0000*5C
$GPGSA,M,3,24,13,11,23,20,32,17,07,,,,,2.1,1.0,1.8*32
$GPRMC,024033.012,A,1404.8066,S,07544.2102,W,5.53,305.43,160411,,,A*6F
$GPGGA,024033.990,1404.8056,S,07544.2114,W,1,08,1.0,418.2,M,15.2,M,,0000*5B
$GPGSA,M,3,24,13,11,23,20,32,17,07,,,,,2.1,1.0,1.8*32
$GPRMC,024033.990,A,1404.8056,S,07544.2114,W,6.11,314.31,160411,,,A*68
$GPGGA,024034.999,1404.8043,S,07544.2127,W,1,07,1.1,417.8,M,15.2,M,,0000*5A
$GPGSA,M,3,24,13,11,23,32,17,07,,,,,,2.1,1.1,1.8*31
$GPGSV,3,1,11,24,64,076,36,13,59,269,40,11,58,033,39,23,58,186,34*7F
$GPGSV,3,2,11,20,40,165,,32,28,135,32,17,28,253,38,07,22,349,32*7A
$GPGSV,3,3,11,19,05,019,,31,00,141,,04,00,218,*45
$GPRMC,024034.999,A,1404.8043,S,07544.2127,W,7.78,313.39,160411,,,A*63
$GPGGA,024035.999,1404.8026,S,07544.2143,W,1,08,1.0,417.8,M,15.2,M,,0000*54
$GPGSA,M,3,24,13,11,23,20,32,17,07,,,,,2.1,1.0,1.8*32
$GPRMC,024035.999,A,1404.8026,S,07544.2143,W,9.11,314.60,160411,,,A*69
$GPGGA,024037.002,1404.8007,S,07544.2161,W,1,08,1.0,418.6,M,15.2,M,,0000*5F
$GPGSA,M,3,24,13,11,23,20,32,17,07,,,,,2.1,1.0,1.8*32
$GPRMC,024037.002,A,1404.8007,S,07544.2161,W,10.71,314.97,160411,,,A*55
$GPGGA,024038.000,1404.7987,S,07544.2181,W,1,08,1.0,419.1,M,15.2,M,,0000*54
$GPGSA,M,3,24,13,11,23,20,32,17,07,,,,,2.1,1.0,1.8*32
$GPRMC,024038.000,A,1404.7987,S,07544.2181,W,10.58,314.95,160411,,,A*51
$GPGGA,024038.997,1404.7965,S,07544.2203,W,1,07,1.1,419.6,M,15.2,M,,0000*5F
$GPGSA,M,3,24,13,11,23,32,17,07,,,,,,2.1,1.1,1.8*31
$GPRMC,024038.997,A,1404.7965,S,07544.2203,W,11.52,312.40,160411,,,A*56
$GPGGA,024040.003,1404.7941,S,07544.2227,W,1,07,1.1,419.0,M,15.2,M,,0000*52
$GPGSA,M,3,24,13,11,23,32,17,07,,,,,,2.1,1.1,1.8*31
$GPGSV,3,1,11,24,64,076,37,13,59,269,39,11,58,033,38,23,58,186,31*74
$GPGSV,3,2,11,20,40,165,,32,28,135,34,17,28,253,38,07,22,349,28*77
$GPGSV,3,3,11,19,05,019,29,31,00,141,,04,00,218,*4E
$GPRMC,024040.003,A,1404.7941,S,07544.2227,W,12.42,312.28,160411,,,A*51
$GPGGA,024040.998,1404.7917,S,07544.2254,W,1,08,1.0,419.7,M,15.2,M,,0000*57
$GPGSA,M,3,24,13,11,23,20,32,17,07,,,,,2.1,1.0,1.8*32
$GPRMC,024040.998,A,1404.7917,S,07544.2254,W,13.25,315.13,160411,,,A*52
$GPGGA,024042.002,1404.7888,S,07544.2283,W,1,06,1.6,420.4,M,15.2,M,,0000*53
$GPGSA,M,3,24,13,11,23,32,17,,,,,,,3.2,1.6,2.7*3F
$GPRMC,024042.002,A,1404.7888,S,07544.2283,W,14.35,313.04,160411,,,A*51
$GPGGA,024042.998,1404.7861,S,07544.2313,W,1,07,1.4,420.6,M,15.2,M,,0000*57
$GPGSA,M,3,24,13,11,23,20,32,17,,,,,,3.1,1.4,2.7*3C
$GPRMC,024042.998,A,1404.7861,S,07544.2313,W,14.75,314.75,160411,,,A*51
$GPGGA,024044.002,1404.7832,S,07544.2341,W,1,08,1.0,419.7,M,15.2,M,,0000*5A
$GPGSA,M,3,24,13,11,23,20,32,17,07,,,,,2.1,1.0,1.8*32
$GPRMC,024044.002,A,1404.7832,S,07544.2341,W,14.87,315.75,160411,,,A*50
$GPGGA,024044.996,1404.7800,S,07544.2371,W,1,07,1.1,420.5,M,15.2,M,,0000*5A
$GPGSA,M,3,24,13,11,20,32,17,07,,,,,,2.2,1.1,1.9*30
$GPGSV,3,1,11,24,64,076,37,13,59,269,40,11,58,033,39,23,58,186,*79
$GPGSV,3,2,11,20,40,165,28,32,28,135,30,17,28,253,37,07,22,349,30*7F
$GPGSV,3,3,11,19,05,019,26,31,00,141,,04,00,218,*41
$GPRMC,024044.996,A,1404.7800,S,07544.2371,W,15.61,316.50,160411,,,A*5B
$GPGGA,024046.000,1404.7768,S,07544.2403,W,1,08,1.0,420.4,M,15.2,M,,0000*52
$GPGSA,M,3,24,13,11,23,20,32,17,07,,,,,2.1,1.0,1.8*32
$GPRMC,024046.000,A,1404.7768,S,07544.2403,W,15.94,317.46,160411,,,A*50
$GPGGA,024047.000,1404.7735,S,07544.2436,W,1,08,1.0,421.8,M,15.2,M,,0000*50
$GPGSA,M,3,24,13,11,23,20,32,17,07,,,,,2.1,1.0,1.8*32
$GPRMC,024047.000,A,1404.7735,S,07544.2436,W,16.53,318.24,160411,,,A*5C
$GPGGA,024048.000,1404.7702,S,07544.2466,W,1,08,1.0,421.5,M,15.2,M,,0000*53
$GPGSA,M,3,24,13,11,23,20,32,17,07,,,,,2.1,1.0,1.8*32
$GPRMC,024048.000,A,1404.7702,S,07544.2466,W,16.37,319.13,160411,,,A*55
$GPGGA,024049.000,1404.7664,S,07544.2496,W,1,08,1.0,421.8,M,15.2,M,,0000*51
$GPGSA,M,3,24,13,11,23,20,32,17,07,,,,,2.1,1.0,1.8*32
$GPRMC,024049.000,A,1404.7664,S,07544.2496,W,17.29,322.35,160411,,,A*58
$GPGGA,024050.002,1404.7624,S,07544.2525,W,1,07,1.1,420.9,M,15.2,M,,0000*58
$GPGSA,M,3,24,13,11,23,32,17,07,,,,,,2.1,1.1,1.8*31
$GPGSV,3,1,11,24,64,076,35,13,59,269,40,11,58,033,40,23,58,186,33*75
$GPGSV,3,2,11,20,40,165,,32,28,135,31,17,28,253,37,07,22,349,32*76
$GPGSV,3,3,11,19,05,019,,31,00,141,,04,00,218,*45
$GPRMC,024050.002,A,1404.7624,S,07544.2525,W,17.63,324.43,160411,,,A*56
$GPGGA,024051.000,1404.7579,S,07544.2553,W,1,07,1.1,421.3,M,15.2,M,,0000*5A
$GPGSA,M,3,24,13,11,23,32,17,07,,,,,,2.1,1.1,1.8*31
$GPRMC,024051.000,A,1404.7579,S,07544.2553,W,18.79,327.15,160411,,,A*5B
$GPGGA,024052.002,1404.7534,S,07544.2581,W,1,08,1.0,421.0,M,15.2,M,,0000*50
$GPGSA,M,3,24,13,11,23,20,32,17,07,,,,,2.1,1.0,1.8*32
$GPRMC,024052.002,A,1404.7534,S,07544.2581,W,19.20,327.99,160411,,,A*55
$GPGGA,024052.998,1404.7486,S,07544.2611,W,1,07,1.1,421.7,M,15.2,M,,0000*51
$GPGSA,M,3,24,13,11,23,32,17,07,,,,,,2.1,1.1,1.8*31
$GPRMC,024052.998,A,1404.7486,S,07544.2611,W,20.10,329.07,160411,,,A*5D
$GPGGA,024053.998,1404.7440,S,07544.2637,W,1,07,1.1,421.6,M,15.2,M,,0000*5F
$GPGSA,M,3,24,13,11,23,32,17,07,,,,,,2.1,1.1,1.8*31
$GPRMC,024053.998,A,1404.7440,S,07544.2637,W,20.02,329.98,160411,,,A*57
$GPGGA,024055.002,1404.7388,S,07544.2667,W,1,07,1.1,422.1,M,15.2,M,,0000*51
$GPGSA,M,3,24,13,11,23,32,17,07,,,,,,2.1,1.1,1.8*31
$GPGSV,3,1,11,24,64,076,28,13,59,269,38,11,58,033,40,23,58,186,36*73
$GPGSV,3,2,11,20,40,165,,32,28,135,36,17,28,253,29,07,22,349,25*78
$GPGSV,3,3,11,19,05,019,,31,00,141,,04,00,218,*45
$GPRMC,024055.002,A,1404.7388,S,07544.2667,W,20.51,332.96,160411,,,A*5F
$GPGGA,024056.000,1404.7336,S,07544.2692,W,1,07,1.1,421.8,M,15.2,M,,0000*55
$GPGSA,M,3,24,13,11,23,32,17,07,,,,,,2.1,1.1,1.8*31
$GPRMC,024056.000,A,1404.7336,S,07544.2692,W,20.75,332.86,160411,,,A*56
$GPGGA,024057.000,1404.7280,S,07544.2722,W,1,06,1.2,423.6,M,15.2,M,,0000*5C
$GPGSA,M,3,13,11,23,32,17,07,,,,,,,2.3,1.2,2.0*3D
$GPRMC,024057.000,A,1404.7280,S,07544.2722,W,21.34,332.60,160411,,,A*5D
$GPGGA,024057.998,1404.7226,S,07544.2749,W,1,08,1.0,423.3,M,15.2,M,,0000*5C
$GPGSA,M,3,24,13,11,23,20,32,17,07,,,,,2.1,1.0,1.8*32
$GPRMC,024057.998,A,1404.7226,S,07544.2749,W,21.74,335.55,160411,,,A*51
$GPGGA,024059.000,1404.7166,S,07544.2776,W,1,08,1.0,424.4,M,15.2,M,,0000*51
$GPGSA,M,3,24,13,11,23,20,32,17,07,,,,,2.1,1.0,1.8*32
$GPRMC,024059.000,A,1404.7166,S,07544.2776,W,21.87,336.80,160411,,,A*5B
$GPGGA,024100.000,1404.7112,S,07544.2799,W,1,08,1.0,424.4,M,15.2,M,,0000*5E
$GPGSA,M,3,24,13,11,23,20,32,17,07,,,,,2.1,1.0,1.8*32
$GPGSV,3,1,11,24,64,076,33,13,59,269,37,11,58,033,39,23,58,186,37*79
$GPGSV,3,2,11,20,40,165,31,32,28,135,36,17,28,253,32,07,22,349,31*75
$GPGSV,3,3,11,19,05,019,,31,00,141,,04,00,218,*45
$GPRMC,024100.000,A,1404.7112,S,07544.2799,W,22.10,337.70,160411,,,A*57
$GPGGA,024101.003,1404.7056,S,07544.2823,W,1,08,1.0,424.1,M,15.2,M,,0000*56
$GPGSA,M,3,24,13,11,23,20,32,17,07,,,,,2.1,1.0,1.8*32
$GPRMC,024101.003,A,1404.7056,S,07544.2823,W,21.64,337.33,160411,,,A*5D
$GPGGA,024102.000,1404.6998,S,07544.2848,W,1,08,1.0,424.7,M,15.2,M,,0000*57
$GPGSA,M,3,24,13,11,23,20,32,17,07,,,,,2.1,1.0,1.8*32
$GPRMC,024102.000,A,1404.6998,S,07544.2848,W,21.11,339.19,160411,,,A*5E
$GPGGA,024103.000,1404.6943,S,07544.2867,W,1,08,1.0,423.9,M,15.2,M,,0000*54
$GPGSA,M,3,24,13,11,23,20,32,17,07,,,,,2.1,1.0,1.8*32
$GPRMC,024103.000,A,1404.6943,S,07544.2867,W,20.09,341.26,160411,,,A*5F
$GPGGA,024104.000,1404.6889,S,07544.2885,W,1,08,1.0,423.4,M,15.2,M,,0000*55
$GPGSA,M,3,24,13,11,23,20,32,17,07,,,,,2.1,1.0,1.8*32
$GPRMC,024104.000,A,1404.6889,S,07544.2885,W,19.00,344.17,160411,,,A*57
$GPGGA,024105.000,1404.6837,S,07544.2897,W,1,08,1.0,422.3,M,15.2,M,,0000*54
$GPGSA,M,3,24,13,11,23,20,32,17,07,,,,,2.1,1.0,1.8*32
$GPGSV,3,1,11,24,64,076,37,13,59,269,33,11,58,033,34,23,58,186,35*76
$GPGSV,3,2,11,20,40,165,30,32,28,135,37,17,28,253,33,07,22,349,38*7D
$GPGSV,3,3,11,19,05,019,,31,00,141,,04,00,218,*45
$GPRMC,024105.000,A,1404.6837,S,07544.2897,W,18.59,346.47,160411,,,A*5A
$GPGGA,024106.000,1404.6787,S,07544.2909,W,1,08,1.0,422.6,M,15.2,M,,0000*50
$GPGSA,M,3,24,13,11,23,20,32,17,07,,,,,2.1,1.0,1.8*32
$GPRMC,024106.000,A,1404.6787,S,07544.2909,W,19.12,348.11,160411,,,A*58
$GPGGA,024107.000,1404.6735,S,07544.2922,W,1,08,1.0,422.9,M,15.2,M,,0000*5E
$GPGSA,M,3,24,13,11,23,20,32,17,07,,,,,2.1,1.0,1.8*32
$GPRMC,024107.000,A,1404.6735,S,07544.2922,W,18.38,344.15,160411,,,A*58
$GPGGA,024108.000,1404.6686,S,07544.2933,W,1,08,1.0,423.3,M,15.2,M,,0000*53
$GPGSA,M,3,24,13,11,23,20,32,17,07,,,,,2.1,1.0,1.8*32
$GPRMC,024108.000,A,1404.6686,S,07544.2933,W,17.96,348.00,160411,,,A*5D
$GPGGA,024109.000,1404.6634,S,07544.2944,W,1,08,1.0,424.8,M,15.2,M,,0000*57
$GPGSA,M,3,24,13,11,23,20,32,17,07,,,,,2.1,1.0,1.8*32
$GPRMC,024109.000,A,1404.6634,S,07544.2944,W,18.24,348.02,160411,,,A*51
$GPGGA,024110.000,1404.6585,S,07544.2956,W,1,08,1.0,424.2,M,15.2,M,,0000*5F
$GPGSA,M,3,24,13,11,23,20,32,17,07,,,,,2.1,1.0,1.8*32
$GPGSV,3,1,11,24,64,076,35,13,59,269,36,11,58,033,37,23,58,186,35*72
$GPGSV,3,2,11,20,40,165,36,32,28,135,29,17,28,253,34,07,22,349,39*72
$GPGSV,3,3,11,19,05,019,,31,00,141,,04,00,218,*45
$GPRMC,024110.000,A,1404.6585,S,07544.2956,W,18.34,347.96,160411,,,A*50
$GPGGA,024111.000,1404.6533,S,07544.2964,W,1,08,1.0,424.8,M,15.2,M,,0000*58
$GPGSA,M,3,24,13,11,23,20,32,17,07,,,,,2.1,1.0,1.8*32
$GPRMC,024111.000,A,1404.6533,S,07544.2964,W,18.37,349.19,160411,,,A*57
$GPGGA,024112.000,1404.6485,S,07544.2973,W,1,08,1.0,425.0,M,15.2,M,,0000*58
$GPGSA,M,3,24,13,11,23,20,32,17,07,,,,,2.1,1.0,1.8*32
$GPRMC,024112.000,A,1404.6485,S,07544.2973,W,18.00,349.70,160411,,,A*55
$GPGGA,024113.000,1404.6430,S,07544.2981,W,1,08,1.0,425.1,M,15.2,M,,0000*5B
$GPGSA,M,3,24,13,11,23,20,32,17,07,,,,,2.1,1.0,1.8*32
$GPRMC,024113.000,A,1404.6430,S,07544.2981,W,18.53,349.83,160411,,,A*5D
$GPGGA,024113.996,1404.6379,S,07544.2992,W,1,08,1.0,425.2,M,15.2,M,,0000*56
$GPGSA,M,3,24,13,11,23,20,32,17,07,,,,,2.1,1.0,1.8*32
$GPRMC,024113.996,A,1404.6379,S,07544.2992,W,18.92,347.96,160411,,,A*54
$GPGGA,024115.002,1404.6324,S,07544.3003,W,1,08,1.0,425.7,M,15.2,M,,0000*59
$GPGSA,M,3,24,13,11,23,20,32,17,07,,,,,2.1,1.0,1.8*32
$GPGSV,3,1,11,24,64,076,36,13,59,269,37,11,58,033,36,23,58,186,36*72
$GPGSV,3,2,11,20,40,165,36,32,28,135,29,17,28,253,29,07,22,349,40*70
$GPGSV,3,3,11,19,05,019,26,31,00,141,,04,00,218,*41
$GPRMC,024115.002,A,1404.6324,S,07544.3003,W,17.83,350.45,160411,,,A*59
$GPGGA,024116.000,1404.6272,S,07544.3013,W,1,08,1.0,425.1,M,15.2,M,,0000*5D
$GPGSA,M,3,24,13,11,23,20,32,17,07,,,,,2.1,1.0,1.8*32
$GPRMC,024116.000,A,1404.6272,S,07544.3013,W,17.80,353.15,160411,,,A*5E
$GPGGA,024116.998,1404.6224,S,07544.3022,W,1,07,1.3,426.4,M,15.2,M,,0000*5E
$GPGSA,M,3,24,13,11,23,20,32,07,,,,,,2.4,1.3,2.0*39
$GPRMC,024116.998,A,1404.6224,S,07544.3022,W,16.26,351.46,160411,,,A*5E
$GPGGA,024118.002,1404.6183,S,07544.3026,W,1,08,1.0,426.3,M,15.2,M,,0000*5B
$GPGSA,M,3,24,13,11,23,20,32,17,07,,,,,2.1,1.0,1.8*32
$GPRMC,024118.002,A,1404.6183,S,07544.3026,W,14.52,355.94,160411,,,A*5A
$GPGGA,024119.000,1404.6145,S,07544.3026,W,1,08,1.0,426.5,M,15.2,M,,0000*54
$GPGSA,M,3,24,13,11,23,20,32,17,07,,,,,2.1,1.0,1.8*32
$GPRMC,024119.000,A,1404.6145,S,07544.3026,W,12.13,357.95,160411,,,A*53
$GPGGA,024120.002,1404.6111,S,07544.3029,W,1,07,1.3,426.2,M,15.2,M,,0000*59
$GPGSA,M,3,24,13,11,23,20,17,07,,,,,,2.7,1.3,2.4*39
$GPGSV,3,1,11,24,64,076,36,13,59,269,36,11,58,033,39,23,58,186,34*7E
$GPGSV,3,2,11,20,40,165,37,32,28,135,,17,28,253,29,07,22,349,36*7B
$GPGSV,3,3,11,19,05,019,31,31,00,141,,04,00,218,*47
$GPRMC,024120.002,A,1404.6111,S,07544.3029,W,11.53,354.55,160411,,,A*5D
$GPGGA,024120.998,1404.6083,S,07544.3043,W,1,08,1.0,426.7,M,15.2,M,,0000*5C
$GPGSA,M,3,24,13,11,23,20,32,17,07,,,,,2.1,1.0,1.8*32
$GPRMC,024120.998,A,1404.6083,S,07544.3043,W,10.54,343.00,160411,,,A*51
$GPGGA,024122.000,1404.6073,S,07544.3043,W,1,08,1.0,424.3,M,15.2,M,,0000*5F
$GPGSA,M,3,24,13,11,23,20,32,17,07,,,,,2.1,1.0,1.8*32
$GPRMC,024122.000,A,1404.6073,S,07544.3043,W,7.16,356.34,160411,,,A*67
$GPGGA,024123.000,1404.6066,S,07544.3039,W,1,08,1.0,423.5,M,15.2,M,,0000*56
$GPGSA,M,3,24,13,11,23,20,32,17,07,,,,,2.1,1.0,1.8*32
$GPRMC,024123.000,A,1404.6066,S,07544.3039,W,4.38,355.05,160411,,,A*61
$GPGGA,024123.998,1404.6080,S,07544.3034,W,1,08,1.0,422.7,M,15.2,M,,0000*58
$GPGSA,M,3,24,13,11,23,20,32,17,07,,,,,2.1,1.0,1.8*32
$GPRMC,024123.998,A,1404.6080,S,07544.3034,W,0.97,48.87,160411,,,A*58
$GPGGA,024125.000,1404.6087,S,07544.3029,W,1,08,1.0,421.2,M,15.2,M,,0000*5B
$GPGSA,M,3,24,13,11,23,20,32,17,07,,,,,2.1,1.0,1.8*32
$GPGSV,3,1,11,24,64,076,39,13,59,269,38,11,58,033,38,23,58,186,34*7E
$GPGSV,3,2,11,20,40,165,31,32,28,135,37,17,28,253,35,07,22,349,38*7A
$GPGSV,3,3,11,19,05,019,,31,00,141,,04,00,218,*45
$GPRMC,024125.000,A,1404.6087,S,07544.3029,W,0.40,114.02,160411,,,A*62
$GPGGA,024126.002,1404.6092,S,07544.3029,W,1,08,1.0,421.2,M,15.2,M,,0000*5E
$GPGSA,M,3,24,13,11,23,20,17,32,07,,,,,2.1,1.0,1.8*32
$GPRMC,024126.002,A,1404.6092,S,07544.3029,W,0.35,42.56,160411,,,A*56
$GPGGA,024126.999,1404.6091,S,07544.3025,W,1,08,1.0,420.3,M,15.2,M,,0000*5A
$GPGSA,M,3,24,13,11,23,20,17,32,07,,,,,2.1,1.0,1.8*32
$GPRMC,024126.999,A,1404.6091,S,07544.3025,W,0.18,140.28,160411,,,A*67
$GPGGA,024127.999,1404.6087,S,07544.3032,W,1,08,1.0,420.9,M,15.2,M,,0000*50
$GPGSA,M,3,24,13,11,23,20,17,32,07,,,,,2.1,1.0,1.8*32
$GPRMC,024127.999,A,1404.6087,S,07544.3032,W,0.08,317.66,160411,,,A*6C
$GPGGA,024129.002,1404.6099,S,07544.3032,W,1,08,1.0,419.1,M,15.2,M,,0000*58
$GPGSA,M,3,24,13,11,23,20,17,32,07,,,,,2.1,1.0,1.8*32
$GPRMC,024129.002,A,1404.6099,S,07544.3032,W,0.25,233.11,160411,,,A*6E
$GPGGA,024129.996,1404.6104,S,07544.3039,W,1,08,1.0,418.9,M,15.2,M,,0000*5B
$GPGSA,M,3,24,13,11,23,20,17,32,07,,,,,2.1,1.0,1.8*32
$GPGSV,3,1,11,24,63,074,39,13,59,267,37,11,57,033,39,23,57,185,34*78
$GPGSV,3,2,11,20,40,164,33,17,28,254,35,32,28,134,37,07,22,349,40*70
$GPGSV,3,3,11,19,05,019,,04,00,218,,31,00,141,*45
$GPRMC,024129.996,A,1404.6104,S,07544.3039,W,0.20,293.10,160411,,,A*6A
$GPGGA,024131.000,1404.6104,S,07544.3037,W,1,08,1.0,418.6,M,15.2,M,,0000*55
$GPGSA,M,3,24,13,11,23,20,17,32,07,,,,,2.1,1.0,1.8*32
$GPRMC,024131.000,A,1404.6104,S,07544.3037,W,0.24,355.42,160411,,,A*63
$GPGGA,024132.001,1404.6107,S,07544.3035,W,1,08,1.0,418.8,M,15.2,M,,0000*58
$GPGSA,M,3,24,13,11,23,20,17,32,07,,,,,2.1,1.0,1.8*32
$GPRMC,024132.001,A,1404.6107,S,07544.3035,W,0.43,98.70,160411,,,A*52
$GPGGA,024133.000,1404.6106,S,07544.3034,W,1,08,1.0,418.8,M,15.2,M,,0000*58
$GPGSA,M,3,24,13,11,23,20,17,32,07,,,,,2.1,1.0,1.8*32
$GPRMC,024133.000,A,1404.6106,S,07544.3034,W,0.32,18.36,160411,,,A*5E
$GPGGA,024134.000,1404.6108,S,07544.3028,W,1,08,1.0,417.4,M,15.2,M,,0000*5F
$GPGSA,M,3,24,13,11,23,20,17,32,07,,,,,2.1,1.0,1.8*32
$GPRMC,024134.000,A,1404.6108,S,07544.3028,W,0.31,44.62,160411,,,A*51
$GPGGA,024135.000,1404.6107,S,07544.3027,W,1,08,1.0,417.3,M,15.2,M,,0000*59
$GPGSA,M,3,24,13,11,23,20,17,32,07,,,,,2.1,1.0,1.8*32
$GPGSV,3,1,11,24,63,074,39,13,59,267,37,11,57,033,39,23,57,185,32*7E
$GPGSV,3,2,11,20,40,164,31,17,28,254,35,32,28,134,36,07,22,349,39*7D
$GPGSV,3,3,11,19,05,019,31,04,00,218,,31,00,141,*47
$GPRMC,024135.000,A,1404.6107,S,07544.3027,W,0.37,63.99,160411,,,A*57
$GPGGA,024136.000,1404.6107,S,07544.3024,W,1,08,1.0,417.3,M,15.2,M,,0000*59
$GPGSA,M,3,24,13,11,23,20,17,32,07,,,,,2.1,1.0,1.8*32
$GPRMC,024136.000,A,1404.6107,S,07544.3024,W,0.12,302.12,160411,,,A*67
$GPGGA,024137.000,1404.6107,S,07544.3026,W,1,08,1.0,416.9,M,15.2,M,,0000*51
$GPGSA,M,3,24,13,11,23,20,17,32,07,,,,,2.1,1.0,1.8*32
$GPRMC,024137.000,A,1404.6107,S,07544.3026,W,0.19,267.81,160411,,,A*67
$GPGGA,024138.000,1404.6106,S,07544.3023,W,1,08,1.0,417.5,M,15.2,M,,0000*57
$GPGSA,M,3,24,13,11,23,20,17,32,07,,,,,2.1,1.0,1.8*32
$GPRMC,024138.000,A,1404.6106,S,07544.3023,W,0.65,356.05,160411,,,A*68
$GPGGA,024139.000,1404.6105,S,07544.3023,W,1,08,1.0,419.5,M,15.2,M,,0000*5B
$GPGSA,M,3,24,13,11,23,20,17,32,07,,,,,2.1,1.0,1.8*32
$GPRMC,024139.000,A,1404.6105,S,07544.3023,W,0.19,157.00,160411,,,A*67
$GPGGA,024140.000,1404.6106,S,07544.3025,W,1,08,1.0,420.5,M,15.2,M,,0000*5A
$GPGSA,M,3,24,13,11,23,20,17,32,07,,,,,2.1,1.0,1.8*32
$GPGSV,3,1,11,24,63,074,39,13,59,267,38,11,57,033,39,23,57,185,30*73
$GPGSV,3,2,11,20,40,164,29,17,28,254,29,32,28,134,37,07,22,349,39*78
$GPGSV,3,3,11,19,05,019,26,04,00,218,,31,00,141,*41
$GPRMC,024140.000,A,1404.6106,S,07544.3025,W,0.37,10.11,160411,,,A*52
$GPGGA,024140.998,1404.6107,S,07544.3024,W,1,08,1.0,420.2,M,15.2,M,,0000*55
$GPGSA,M,3,24,13,11,23,20,17,32,07,,,,,2.1,1.0,1.8*32
$GPRMC,024140.998,A,1404.6107,S,07544.3024,W,0.36,23.91,160411,,,A*53
$GPGGA,024142.002,1404.6108,S,07544.3021,W,1,08,1.0,420.3,M,15.2,M,,0000*56
$GPGSA,M,3,24,13,11,23,20,17,32,07,,,,,2.1,1.0,1.8*32
$GPRMC,024142.002,A,1404.6108,S,07544.3021,W,0.11,223.53,160411,,,A*68
$GPGGA,024143.002,1404.6110,S,07544.3020,W,1,07,1.1,419.8,M,15.2,M,,0000*50
$GPGSA,M,3,24,13,11,23,17,32,07,,,,,,2.1,1.1,1.8*31
$GPRMC,024143.002,A,1404.6110,S,07544.3020,W,0.42,92.19,160411,,,A*51
$GPGGA,024143.996,1404.6111,S,07544.3014,W,1,08,1.0,419.3,M,15.2,M,,0000*57
$GPGSA,M,3,24,13,11,23,20,17,32,07,,,,,2.1,1.0,1.8*32
$GPRMC,024143.996,A,1404.6111,S,07544.3014,W,0.17,94.13,160411,,,A*5F
$GPGGA,024145.000,1404.6111,S,07544.3011,W,1,07,1.1,418.6,M,15.2,M,,0000*58
$GPGSA,M,3,24,13,11,23,17,32,07,,,,,,2.1,1.1,1.8*31
$GPGSV,3,1,11,24,63,074,39,13,59,267,37,11,57,033,39,23,57,185,31*7D
$GPGSV,3,2,11,20,40,164,,17,28,254,32,32,28,134,37,07,22,349,40*77
$GPGSV,3,3,11,19,05,019,28,04,00,218,,31,00,141,*4F
$GPRMC,024145.000,A,1404.6111,S,07544.3011,W,0.27,251.28,160411,,,A*6A
$GPGGA,024146.004,1404.6109,S,07544.3012,W,1,07,1.1,419.0,M,15.2,M,,0000*52
$GPGSA,M,3,24,13,11,23,17,32,07,,,,,,2.1,1.1,1.8*31
$GPRMC,024146.004,A,1404.6109,S,07544.3012,W,0.10,212.49,160411,,,A*63
$GPGGA,024146.998,1404.6112,S,07544.3014,W,1,08,1.0,418.5,M,15.2,M,,0000*58
$GPGSA,M,3,24,13,11,23,20,17,32,07,,,,,2.1,1.0,1.8*32
$GPRMC,024146.998,A,1404.6112,S,07544.3014,W,0.38,223.68,160411,,,A*68
$GPGGA,024148.000,1404.6115,S,07544.3013,W,1,08,1.0,419.3,M,15.2,M,,0000*59
$GPGSA,M,3,24,13,11,23,20,17,32,07,,,,,2.1,1.0,1.8*32
$GPRMC,024148.000,A,1404.6115,S,07544.3013,W,0.30,104.27,160411,,,A*6B
$GPGGA,024149.000,1404.6116,S,07544.3014,W,1,08,1.0,419.4,M,15.2,M,,0000*5B
$GPGSA,M,3,24,13,11,23,20,17,32,07,,,,,2.1,1.0,1.8*32
$GPRMC,024149.000,A,1404.6116,S,07544.3014,W,0.49,3.94,160411,,,A*6E
$GPGGA,024150.002,1404.6117,S,07544.3015,W,1,07,1.1,420.1,M,15.2,M,,0000*50
$GPGSA,M,3,24,13,11,23,17,32,07,,,,,,2.1,1.1,1.8*31
$GPGSV,3,1,11,24,63,074,39,13,59,267,37,11,57,033,39,23,57,185,29*74
$GPGSV,3,2,11,20,40,164,,17,28,254,32,32,28,134,37,07,22,349,39*79
$GPGSV,3,3,11,19,05,019,25,04,00,218,,31,00,141,*42
$GPRMC,024150.002,A,1404.6117,S,07544.3015,W,0.38,291.98,160411,,,A*67
$GPGGA,024150.996,1404.6118,S,07544.3017,W,1,08,1.0,420.1,M,15.2,M,,0000*57
$GPGSA,M,3,24,13,11,23,20,17,32,07,,,,,2.1,1.0,1.8*32
$GPRMC,024150.996,A,1404.6118,S,07544.3017,W,0.06,66.85,160411,,,A*55
$GPGGA,024152.002,1404.6117,S,07544.3019,W,1,07,1.1,421.5,M,15.2,M,,0000*5B
$GPGSA,M,3,24,13,11,23,17,32,07,,,,,,2.1,1.1,1.8*31
$GPRMC,024152.002,A,1404.6117,S,07544.3019,W,0.77,348.19,160411,,,A*6E
$GPGGA,024152.998,1404.6119,S,07544.3023,W,1,07,1.3,423.2,M,15.2,M,,0000*51
$GPGSA,M,3,24,13,11,23,20,32,07,,,,,,2.4,1.3,2.0*39
$GPRMC,024152.998,A,1404.6119,S,07544.3023,W,1.30,22.61,160411,,,A*51
$GPGGA,024154.000,1404.6116,S,07544.3021,W,1,08,1.0,424.3,M,15.2,M,,0000*58
$GPGSA,M,3,24,13,11,23,20,17,32,07,,,,,2.1,1.0,1.8*32
$GPRMC,024154.000,A,1404.6116,S,07544.3021,W,1.92,3.06,160411,,,A*68
$GPGGA,024155.004,1404.6112,S,07544.3023,W,1,08,1.0,424.9,M,15.2,M,,0000*51
$GPGSA,M,3,24,13,11,23,20,17,32,07,,,,,2.1,1.0,1.8*32
$GPGSV,3,1,11,24,63,074,38,13,59,267,37,11,57,033,40,23,57,185,36*75
$GPGSV,3,2,11,20,40,164,34,17,28,254,35,32,28,134,34,07,22,349,39*7A
$GPGSV,3,3,11,19,05,019,,04,00,218,,31,00,141,*45
$GPRMC,024155.004,A,1404.6112,S,07544.3023,W,3.10,351.78,160411,,,A*6E
$GPGGA,024155.999,1404.6103,S,07544.3026,W,1,07,1.1,425.7,M,15.2,M,,0000*58
$GPGSA,M,3,24,13,11,23,17,32,07,,,,,,2.1,1.1,1.8*31
$GPRMC,024155.999,A,1404.6103,S,07544.3026,W,5.08,4.06,160411,,,A*63
$GPGGA,024156.996,1404.6089,S,07544.3029,W,1,07,1.1,425.7,M,15.2,M,,0000*58
$GPGSA,M,3,24,13,11,23,17,32,07,,,,,,2.1,1.1,1.8*31
$GPRMC,024156.996,A,1404.6089,S,07544.3029,W,6.39,0.40,160411,,,A*64
$GPGGA,024158.004,1404.6070,S,07544.3029,W,1,08,1.0,425.9,M,15.2,M,,0000*52
$GPGSA,M,3,24,13,11,23,20,17,32,07,,,,,2.1,1.0,1.8*32
$GPRMC,024158.004,A,1404.6070,S,07544.3029,W,6.78,358.90,160411,,,A*68
$GPGGA,024158.996,1404.6048,S,07544.3031,W,1,07,1.1,425.8,M,15.2,M,,0000*5D
$GPGSA,M,3,24,13,11,23,17,32,07,,,,,,2.1,1.1,1.8*31
$GPRMC,024158.996,A,1404.6048,S,07544.3031,W,7.18,0.74,160411,,,A*6B
$GPGGA,024200.000,1404.6027,S,07544.3034,W,1,08,1.0,426.9,M,15.2,M,,0000*55
$GPGSA,M,3,24,13,11,23,20,17,32,07,,,,,2.1,1.0,1.8*32
$GPGSV,3,1,11,24,63,074,39,13,59,267,37,11,57,033,39,23,57,185,35*79
$GPGSV,3,2,11,20,40,164,30,17,28,254,32,32,28,134,36,07,22,349,40*75
$GPGSV,3,3,11,19,05,019,,04,00,218,,31,00,141,*45
$GPRMC,024200.000,A,1404.6027,S,07544.3034,W,7.49,1.87,160411,,,A*66
$GPGGA,024201.004,1404.6006,S,07544.3033,W,1,08,1.0,426.5,M,15.2,M,,0000*58
$GPGSA,M,3,24,13,11,23,20,17,32,07,,,,,2.1,1.0,1.8*32
$GPRMC,024201.004,A,1404.6006,S,07544.3033,W,7.43,359.89,160411,,,A*6D
$GPGGA,024201.995,1404.5985,S,07544.3033,W,1,08,1.0,427.4,M,15.2,M,,0000*58
$GPGSA,M,3,24,13,11,23,20,17,32,07,,,,,2.1,1.0,1.8*32
$GPRMC,024201.995,A,1404.5985,S,07544.3033,W,7.30,356.17,160411,,,A*61
$GPGGA,024203.003,1404.5969,S,07544.3035,W,1,08,1.0,427.3,M,15.2,M,,0000*5F
$GPGSA,M,3,24,13,11,23,20,17,32,07,,,,,2.1,1.0,1.8*32
$GPRMC,024203.003,A,1404.5969,S,07544.3035,W,6.38,349.35,160411,,,A*66
$GPGGA,024203.999,1404.5952,S,07544.3039,W,1,08,1.0,427.1,M,15.2,M,,0000*53
$GPGSA,M,3,24,13,11,23,20,17,32,07,,,,,2.1,1.0,1.8*32
$GPRMC,024203.999,A,1404.5952,S,07544.3039,W,5.23,339.15,160411,,,A*64
$GPGGA,024204.998,1404.5942,S,07544.3052,W,1,07,1.3,426.7,M,15.2,M,,0000*52
$GPGSA,M,3,24,13,11,23,20,17,07,,,,,,2.7,1.3,2.4*39
$GPGSV,3,1,11,24,63,074,35,13,59,267,40,11,57,033,32,23,57,185,35*7E
$GPGSV,3,2,11,20,40,164,31,17,28,254,39,32,28,134,,07,22,349,30*7D
$GPGSV,3,3,11,19,05,019,30,04,00,218,,31,00,141,*46
$GPRMC,024204.998,A,1404.5942,S,07544.3052,W,5.25,305.32,160411,,,A*62
$GPGGA,024206.003,1404.5934,S,07544.3066,W,1,07,1.3,426.8,M,15.2,M,,0000*52
$GPGSA,M,3,24,13,11,23,20,17,07,,,,,,2.7,1.3,2.4*39
$GPRMC,024206.003,A,1404.5934,S,07544.3066,W,4.44,279.52,160411,,,A*67
$GPGGA,024206.998,1404.5932,S,07544.3077,W,1,08,1.0,425.9,M,15.2,M,,0000*51
$GPGSA,M,3,24,13,11,23,20,17,32,07,,,,,2.1,1.0,1.8*32
$GPRMC,024206.998,A,1404.5932,S,07544.3077,W,2.56,277.72,160411,,,A*63
$GPGGA,024208.000,1404.5931,S,07544.3084,W,1,08,1.0,424.5,M,15.2,M,,0000*55
$GPGSA,M,3,24,13,11,23,20,17,32,07,,,,,2.1,1.0,1.8*32
$GPRMC,024208.000,A,1404.5931,S,07544.3084,W,1.37,296.44,160411,,,A*64
$GPGGA,024209.002,1404.5929,S,07544.3082,W,1,07,1.3,424.6,M,15.2,M,,0000*56
$GPGSA,M,3,24,13,11,23,20,17,07,,,,,,2.7,1.3,2.4*39
$GPRMC,024209.002,A,1404.5929,S,07544.3082,W,0.47,342.90,160411,,,A*6F
$GPGGA,024209.998,1404.5928,S,07544.3082,W,1,08,1.0,424.2,M,15.2,M,,0000*55
$GPGSA,M,3,24,13,11,23,20,17,32,07,,,,,2.1,1.0,1.8*32
$GPGSV,3,1,11,24,63,074,31,13,59,267,39,11,57,033,37,23,57,185,35*71
$GPGSV,3,2,11,20,40,164,36,17,28,254,40,32,28,134,23,07,22,349,34*71
$GPGSV,3,3,11,19,05,019,31,04,00,218,,31,00,141,*47
$GPRMC,024209.998,A,1404.5928,S,07544.3082,W,0.69,113.01,160411,,,A*66
$GPGGA,024210.998,1404.5931,S,07544.3078,W,1,07,1.3,424.1,M,15.2,M,,0000*5F
$GPGSA,M,3,24,13,11,23,20,17,07,,,,,,2.7,1.3,2.4*39
$GPRMC,024210.998,A,1404.5931,S,07544.3078,W,0.33,175.98,160411,,,A*6C
$GPGGA,024212.004,1404.5931,S,07544.3078,W,1,07,1.3,423.8,M,15.2,M,,0000*5F
$GPGSA,M,3,24,13,11,23,20,17,07,,,,,,2.7,1.3,2.4*39
$GPRMC,024212.004,A,1404.5931,S,07544.3078,W,0.24,212.10,160411,,,A*66
$GPGGA,024212.998,1404.5931,S,07544.3082,W,1,08,1.0,424.3,M,15.2,M,,0000*56
$GPGSA,M,3,24,13,11,23,20,17,32,07,,,,,2.1,1.0,1.8*32
$GPRMC,024212.998,A,1404.5931,S,07544.3082,W,0.14,120.18,160411,,,A*66
$GPGGA,024214.000,1404.5932,S,07544.3085,W,1,08,1.0,425.8,M,15.2,M,,0000*56
$GPGSA,M,3,24,13,11,23,20,17,32,07,,,,,2.1,1.0,1.8*32
$GPRMC,024214.000,A,1404.5932,S,07544.3085,W,0.59,333.66,160411,,,A*6C
$GPGGA,024214.998,1404.5929,S,07544.3082,W,1,07,1.3,426.3,M,15.2,M,,0000*57
$GPGSA,M,3,24,13,11,23,20,17,07,,,,,,2.7,1.3,2.4*39
$GPGSV,3,1,11,24,63,074,30,13,59,267,39,11,57,033,36,23,57,185,33*77
$GPGSV,3,2,11,20,40,164,36,17,28,254,39,32,28,134,,07,22,349,30*7A
$GPGSV,3,3,11,19,05,019,30,04,00,218,,31,00,141,*46
$GPRMC,024214.998,A,1404.5929,S,07544.3082,W,0.42,283.94,160411,,,A*64
$GPGGA,024216.000,1404.5924,S,07544.3087,W,1,07,1.3,427.5,M,15.2,M,,0000*52
$GPGSA,M,3,24,13,11,23,20,17,07,,,,,,2.7,1.3,2.4*39
$GPRMC,024216.000,A,1404.5924,S,07544.3087,W,0.46,325.47,160411,,,A*61
$GPGGA,024217.000,1404.5921,S,07544.3084,W,1,07,1.3,427.9,M,15.2,M,,0000*59
$GPGSA,M,3,24,13,11,23,20,17,07,,,,,,2.7,1.3,2.4*39
$GPRMC,024217.000,A,1404.5921,S,07544.3084,W,0.09,136.27,160411,,,A*6B
$GPGGA,024218.000,1404.5918,S,07544.3083,W,1,07,1.3,427.9,M,15.2,M,,0000*5B
$GPGSA,M,3,24,13,11,23,20,17,07,,,,,,2.7,1.3,2.4*39
$GPRMC,024218.000,A,1404.5918,S,07544.3083,W,0.67,288.62,160411,,,A*66
$GPGGA,024219.000,1404.5914,S,07544.3080,W,1,07,1.3,426.3,M,15.2,M,,0000*5E
$GPGSA,M,3,24,13,11,23,20,17,07,,,,,,2.7,1.3,2.4*39
$GPRMC,024219.000,A,1404.5914,S,07544.3080,W,0.79,262.98,160411,,,A*66
$GPGGA,024220.002,1404.5911,S,07544.3084,W,1,08,1.0,427.7,M,15.2,M,,0000*5E
$GPGSA,M,3,24,13,11,23,20,17,32,07,,,,,2.1,1.0,1.8*32
$GPGSV,3,1,11,24,63,074,31,13,59,267,39,11,57,033,36,23,57,185,36*73
$GPGSV,3,2,11,20,40,164,36,17,28,254,39,32,28,134,27,07,22,349,34*7B
$GPGSV,3,3,11,19,05,019,27,04,00,218,,31,00,141,*40
$GPRMC,024220.002,A,1404.5911,S,07544.3084,W,1.66,275.37,160411,,,A*63
$GPGGA,024221.000,1404.5913,S,07544.3097,W,1,08,1.0,429.5,M,15.2,M,,0000*51
$GPGSA,M,3,24,13,11,23,20,17,32,07,,,,,2.1,1.0,1.8*32
$GPRMC,024221.000,A,1404.5913,S,07544.3097,W,1.66,257.96,160411,,,A*6B
$GPGGA,024222.000,1404.5914,S,07544.3096,W,1,08,1.0,428.3,M,15.2,M,,0000*53
$GPGSA,M,3,24,13,11,23,20,17,32,07,,,,,2.1,1.0,1.8*32
$GPRMC,024222.000,A,1404.5914,S,07544.3096,W,1.57,271.49,160411,,,A*6A
$GPGGA,024222.998,1404.5916,S,07544.3100,W,1,07,1.4,427.3,M,15.2,M,,0000*53
$GPGSA,M,3,24,13,11,23,20,17,32,,,,,,3.0,1.4,2.7*3D
$GPRMC,024222.998,A,1404.5916,S,07544.3100,W,1.23,279.66,160411,,,A*68
$GPGGA,024224.004,1404.5917,S,07544.3098,W,1,08,1.0,426.2,M,15.2,M,,0000*53
$GPGSA,M,3,24,13,11,23,20,17,32,07,,,,,2.1,1.0,1.8*32
$GPRMC,024224.004,A,1404.5917,S,07544.3098,W,0.42,299.56,160411,,,A*68
$GPGGA,024225.000,1404.5911,S,07544.3094,W,1,08,1.0,428.6,M,15.2,M,,0000*56
$GPGSA,M,3,24,13,11,23,20,17,32,07,,,,,2.1,1.0,1.8*32
$GPGSV,3,1,11,24,63,074,33,13,59,267,40,11,57,033,36,23,57,185,39*70
$GPGSV,3,2,11,20,40,164,33,17,28,254,37,32,28,134,34,07,22,349,39*7F
$GPGSV,3,3,11,19,05,019,36,04,00,218,,31,00,141,*40
$GPRMC,024225.000,A,1404.5911,S,07544.3094,W,0.24,95.02,160411,,,A*58
$GPGGA,024225.997,1404.5910,S,07544.3091,W,1,08,1.0,427.9,M,15.2,M,,0000*55
$GPGSA,M,3,24,13,11,23,20,17,32,07,,,,,2.1,1.0,1.8*32
$GPRMC,024225.997,A,1404.5910,S,07544.3091,W,0.81,97.52,160411,,,A*53
