$GPGGA,002127.000,1335.8956,S,07608.8921,W,1,07,1.5,85.8,M,13.2,M,,0000*6E
$GPGSA,M,3,24,32,23,11,31,20,03,,,,,,4.2,1.5,4.0*3D
$GPRMC,002127.000,A,1335.8956,S,07608.8921,W,30.19,215.14,160411,,,A*51
$GPGGA,002128.013,1335.9026,S,07608.8970,W,1,08,1.2,85.8,M,13.2,M,,0000*60
$GPGSA,M,3,19,11,32,23,20,24,03,31,,,,,2.8,1.2,2.5*3D
$GPRMC,002128.013,A,1335.9026,S,07608.8970,W,30.07,213.84,160411,,,A*57
$GPGGA,002128.990,1335.9094,S,07608.9015,W,1,07,1.3,85.8,M,13.2,M,,0000*6E
$GPGSA,M,3,19,11,32,23,20,24,31,,,,,,2.9,1.3,2.5*3E
$GPRMC,002128.990,A,1335.9094,S,07608.9015,W,29.59,213.14,160411,,,A*5D
$GPGGA,002129.999,1335.9164,S,07608.9061,W,1,08,1.2,85.3,M,13.2,M,,0000*6E
$GPGSA,M,3,19,11,32,23,20,24,03,31,,,,,2.8,1.2,2.5*3D
$GPGSV,3,1,12,19,68,015,36,11,51,188,41,32,48,208,36,23,46,335,37*7F
$GPGSV,3,2,12,20,38,242,35,24,37,192,40,03,35,017,27,06,22,026,*78
$GPGSV,3,3,12,31,16,085,35,13,11,332,33,14,05,144,,28,03,250,*7B
$GPRMC,002129.999,A,1335.9164,S,07608.9061,W,29.62,212.89,160411,,,A*55
$GPGGA,002130.999,1335.9235,S,07608.9106,W,1,08,1.2,85.6,M,13.2,M,,0000*64
$GPGSA,M,3,19,11,32,23,20,24,03,31,,,,,2.8,1.2,2.5*3D
$GPRMC,002130.999,A,1335.9235,S,07608.9106,W,30.03,210.98,160411,,,A*57
$GPGGA,002132.000,1335.9306,S,07608.9150,W,1,08,1.2,85.7,M,13.2,M,,0000*6C
$GPGSA,M,3,19,11,32,23,20,24,03,31,,,,,2.8,1.2,2.5*3D
$GPRMC,002132.000,A,1335.9306,S,07608.9150,W,29.94,211.21,160411,,,A*5B
$GPGGA,002132.998,1335.9378,S,07608.9193,W,1,07,1.3,85.8,M,13.2,M,,0000*63
$GPGSA,M,3,19,11,32,23,20,24,31,,,,,,2.9,1.3,2.5*3E
$GPRMC,002132.998,A,1335.9378,S,07608.9193,W,30.22,210.49,160411,,,A*5F
$GPGGA,002134.002,1335.9452,S,07608.9236,W,1,08,1.2,85.9,M,13.2,M,,0000*63
$GPGSA,M,3,19,11,32,23,20,24,03,31,,,,,2.8,1.2,2.5*3D
$GPRMC,002134.002,A,1335.9452,S,07608.9236,W,30.39,209.44,160411,,,A*5F
$GPGGA,002134.998,1335.9525,S,07608.9278,W,1,07,1.3,86.2,M,13.2,M,,0000*64
$GPGSA,M,3,19,11,32,23,20,24,31,,,,,,2.9,1.3,2.5*3E
$GPGSV,3,1,12,19,68,015,34,11,51,188,41,32,48,208,37,23,46,335,37*7C
$GPGSV,3,2,12,20,38,242,37,24,37,192,40,03,35,017,,06,22,026,*7F
$GPGSV,3,3,12,31,16,085,36,13,11,332,32,14,05,144,29,28,03,250,30*71
$GPRMC,002134.998,A,1335.9525,S,07608.9278,W,30.28,208.23,160411,,,A*5E
$GPGGA,002136.000,1335.9600,S,07608.9317,W,1,07,1.3,86.7,M,13.2,M,,0000*67
$GPGSA,M,3,19,11,32,23,20,24,31,,,,,,2.9,1.3,2.5*3E
$GPRMC,002136.000,A,1335.9600,S,07608.9317,W,30.37,208.41,160411,,,A*52
$GPGGA,002137.002,1335.9675,S,07608.9357,W,1,08,1.2,86.6,M,13.2,M,,0000*6D
$GPGSA,M,3,19,11,32,23,20,24,03,31,,,,,2.8,1.2,2.5*3D
$GPRMC,002137.002,A,1335.9675,S,07608.9357,W,30.19,207.37,160411,,,A*55
$GPGGA,002138.000,1335.9750,S,07608.9396,W,1,08,1.2,86.9,M,13.2,M,,0000*64
$GPGSA,M,3,19,11,32,23,20,24,03,31,,,,,2.8,1.2,2.5*3D
$GPRMC,002138.000,A,1335.9750,S,07608.9396,W,30.30,206.68,160411,,,A*53
$GPGGA,002138.999,1335.9827,S,07608.9433,W,1,08,1.2,86.8,M,13.2,M,,0000*6B
$GPGSA,M,3,19,11,32,23,20,24,03,31,,,,,2.8,1.2,2.5*3D
$GPRMC,002138.999,A,1335.9827,S,07608.9433,W,30.71,203.70,160411,,,A*54
$GPGGA,002140.000,1335.9905,S,07608.9470,W,1,08,1.2,85.9,M,13.2,M,,0000*69
$GPGSA,M,3,19,11,32,23,20,24,03,31,,,,,2.8,1.2,2.5*3D
$GPGSV,3,1,12,19,68,015,32,11,51,188,40,32,48,208,39,23,46,335,36*74
$GPGSV,3,2,12,20,38,242,37,24,37,192,39,03,35,017,29,06,22,026,*7A
$GPGSV,3,3,12,31,16,085,35,13,11,332,27,14,05,144,29,28,03,250,28*7F
$GPRMC,002140.000,A,1335.9905,S,07608.9470,W,30.64,205.18,160411,,,A*58
$GPGGA,002141.001,1335.9982,S,07608.9506,W,1,08,1.2,85.6,M,13.2,M,,0000*69
$GPGSA,M,3,19,11,32,23,20,24,03,31,,,,,2.8,1.2,2.5*3D
$GPRMC,002141.001,A,1335.9982,S,07608.9506,W,30.00,203.84,160411,,,A*56
$GPGGA,002142.000,1336.0059,S,07608.9541,W,1,08,1.2,85.0,M,13.2,M,,0000*6B
$GPGSA,M,3,19,11,32,23,20,24,03,31,,,,,2.8,1.2,2.5*3D
$GPRMC,002142.000,A,1336.0059,S,07608.9541,W,30.50,202.83,160411,,,A*51
$GPGGA,002143.000,1336.0137,S,07608.9575,W,1,08,1.2,84.5,M,13.2,M,,0000*60
$GPGSA,M,3,19,11,32,23,20,24,03,31,,,,,2.8,1.2,2.5*3D
$GPRMC,002143.000,A,1336.0137,S,07608.9575,W,30.56,202.92,160411,,,A*58
$GPGGA,002144.000,1336.0217,S,07608.9608,W,1,08,1.2,84.1,M,13.2,M,,0000*6B
$GPGSA,M,3,19,11,32,23,20,24,03,31,,,,,2.8,1.2,2.5*3D
$GPRMC,002144.000,A,1336.0217,S,07608.9608,W,30.54,201.66,160411,,,A*5D
$GPGGA,002145.000,1336.0296,S,07608.9635,W,1,08,1.2,85.1,M,13.2,M,,0000*6C
$GPGSA,M,3,19,11,32,23,20,24,03,31,,,,,2.8,1.2,2.5*3D
$GPGSV,3,1,12,19,68,015,30,11,51,188,40,32,48,208,39,23,46,335,37*77
$GPGSV,3,2,12,20,38,242,37,24,37,192,40,03,35,017,30,06,22,026,*7C
$GPGSV,3,3,12,31,16,085,37,13,11,332,32,14,05,144,33,28,03,250,30*7B
$GPRMC,002145.000,A,1336.0296,S,07608.9635,W,29.92,199.65,160411,,,A*58
$GPGGA,002146.001,1336.0376,S,07608.9663,W,1,08,1.2,84.8,M,13.2,M,,0000*6A
$GPGSA,M,3,19,11,32,23,20,24,03,31,,,,,2.8,1.2,2.5*3D
$GPRMC,002146.001,A,1336.0376,S,07608.9663,W,30.04,198.98,160411,,,A*52
$GPGGA,002147.002,1336.0456,S,07608.9691,W,1,09,1.2,84.5,M,13.2,M,,0000*6C
$GPGSA,M,3,19,11,32,23,20,24,03,06,31,,,,2.6,1.2,2.3*33
$GPRMC,002147.002,A,1336.0456,S,07608.9691,W,30.24,198.96,160411,,,A*54
$GPGGA,002147.996,1336.0537,S,07608.9718,W,1,09,1.2,84.4,M,13.2,M,,0000*6F
$GPGSA,M,3,19,11,32,23,20,24,03,06,31,,,,2.6,1.2,2.3*33
$GPRMC,002147.996,A,1336.0537,S,07608.9718,W,30.20,197.39,160411,,,A*58
$GPGGA,002149.004,1336.0619,S,07608.9746,W,1,09,1.2,83.7,M,13.2,M,,0000*63
$GPGSA,M,3,19,11,32,23,20,24,03,06,31,,,,2.6,1.2,2.3*33
$GPRMC,002149.004,A,1336.0619,S,07608.9746,W,30.02,196.40,160411,,,A*5F
$GPGGA,002149.998,1336.0699,S,07608.9771,W,1,09,1.2,82.7,M,13.2,M,,0000*62
$GPGSA,M,3,19,11,32,23,20,24,03,06,31,,,,2.6,1.2,2.3*33
$GPGSV,3,1,12,19,68,015,26,11,51,188,38,32,48,208,40,23,46,335,37*71
$GPGSV,3,2,12,20,38,242,38,24,37,192,40,03,35,017,30,06,22,026,30*70
$GPGSV,3,3,12,31,16,085,37,13,11,332,30,14,05,144,,28,03,250,31*78
$GPRMC,002149.998,A,1336.0699,S,07608.9771,W,29.85,196.09,160411,,,A*55
$GPGGA,002151.003,1336.0780,S,07608.9796,W,1,09,1.2,81.8,M,13.2,M,,0000*6C
$GPGSA,M,3,19,11,32,23,20,24,03,06,31,,,,2.6,1.2,2.3*33
$GPRMC,002151.003,A,1336.0780,S,07608.9796,W,30.15,195.25,160411,,,A*5B
$GPGGA,002151.997,1336.0861,S,07608.9817,W,1,08,1.4,82.1,M,13.2,M,,0000*63
$GPGSA,M,3,11,32,23,20,24,03,06,31,,,,,3.9,1.4,3.7*36
$GPRMC,002151.997,A,1336.0861,S,07608.9817,W,30.03,194.34,160411,,,A*5F
$GPGGA,002152.999,1336.0942,S,07608.9837,W,1,08,1.4,81.9,M,13.2,M,,0000*67
$GPGSA,M,3,11,32,23,20,24,03,06,31,,,,,3.9,1.4,3.7*36
$GPRMC,002152.999,A,1336.0942,S,07608.9837,W,30.21,192.83,160411,,,A*5A
$GPGGA,002154.001,1336.1024,S,07608.9856,W,1,09,1.2,82.0,M,13.2,M,,0000*6B
$GPGSA,M,3,19,11,32,23,20,24,03,06,31,,,,2.6,1.2,2.3*33
$GPRMC,002154.001,A,1336.1024,S,07608.9856,W,29.96,192.67,160411,,,A*55
$GPGGA,002155.001,1336.1106,S,07608.9874,W,1,09,1.2,81.1,M,13.2,M,,0000*69
$GPGSA,M,3,19,11,32,23,20,24,03,06,31,,,,2.6,1.2,2.3*33
$GPGSV,3,1,12,19,68,015,24,11,51,188,39,32,48,208,40,23,46,335,36*73
$GPGSV,3,2,12,20,38,242,36,24,37,192,38,03,35,017,34,06,22,026,30*75
$GPGSV,3,3,12,31,16,085,36,13,11,332,26,14,05,144,,28,03,250,30*7F
$GPRMC,002155.001,A,1336.1106,S,07608.9874,W,30.24,190.45,160411,,,A*56
$GPGGA,002156.001,1336.1190,S,07608.9888,W,1,09,1.2,82.0,M,13.2,M,,0000*64
$GPGSA,M,3,19,11,32,23,20,24,03,06,31,,,,2.6,1.2,2.3*33
$GPRMC,002156.001,A,1336.1190,S,07608.9888,W,29.97,189.19,160411,,,A*58
$GPGGA,002157.001,1336.1272,S,07608.9905,W,1,09,1.2,80.7,M,13.2,M,,0000*6B
$GPGSA,M,3,19,11,32,23,20,24,03,06,31,,,,2.6,1.2,2.3*33
$GPRMC,002157.001,A,1336.1272,S,07608.9905,W,29.89,190.47,160411,,,A*5E
$GPGGA,002158.000,1336.1354,S,07608.9919,W,1,08,1.4,80.9,M,13.2,M,,0000*64
$GPGSA,M,3,11,32,23,20,24,03,06,31,,,,,3.9,1.4,3.7*36
$GPRMC,002158.000,A,1336.1354,S,07608.9919,W,30.23,190.06,160411,,,A*55
$GPGGA,002159.002,1336.1436,S,07608.9933,W,1,07,1.7,81.5,M,13.2,M,,0000*6D
$GPGSA,M,3,11,32,23,20,24,03,06,,,,,,4.3,1.7,4.0*3A
$GPRMC,002159.002,A,1336.1436,S,07608.9933,W,29.77,188.88,160411,,,A*5B
$GPGGA,002159.998,1336.1518,S,07608.9945,W,1,08,1.6,81.1,M,13.2,M,,0000*61
$GPGSA,M,3,19,11,32,23,20,24,03,06,,,,,2.9,1.6,2.5*3C
$GPGSV,3,1,12,19,68,015,27,11,51,188,38,32,48,208,40,23,46,335,26*70
$GPGSV,3,2,12,20,38,242,40,24,37,192,38,03,35,017,36,06,22,026,29*7E
$GPGSV,3,3,12,31,16,085,,13,11,332,33,14,05,144,,28,03,250,26*79
$GPRMC,002159.998,A,1336.1518,S,07608.9945,W,29.86,188.36,160411,,,A*56
$GPGGA,002201.001,1336.1599,S,07608.9953,W,1,08,1.2,81.3,M,13.2,M,,0000*6E
$GPGSA,M,3,19,11,32,23,20,24,03,31,,,,,2.8,1.2,2.5*3D
$GPRMC,002201.001,A,1336.1599,S,07608.9953,W,29.71,186.24,160411,,,A*5A
$GPGGA,002202.004,1336.1681,S,07608.9961,W,1,07,1.4,81.6,M,13.2,M,,0000*6F
$GPGSA,M,3,19,11,32,20,24,03,31,,,,,,2.9,1.4,2.5*3B
$GPRMC,002202.004,A,1336.1681,S,07608.9961,W,29.45,186.03,160411,,,A*55
$GPGGA,002202.998,1336.1760,S,07608.9969,W,1,06,1.6,81.0,M,13.2,M,,0000*60
$GPGSA,M,3,11,32,20,24,03,31,,,,,,,4.4,1.6,4.1*38
$GPRMC,002202.998,A,1336.1760,S,07608.9969,W,29.04,185.58,160411,,,A*57
$GPGGA,002204.003,1336.1842,S,07608.9978,W,1,06,1.6,81.3,M,13.2,M,,0000*61
$GPGSA,M,3,11,32,20,24,03,31,,,,,,,4.4,1.6,4.1*38
$GPRMC,002204.003,A,1336.1842,S,07608.9978,W,29.13,185.08,160411,,,A*56
$GPGGA,002204.999,1336.1922,S,07608.9988,W,1,07,1.5,79.7,M,13.2,M,,0000*62
$GPGSA,M,3,11,32,23,20,24,03,31,,,,,,4.2,1.5,4.0*3D
$GPGSV,3,1,12,19,68,015,,11,51,188,38,32,48,208,40,23,46,335,25*76
$GPGSV,3,2,12,20,38,242,36,24,37,192,37,03,35,017,32,06,22,026,25*78
$GPGSV,3,3,12,31,16,085,26,13,11,332,36,14,05,144,37,28,03,250,28*72
$GPRMC,002204.999,A,1336.1922,S,07608.9988,W,29.52,184.26,160411,,,A*5C
$GPGGA,002206.002,1336.2004,S,07608.9993,W,1,08,1.4,80.1,M,13.2,M,,0000*61
$GPGSA,M,3,11,32,23,20,24,03,06,31,,,,,3.9,1.4,3.7*36
$GPRMC,002206.002,A,1336.2004,S,07608.9993,W,29.51,184.76,160411,,,A*57
$GPGGA,002207.000,1336.2087,S,07609.0001,W,1,06,1.6,80.5,M,13.2,M,,0000*6B
$GPGSA,M,3,11,32,20,24,03,31,,,,,,,4.4,1.6,4.1*38
$GPRMC,002207.000,A,1336.2087,S,07609.0001,W,30.05,184.32,160411,,,A*5C
$GPGGA,002208.003,1336.2169,S,07609.0007,W,1,05,2.2,80.4,M,13.2,M,,0000*65
$GPGSA,M,3,11,32,20,24,03,,,,,,,,7.2,2.2,6.8*33
$GPRMC,002208.003,A,1336.2169,S,07609.0007,W,29.89,183.89,160411,,,A*5C
$GPGGA,002208.997,1336.2249,S,07609.0017,W,1,05,2.2,79.3,M,13.2,M,,0000*60
$GPGSA,M,3,11,32,20,24,03,,,,,,,,7.2,2.2,6.8*33
$GPRMC,002208.997,A,1336.2249,S,07609.0017,W,30.05,185.10,160411,,,A*52
$GPGGA,002210.001,1336.2332,S,07609.0027,W,1,06,1.8,79.6,M,13.2,M,,0000*6E
$GPGSA,M,3,11,32,23,20,24,03,,,,,,,5.8,1.8,5.5*3D
$GPGSV,3,1,12,19,68,015,,11,51,188,38,32,48,208,40,23,46,335,25*76
$GPGSV,3,2,12,20,38,242,36,24,37,192,37,03,35,017,30,06,22,026,*7D
$GPGSV,3,3,12,31,16,085,,13,11,332,36,14,05,144,40,28,03,250,*7C
$GPRMC,002210.001,A,1336.2332,S,07609.0027,W,30.00,185.32,160411,,,A*56
$GPGGA,002211.003,1336.2414,S,07609.0038,W,1,06,1.6,77.8,M,13.2,M,,0000*6E
$GPGSA,M,3,11,32,20,24,03,31,,,,,,,4.4,1.6,4.1*38
$GPRMC,002211.003,A,1336.2414,S,07609.0038,W,29.88,185.29,160411,,,A*5A
$GPGGA,002211.998,1336.2496,S,07609.0046,W,1,08,1.3,78.2,M,13.2,M,,0000*68
$GPGSA,M,3,19,11,32,20,24,03,06,31,,,,,2.6,1.3,2.3*33
$GPRMC,002211.998,A,1336.2496,S,07609.0046,W,30.10,184.47,160411,,,A*52
$GPGGA,002213.002,1336.2581,S,07609.0052,W,1,07,1.7,77.9,M,13.2,M,,0000*6D
$GPGSA,M,3,19,11,32,23,20,24,03,,,,,,3.8,1.7,3.4*3B
$GPRMC,002213.002,A,1336.2581,S,07609.0052,W,30.23,185.71,160411,,,A*5C
$GPGGA,002213.999,1336.2663,S,07609.0059,W,1,09,1.2,76.1,M,13.2,M,,0000*60
$GPGSA,M,3,19,11,32,23,20,24,03,06,31,,,,2.6,1.2,2.3*33
$GPRMC,002213.999,A,1336.2663,S,07609.0059,W,29.87,185.44,160411,,,A*53
$GPGGA,002214.999,1336.2746,S,07609.0059,W,1,07,2.0,78.0,M,13.2,M,,0000*61
$GPGSA,M,3,19,11,32,20,24,03,06,,,,,,3.2,2.0,2.5*32
$GPGSV,3,1,12,19,68,015,26,11,51,188,38,32,48,208,40,23,46,335,*75
$GPGSV,3,2,12,20,38,242,36,24,37,192,38,03,35,017,31,06,22,026,26*77
$GPGSV,3,3,12,31,16,085,,13,11,332,35,14,05,144,40,28,03,250,29*74
$GPRMC,002214.999,A,1336.2746,S,07609.0059,W,30.05,182.29,160411,,,A*5C
$GPGGA,002216.002,1336.2830,S,07609.0065,W,1,06,1.6,79.8,M,13.2,M,,0000*64
$GPGSA,M,3,11,32,20,24,03,31,,,,,,,4.4,1.6,4.1*38
$GPRMC,002216.002,A,1336.2830,S,07609.0065,W,29.90,184.84,160411,,,A*51
$GPGGA,002217.003,1336.2912,S,07609.0072,W,1,08,1.4,79.8,M,13.2,M,,0000*6F
$GPGSA,M,3,11,32,23,20,24,03,06,31,,,,,3.9,1.4,3.7*36
$GPRMC,002217.003,A,1336.2912,S,07609.0072,W,29.89,184.55,160411,,,A*52
$GPGGA,002218.001,1336.2994,S,07609.0079,W,1,08,1.4,79.2,M,13.2,M,,0000*6D
$GPGSA,M,3,11,32,23,20,24,03,06,31,,,,,3.9,1.4,3.7*36
$GPRMC,002218.001,A,1336.2994,S,07609.0079,W,29.76,184.65,160411,,,A*59
$GPGGA,002218.998,1336.3076,S,07609.0083,W,1,08,1.3,80.6,M,13.2,M,,0000*60
$GPGSA,M,3,19,11,32,20,24,03,06,31,,,,,2.6,1.3,2.3*33
$GPRMC,002218.998,A,1336.3076,S,07609.0083,W,30.03,185.08,160411,,,A*51
$GPGGA,002220.000,1336.3161,S,07609.0087,W,1,08,1.3,80.1,M,13.2,M,,0000*67
$GPGSA,M,3,19,11,32,20,24,03,06,31,,,,,2.6,1.3,2.3*33
$GPGSV,3,1,12,19,68,015,27,11,51,188,38,32,48,208,40,23,46,335,*74
$GPGSV,3,2,12,20,38,242,36,24,37,192,37,03,35,017,32,06,22,026,27*7A
$GPGSV,3,3,12,31,16,085,31,13,11,332,34,14,05,144,40,28,03,250,31*7E
$GPRMC,002220.000,A,1336.3161,S,07609.0087,W,29.75,184.66,160411,,,A*51
$GPGGA,002221.000,1336.3241,S,07609.0094,W,1,08,1.2,79.3,M,13.2,M,,0000*60
$GPGSA,M,3,19,11,32,23,20,24,03,31,,,,,2.8,1.2,2.5*3D
$GPRMC,002221.000,A,1336.3241,S,07609.0094,W,29.72,185.50,160411,,,A*50
$GPGGA,002222.000,1336.3324,S,07609.0096,W,1,08,1.3,82.7,M,13.2,M,,0000*62
$GPGSA,M,3,19,11,32,20,24,03,06,31,,,,,2.6,1.3,2.3*33
$GPRMC,002222.000,A,1336.3324,S,07609.0096,W,29.55,184.14,160411,,,A*57
$GPGGA,002223.003,1336.3406,S,07609.0103,W,1,07,1.5,82.5,M,13.2,M,,0000*61
$GPGSA,M,3,11,32,20,24,03,06,31,,,,,,4.2,1.5,3.9*34
$GPRMC,002223.003,A,1336.3406,S,07609.0103,W,29.72,185.75,160411,,,A*5C
$GPGGA,002223.996,1336.3490,S,07609.0107,W,1,09,1.2,84.8,M,13.2,M,,0000*6D
$GPGSA,M,3,19,11,32,23,20,24,03,06,31,,,,2.6,1.2,2.3*33
$GPRMC,002223.996,A,1336.3490,S,07609.0107,W,30.11,185.01,160411,,,A*5C
$GPGGA,002225.003,1336.3569,S,07609.0118,W,1,09,1.2,84.2,M,13.2,M,,0000*6D
$GPGSA,M,3,19,11,32,23,20,24,03,06,31,,,,2.6,1.2,2.3*33
$GPGSV,3,1,12,19,68,015,24,11,51,188,36,32,48,208,40,23,46,335,28*73
$GPGSV,3,2,12,20,38,242,36,24,37,192,38,03,35,017,31,06,22,026,26*77
$GPGSV,3,3,12,31,16,085,27,13,11,332,36,14,05,144,38,28,03,250,34*71
$GPRMC,002225.003,A,1336.3569,S,07609.0118,W,29.21,185.60,160411,,,A*5A
$GPGGA,002226.001,1336.3651,S,07609.0126,W,1,09,1.2,83.5,M,13.2,M,,0000*69
$GPGSA,M,3,19,11,32,23,20,24,03,06,31,,,,2.6,1.2,2.3*33
$GPRMC,002226.001,A,1336.3651,S,07609.0126,W,29.63,185.49,160411,,,A*53
$GPGGA,002227.000,1336.3730,S,07609.0134,W,1,09,1.2,83.9,M,13.2,M,,0000*60
$GPGSA,M,3,19,11,32,23,20,24,03,06,31,,,,2.6,1.2,2.3*33
$GPRMC,002227.000,A,1336.3730,S,07609.0134,W,28.92,186.05,160411,,,A*52
$GPGGA,002228.001,1336.3814,S,07609.0140,W,1,09,1.2,82.6,M,13.2,M,,0000*6A
$GPGSA,M,3,19,11,32,23,20,24,03,06,31,,,,2.6,1.2,2.3*33
$GPRMC,002228.001,A,1336.3814,S,07609.0140,W,29.00,185.42,160411,,,A*5C
$GPGGA,002229.003,1336.3893,S,07609.0145,W,1,07,1.5,82.7,M,13.2,M,,0000*6B
$GPGSA,M,3,11,32,20,24,03,06,31,,,,,,4.2,1.5,3.9*34
$GPRMC,002229.003,A,1336.3893,S,07609.0145,W,29.25,184.29,160411,,,A*5E
$GPGGA,002229.999,1336.3974,S,07609.0157,W,1,09,1.2,81.4,M,13.2,M,,0000*63
$GPGSA,M,3,19,11,32,23,20,24,03,06,31,,,,2.6,1.2,2.3*33
$GPGSV,3,1,12,19,68,015,26,11,51,188,39,32,48,208,41,23,46,335,26*71
$GPGSV,3,2,12,20,38,242,36,24,37,192,38,03,35,017,32,06,22,026,28*7A
$GPGSV,3,3,12,31,16,085,30,13,11,332,36,14,05,144,38,28,03,250,26*74
$GPRMC,002229.999,A,1336.3974,S,07609.0157,W,30.14,185.26,160411,,,A*5B
$GPGGA,002231.002,1336.4057,S,07609.0167,W,1,08,1.3,80.5,M,13.2,M,,0000*6D
$GPGSA,M,3,19,11,32,20,24,03,06,31,,,,,2.6,1.3,2.3*33
$GPRMC,002231.002,A,1336.4057,S,07609.0167,W,29.98,185.81,160411,,,A*54
$GPGGA,002231.999,1336.4140,S,07609.0171,W,1,09,1.2,83.8,M,13.2,M,,0000*68
$GPGSA,M,3,19,11,32,23,20,24,03,06,31,,,,2.6,1.2,2.3*33
$GPRMC,002231.999,A,1336.4140,S,07609.0171,W,29.97,185.23,160411,,,A*58
$GPGGA,002233.001,1336.4224,S,07609.0176,W,1,09,1.2,83.1,M,13.2,M,,0000*6D
$GPGSA,M,3,19,11,32,23,20,24,03,06,31,,,,2.6,1.2,2.3*33
$GPRMC,002233.001,A,1336.4224,S,07609.0176,W,29.70,185.59,160411,,,A*50
$GPGGA,002234.002,1336.4306,S,07609.0182,W,1,07,1.5,84.2,M,13.2,M,,0000*6E
$GPGSA,M,3,11,32,20,24,03,06,31,,,,,,4.2,1.5,3.9*34
$GPRMC,002234.002,A,1336.4306,S,07609.0182,W,30.81,185.38,160411,,,A*5F
$GPGGA,002234.999,1336.4392,S,07609.0191,W,1,08,1.3,83.0,M,13.2,M,,0000*66
$GPGSA,M,3,19,11,32,20,24,03,06,31,,,,,2.6,1.3,2.3*33
$GPGSV,3,1,12,19,68,015,24,11,51,188,37,32,48,208,40,23,46,335,*78
$GPGSV,3,2,12,20,38,242,36,24,37,192,38,03,35,017,31,06,22,026,28*79
$GPGSV,3,3,12,31,16,085,31,13,11,332,35,14,05,144,38,28,03,250,30*71
$GPRMC,002234.999,A,1336.4392,S,07609.0191,W,30.31,184.30,160411,,,A*59
$GPGGA,002236.002,1336.4475,S,07609.0201,W,1,07,1.5,81.3,M,13.2,M,,0000*63
$GPGSA,M,3,11,32,20,24,03,06,31,,,,,,4.2,1.5,3.9*34
$GPRMC,002236.002,A,1336.4475,S,07609.0201,W,30.75,183.22,160411,,,A*50
$GPGGA,002236.999,1336.4557,S,07609.0213,W,1,08,1.4,79.5,M,13.2,M,,0000*65
$GPGSA,M,3,11,32,23,20,24,03,06,31,,,,,3.9,1.4,3.7*36
$GPRMC,002236.999,A,1336.4557,S,07609.0213,W,30.69,183.49,160411,,,A*59
$GPGGA,002238.002,1336.4642,S,07609.0219,W,1,09,1.2,80.9,M,13.2,M,,0000*60
$GPGSA,M,3,19,11,32,23,20,24,03,06,31,,,,2.6,1.2,2.3*33
$GPRMC,002238.002,A,1336.4642,S,07609.0219,W,30.23,184.69,160411,,,A*5A
$GPGGA,002238.999,1336.4724,S,07609.0223,W,1,08,1.2,82.2,M,13.2,M,,0000*6B
$GPGSA,M,3,19,11,32,23,20,24,03,31,,,,,2.8,1.2,2.5*3D
$GPRMC,002238.999,A,1336.4724,S,07609.0223,W,30.02,184.43,160411,,,A*52
$GPGGA,002240.001,1336.4806,S,07609.0233,W,1,09,1.2,80.7,M,13.2,M,,0000*64
$GPGSA,M,3,19,11,32,23,20,24,03,06,31,,,,2.6,1.2,2.3*33
$GPGSV,3,1,12,19,68,015,17,11,51,188,39,32,48,208,40,23,46,335,22*76
$GPGSV,3,2,12,20,38,242,36,24,37,192,38,03,35,017,32,06,22,026,28*7A
$GPGSV,3,3,12,31,16,085,29,13,11,332,35,14,05,144,40,28,03,250,27*71
$GPRMC,002240.001,A,1336.4806,S,07609.0233,W,30.89,183.36,160411,,,A*5D
$GPGGA,002241.002,1336.4889,S,07609.0235,W,1,07,1.5,81.2,M,13.2,M,,0000*6A
$GPGSA,M,3,11,32,20,24,03,06,31,,,,,,4.2,1.5,3.9*34
$GPRMC,002241.002,A,1336.4889,S,07609.0235,W,30.05,183.24,160411,,,A*59
$GPGGA,002241.999,1336.4970,S,07609.0240,W,1,08,1.4,82.1,M,13.2,M,,0000*6A
$GPGSA,M,3,11,32,23,20,24,03,06,31,,,,,3.9,1.4,3.6*37
$GPRMC,002241.999,A,1336.4970,S,07609.0240,W,30.55,184.48,160411,,,A*5F
$GPGGA,002243.002,1336.5057,S,07609.0248,W,1,07,1.5,82.6,M,13.2,M,,0000*6F
$GPGSA,M,3,11,32,20,24,03,06,31,,,,,,4.2,1.5,3.9*34
$GPRMC,002243.002,A,1336.5057,S,07609.0248,W,30.21,185.13,160411,,,A*5F
$GPGGA,002244.002,1336.5136,S,07609.0256,W,1,07,1.5,83.3,M,13.2,M,,0000*65
$GPGSA,M,3,11,32,23,20,24,03,31,,,,,,4.2,1.5,3.9*33
$GPRMC,002244.002,A,1336.5136,S,07609.0256,W,29.93,185.03,160411,,,A*51
$GPGGA,002245.001,1336.5216,S,07609.0262,W,1,07,1.5,85.6,M,13.2,M,,0000*62
$GPGSA,M,3,11,32,23,20,24,03,31,,,,,,4.2,1.5,3.9*33
$GPGSV,3,1,12,19,68,015,,11,51,188,38,32,48,208,40,23,46,335,25*76
$GPGSV,3,2,12,20,38,242,36,24,37,192,37,03,35,017,32,06,22,026,*7F
$GPGSV,3,3,12,31,16,085,30,13,11,332,36,14,05,144,39,28,03,250,30*72
$GPRMC,002245.001,A,1336.5216,S,07609.0262,W,29.70,186.39,160411,,,A*52
$GPGGA,002245.999,1336.5295,S,07609.0270,W,1,07,1.7,87.7,M,13.2,M,,0000*63
$GPGSA,M,3,11,32,23,20,24,03,06,,,,,,4.3,1.7,3.9*34
$GPRMC,002245.999,A,1336.5295,S,07609.0270,W,30.12,185.28,160411,,,A*5D
$GPGGA,002247.001,1336.5382,S,07609.0274,W,1,06,1.6,89.1,M,13.2,M,,0000*62
$GPGSA,M,3,11,32,20,24,03,31,,,,,,,4.4,1.6,4.1*38
$GPRMC,002247.001,A,1336.5382,S,07609.0274,W,29.72,184.79,160411,,,A*5F
$GPGGA,002248.001,1336.5464,S,07609.0279,W,1,07,1.5,88.7,M,13.2,M,,0000*6A
$GPGSA,M,3,11,32,23,20,24,03,31,,,,,,4.2,1.5,3.9*33
$GPRMC,002248.001,A,1336.5464,S,07609.0279,W,29.91,184.05,160411,,,A*54
$GPGGA,002249.001,1336.5552,S,07609.0281,W,1,06,1.6,90.6,M,13.2,M,,0000*62
$GPGSA,M,3,11,32,20,24,03,31,,,,,,,4.4,1.6,4.1*38
$GPRMC,002249.001,A,1336.5552,S,07609.0281,W,29.57,184.04,160411,,,A*5D
$GPGGA,002250.003,1336.5634,S,07609.0285,W,1,07,1.5,90.5,M,13.2,M,,0000*6E
$GPGSA,M,3,11,32,20,24,03,06,31,,,,,,4.2,1.5,3.9*34
$GPGSV,3,1,12,19,68,015,,11,51,188,39,32,48,208,40,23,46,335,*70
$GPGSV,3,2,12,20,38,242,37,24,37,192,37,03,35,017,34,06,22,026,27*7D
$GPGSV,3,3,12,31,16,085,25,13,11,332,34,14,05,144,38,28,03,250,35*70
$GPRMC,002250.003,A,1336.5634,S,07609.0285,W,29.71,183.59,160411,,,A*5B
$GPGGA,002250.997,1336.5717,S,07609.0286,W,1,07,1.5,91.2,M,13.2,M,,0000*6F
$GPGSA,M,3,11,32,23,20,24,03,31,,,,,,4.2,1.5,3.9*33
$GPRMC,002250.997,A,1336.5717,S,07609.0286,W,29.90,183.56,160411,,,A*5C
$GPGGA,002252.004,1336.5800,S,07609.0291,W,1,07,1.5,91.0,M,13.2,M,,0000*63
$GPGSA,M,3,11,32,23,20,24,03,31,,,,,,4.2,1.5,3.9*33
$GPRMC,002252.004,A,1336.5800,S,07609.0291,W,29.66,184.84,160411,,,A*53
$GPGGA,002253.000,1336.5887,S,07609.0291,W,1,07,1.7,92.9,M,13.2,M,,0000*61
$GPGSA,M,3,19,11,32,23,20,24,03,,,,,,3.8,1.7,3.4*3B
$GPRMC,002253.000,A,1336.5887,S,07609.0291,W,29.88,185.58,160411,,,A*59
$GPGGA,002254.001,1336.5968,S,07609.0290,W,1,07,1.7,97.6,M,13.2,M,,0000*6C
$GPGSA,M,3,19,11,32,23,20,24,03,,,,,,3.8,1.7,3.4*3B
$GPRMC,002254.001,A,1336.5968,S,07609.0290,W,29.14,182.52,160411,,,A*56
$GPGGA,002255.001,1336.6046,S,07609.0292,W,1,08,1.2,99.9,M,13.2,M,,0000*62
$GPGSA,M,3,19,11,32,23,20,24,03,31,,,,,2.8,1.2,2.5*3D
$GPGSV,3,1,12,19,68,015,29,11,51,188,38,32,48,208,39,23,46,335,24*72
$GPGSV,3,2,12,20,38,242,38,24,37,192,39,03,35,017,29,06,22,026,*75
$GPGSV,3,3,12,31,16,085,27,13,11,332,30,14,05,144,,28,03,250,32*7A
$GPRMC,002255.001,A,1336.6046,S,07609.0292,W,27.25,184.95,160411,,,A*52
$GPGGA,002255.999,1336.6120,S,07609.0292,W,1,08,1.6,103.5,M,13.2,M,,0000*51
$GPGSA,M,3,19,11,32,23,20,24,03,06,,,,,2.9,1.6,2.4*3D
$GPRMC,002255.999,A,1336.6120,S,07609.0292,W,25.53,186.20,160411,,,A*54
$GPGGA,002257.000,1336.6186,S,07609.0300,W,1,09,1.2,105.2,M,13.2,M,,0000*58
$GPGSA,M,3,19,11,32,23,20,24,03,06,31,,,,2.6,1.2,2.3*33
$GPRMC,002257.000,A,1336.6186,S,07609.0300,W,25.72,185.39,160411,,,A*51
$GPGGA,002258.002,1336.6258,S,07609.0310,W,1,07,1.4,102.9,M,13.2,M,,0000*50
$GPGSA,M,3,19,11,32,20,24,03,31,,,,,,2.9,1.4,2.5*3B
$GPRMC,002258.002,A,1336.6258,S,07609.0310,W,24.74,183.12,160411,,,A*55
$GPGGA,002258.998,1336.6327,S,07609.0318,W,1,08,1.3,101.6,M,13.2,M,,0000*5F
$GPGSA,M,3,19,11,32,20,24,03,06,31,,,,,2.6,1.3,2.3*33
$GPRMC,002258.998,A,1336.6327,S,07609.0318,W,25.27,182.82,160411,,,A*51
$GPGGA,002300.000,1336.6398,S,07609.0323,W,1,08,1.3,100.3,M,13.2,M,,0000*53
$GPGSA,M,3,19,11,32,20,24,03,06,31,,,,,2.6,1.3,2.3*33
$GPGSV,3,1,12,19,68,015,28,11,51,188,37,32,48,208,39,23,46,335,*7A
$GPGSV,3,2,12,20,38,242,34,24,37,192,36,03,35,017,30,06,22,026,29*75
$GPGSV,3,3,12,31,16,085,28,13,11,332,29,14,05,144,38,28,03,250,33*77
$GPRMC,002300.000,A,1336.6398,S,07609.0323,W,26.00,185.71,160411,,,A*54
$GPGGA,002301.000,1336.6470,S,07609.0329,W,1,08,1.3,98.7,M,13.2,M,,0000*6D
$GPGSA,M,3,19,11,32,20,24,03,06,31,,,,,2.6,1.3,2.3*33
$GPRMC,002301.000,A,1336.6470,S,07609.0329,W,25.69,184.55,160411,,,A*55
$GPGGA,002302.000,1336.6544,S,07609.0333,W,1,09,1.2,99.0,M,13.2,M,,0000*65
$GPGSA,M,3,19,11,32,23,20,24,03,06,31,,,,2.6,1.2,2.3*33
$GPRMC,002302.000,A,1336.6544,S,07609.0333,W,25.84,181.85,160411,,,A*50
$GPGGA,002303.000,1336.6612,S,07609.0342,W,1,09,1.2,98.8,M,13.2,M,,0000*6B
$GPGSA,M,3,19,11,32,23,20,24,03,06,31,,,,2.6,1.2,2.3*33
$GPRMC,002303.000,A,1336.6612,S,07609.0342,W,24.74,186.01,160411,,,A*52
$GPGGA,002304.000,1336.6678,S,07609.0350,W,1,09,1.2,98.5,M,13.2,M,,0000*6E
$GPGSA,M,3,19,11,32,23,20,24,03,06,31,,,,2.6,1.2,2.3*33
$GPRMC,002304.000,A,1336.6678,S,07609.0350,W,23.54,182.53,160411,,,A*5C
$GPGGA,002305.002,1336.6740,S,07609.0356,W,1,08,1.2,98.1,M,13.2,M,,0000*64
$GPGSA,M,3,19,11,32,23,20,24,06,31,,,,,2.6,1.2,2.3*30
$GPGSV,3,1,12,19,68,015,33,11,51,188,37,32,48,208,39,23,46,335,35*76
$GPGSV,3,2,12,20,38,242,32,24,37,192,38,03,35,017,,06,22,026,31*77
$GPGSV,3,3,12,31,16,085,31,13,11,332,28,14,05,144,31,28,03,250,*77
$GPRMC,002305.002,A,1336.6740,S,07609.0356,W,22.30,183.99,160411,,,A*57
$GPGGA,002305.996,1336.6796,S,07609.0365,W,1,08,1.2,98.8,M,13.2,M,,0000*62
$GPGSA,M,3,19,11,32,23,20,24,06,31,,,,,2.6,1.2,2.3*30
$GPRMC,002305.996,A,1336.6796,S,07609.0365,W,21.19,182.09,160411,,,A*58
$GPGGA,002307.002,1336.6849,S,07609.0370,W,1,08,1.2,99.1,M,13.2,M,,0000*65
$GPGSA,M,3,19,11,32,23,20,24,06,31,,,,,2.6,1.2,2.3*30
$GPRMC,002307.002,A,1336.6849,S,07609.0370,W,18.36,183.05,160411,,,A*5D
$GPGGA,002307.998,1336.6896,S,07609.0375,W,1,08,1.2,98.6,M,13.2,M,,0000*6E
$GPGSA,M,3,19,11,32,23,20,24,06,31,,,,,2.6,1.2,2.3*30
$GPRMC,002307.998,A,1336.6896,S,07609.0375,W,17.32,183.99,160411,,,A*5E
$GPGGA,002309.000,1336.6944,S,07609.0376,W,1,08,1.2,99.4,M,13.2,M,,0000*66
$GPGSA,M,3,19,11,32,23,20,24,06,31,,,,,2.6,1.2,2.3*30
$GPRMC,002309.000,A,1336.6944,S,07609.0376,W,16.52,185.39,160411,,,A*5E
$GPGGA,002310.000,1336.6987,S,07609.0383,W,1,08,1.2,97.2,M,13.2,M,,0000*63
$GPGSA,M,3,19,11,32,23,20,24,06,31,,,,,2.6,1.2,2.3*30
$GPGSV,3,1,12,19,68,015,33,11,51,188,37,32,48,208,37,23,46,335,28*74
$GPGSV,3,2,12,20,38,242,31,24,37,192,37,03,35,017,,06,22,026,27*7C
$GPGSV,3,3,12,31,16,085,29,13,11,332,27,14,05,144,,28,03,250,30*70
$GPRMC,002310.000,A,1336.6987,S,07609.0383,W,15.33,185.94,160411,,,A*50
$GPGGA,002311.000,1336.7024,S,07609.0391,W,1,08,1.3,97.6,M,13.2,M,,0000*65
$GPGSA,M,3,19,11,32,20,24,03,06,31,,,,,2.6,1.3,2.3*33
$GPRMC,002311.000,A,1336.7024,S,07609.0391,W,14.49,186.60,160411,,,A*57
$GPGGA,002312.001,1336.7063,S,07609.0395,W,1,09,1.2,97.5,M,13.2,M,,0000*63
$GPGSA,M,3,19,11,32,23,20,24,03,06,31,,,,2.6,1.2,2.3*33
$GPRMC,002312.001,A,1336.7063,S,07609.0395,W,13.33,186.33,160411,,,A*5E
$GPGGA,002313.001,1336.7095,S,07609.0401,W,1,09,1.2,97.2,M,13.2,M,,0000*66
$GPGSA,M,3,19,11,32,23,20,24,03,06,31,,,,2.6,1.2,2.3*33
$GPRMC,002313.001,A,1336.7095,S,07609.0401,W,12.05,185.66,160411,,,A*5B
$GPGGA,002314.002,1336.7128,S,07609.0403,W,1,07,1.4,98.5,M,13.2,M,,0000*67
$GPGSA,M,3,19,11,32,20,24,06,31,,,,,,2.7,1.4,2.3*36
$GPRMC,002314.002,A,1336.7128,S,07609.0403,W,12.24,182.00,160411,,,A*5E
$GPGGA,002314.998,1336.7162,S,07609.0404,W,1,08,1.2,99.9,M,13.2,M,,0000*60
$GPGSA,M,3,19,11,32,23,20,24,06,31,,,,,2.6,1.2,2.3*30
$GPGSV,3,1,12,19,68,015,35,11,51,188,36,32,48,208,35,23,46,335,26*7F
$GPGSV,3,2,12,20,38,242,34,24,37,192,37,03,35,017,,06,22,026,30*7F
$GPGSV,3,3,12,31,16,085,35,13,11,332,29,14,05,144,,28,03,250,33*70
$GPRMC,002314.998,A,1336.7162,S,07609.0404,W,12.21,183.04,160411,,,A*5D
$GPGGA,002316.003,1336.7187,S,07609.0409,W,1,08,1.3,98.3,M,13.2,M,,0000*65
$GPGSA,M,3,19,11,32,20,24,03,06,31,,,,,2.6,1.3,2.3*33
$GPRMC,002316.003,A,1336.7187,S,07609.0409,W,11.94,184.30,160411,,,A*5F
$GPGGA,002316.998,1336.7222,S,07609.0416,W,1,08,1.2,96.7,M,13.2,M,,0000*67
$GPGSA,M,3,19,11,32,23,20,24,03,31,,,,,2.8,1.2,2.5*3D
$GPRMC,002316.998,A,1336.7222,S,07609.0416,W,12.19,187.99,160411,,,A*50
$GPGGA,002318.002,1336.7253,S,07609.0421,W,1,08,1.2,97.2,M,13.2,M,,0000*65
$GPGSA,M,3,19,11,32,23,20,24,03,31,,,,,2.8,1.2,2.5*3D
$GPRMC,002318.002,A,1336.7253,S,07609.0421,W,12.22,180.04,160411,,,A*5D
$GPGGA,002319.000,1336.7286,S,07609.0422,W,1,08,1.2,97.4,M,13.2,M,,0000*6B
$GPGSA,M,3,19,11,32,23,20,24,06,31,,,,,2.6,1.2,2.3*30
$GPRMC,002319.000,A,1336.7286,S,07609.0422,W,12.23,183.61,160411,,,A*54
$GPGGA,002320.000,1336.7318,S,07609.0421,W,1,08,1.3,99.4,M,13.2,M,,0000*6B
$GPGSA,M,3,19,11,32,20,24,03,06,31,,,,,2.6,1.3,2.3*33
$GPGSV,3,1,12,19,68,015,35,11,51,188,37,32,48,208,38,23,46,335,*77
$GPGSV,3,2,12,20,38,242,33,24,37,192,38,03,35,017,28,06,22,026,26*7A
$GPGSV,3,3,12,31,16,085,34,13,11,332,30,14,05,144,,28,03,250,30*7A
$GPRMC,002320.000,A,1336.7318,S,07609.0421,W,12.14,184.66,160411,,,A*5F
$GPGGA,002320.999,1336.7350,S,07609.0425,W,1,07,2.0,98.8,M,13.2,M,,0000*68
$GPGSA,M,3,19,11,32,20,24,03,06,,,,,,3.2,2.0,2.5*32
$GPRMC,002320.999,A,1336.7350,S,07609.0425,W,12.11,181.86,160411,,,A*50
$GPGGA,002321.998,1336.7385,S,07609.0427,W,1,08,1.2,98.1,M,13.2,M,,0000*65
$GPGSA,M,3,19,11,32,23,20,24,03,31,,,,,2.8,1.2,2.5*3D
$GPRMC,002321.998,A,1336.7385,S,07609.0427,W,12.46,181.25,160411,,,A*51
$GPGGA,002323.003,1336.7417,S,07609.0431,W,1,08,1.2,98.2,M,13.2,M,,0000*64
$GPGSA,M,3,19,11,32,23,20,24,03,31,,,,,2.8,1.2,2.5*3D
$GPRMC,002323.003,A,1336.7417,S,07609.0431,W,11.79,184.92,160411,,,A*55
$GPGGA,002324.000,1336.7444,S,07609.0436,W,1,08,1.2,97.1,M,13.2,M,,0000*6D
$GPGSA,M,3,19,11,32,23,20,24,03,31,,,,,2.8,1.2,2.5*3D
$GPRMC,002324.000,A,1336.7444,S,07609.0436,W,11.34,186.23,160411,,,A*51
$GPGGA,002325.000,1336.7472,S,07609.0443,W,1,09,1.2,97.7,M,13.2,M,,0000*6C
$GPGSA,M,3,19,11,32,23,20,24,03,06,31,,,,2.6,1.2,2.3*33
$GPGSV,3,1,12,19,68,015,34,11,51,188,37,32,48,208,38,23,46,335,28*7C
$GPGSV,3,2,12,20,38,242,33,24,37,192,38,03,35,017,28,06,22,026,28*74
$GPGSV,3,3,12,31,16,085,35,13,11,332,29,14,05,144,,28,03,250,*70
$GPRMC,002325.000,A,1336.7472,S,07609.0443,W,10.74,188.88,160411,,,A*5D
$GPGGA,002326.000,1336.7509,S,07609.0443,W,1,08,1.2,96.4,M,13.2,M,,0000*61
$GPGSA,M,3,19,11,32,23,20,24,03,31,,,,,2.8,1.2,2.5*3D
$GPRMC,002326.000,A,1336.7509,S,07609.0443,W,11.44,186.08,160411,,,A*57
$GPGGA,002326.998,1336.7539,S,07609.0449,W,1,09,1.2,95.8,M,13.2,M,,0000*6E
$GPGSA,M,3,19,11,32,23,20,24,03,06,31,,,,2.6,1.2,2.3*33
$GPRMC,002326.998,A,1336.7539,S,07609.0449,W,10.56,187.77,160411,,,A*5D
$GPGGA,002327.999,1336.7568,S,07609.0450,W,1,09,1.2,97.3,M,13.2,M,,0000*6B
$GPGSA,M,3,19,11,32,23,20,24,03,06,31,,,,2.6,1.2,2.3*33
$GPRMC,002327.999,A,1336.7568,S,07609.0450,W,10.73,184.86,160411,,,A*5B
$GPGGA,002329.002,1336.7596,S,07609.0459,W,1,08,1.2,96.3,M,13.2,M,,0000*66
$GPGSA,M,3,19,11,32,23,20,24,03,31,,,,,2.8,1.2,2.5*3D
$GPRMC,002329.002,A,1336.7596,S,07609.0459,W,11.07,188.78,160411,,,A*59
$GPGGA,002329.996,1336.7623,S,07609.0464,W,1,08,1.2,96.4,M,13.2,M,,0000*66
$GPGSA,M,3,19,11,32,23,20,24,06,31,,,,,2.6,1.2,2.3*30
$GPGSV,3,1,12,19,68,015,35,11,51,188,37,32,48,208,37,23,46,335,27*7D
$GPGSV,3,2,12,20,38,242,30,24,37,192,38,03,35,017,,06,22,026,27*72
$GPGSV,3,3,12,31,16,085,27,13,11,332,28,14,05,144,,28,03,250,32*73
$GPRMC,002329.996,A,1336.7623,S,07609.0464,W,10.46,184.38,160411,,,A*52
$GPGGA,002331.002,1336.7649,S,07609.0466,W,1,09,1.2,97.2,M,13.2,M,,0000*63
$GPGSA,M,3,19,11,32,23,20,24,03,06,31,,,,2.6,1.2,2.3*33
$GPRMC,002331.002,A,1336.7649,S,07609.0466,W,11.11,179.84,160411,,,A*57
$GPGGA,002331.998,1336.7682,S,07609.0466,W,1,08,1.6,97.0,M,13.2,M,,0000*69
$GPGSA,M,3,19,11,32,23,20,24,03,06,,,,,2.9,1.6,2.4*3D
$GPRMC,002331.998,A,1336.7682,S,07609.0466,W,10.92,182.46,160411,,,A*5A
$GPGGA,002333.002,1336.7712,S,07609.0471,W,1,09,1.2,95.6,M,13.2,M,,0000*6E
$GPGSA,M,3,19,11,32,23,20,24,03,06,31,,,,2.6,1.2,2.3*33
$GPRMC,002333.002,A,1336.7712,S,07609.0471,W,11.30,183.67,160411,,,A*57
$GPGGA,002333.998,1336.7742,S,07609.0473,W,1,08,1.2,96.0,M,13.2,M,,0000*67
$GPGSA,M,3,19,11,32,23,20,24,03,31,,,,,2.8,1.2,2.5*3D
$GPRMC,002333.998,A,1336.7742,S,07609.0473,W,11.55,181.18,160411,,,A*53
$GPGGA,002335.001,1336.7773,S,07609.0479,W,1,08,1.3,95.2,M,13.2,M,,0000*60
$GPGSA,M,3,19,11,32,20,24,03,06,31,,,,,2.6,1.3,2.3*33
$GPGSV,3,1,12,19,68,015,31,11,51,188,38,32,48,208,38,23,46,335,*7C
$GPGSV,3,2,12,20,38,242,32,24,37,192,37,03,35,017,31,06,22,026,26*7C
$GPGSV,3,3,12,31,16,085,31,13,11,332,30,14,05,144,28,28,03,250,30*75
$GPRMC,002335.001,A,1336.7773,S,07609.0479,W,11.60,188.10,160411,,,A*53
$GPGGA,002336.002,1336.7802,S,07609.0484,W,1,09,1.2,96.1,M,13.2,M,,0000*6B
$GPGSA,M,3,19,11,32,23,20,24,03,06,31,,,,2.6,1.2,2.3*33
$GPRMC,002336.002,A,1336.7802,S,07609.0484,W,11.79,187.46,160411,,,A*5C
$GPGGA,002336.999,1336.7834,S,07609.0489,W,1,09,1.2,93.8,M,13.2,M,,0000*64
$GPGSA,M,3,19,11,32,23,20,24,03,06,31,,,,2.6,1.2,2.3*33
$GPRMC,002336.999,A,1336.7834,S,07609.0489,W,12.13,182.67,160411,,,A*56
$GPGGA,002338.000,1336.7869,S,07609.0492,W,1,09,1.2,94.1,M,13.2,M,,0000*6F
$GPGSA,M,3,19,11,32,23,20,24,03,06,31,,,,2.6,1.2,2.3*33
$GPRMC,002338.000,A,1336.7869,S,07609.0492,W,12.82,184.22,160411,,,A*5C
$GPGGA,002338.999,1336.7904,S,07609.0500,W,1,08,1.2,91.6,M,13.2,M,,0000*65
$GPGSA,M,3,19,11,32,23,20,24,06,31,,,,,2.6,1.2,2.3*30
$GPRMC,002338.999,A,1336.7904,S,07609.0500,W,12.92,186.63,160411,,,A*53
$GPGGA,002340.001,1336.7943,S,07609.0502,W,1,09,1.2,90.9,M,13.2,M,,0000*6C
$GPGSA,M,3,19,11,32,23,20,24,03,06,31,,,,2.6,1.2,2.3*33
$GPGSV,3,1,12,19,68,015,31,11,51,188,40,32,48,208,40,23,46,335,30*7F
$GPGSV,3,2,12,20,38,242,35,24,37,192,38,03,35,017,30,06,22,026,29*7A
$GPGSV,3,3,12,31,16,085,35,13,11,332,31,14,05,144,35,28,03,250,*7F
$GPRMC,002340.001,A,1336.7943,S,07609.0502,W,13.26,184.48,160411,,,A*50
$GPGGA,002341.003,1336.7982,S,07609.0501,W,1,09,1.2,91.4,M,13.2,M,,0000*6D
$GPGSA,M,3,19,11,32,23,20,24,03,06,31,,,,2.6,1.2,2.3*33
$GPRMC,002341.003,A,1336.7982,S,07609.0501,W,14.37,181.88,160411,,,A*53
$GPGGA,002341.998,1336.8020,S,07609.0505,W,1,09,1.2,90.3,M,13.2,M,,0000*6A
$GPGSA,M,3,19,11,32,23,20,24,03,06,31,,,,2.6,1.2,2.3*33
$GPRMC,002341.998,A,1336.8020,S,07609.0505,W,14.34,184.00,160411,,,A*54
$GPGGA,002343.000,1336.8061,S,07609.0509,W,1,09,1.2,90.5,M,13.2,M,,0000*6F
$GPGSA,M,3,19,11,32,23,20,24,03,06,31,,,,2.6,1.2,2.3*33
$GPRMC,002343.000,A,1336.8061,S,07609.0509,W,15.17,181.30,160411,,,A*51
$GPGGA,002344.002,1336.8103,S,07609.0503,W,1,08,1.3,92.1,M,13.2,M,,0000*63
$GPGSA,M,3,19,11,32,20,24,03,06,31,,,,,2.6,1.3,2.3*33
$GPRMC,002344.002,A,1336.8103,S,07609.0503,W,14.80,180.65,160411,,,A*55
$GPGGA,002344.999,1336.8147,S,07609.0503,W,1,07,1.4,92.6,M,13.2,M,,0000*67
$GPGSA,M,3,19,11,32,20,24,06,31,,,,,,2.7,1.4,2.3*36
$GPGSV,3,1,12,19,68,015,29,11,51,188,39,32,48,208,40,23,46,335,*7B
$GPGSV,3,2,12,20,38,242,36,24,37,192,38,03,35,017,,06,22,026,29*7A
$GPGSV,3,3,12,31,16,085,33,13,11,332,32,14,05,144,39,28,03,250,*76
$GPRMC,002344.999,A,1336.8147,S,07609.0503,W,16.21,182.51,160411,,,A*52
$GPGGA,002345.997,1336.8191,S,07609.0508,W,1,09,1.2,92.6,M,13.2,M,,0000*60
$GPGSA,M,3,19,11,32,23,20,24,03,06,31,,,,2.6,1.2,2.3*33
$GPRMC,002345.997,A,1336.8191,S,07609.0508,W,16.26,185.56,160411,,,A*5A
$GPGGA,002347.000,1336.8238,S,07609.0510,W,1,09,1.2,93.2,M,13.2,M,,0000*69
$GPGSA,M,3,19,11,32,23,20,24,03,06,31,,,,2.6,1.2,2.3*33
$GPRMC,002347.000,A,1336.8238,S,07609.0510,W,16.21,183.69,160411,,,A*5B
$GPGGA,002348.002,1336.8280,S,07609.0514,W,1,08,1.2,93.2,M,13.2,M,,0000*62
$GPGSA,M,3,19,11,32,23,20,24,03,31,,,,,2.8,1.2,2.5*3D
$GPRMC,002348.002,A,1336.8280,S,07609.0514,W,16.89,184.31,160411,,,A*59
$GPGGA,002349.002,1336.8328,S,07609.0514,W,1,07,1.5,94.9,M,13.2,M,,0000*64
$GPGSA,M,3,11,32,23,20,24,03,31,,,,,,4.2,1.5,3.9*33
$GPRMC,002349.002,A,1336.8328,S,07609.0514,W,17.47,184.30,160411,,,A*59
$GPGGA,002350.000,1336.8377,S,07609.0520,W,1,07,1.4,93.5,M,13.2,M,,0000*69
$GPGSA,M,3,19,11,32,20,24,03,31,,,,,,2.9,1.4,2.5*3B
$GPGSV,3,1,12,19,68,015,29,11,51,188,37,32,48,208,40,23,46,335,*75
$GPGSV,3,2,12,20,38,242,36,24,37,192,38,03,35,017,32,06,22,026,*70
$GPGSV,3,3,12,31,16,085,31,13,11,332,33,14,05,144,40,28,03,250,28*71
$GPRMC,002350.000,A,1336.8377,S,07609.0520,W,18.40,183.62,160411,,,A*56
$GPGGA,002350.998,1336.8425,S,07609.0524,W,1,08,1.3,94.1,M,13.2,M,,0000*6E
$GPGSA,M,3,19,11,32,20,24,03,06,31,,,,,2.6,1.3,2.3*33
$GPRMC,002350.998,A,1336.8425,S,07609.0524,W,18.37,185.16,160411,,,A*5F
$GPGGA,002352.000,1336.8477,S,07609.0525,W,1,08,1.2,94.8,M,13.2,M,,0000*6A
$GPGSA,M,3,19,11,32,23,20,24,03,31,,,,,2.8,1.2,2.5*3D
$GPRMC,002352.000,A,1336.8477,S,07609.0525,W,19.79,184.68,160411,,,A*50
$GPGGA,002353.002,1336.8531,S,07609.0529,W,1,07,1.4,95.4,M,13.2,M,,0000*62
$GPGSA,M,3,19,11,32,20,24,03,31,,,,,,2.9,1.4,2.5*3B
$GPRMC,002353.002,A,1336.8531,S,07609.0529,W,19.74,184.97,160411,,,A*51
$GPGGA,002353.998,1336.8588,S,07609.0532,W,1,08,1.3,95.6,M,13.2,M,,0000*6A
$GPGSA,M,3,19,11,32,23,20,24,03,31,,,,,2.8,1.3,2.5*3C
$GPRMC,002353.998,A,1336.8588,S,07609.0532,W,20.34,183.78,160411,,,A*5B
$GPGGA,002355.002,1336.8643,S,07609.0535,W,1,07,1.4,96.5,M,13.2,M,,0000*6D
$GPGSA,M,3,19,11,32,20,24,03,31,,,,,,2.9,1.4,2.5*3B
$GPGSV,3,1,12,19,68,015,30,11,51,188,39,32,48,208,40,23,46,335,*73
$GPGSV,3,2,12,20,38,242,37,24,37,192,38,03,35,017,33,06,22,026,*70
$GPGSV,3,3,12,31,16,085,32,13,11,332,35,14,05,144,38,28,03,250,33*71
$GPRMC,002355.002,A,1336.8643,S,07609.0535,W,20.52,184.71,160411,,,A*5A
$GPGGA,002356.000,1336.8700,S,07609.0542,W,1,07,1.7,96.0,M,13.2,M,,0000*6C
$GPGSA,M,3,19,11,32,23,24,03,31,,,,,,3.6,1.7,3.2*33
$GPRMC,002356.000,A,1336.8700,S,07609.0542,W,20.93,185.78,160411,,,A*58
$GPGGA,002356.998,1336.8759,S,07609.0546,W,1,08,1.3,96.7,M,13.2,M,,0000*60
$GPGSA,M,3,19,11,32,23,20,24,03,31,,,,,2.8,1.3,2.5*3C
$GPRMC,002356.998,A,1336.8759,S,07609.0546,W,22.26,184.91,160411,,,A*52
$GPGGA,002358.000,1336.8820,S,07609.0552,W,1,08,1.3,97.3,M,13.2,M,,0000*67
$GPGSA,M,3,19,11,32,23,20,24,03,31,,,,,2.8,1.3,2.5*3C
$GPRMC,002358.000,A,1336.8820,S,07609.0552,W,22.54,184.32,160411,,,A*5C
$GPGGA,002359.002,1336.8886,S,07609.0552,W,1,07,1.4,97.2,M,13.2,M,,0000*61
$GPGSA,M,3,19,11,32,20,24,03,31,,,,,,2.9,1.4,2.5*3B
$GPRMC,002359.002,A,1336.8886,S,07609.0552,W,23.45,185.42,160411,,,A*54
$GPGGA,002359.998,1336.8949,S,07609.0563,W,1,08,1.3,94.8,M,13.2,M,,0000*6A
$GPGSA,M,3,19,11,32,23,20,24,03,31,,,,,2.8,1.3,2.5*3C
$GPGSV,3,1,12,19,68,015,33,11,51,188,40,32,48,208,40,23,46,335,26*7A
$GPGSV,3,2,12,20,38,242,37,24,37,192,39,03,35,017,33,06,22,026,*71
$GPGSV,3,3,12,31,16,085,34,13,11,332,36,14,05,144,37,28,03,250,34*7C
$GPRMC,002359.998,A,1336.8949,S,07609.0563,W,24.14,183.78,160411,,,A*52
$GPGGA,002400.999,1336.9017,S,07609.0568,W,1,08,1.3,94.3,M,13.2,M,,0000*63
$GPGSA,M,3,19,11,32,23,20,24,03,31,,,,,2.8,1.3,2.5*3C
$GPRMC,002400.999,A,1336.9017,S,07609.0568,W,24.48,185.70,160411,,,A*57
$GPGGA,002401.998,1336.9089,S,07609.0571,W,1,07,1.4,92.8,M,13.2,M,,0000*69
$GPGSA,M,3,19,11,32,20,24,03,31,,,,,,2.9,1.4,2.5*3B
$GPRMC,002401.998,A,1336.9089,S,07609.0571,W,25.59,183.35,160411,,,A*5E
$GPGGA,002403.001,1336.9160,S,07609.0580,W,1,08,1.3,91.8,M,13.2,M,,0000*61
$GPGSA,M,3,19,11,32,23,20,24,03,31,,,,,2.8,1.3,2.5*3C
$GPRMC,002403.001,A,1336.9160,S,07609.0580,W,25.66,185.32,160411,,,A*50
$GPGGA,002404.000,1336.9231,S,07609.0587,W,1,08,1.3,91.5,M,13.2,M,,0000*6A
$GPGSA,M,3,19,11,32,23,20,24,03,31,,,,,2.8,1.3,2.5*3C
$GPRMC,002404.000,A,1336.9231,S,07609.0587,W,26.36,185.17,160411,,,A*57
$GPGGA,002405.000,1336.9304,S,07609.0599,W,1,08,1.3,90.4,M,13.2,M,,0000*63
$GPGSA,M,3,19,11,32,23,20,24,03,31,,,,,2.8,1.3,2.5*3C
$GPGSV,3,1,12,19,68,015,33,11,51,188,40,32,48,208,40,23,46,335,27*7B
$GPGSV,3,2,12,20,38,242,38,24,37,192,39,03,35,017,33,06,22,026,*7E
$GPGSV,3,3,12,31,16,085,35,13,11,332,36,14,05,144,28,28,03,250,27*71
$GPRMC,002405.000,A,1336.9304,S,07609.0599,W,26.62,186.13,160411,,,A*58
$GPGGA,002406.000,1336.9378,S,07609.0604,W,1,08,1.3,90.6,M,13.2,M,,0000*6E
$GPGSA,M,3,19,11,32,23,20,24,03,31,,,,,2.8,1.3,2.5*3C
$GPRMC,002406.000,A,1336.9378,S,07609.0604,W,27.20,186.27,160411,,,A*57
$GPGGA,002406.999,1336.9455,S,07609.0616,W,1,08,1.3,87.7,M,13.2,M,,0000*6B
$GPGSA,M,3,19,11,32,23,20,24,03,31,,,,,2.8,1.3,2.5*3C
$GPRMC,002406.999,A,1336.9455,S,07609.0616,W,26.79,185.87,160411,,,A*51
$GPGGA,002408.000,1336.9532,S,07609.0618,W,1,08,1.3,87.6,M,13.2,M,,0000*63
$GPGSA,M,3,19,11,32,23,20,24,03,31,,,,,2.8,1.3,2.5*3C
$GPRMC,002408.000,A,1336.9532,S,07609.0618,W,27.60,184.90,160411,,,A*56
$GPGGA,002408.999,1336.9612,S,07609.0623,W,1,08,1.3,87.2,M,13.2,M,,0000*67
$GPGSA,M,3,19,11,32,23,20,24,03,31,,,,,2.8,1.3,2.5*3C
$GPRMC,002408.999,A,1336.9612,S,07609.0623,W,28.05,185.35,160411,,,A*54
$GPGGA,002410.000,1336.9689,S,07609.0630,W,1,08,1.3,86.5,M,13.2,M,,0000*61
$GPGSA,M,3,19,11,32,23,20,24,03,31,,,,,2.8,1.3,2.5*3C
$GPGSV,3,1,12,19,68,015,34,11,51,188,41,32,48,208,41,23,46,335,27*7C
$GPGSV,3,2,12,20,38,242,38,24,37,192,38,03,35,017,31,06,22,026,*7D
$GPGSV,3,3,12,31,16,085,34,13,11,332,37,14,05,144,36,28,03,250,31*79
$GPRMC,002410.000,A,1336.9689,S,07609.0630,W,27.75,186.20,160411,,,A*5B
$GPGGA,002411.000,1336.9766,S,07609.0639,W,1,08,1.3,86.2,M,13.2,M,,0000*6E
$GPGSA,M,3,19,11,32,23,20,24,03,31,,,,,2.8,1.3,2.5*3C
$GPRMC,002411.000,A,1336.9766,S,07609.0639,W,28.22,185.56,160411,,,A*5C
$GPGGA,002412.000,1336.9843,S,07609.0649,W,1,08,1.3,85.5,M,13.2,M,,0000*66
$GPGSA,M,3,19,11,32,23,20,24,03,31,,,,,2.8,1.3,2.5*3C
$GPRMC,002412.000,A,1336.9843,S,07609.0649,W,28.49,185.17,160411,,,A*58
$GPGGA,002413.000,1336.9919,S,07609.0654,W,1,08,1.3,85.8,M,13.2,M,,0000*68
$GPGSA,M,3,19,11,32,23,20,24,03,31,,,,,2.8,1.3,2.5*3C
$GPRMC,002413.000,A,1336.9919,S,07609.0654,W,28.32,184.28,160411,,,A*5A
$GPGGA,002413.998,1336.9997,S,07609.0660,W,1,09,1.2,87.3,M,13.2,M,,0000*68
$GPGSA,M,3,19,11,32,23,20,24,03,06,31,,,,2.6,1.2,2.3*33
$GPRMC,002413.998,A,1336.9997,S,07609.0660,W,27.98,184.82,160411,,,A*5C
$GPGGA,002415.004,1337.0075,S,07609.0668,W,1,07,1.4,87.0,M,13.2,M,,0000*6C
$GPGSA,M,3,19,11,32,20,24,03,31,,,,,,2.9,1.4,2.5*3B
$GPGSV,3,1,12,19,68,015,32,11,51,188,40,32,48,208,39,23,46,335,*71
$GPGSV,3,2,12,20,38,242,36,24,37,192,39,03,35,017,33,06,22,026,*70
$GPGSV,3,3,12,31,16,085,33,13,11,332,36,14,05,144,38,28,03,250,33*73
$GPRMC,002415.004,A,1337.0075,S,07609.0668,W,28.04,185.44,160411,,,A*52
$GPGGA,002415.998,1337.0152,S,07609.0674,W,1,08,1.3,87.0,M,13.2,M,,0000*61
$GPGSA,M,3,19,11,32,23,20,24,03,31,,,,,2.8,1.3,2.5*3C
$GPRMC,002415.998,A,1337.0152,S,07609.0674,W,27.88,186.19,160411,,,A*57
$GPGGA,002417.003,1337.0231,S,07609.0679,W,1,07,1.4,87.0,M,13.2,M,,0000*6B
$GPGSA,M,3,19,11,32,20,24,03,31,,,,,,2.9,1.4,2.5*3B
$GPRMC,002417.003,A,1337.0231,S,07609.0679,W,28.38,183.81,160411,,,A*55
$GPGGA,002417.998,1337.0308,S,07609.0688,W,1,07,1.4,86.6,M,13.2,M,,0000*62
$GPGSA,M,3,19,11,32,20,24,03,31,,,,,,2.9,1.4,2.5*3B
$GPRMC,002417.998,A,1337.0308,S,07609.0688,W,28.20,184.79,160411,,,A*52
$GPGGA,002419.001,1337.0386,S,07609.0693,W,1,07,1.4,85.7,M,13.2,M,,0000*6B
$GPGSA,M,3,19,11,32,20,24,03,31,,,,,,2.9,1.4,2.5*3B
$GPRMC,002419.001,A,1337.0386,S,07609.0693,W,28.47,184.59,160411,,,A*5A
$GPGGA,002420.000,1337.0463,S,07609.0698,W,1,08,1.3,85.1,M,13.2,M,,0000*69
$GPGSA,M,3,19,11,32,23,20,24,03,31,,,,,2.8,1.3,2.5*3C
$GPGSV,3,1,12,19,68,015,30,11,51,188,40,32,48,208,40,23,46,335,25*7A
$GPGSV,3,2,12,20,38,242,36,24,37,192,39,03,35,017,35,06,22,026,*76
$GPGSV,3,3,12,31,16,085,33,13,11,332,35,14,05,144,38,28,03,250,*70
$GPRMC,002420.000,A,1337.0463,S,07609.0698,W,28.66,185.00,160411,,,A*58
$GPGGA,002421.000,1337.0540,S,07609.0706,W,1,07,1.4,84.9,M,13.2,M,,0000*6F
$GPGSA,M,3,19,11,32,20,24,03,31,,,,,,2.9,1.4,2.5*3B
$GPRMC,002421.000,A,1337.0540,S,07609.0706,W,28.87,185.70,160411,,,A*57
$GPGGA,002422.002,1337.0618,S,07609.0718,W,1,07,1.4,83.6,M,13.2,M,,0000*67
$GPGSA,M,3,19,11,32,20,24,03,31,,,,,,2.9,1.4,2.5*3B
$GPRMC,002422.002,A,1337.0618,S,07609.0718,W,28.65,184.48,160411,,,A*51
$GPGGA,002422.998,1337.0696,S,07609.0726,W,1,07,1.4,82.4,M,13.2,M,,0000*65
$GPGSA,M,3,19,11,32,20,24,03,31,,,,,,2.9,1.4,2.5*3B
$GPRMC,002422.998,A,1337.0696,S,07609.0726,W,28.79,185.46,160411,,,A*52
$GPGGA,002424.001,1337.0778,S,07609.0732,W,1,07,1.4,82.2,M,13.2,M,,0000*68
$GPGSA,M,3,19,11,32,20,24,03,31,,,,,,2.9,1.4,2.5*3B
$GPRMC,002424.001,A,1337.0778,S,07609.0732,W,29.00,185.43,160411,,,A*53
$GPGGA,002424.999,1337.0859,S,07609.0740,W,1,07,1.4,81.4,M,13.2,M,,0000*6C
$GPGSA,M,3,19,11,32,20,24,03,31,,,,,,2.9,1.4,2.5*3B
$GPGSV,3,1,12,19,66,014,30,11,52,187,39,32,48,206,40,23,47,334,*7E
$GPGSV,3,2,12,20,38,240,37,24,38,191,38,03,33,017,32,06,20,026,*7B
$GPGSV,3,3,12,31,16,086,34,13,12,332,34,28,03,251,38,14,03,144,38*7A
$GPRMC,002424.999,A,1337.0859,S,07609.0740,W,28.54,184.73,160411,,,A*50
$GPGGA,002426.002,1337.0937,S,07609.0746,W,1,07,1.4,79.9,M,13.2,M,,0000*60
$GPGSA,M,3,19,11,32,20,24,03,31,,,,,,2.9,1.4,2.5*3B
$GPRMC,002426.002,A,1337.0937,S,07609.0746,W,28.78,184.39,160411,,,A*56
$GPGGA,002426.993,1337.1016,S,07609.0751,W,1,07,1.4,78.2,M,13.2,M,,0000*66
$GPGSA,M,3,19,11,32,20,24,03,31,,,,,,2.9,1.4,2.5*3B
$GPRMC,002426.993,A,1337.1016,S,07609.0751,W,28.87,185.18,160411,,,A*58
$GPGGA,002428.000,1337.1098,S,07609.0755,W,1,07,1.4,79.9,M,13.2,M,,0000*63
$GPGSA,M,3,19,11,32,20,24,03,31,,,,,,2.9,1.4,2.5*3B
$GPRMC,002428.000,A,1337.1098,S,07609.0755,W,28.96,186.00,160411,,,A*5D
$GPGGA,002429.000,1337.1180,S,07609.0759,W,1,07,1.4,81.2,M,13.2,M,,0000*6A
$GPGSA,M,3,19,11,32,20,24,03,31,,,,,,2.9,1.4,2.5*3B
$GPRMC,002429.000,A,1337.1180,S,07609.0759,W,28.81,185.28,160411,,,A*57
$GPGGA,002430.000,1337.1259,S,07609.0766,W,1,07,1.4,81.1,M,13.2,M,,0000*6A
$GPGSA,M,3,19,11,32,20,24,03,31,,,,,,2.9,1.4,2.5*3B
$GPGSV,3,1,12,19,66,014,30,11,52,187,38,32,48,206,40,23,47,334,*7F
$GPGSV,3,2,12,20,38,240,36,24,38,191,38,03,33,017,32,06,20,026,*7A
$GPGSV,3,3,12,31,16,086,34,13,12,332,35,28,03,251,35,14,03,144,38*76
$GPRMC,002430.000,A,1337.1259,S,07609.0766,W,29.52,184.72,160411,,,A*55
$GPGGA,002431.000,1337.1338,S,07609.0773,W,1,07,1.4,81.2,M,13.2,M,,0000*6A
$GPGSA,M,3,19,11,32,20,24,03,31,,,,,,2.9,1.4,2.5*3B
$GPRMC,002431.000,A,1337.1338,S,07609.0773,W,29.37,184.40,160411,,,A*54
$GPGGA,002432.000,1337.1418,S,07609.0781,W,1,07,1.4,80.7,M,13.2,M,,0000*65
$GPGSA,M,3,19,11,32,20,24,03,31,,,,,,2.9,1.4,2.5*3B
$GPRMC,002432.000,A,1337.1418,S,07609.0781,W,29.33,185.56,160411,,,A*5D
$GPGGA,002433.002,1337.1497,S,07609.0789,W,1,08,1.3,80.0,M,13.2,M,,0000*66
$GPGSA,M,3,19,11,32,23,20,24,03,31,,,,,2.8,1.3,2.5*3C
$GPRMC,002433.002,A,1337.1497,S,07609.0789,W,29.40,184.37,160411,,,A*53
$GPGGA,002433.999,1337.1580,S,07609.0801,W,1,07,1.4,76.9,M,13.2,M,,0000*6D
$GPGSA,M,3,19,11,32,20,24,03,31,,,,,,2.9,1.4,2.5*3B
$GPRMC,002433.999,A,1337.1580,S,07609.0801,W,29.25,184.79,160411,,,A*59
$GPGGA,002434.998,1337.1658,S,07609.0806,W,1,07,1.4,77.2,M,13.2,M,,0000*60
$GPGSA,M,3,19,11,32,20,24,03,31,,,,,,2.9,1.4,2.5*3B
$GPGSV,3,1,12,19,66,014,30,11,52,187,38,32,48,206,40,23,47,334,*7F
$GPGSV,3,2,12,20,38,240,36,24,38,191,39,03,33,017,33,06,20,026,*7A
$GPGSV,3,3,12,31,16,086,32,13,12,332,35,28,03,251,27,14,03,144,39*72
$GPRMC,002434.998,A,1337.1658,S,07609.0806,W,29.21,184.90,160411,,,A*5D
$GPGGA,002436.000,1337.1736,S,07609.0820,W,1,07,1.4,76.9,M,13.2,M,,0000*6D
$GPGSA,M,3,19,11,32,20,24,03,31,,,,,,2.9,1.4,2.5*3B
$GPRMC,002436.000,A,1337.1736,S,07609.0820,W,29.01,185.57,160411,,,A*52
$GPGGA,002437.000,1337.1817,S,07609.0830,W,1,07,1.4,76.0,M,13.2,M,,0000*68
$GPGSA,M,3,19,11,32,20,24,03,31,,,,,,2.9,1.4,2.5*3B
$GPRMC,002437.000,A,1337.1817,S,07609.0830,W,29.12,184.17,160411,,,A*59
$GPGGA,002438.003,1337.1896,S,07609.0837,W,1,07,1.4,75.7,M,13.2,M,,0000*6E
$GPGSA,M,3,19,11,32,20,24,03,31,,,,,,2.9,1.4,2.5*3B
$GPRMC,002438.003,A,1337.1896,S,07609.0837,W,29.45,183.99,160411,,,A*58
$GPGGA,002439.000,1337.1976,S,07609.0845,W,1,07,1.4,75.0,M,13.2,M,,0000*61
$GPGSA,M,3,19,11,32,20,24,03,31,,,,,,2.9,1.4,2.5*3B
$GPRMC,002439.000,A,1337.1976,S,07609.0845,W,29.23,185.61,160411,,,A*51
$GPGGA,002440.000,1337.2057,S,07609.0851,W,1,07,1.4,74.1,M,13.2,M,,0000*63
$GPGSA,M,3,19,11,32,20,24,03,31,,,,,,2.9,1.4,2.5*3B
$GPGSV,3,1,12,19,66,014,31,11,52,187,39,32,48,206,41,23,47,334,*7E
$GPGSV,3,2,12,20,38,240,36,24,38,191,39,03,33,017,33,06,20,026,*7A
$GPGSV,3,3,12,31,16,086,34,13,12,332,34,28,03,251,32,14,03,144,40*7F
$GPRMC,002440.000,A,1337.2057,S,07609.0851,W,29.58,184.60,160411,,,A*5F
$GPGGA,002441.000,1337.2140,S,07609.0858,W,1,07,1.4,73.2,M,13.2,M,,0000*68
$GPGSA,M,3,19,11,32,20,24,03,31,,,,,,2.9,1.4,2.5*3B
$GPRMC,002441.000,A,1337.2140,S,07609.0858,W,29.48,184.58,160411,,,A*5A
$GPGGA,002442.000,1337.2220,S,07609.0869,W,1,07,1.4,72.2,M,13.2,M,,0000*6D
$GPGSA,M,3,19,11,32,20,24,03,31,,,,,,2.9,1.4,2.5*3B
$GPRMC,002442.000,A,1337.2220,S,07609.0869,W,30.02,186.81,160411,,,A*5E
$GPGGA,002443.000,1337.2302,S,07609.0882,W,1,07,1.4,70.7,M,13.2,M,,0000*6F
$GPGSA,M,3,19,11,32,20,24,03,31,,,,,,2.9,1.4,2.5*3B
$GPRMC,002443.000,A,1337.2302,S,07609.0882,W,29.64,186.32,160411,,,A*5B
$GPGGA,002443.998,1337.2383,S,07609.0886,W,1,08,1.3,72.0,M,13.2,M,,0000*67
$GPGSA,M,3,19,11,32,23,20,24,03,31,,,,,2.8,1.3,2.5*3C
$GPRMC,002443.998,A,1337.2383,S,07609.0886,W,30.63,184.04,160411,,,A*56
$GPGGA,002445.002,1337.2469,S,07609.0887,W,1,08,1.3,73.2,M,13.2,M,,0000*6A
$GPGSA,M,3,19,11,32,23,20,24,03,31,,,,,2.8,1.3,2.5*3C
$GPGSV,3,1,12,19,66,014,30,11,52,187,40,32,48,206,40,23,47,334,27*75
$GPGSV,3,2,12,20,38,240,35,24,38,191,40,03,33,017,31,06,20,026,*75
$GPGSV,3,3,12,31,16,086,32,13,12,332,34,28,03,251,,14,03,144,39*76
$GPRMC,002445.002,A,1337.2469,S,07609.0887,W,30.07,184.52,160411,,,A*59
$GPGGA,002446.000,1337.2554,S,07609.0892,W,1,07,1.4,74.1,M,13.2,M,,0000*6C
$GPGSA,M,3,19,11,32,20,24,03,31,,,,,,2.9,1.4,2.5*3B
$GPRMC,002446.000,A,1337.2554,S,07609.0892,W,30.86,185.44,160411,,,A*5C
$GPGGA,002446.999,1337.2640,S,07609.0900,W,1,07,1.7,74.7,M,13.2,M,,0000*6C
$GPGSA,M,3,19,11,32,23,20,24,03,,,,,,3.8,1.7,3.4*3B
$GPRMC,002446.999,A,1337.2640,S,07609.0900,W,29.96,186.02,160411,,,A*51
$GPGGA,002447.998,1337.2723,S,07609.0906,W,1,08,1.3,74.4,M,13.2,M,,0000*66
$GPGSA,M,3,19,11,32,23,20,24,03,31,,,,,2.8,1.3,2.5*3C
$GPRMC,002447.998,A,1337.2723,S,07609.0906,W,30.11,184.52,160411,,,A*53
$GPGGA,002449.000,1337.2809,S,07609.0916,W,1,07,1.4,72.5,M,13.2,M,,0000*69
$GPGSA,M,3,19,11,32,20,24,03,31,,,,,,2.9,1.4,2.6*38
$GPRMC,002449.000,A,1337.2809,S,07609.0916,W,30.92,184.65,160411,,,A*5C
$GPGGA,002450.000,1337.2894,S,07609.0922,W,1,07,1.7,73.4,M,13.2,M,,0000*61
$GPGSA,M,3,19,11,32,23,20,24,03,,,,,,3.8,1.7,3.4*3B
$GPGSV,3,1,12,19,66,014,30,11,52,187,40,32,48,206,41,23,47,334,29*7A
$GPGSV,3,2,12,20,38,240,36,24,38,191,39,03,33,017,29,06,20,026,*71
$GPGSV,3,3,12,31,16,086,,13,12,332,35,28,03,251,,14,03,144,40*78
$GPRMC,002450.000,A,1337.2894,S,07609.0922,W,30.28,185.23,160411,,,A*55
$GPGGA,002451.002,1337.2975,S,07609.0930,W,1,07,1.4,72.7,M,13.2,M,,0000*6E
$GPGSA,M,3,19,11,32,20,24,03,31,,,,,,2.9,1.4,2.6*38
$GPRMC,002451.002,A,1337.2975,S,07609.0930,W,28.79,185.45,160411,,,A*56
$GPGGA,002452.000,1337.3059,S,07609.0934,W,1,07,1.4,73.6,M,13.2,M,,0000*6D
$GPGSA,M,3,19,11,32,20,24,03,31,,,,,,2.9,1.4,2.6*38
$GPRMC,002452.000,A,1337.3059,S,07609.0934,W,29.46,184.33,160411,,,A*58
$GPGGA,002453.000,1337.3142,S,07609.0941,W,1,07,1.4,72.4,M,13.2,M,,0000*66
$GPGSA,M,3,19,11,32,20,24,03,31,,,,,,2.9,1.4,2.6*38
$GPRMC,002453.000,A,1337.3142,S,07609.0941,W,29.74,184.95,160411,,,A*5D
$GPGGA,002454.000,1337.3225,S,07609.0946,W,1,07,1.4,74.2,M,13.2,M,,0000*64
$GPGSA,M,3,19,11,32,20,24,03,31,,,,,,2.9,1.4,2.6*38
$GPRMC,002454.000,A,1337.3225,S,07609.0946,W,29.33,185.25,160411,,,A*56
$GPGGA,002454.998,1337.3306,S,07609.0953,W,1,08,1.3,72.7,M,13.2,M,,0000*63
$GPGSA,M,3,19,11,32,23,20,24,03,31,,,,,2.8,1.3,2.5*3C
$GPGSV,3,1,12,19,66,014,30,11,52,187,39,32,48,206,39,23,47,334,24*76
$GPGSV,3,2,12,20,38,240,36,24,38,191,38,03,33,017,32,06,20,026,*7A
$GPGSV,3,3,12,31,16,086,32,13,12,332,31,28,03,251,33,14,03,144,39*73
$GPRMC,002454.998,A,1337.3306,S,07609.0953,W,29.27,184.82,160411,,,A*53
$GPGGA,002456.002,1337.3389,S,07609.0957,W,1,08,1.3,74.8,M,13.2,M,,0000*61
$GPGSA,M,3,19,11,32,23,20,24,03,31,,,,,2.8,1.3,2.5*3C
$GPRMC,002456.002,A,1337.3389,S,07609.0957,W,29.65,185.57,160411,,,A*57
$GPGGA,002457.000,1337.3467,S,07609.0965,W,1,08,1.3,74.7,M,13.2,M,,0000*6B
$GPGSA,M,3,19,11,32,23,20,24,03,31,,,,,2.8,1.3,2.5*3C
$GPRMC,002457.000,A,1337.3467,S,07609.0965,W,29.29,185.40,160411,,,A*5C
$GPGGA,002457.998,1337.3546,S,07609.0971,W,1,07,1.4,75.1,M,13.2,M,,0000*6B
$GPGSA,M,3,19,11,32,20,24,03,31,,,,,,2.9,1.4,2.6*38
$GPRMC,002457.998,A,1337.3546,S,07609.0971,W,29.55,183.88,160411,,,A*5A
$GPGGA,002458.998,1337.3627,S,07609.0979,W,1,08,1.3,75.2,M,13.2,M,,0000*63
$GPGSA,M,3,19,11,32,23,20,24,03,31,,,,,2.8,1.3,2.5*3C
$GPRMC,002458.998,A,1337.3627,S,07609.0979,W,29.85,184.22,160411,,,A*53
$GPGGA,002500.002,1337.3707,S,07609.0983,W,1,07,1.4,76.1,M,13.2,M,,0000*6B
$GPGSA,M,3,19,11,32,20,24,03,31,,,,,,2.9,1.4,2.6*38
$GPGSV,3,1,12,19,66,014,30,11,52,187,39,32,48,206,40,23,47,334,*7E
$GPGSV,3,2,12,20,38,240,36,24,38,191,38,03,33,017,32,06,20,026,*7A
$GPGSV,3,3,12,31,16,086,35,13,12,332,32,28,03,251,,14,03,144,39*77
$GPRMC,002500.002,A,1337.3707,S,07609.0983,W,29.16,184.33,160411,,,A*59
$GPGGA,002500.998,1337.3788,S,07609.0988,W,1,08,1.3,76.9,M,13.2,M,,0000*6D
$GPGSA,M,3,19,11,32,20,24,03,06,31,,,,,2.6,1.3,2.3*33
$GPRMC,002500.998,A,1337.3788,S,07609.0988,W,29.54,183.77,160411,,,A*5E
$GPGGA,002502.000,1337.3867,S,07609.0999,W,1,08,1.3,74.4,M,13.2,M,,0000*66
$GPGSA,M,3,19,11,32,23,20,24,03,31,,,,,2.8,1.3,2.5*3C
$GPRMC,002502.000,A,1337.3867,S,07609.0999,W,29.56,185.21,160411,,,A*5D
$GPGGA,002503.000,1337.3948,S,07609.1006,W,1,07,1.4,74.5,M,13.2,M,,0000*6C
$GPGSA,M,3,19,11,32,20,24,03,31,,,,,,2.9,1.4,2.6*38
$GPRMC,002503.000,A,1337.3948,S,07609.1006,W,29.56,185.25,160411,,,A*5A
$GPGGA,002504.001,1337.4029,S,07609.1014,W,1,08,1.3,74.1,M,13.2,M,,0000*6C
$GPGSA,M,3,19,11,32,23,20,24,03,31,,,,,2.8,1.3,2.5*3C
$GPRMC,002504.001,A,1337.4029,S,07609.1014,W,30.34,184.61,160411,,,A*5B
$GPGGA,002505.000,1337.4114,S,07609.1022,W,1,08,1.3,73.1,M,13.2,M,,0000*61
$GPGSA,M,3,19,11,32,23,20,24,03,31,,,,,2.8,1.3,2.5*3C
$GPGSV,3,1,12,19,66,014,30,11,52,187,39,32,48,206,40,23,47,334,25*79
$GPGSV,3,2,12,20,38,240,36,24,38,191,39,03,33,017,35,06,20,026,*7C
$GPGSV,3,3,12,31,16,086,30,13,12,332,32,28,03,251,29,14,03,144,40*77
$GPRMC,002505.000,A,1337.4114,S,07609.1022,W,29.83,183.89,160411,,,A*54
$GPGGA,002505.999,1337.4196,S,07609.1030,W,1,07,1.4,72.0,M,13.2,M,,0000*69
$GPGSA,M,3,19,11,32,20,24,03,31,,,,,,2.9,1.4,2.6*38
$GPRMC,002505.999,A,1337.4196,S,07609.1030,W,29.97,184.73,160411,,,A*53
$GPGGA,002506.999,1337.4280,S,07609.1036,W,1,07,1.4,72.0,M,13.2,M,,0000*68
$GPGSA,M,3,19,11,32,20,24,03,31,,,,,,2.9,1.4,2.6*38
$GPRMC,002506.999,A,1337.4280,S,07609.1036,W,30.09,184.70,160411,,,A*5E
$GPGGA,002507.999,1337.4362,S,07609.1042,W,1,07,1.4,73.2,M,13.2,M,,0000*64
$GPGSA,M,3,19,11,32,20,24,03,31,,,,,,2.9,1.4,2.6*38
$GPRMC,002507.999,A,1337.4362,S,07609.1042,W,30.43,184.13,160411,,,A*5A
$GPGGA,002509.000,1337.4445,S,07609.1051,W,1,08,1.3,72.8,M,13.2,M,,0000*60
$GPGSA,M,3,19,11,32,23,20,24,03,31,,,,,2.8,1.3,2.5*3C
$GPRMC,002509.000,A,1337.4445,S,07609.1051,W,30.03,183.50,160411,,,A*59
$GPGGA,002509.999,1337.4528,S,07609.1058,W,1,07,1.4,71.6,M,13.2,M,,0000*6F
$GPGSA,M,3,19,11,32,20,24,03,31,,,,,,2.9,1.4,2.6*38
$GPGSV,3,1,12,19,66,014,31,11,52,187,39,32,48,206,40,23,47,334,*7F
$GPGSV,3,2,12,20,38,240,36,24,38,191,39,03,33,017,32,06,20,026,*7B
$GPGSV,3,3,12,31,16,086,32,13,12,332,34,28,03,251,28,14,03,144,40*72
$GPRMC,002509.999,A,1337.4528,S,07609.1058,W,30.04,184.66,160411,,,A*56
$GPGGA,002511.000,1337.4609,S,07609.1068,W,1,08,1.3,71.1,M,13.2,M,,0000*63
$GPGSA,M,3,19,11,32,23,20,24,03,31,,,,,2.8,1.3,2.5*3C
$GPRMC,002511.000,A,1337.4609,S,07609.1068,W,29.83,184.89,160411,,,A*53
$GPGGA,002511.999,1337.4694,S,07609.1074,W,1,07,1.4,70.8,M,13.2,M,,0000*63
$GPGSA,M,3,19,11,32,20,24,03,31,,,,,,2.9,1.4,2.6*38
$GPRMC,002511.999,A,1337.4694,S,07609.1074,W,30.03,183.75,160411,,,A*57
$GPGGA,002513.002,1337.4771,S,07609.1084,W,1,07,1.4,70.4,M,13.2,M,,0000*63
$GPGSA,M,3,19,11,32,20,24,03,31,,,,,,2.9,1.4,2.6*38
$GPRMC,002513.002,A,1337.4771,S,07609.1084,W,29.54,184.28,160411,,,A*5E
$GPGGA,002514.000,1337.4851,S,07609.1089,W,1,07,1.4,71.1,M,13.2,M,,0000*62
$GPGSA,M,3,19,11,32,20,24,03,31,,,,,,2.9,1.4,2.6*38
$GPRMC,002514.000,A,1337.4851,S,07609.1089,W,29.63,184.04,160411,,,A*51
$GPGGA,002515.000,1337.4934,S,07609.1094,W,1,07,1.4,70.9,M,13.2,M,,0000*64
$GPGSA,M,3,19,11,32,20,24,03,31,,,,,,2.9,1.4,2.6*38
$GPGSV,3,1,12,19,66,014,28,11,52,187,39,32,48,206,40,23,47,334,*77
$GPGSV,3,2,12,20,38,240,37,24,38,191,39,03,33,017,30,06,20,026,*78
$GPGSV,3,3,12,31,16,086,33,13,12,332,33,28,03,251,30,14,03,144,39*73
$GPRMC,002515.000,A,1337.4934,S,07609.1094,W,28.89,183.97,160411,,,A*56
$GPGGA,002515.999,1337.5015,S,07609.1101,W,1,07,1.4,70.8,M,13.2,M,,0000*6A
$GPGSA,M,3,19,11,32,20,24,03,31,,,,,,2.9,1.4,2.6*38
$GPRMC,002515.999,A,1337.5015,S,07609.1101,W,29.17,184.38,160411,,,A*5D
$GPGGA,002517.000,1337.5095,S,07609.1107,W,1,07,1.4,71.8,M,13.2,M,,0000*6E
$GPGSA,M,3,19,11,32,20,24,03,31,,,,,,2.9,1.4,2.6*38
$GPRMC,002517.000,A,1337.5095,S,07609.1107,W,28.77,184.29,160411,,,A*5F
$GPGGA,002518.000,1337.5172,S,07609.1115,W,1,07,1.4,73.0,M,13.2,M,,0000*60
$GPGSA,M,3,19,11,32,20,24,03,31,,,,,,2.9,1.4,2.6*38
$GPRMC,002518.000,A,1337.5172,S,07609.1115,W,28.72,185.16,160411,,,A*53
$GPGGA,002518.998,1337.5251,S,07609.1123,W,1,08,1.3,73.3,M,13.2,M,,0000*64
$GPGSA,M,3,19,11,32,23,20,24,03,31,,,,,2.8,1.3,2.5*3C
$GPRMC,002518.998,A,1337.5251,S,07609.1123,W,28.80,185.99,160411,,,A*56
$GPGGA,002520.002,1337.5331,S,07609.1132,W,1,08,1.3,73.6,M,13.2,M,,0000*67
$GPGSA,M,3,19,11,32,23,20,24,03,31,,,,,2.8,1.3,2.5*3C
$GPGSV,3,1,12,19,66,014,30,11,52,187,39,32,48,206,39,23,47,334,29*7B
$GPGSV,3,2,12,20,38,240,34,24,38,191,39,03,33,017,35,06,20,026,*7E
$GPGSV,3,3,12,31,16,086,34,13,12,332,32,28,03,251,,14,03,144,39*76
$GPRMC,002520.002,A,1337.5331,S,07609.1132,W,28.45,186.26,160411,,,A*5E
$GPGGA,002520.998,1337.5410,S,07609.1136,W,1,08,1.3,75.4,M,13.2,M,,0000*69
$GPGSA,M,3,19,11,32,23,20,24,03,31,,,,,2.8,1.3,2.5*3C
$GPRMC,002520.998,A,1337.5410,S,07609.1136,W,28.55,185.64,160411,,,A*50
$GPGGA,002522.001,1337.5489,S,07609.1145,W,1,07,1.4,75.2,M,13.2,M,,0000*68
$GPGSA,M,3,19,11,32,20,24,03,31,,,,,,2.9,1.4,2.6*38
$GPRMC,002522.001,A,1337.5489,S,07609.1145,W,27.96,185.71,160411,,,A*5B
$GPGGA,002522.999,1337.5567,S,07609.1152,W,1,07,1.4,74.7,M,13.2,M,,0000*63
$GPGSA,M,3,19,11,32,20,24,03,31,,,,,,2.9,1.4,2.6*38
$GPRMC,002522.999,A,1337.5567,S,07609.1152,W,28.88,184.66,160411,,,A*53
$GPGGA,002523.998,1337.5645,S,07609.1161,W,1,07,1.7,76.1,M,13.2,M,,0000*67
$GPGSA,M,3,19,11,32,23,20,24,03,,,,,,3.8,1.7,3.4*3B
$GPRMC,002523.998,A,1337.5645,S,07609.1161,W,28.74,184.21,160411,,,A*50
$GPGGA,002525.003,1337.5724,S,07609.1164,W,1,08,1.3,76.0,M,13.2,M,,0000*63
$GPGSA,M,3,19,11,32,23,20,24,03,31,,,,,2.8,1.3,2.5*3C
$GPGSV,3,1,12,19,66,014,31,11,52,187,39,32,48,206,40,23,47,334,23*7E
$GPGSV,3,2,12,20,38,240,36,24,38,191,40,03,33,017,34,06,20,026,*73
$GPGSV,3,3,12,31,16,086,35,13,12,332,32,28,03,251,,14,03,144,36*78
$GPRMC,002525.003,A,1337.5724,S,07609.1164,W,28.48,183.61,160411,,,A*52
$GPGGA,002526.000,1337.5803,S,07609.1172,W,1,08,1.3,76.4,M,13.2,M,,0000*6A
$GPGSA,M,3,19,11,32,23,20,24,03,31,,,,,2.8,1.3,2.5*3C
$GPRMC,002526.000,A,1337.5803,S,07609.1172,W,29.04,184.75,160411,,,A*54
$GPGGA,002527.000,1337.5882,S,07609.1179,W,1,08,1.3,76.3,M,13.2,M,,0000*6E
$GPGSA,M,3,19,11,32,23,20,24,03,31,,,,,2.8,1.3,2.5*3C
$GPRMC,002527.000,A,1337.5882,S,07609.1179,W,29.41,184.32,160411,,,A*55
$GPGGA,002527.999,1337.5963,S,07609.1186,W,1,07,1.4,78.0,M,13.2,M,,0000*6C
$GPGSA,M,3,19,11,32,20,24,03,31,,,,,,2.9,1.4,2.6*38
$GPRMC,002527.999,A,1337.5963,S,07609.1186,W,29.78,183.27,160411,,,A*5B
$GPGGA,002528.998,1337.6044,S,07609.1192,W,1,07,1.4,78.2,M,13.2,M,,0000*6A
$GPGSA,M,3,19,11,32,20,24,03,31,,,,,,2.9,1.4,2.6*38
$GPRMC,002528.998,A,1337.6044,S,07609.1192,W,29.29,184.48,160411,,,A*55
$GPGGA,002530.002,1337.6128,S,07609.1192,W,1,08,1.3,81.5,M,13.2,M,,0000*6B
$GPGSA,M,3,19,11,32,23,20,24,03,31,,,,,2.8,1.3,2.5*3C
$GPGSV,3,1,12,19,66,014,31,11,52,187,39,32,48,206,40,23,47,334,22*7F
$GPGSV,3,2,12,20,38,240,36,24,38,191,40,03,33,017,35,06,20,026,*72
$GPGSV,3,3,12,31,16,086,35,13,12,332,33,28,03,251,,14,03,144,40*78
$GPRMC,002530.002,A,1337.6128,S,07609.1192,W,29.46,184.63,160411,,,A*5D
$GPGGA,002530.998,1337.6207,S,07609.1200,W,1,07,1.4,81.6,M,13.2,M,,0000*6C
$GPGSA,M,3,19,11,32,20,24,03,31,,,,,,2.9,1.4,2.6*38
$GPRMC,002530.998,A,1337.6207,S,07609.1200,W,28.98,184.62,160411,,,A*52
$GPGGA,002532.000,1337.6286,S,07609.1210,W,1,07,1.4,82.2,M,13.2,M,,0000*69
$GPGSA,M,3,19,11,32,20,24,03,31,,,,,,2.9,1.4,2.6*38
$GPRMC,002532.000,A,1337.6286,S,07609.1210,W,29.73,184.77,160411,,,A*50
$GPGGA,002533.002,1337.6369,S,07609.1216,W,1,08,1.3,83.8,M,13.2,M,,0000*6F
$GPGSA,M,3,19,11,32,23,20,24,03,31,,,,,2.8,1.3,2.5*3C
$GPRMC,002533.002,A,1337.6369,S,07609.1216,W,29.08,185.85,160411,,,A*55
$GPGGA,002533.998,1337.6447,S,07609.1226,W,1,07,1.4,84.3,M,13.2,M,,0000*69
$GPGSA,M,3,19,11,32,20,24,03,31,,,,,,2.9,1.4,2.6*38
$GPRMC,002533.998,A,1337.6447,S,07609.1226,W,29.50,185.24,160411,,,A*51
$GPGGA,002534.998,1337.6530,S,07609.1233,W,1,08,1.3,83.9,M,13.2,M,,0000*6E
$GPGSA,M,3,19,11,32,23,20,24,03,31,,,,,2.8,1.3,2.5*3C
$GPGSV,3,1,12,19,66,014,28,11,52,187,38,32,48,206,40,23,47,334,25*71
$GPGSV,3,2,12,20,38,240,35,24,38,191,39,03,33,017,31,06,20,026,*7B
