$GPGGA,160238.998,1437.9619,S,07348.9706,W,1,07,1.2,4530.2,M,23.9,M,,0000*6F
$GPGSA,M,3,21,25,29,12,09,14,18,,,,,,2.4,1.2,2.1*31
$GPRMC,160238.998,A,1437.9619,S,07348.9706,W,16.62,143.37,200411,,,A*56
$GPGGA,160240.001,1437.9656,S,07348.9679,W,1,08,1.0,4529.7,M,23.9,M,,0000*6B
$GPGSA,M,3,21,25,29,12,31,09,14,18,,,,,2.2,1.0,2.0*36
$GPRMC,160240.001,A,1437.9656,S,07348.9679,W,16.67,141.16,200411,,,A*56
$GPGGA,160241.000,1437.9692,S,07348.9646,W,1,08,1.0,4528.6,M,23.9,M,,0000*6F
$GPGSA,M,3,21,25,29,12,31,09,14,18,,,,,2.2,1.0,2.0*36
$GPGSV,3,1,10,21,62,338,30,25,50,146,38,29,41,177,37,12,32,094,30*7B
$GPGSV,3,2,10,31,30,222,38,09,19,023,29,14,19,301,31,18,12,357,35*7A
$GPGSV,3,3,10,05,06,110,28,27,02,027,31*71
$GPRMC,160241.000,A,1437.9692,S,07348.9646,W,16.61,141.84,200411,,,A*5F
$GPGGA,160241.998,1437.9730,S,07348.9617,W,1,08,1.0,4528.7,M,23.9,M,,0000*6B
$GPGSA,M,3,21,25,29,12,31,09,14,18,,,,,2.2,1.0,2.0*36
$GPRMC,160241.998,A,1437.9730,S,07348.9617,W,17.06,143.28,200411,,,A*5E
$GPGGA,160243.002,1437.9767,S,07348.9588,W,1,08,1.0,4527.6,M,23.9,M,,0000*6A
$GPGSA,M,3,21,25,29,12,31,09,14,18,,,,,2.2,1.0,2.0*36
$GPRMC,160243.002,A,1437.9767,S,07348.9588,W,17.33,141.78,200411,,,A*50
$GPGGA,160244.000,1437.9803,S,07348.9557,W,1,08,1.0,4527.7,M,23.9,M,,0000*61
$GPGSA,M,3,21,25,29,12,31,09,14,18,,,,,2.2,1.0,2.0*36
$GPRMC,160244.000,A,1437.9803,S,07348.9557,W,17.32,139.87,200411,,,A*54
$GPGGA,160245.001,1437.9837,S,07348.9523,W,1,08,1.0,4528.0,M,23.9,M,,0000*6D
$GPGSA,M,3,21,25,29,12,31,09,14,18,,,,,2.2,1.0,2.0*36
$GPRMC,160245.001,A,1437.9837,S,07348.9523,W,17.21,135.41,200411,,,A*54
$GPGGA,160245.998,1437.9870,S,07348.9489,W,1,08,1.0,4526.8,M,23.9,M,,0000*60
$GPGSA,M,3,21,25,29,12,31,09,14,18,,,,,2.2,1.0,2.0*36
$GPGSV,3,1,10,21,62,338,30,25,50,146,37,29,41,177,39,12,32,094,28*73
$GPGSV,3,2,10,31,30,222,39,09,19,023,32,14,19,301,34,18,12,357,37*76
$GPGSV,3,3,10,05,06,110,,27,02,027,31*7B
$GPRMC,160245.998,A,1437.9870,S,07348.9489,W,17.10,133.18,200411,,,A*57
$GPGGA,160247.002,1437.9900,S,07348.9455,W,1,08,1.0,4527.9,M,23.9,M,,0000*6F
$GPGSA,M,3,21,25,29,12,31,09,14,18,,,,,2.2,1.0,2.0*36
$GPRMC,160247.002,A,1437.9900,S,07348.9455,W,16.86,126.30,200411,,,A*58
$GPGGA,160248.000,1437.9926,S,07348.9417,W,1,08,1.0,4528.8,M,23.9,M,,0000*6E
$GPGSA,M,3,21,25,29,12,31,09,14,18,,,,,2.2,1.0,2.0*36
$GPRMC,160248.000,A,1437.9926,S,07348.9417,W,16.72,123.56,200411,,,A*59
$GPGGA,160249.000,1437.9952,S,07348.9377,W,1,08,1.0,4528.4,M,23.9,M,,0000*61
$GPGSA,M,3,21,25,29,12,31,09,14,18,,,,,2.2,1.0,2.0*36
$GPRMC,160249.000,A,1437.9952,S,07348.9377,W,16.57,118.35,200411,,,A*50
$GPGGA,160250.000,1437.9972,S,07348.9335,W,1,08,1.0,4528.1,M,23.9,M,,0000*68
$GPGSA,M,3,21,25,29,12,31,09,14,18,,,,,2.2,1.0,2.0*36
$GPRMC,160250.000,A,1437.9972,S,07348.9335,W,16.09,112.86,200411,,,A*55
$GPGGA,160251.001,1437.9989,S,07348.9293,W,1,08,1.0,4528.1,M,23.9,M,,0000*61
$GPGSA,M,3,21,25,29,12,31,09,14,18,,,,,2.2,1.0,2.0*36
$GPGSV,3,1,10,21,62,338,35,25,50,146,38,29,41,177,30,12,32,094,37*7E
$GPGSV,3,2,10,31,30,222,36,09,19,023,29,14,19,301,25,18,12,357,28*7D
$GPGSV,3,3,10,05,06,110,38,27,02,027,37*76
$GPRMC,160251.001,A,1437.9989,S,07348.9293,W,16.88,107.81,200411,,,A*56
$GPGGA,160251.999,1438.0000,S,07348.9254,W,1,08,1.0,4530.9,M,23.9,M,,0000*6D
$GPGSA,M,3,21,25,29,12,31,09,14,18,,,,,2.2,1.0,2.0*36
$GPRMC,160251.999,A,1438.0000,S,07348.9254,W,16.91,104.82,200411,,,A*53
$GPGGA,160252.998,1438.0010,S,07348.9214,W,1,08,1.0,4531.4,M,23.9,M,,0000*66
$GPGSA,M,3,21,25,29,12,31,09,14,18,,,,,2.2,1.0,2.0*36
$GPRMC,160252.998,A,1438.0010,S,07348.9214,W,16.49,97.46,200411,,,A*62
$GPGGA,160253.998,1438.0014,S,07348.9166,W,1,08,1.0,4531.6,M,23.9,M,,0000*67
$GPGSA,M,3,21,25,29,12,31,09,14,18,,,,,2.2,1.0,2.0*36
$GPRMC,160253.998,A,1438.0014,S,07348.9166,W,17.10,92.74,200411,,,A*68
$GPGGA,160255.002,1438.0013,S,07348.9116,W,1,08,1.0,4531.2,M,23.9,M,,0000*6F
$GPGSA,M,3,21,25,29,12,31,09,14,18,,,,,2.2,1.0,2.0*36
$GPRMC,160255.002,A,1438.0013,S,07348.9116,W,16.77,88.36,200411,,,A*69
$GPGGA,160255.998,1438.0006,S,07348.9073,W,1,07,1.2,4531.6,M,23.9,M,,0000*6A
$GPGSA,M,3,21,25,29,31,09,14,18,,,,,,2.4,1.2,2.0*31
$GPGSV,3,1,10,21,62,338,37,25,50,146,38,29,41,177,40,12,32,094,*7F
$GPGSV,3,2,10,31,30,222,36,09,19,023,33,14,19,301,35,18,12,357,29*76
$GPGSV,3,3,10,05,06,110,38,27,02,027,31*70
$GPRMC,160255.998,A,1438.0006,S,07348.9073,W,17.21,81.79,200411,,,A*65
$GPGGA,160257.001,1437.9995,S,07348.9025,W,1,07,1.2,4533.1,M,23.9,M,,0000*62
$GPGSA,M,3,21,25,29,31,09,14,18,,,,,,2.4,1.2,2.0*31
$GPRMC,160257.001,A,1437.9995,S,07348.9025,W,16.95,77.34,200411,,,A*66
$GPGGA,160257.997,1437.9983,S,07348.8975,W,1,08,1.0,4533.5,M,23.9,M,,0000*67
$GPGSA,M,3,21,25,29,12,31,09,14,18,,,,,2.2,1.0,2.0*36
$GPRMC,160257.997,A,1437.9983,S,07348.8975,W,17.79,72.53,200411,,,A*6D
$GPGGA,160259.005,1437.9964,S,07348.8930,W,1,07,1.2,4535.3,M,23.9,M,,0000*6E
$GPGSA,M,3,21,25,29,12,09,14,18,,,,,,2.4,1.2,2.1*31
$GPRMC,160259.005,A,1437.9964,S,07348.8930,W,17.10,69.88,200411,,,A*6A
$GPGGA,160259.997,1437.9944,S,07348.8887,W,1,07,1.1,4536.8,M,23.9,M,,0000*68
$GPGSA,M,3,21,25,29,12,31,09,18,,,,,,2.3,1.1,2.0*33
$GPRMC,160259.997,A,1437.9944,S,07348.8887,W,18.28,63.58,200411,,,A*64
$GPGGA,160301.000,1437.9919,S,07348.8844,W,1,08,1.0,4537.9,M,23.9,M,,0000*6A
$GPGSA,M,3,21,25,29,12,31,09,14,18,,,,,2.2,1.0,2.0*36
$GPGSV,3,1,10,21,62,338,37,25,50,146,34,29,41,177,36,12,32,094,37*76
$GPGSV,3,2,10,31,30,222,38,09,19,023,32,14,19,301,28,18,12,357,28*74
$GPGSV,3,3,10,05,06,110,31,27,02,027,*7B
$GPRMC,160301.000,A,1437.9919,S,07348.8844,W,18.08,58.46,200411,,,A*6D
$GPGGA,160302.000,1437.9888,S,07348.8796,W,1,08,1.0,4538.7,M,23.9,M,,0000*61
$GPGSA,M,3,21,25,29,12,31,09,14,18,,,,,2.2,1.0,2.0*36
$GPRMC,160302.000,A,1437.9888,S,07348.8796,W,18.18,56.00,200411,,,A*6A
$GPGGA,160303.001,1437.9858,S,07348.8750,W,1,08,1.0,4539.7,M,23.9,M,,0000*67
$GPGSA,M,3,21,25,29,12,31,09,14,18,,,,,2.2,1.0,2.0*36
$GPRMC,160303.001,A,1437.9858,S,07348.8750,W,18.91,54.50,200411,,,A*6B
$GPGGA,160304.000,1437.9823,S,07348.8705,W,1,07,1.1,4540.6,M,23.9,M,,0000*6C
$GPGSA,M,3,21,25,29,12,31,09,18,,,,,,2.3,1.1,2.0*33
$GPRMC,160304.000,A,1437.9823,S,07348.8705,W,19.48,51.28,200411,,,A*6E
$GPGGA,160305.000,1437.9790,S,07348.8657,W,1,07,1.1,4540.2,M,23.9,M,,0000*68
$GPGSA,M,3,21,25,29,12,31,09,18,,,,,,2.3,1.1,2.0*33
$GPRMC,160305.000,A,1437.9790,S,07348.8657,W,20.41,54.43,200411,,,A*65
$GPGGA,160305.999,1437.9755,S,07348.8612,W,1,08,1.0,4540.0,M,23.9,M,,0000*65
$GPGSA,M,3,21,25,29,12,31,09,14,18,,,,,2.2,1.0,2.0*36
$GPGSV,3,1,10,21,62,338,35,25,50,146,41,29,41,177,37,12,32,094,39*79
$GPGSV,3,2,10,31,30,222,37,09,19,023,30,14,19,301,27,18,12,357,30*7F
$GPGSV,3,3,10,05,06,110,35,27,02,027,31*7D
$GPRMC,160305.999,A,1437.9755,S,07348.8612,W,20.76,51.88,200411,,,A*62
$GPGGA,160307.000,1437.9717,S,07348.8568,W,1,07,1.1,4541.2,M,23.9,M,,0000*6B
$GPGSA,M,3,21,25,29,12,31,09,18,,,,,,2.3,1.1,2.0*33
$GPRMC,160307.000,A,1437.9717,S,07348.8568,W,20.87,51.83,200411,,,A*64
$GPGGA,160308.001,1437.9680,S,07348.8519,W,1,07,1.1,4542.1,M,23.9,M,,0000*6C
$GPGSA,M,3,21,25,29,12,31,09,18,,,,,,2.3,1.1,2.0*33
$GPRMC,160308.001,A,1437.9680,S,07348.8519,W,21.52,53.11,200411,,,A*63
$GPGGA,160308.999,1437.9642,S,07348.8471,W,1,08,1.0,4542.2,M,23.9,M,,0000*68
$GPGSA,M,3,21,25,29,12,31,09,14,18,,,,,2.2,1.0,2.0*36
$GPRMC,160308.999,A,1437.9642,S,07348.8471,W,22.25,52.83,200411,,,A*63
$GPGGA,160309.998,1437.9605,S,07348.8422,W,1,08,1.0,4541.3,M,23.9,M,,0000*6F
$GPGSA,M,3,21,25,29,12,31,09,14,18,,,,,2.2,1.0,2.0*36
$GPRMC,160309.998,A,1437.9605,S,07348.8422,W,22.28,53.40,200411,,,A*65
$GPGGA,160310.999,1437.9565,S,07348.8374,W,1,08,1.0,4542.1,M,23.9,M,,0000*66
$GPGSA,M,3,21,25,29,12,31,09,14,18,,,,,2.2,1.0,2.0*36
$GPGSV,3,1,10,21,62,338,36,25,50,146,40,29,41,177,37,12,32,094,41*74
$GPGSV,3,2,10,31,30,222,37,09,19,023,28,14,19,301,28,18,12,357,33*7A
$GPGSV,3,3,10,05,06,110,,27,02,027,31*7B
$GPRMC,160310.999,A,1437.9565,S,07348.8374,W,22.33,52.66,200411,,,A*62
$GPGGA,160312.003,1437.9525,S,07348.8319,W,1,07,1.1,4541.6,M,23.9,M,,0000*6B
$GPGSA,M,3,21,25,29,12,31,09,18,,,,,,2.3,1.1,2.0*33
$GPRMC,160312.003,A,1437.9525,S,07348.8319,W,23.32,54.46,200411,,,A*61
$GPGGA,160312.996,1437.9485,S,07348.8266,W,1,08,1.0,4542.5,M,23.9,M,,0000*62
$GPGSA,M,3,21,25,29,12,31,09,14,18,,,,,2.2,1.0,2.0*36
$GPRMC,160312.996,A,1437.9485,S,07348.8266,W,23.80,53.62,200411,,,A*6E
$GPGGA,160314.001,1437.9444,S,07348.8210,W,1,08,1.0,4542.5,M,23.9,M,,0000*6F
$GPGSA,M,3,21,25,29,12,31,09,14,18,,,,,2.2,1.0,2.0*36
$GPRMC,160314.001,A,1437.9444,S,07348.8210,W,23.73,52.51,200411,,,A*6E
$GPGGA,160315.000,1437.9404,S,07348.8156,W,1,08,1.0,4542.0,M,23.9,M,,0000*6F
$GPGSA,M,3,21,25,29,12,31,09,14,18,,,,,2.2,1.0,2.0*36
$GPRMC,160315.000,A,1437.9404,S,07348.8156,W,23.92,53.34,200411,,,A*66
$GPGGA,160316.000,1437.9360,S,07348.8102,W,1,08,1.0,4544.1,M,23.9,M,,0000*6F
$GPGSA,M,3,21,25,29,12,31,09,14,18,,,,,2.2,1.0,2.0*36
$GPGSV,3,1,10,21,62,338,34,25,50,146,40,29,41,177,37,12,32,094,40*77
$GPGSV,3,2,10,31,30,222,37,09,19,023,29,14,19,301,28,18,12,357,31*79
$GPGSV,3,3,10,05,06,110,,27,02,027,30*7A
$GPRMC,160316.000,A,1437.9360,S,07348.8102,W,24.65,53.34,200411,,,A*6E
$GPGGA,160317.000,1437.9318,S,07348.8047,W,1,08,1.0,4545.1,M,23.9,M,,0000*60
$GPGSA,M,3,21,25,29,12,31,09,14,18,,,,,2.2,1.0,2.0*36
$GPRMC,160317.000,A,1437.9318,S,07348.8047,W,24.79,53.10,200411,,,A*6B
$GPGGA,160318.002,1437.9274,S,07348.7992,W,1,08,1.0,4546.9,M,23.9,M,,0000*63
$GPGSA,M,3,21,25,29,12,31,09,14,18,,,,,2.2,1.0,2.0*36
$GPRMC,160318.002,A,1437.9274,S,07348.7992,W,25.26,53.12,200411,,,A*6A
$GPGGA,160318.997,1437.9230,S,07348.7935,W,1,08,1.0,4547.9,M,23.9,M,,0000*6A
$GPGSA,M,3,21,25,29,12,31,09,14,18,,,,,2.2,1.0,2.0*36
$GPRMC,160318.997,A,1437.9230,S,07348.7935,W,25.64,53.74,200411,,,A*64
$GPGGA,160320.001,1437.9185,S,07348.7875,W,1,08,1.0,4548.4,M,23.9,M,,0000*6D
$GPGSA,M,3,21,25,29,12,31,09,14,18,,,,,2.2,1.0,2.0*36
$GPRMC,160320.001,A,1437.9185,S,07348.7875,W,25.78,53.25,200411,,,A*68
$GPGGA,160321.000,1437.9142,S,07348.7820,W,1,08,1.0,4548.3,M,23.9,M,,0000*61
$GPGSA,M,3,21,25,29,12,31,09,14,18,,,,,2.2,1.0,2.0*36
$GPGSV,3,1,10,21,62,338,36,25,50,146,39,29,41,177,38,12,32,094,39*7A
$GPGSV,3,2,10,31,30,222,38,09,19,023,30,14,19,301,29,18,12,357,35*7B
$GPGSV,3,3,10,05,06,110,,27,02,027,30*7A
$GPRMC,160321.000,A,1437.9142,S,07348.7820,W,25.66,53.16,200411,,,A*6C
$GPGGA,160322.000,1437.9099,S,07348.7764,W,1,07,1.1,4548.8,M,23.9,M,,0000*6F
$GPGSA,M,3,21,25,29,12,31,09,18,,,,,,2.3,1.1,2.0*33
$GPRMC,160322.000,A,1437.9099,S,07348.7764,W,25.49,52.31,200411,,,A*6E
$GPGGA,160323.000,1437.9057,S,07348.7704,W,1,08,1.0,4547.4,M,23.9,M,,0000*67
$GPGSA,M,3,21,25,29,12,31,09,14,18,,,,,2.2,1.0,2.0*36
$GPRMC,160323.000,A,1437.9057,S,07348.7704,W,26.82,53.63,200411,,,A*69
$GPGGA,160324.004,1437.9012,S,07348.7642,W,1,07,1.1,4547.4,M,23.9,M,,0000*68
$GPGSA,M,3,21,25,29,12,31,09,18,,,,,,2.3,1.1,2.0*33
$GPRMC,160324.004,A,1437.9012,S,07348.7642,W,26.81,53.05,200411,,,A*6B
$GPGGA,160324.997,1437.8968,S,07348.7582,W,1,08,1.0,4547.0,M,23.9,M,,0000*6B
$GPGSA,M,3,21,25,29,12,31,09,14,18,,,,,2.2,1.0,2.0*36
$GPRMC,160324.997,A,1437.8968,S,07348.7582,W,26.37,52.91,200411,,,A*63
$GPGGA,160325.998,1437.8922,S,07348.7517,W,1,08,1.0,4547.3,M,23.9,M,,0000*64
$GPGSA,M,3,21,25,29,12,31,09,14,18,,,,,2.2,1.0,2.0*36
$GPGSV,3,1,10,21,62,338,35,25,50,146,39,29,41,177,38,12,32,094,38*78
$GPGSV,3,2,10,31,30,222,37,09,19,023,29,14,19,301,28,18,12,357,33*7B
$GPGSV,3,3,10,05,06,110,,27,02,027,29*72
$GPRMC,160325.998,A,1437.8922,S,07348.7517,W,26.90,53.75,200411,,,A*69
$GPGGA,160327.000,1437.8877,S,07348.7454,W,1,08,1.0,4546.5,M,23.9,M,,0000*6E
$GPGSA,M,3,21,25,29,12,31,09,14,18,,,,,2.2,1.0,2.0*36
$GPRMC,160327.000,A,1437.8877,S,07348.7454,W,26.70,53.01,200411,,,A*69
$GPGGA,160328.000,1437.8830,S,07348.7393,W,1,08,1.0,4547.0,M,23.9,M,,0000*6A
$GPGSA,M,3,21,25,29,12,31,09,14,18,,,,,2.2,1.0,2.0*36
$GPRMC,160328.000,A,1437.8830,S,07348.7393,W,27.25,53.09,200411,,,A*60
$GPGGA,160329.000,1437.8785,S,07348.7330,W,1,08,1.0,4546.1,M,23.9,M,,0000*63
$GPGSA,M,3,21,25,29,12,31,09,14,18,,,,,2.2,1.0,2.0*36
$GPRMC,160329.000,A,1437.8785,S,07348.7330,W,27.17,53.02,200411,,,A*63
$GPGGA,160330.000,1437.8738,S,07348.7267,W,1,08,1.0,4546.0,M,23.9,M,,0000*6F
$GPGSA,M,3,21,25,29,12,31,09,14,18,,,,,2.2,1.0,2.0*36
$GPRMC,160330.000,A,1437.8738,S,07348.7267,W,27.01,53.51,200411,,,A*6F
$GPGGA,160331.003,1437.8692,S,07348.7208,W,1,07,1.1,4546.0,M,23.9,M,,0000*6B
$GPGSA,M,3,21,25,29,12,31,09,18,,,,,,2.3,1.1,2.0*33
$GPGSV,3,1,10,21,62,338,36,25,50,146,40,29,41,177,38,12,32,094,38*75
$GPGSV,3,2,10,31,30,222,37,09,19,023,33,14,19,301,,18,12,357,34*7D
$GPGSV,3,3,10,05,06,110,,27,02,027,28*73
$GPRMC,160331.003,A,1437.8692,S,07348.7208,W,27.01,53.59,200411,,,A*6D
$GPGGA,160332.001,1437.8647,S,07348.7147,W,1,08,1.0,4544.9,M,23.9,M,,0000*6F
$GPGSA,M,3,21,25,29,12,31,09,14,18,,,,,2.2,1.0,2.0*36
$GPRMC,160332.001,A,1437.8647,S,07348.7147,W,27.01,52.52,200411,,,A*66
$GPGGA,160332.996,1437.8598,S,07348.7085,W,1,08,1.0,4544.9,M,23.9,M,,0000*66
$GPGSA,M,3,21,25,29,12,31,09,14,18,,,,,2.2,1.0,2.0*36
$GPRMC,160332.996,A,1437.8598,S,07348.7085,W,27.28,53.86,200411,,,A*6C
$GPGGA,160334.004,1437.8554,S,07348.7022,W,1,08,1.0,4544.6,M,23.9,M,,0000*60
$GPGSA,M,3,21,25,29,12,31,14,09,18,,,,,2.2,1.0,2.0*36
$GPRMC,160334.004,A,1437.8554,S,07348.7022,W,27.18,52.95,200411,,,A*65
$GPGGA,160335.000,1437.8510,S,07348.6963,W,1,08,1.0,4544.7,M,23.9,M,,0000*69
$GPGSA,M,3,21,25,29,12,31,14,09,18,,,,,2.2,1.0,2.0*36
$GPRMC,160335.000,A,1437.8510,S,07348.6963,W,27.06,53.41,200411,,,A*6A
$GPGGA,160336.000,1437.8464,S,07348.6901,W,1,08,1.0,4544.9,M,23.9,M,,0000*62
$GPGSA,M,3,21,25,29,12,31,14,09,18,,,,,2.2,1.0,2.0*36
$GPGSV,3,1,11,21,63,338,36,25,51,144,39,29,41,175,38,12,31,093,39*7F
$GPGSV,3,2,11,31,31,223,38,14,18,303,28,09,18,023,31,18,12,358,32*70
$GPGSV,3,3,11,05,06,111,37,27,01,027,30,30,00,227,*49
$GPRMC,160336.000,A,1437.8464,S,07348.6901,W,27.16,52.33,200411,,,A*6A
$GPGGA,160336.999,1437.8417,S,07348.6841,W,1,07,1.1,4544.5,M,23.9,M,,0000*68
$GPGSA,M,3,21,25,29,12,31,09,18,,,,,,2.3,1.1,2.0*33
$GPRMC,160336.999,A,1437.8417,S,07348.6841,W,27.08,52.35,200411,,,A*6B
$GPGGA,160337.999,1437.8371,S,07348.6779,W,1,07,1.2,4544.6,M,23.9,M,,0000*6A
$GPGSA,M,3,21,25,29,31,14,09,18,,,,,,2.4,1.2,2.0*31
$GPRMC,160337.999,A,1437.8371,S,07348.6779,W,26.92,52.95,200411,,,A*61
$GPGGA,160339.000,1437.8325,S,07348.6719,W,1,08,1.0,4544.3,M,23.9,M,,0000*62
$GPGSA,M,3,21,25,29,12,31,14,09,18,,,,,2.2,1.0,2.0*36
$GPRMC,160339.000,A,1437.8325,S,07348.6719,W,27.14,52.87,200411,,,A*6D
$GPGGA,160339.999,1437.8281,S,07348.6658,W,1,07,1.2,4543.3,M,23.9,M,,0000*6A
$GPGSA,M,3,21,25,29,31,14,09,18,,,,,,2.4,1.2,2.0*31
$GPRMC,160339.999,A,1437.8281,S,07348.6658,W,27.34,54.67,200411,,,A*65
$GPGGA,160341.000,1437.8234,S,07348.6595,W,1,08,1.0,4543.5,M,23.9,M,,0000*6B
$GPGSA,M,3,21,25,29,12,31,14,09,18,,,,,2.2,1.0,2.0*36
$GPGSV,3,1,11,21,63,338,35,25,51,144,40,29,41,175,39,12,31,093,39*73
$GPGSV,3,2,11,31,31,223,38,14,18,303,28,09,18,023,31,18,12,358,31*73
$GPGSV,3,3,11,05,06,111,36,27,01,027,28,30,00,227,*41
$GPRMC,160341.000,A,1437.8234,S,07348.6595,W,27.03,53.32,200411,,,A*6C
$GPGGA,160341.999,1437.8187,S,07348.6535,W,1,07,1.1,4543.6,M,23.9,M,,0000*6E
$GPGSA,M,3,21,25,29,12,31,09,18,,,,,,2.3,1.1,2.0*33
$GPRMC,160341.999,A,1437.8187,S,07348.6535,W,27.34,53.42,200411,,,A*67
$GPGGA,160343.000,1437.8138,S,07348.6474,W,1,08,1.0,4545.5,M,23.9,M,,0000*6E
$GPGSA,M,3,21,25,29,12,31,14,09,18,,,,,2.2,1.0,2.0*36
$GPRMC,160343.000,A,1437.8138,S,07348.6474,W,27.01,52.08,200411,,,A*65
$GPGGA,160343.997,1437.8091,S,07348.6417,W,1,07,1.1,4545.7,M,23.9,M,,0000*62
$GPGSA,M,3,21,25,29,12,31,09,18,,,,,,2.3,1.1,2.0*33
$GPRMC,160343.997,A,1437.8091,S,07348.6417,W,26.50,53.24,200411,,,A*6F
$GPGGA,160345.003,1437.8047,S,07348.6351,W,1,08,1.0,4545.8,M,23.9,M,,0000*6F
$GPGSA,M,3,21,25,29,12,31,14,09,18,,,,,2.2,1.0,2.0*36
$GPRMC,160345.003,A,1437.8047,S,07348.6351,W,26.73,54.82,200411,,,A*69
$GPGGA,160345.996,1437.8005,S,07348.6292,W,1,08,1.0,4545.5,M,23.9,M,,0000*6F
$GPGSA,M,3,21,25,29,12,31,14,09,18,,,,,2.2,1.0,2.0*36
$GPGSV,3,1,11,21,63,338,35,25,51,144,38,29,41,175,38,12,31,093,38*7C
$GPGSV,3,2,11,31,31,223,38,14,18,303,21,09,18,023,30,18,12,358,25*7E
$GPGSV,3,3,11,05,06,111,39,27,01,027,27,30,00,227,*41
$GPRMC,160345.996,A,1437.8005,S,07348.6292,W,26.10,54.17,200411,,,A*6D
$GPGGA,160347.000,1437.7966,S,07348.6227,W,1,08,1.0,4544.3,M,23.9,M,,0000*61
$GPGSA,M,3,21,25,29,12,31,14,09,18,,,,,2.2,1.0,2.0*36
$GPRMC,160347.000,A,1437.7966,S,07348.6227,W,25.96,56.32,200411,,,A*6C
$GPGGA,160348.001,1437.7927,S,07348.6166,W,1,07,1.1,4544.0,M,23.9,M,,0000*61
$GPGSA,M,3,21,25,29,12,31,14,18,,,,,,2.3,1.1,2.0*3F
$GPRMC,160348.001,A,1437.7927,S,07348.6166,W,25.80,59.24,200411,,,A*6E
$GPGGA,160349.000,1437.7888,S,07348.6102,W,1,07,1.1,4544.8,M,23.9,M,,0000*6F
$GPGSA,M,3,21,25,29,12,31,14,18,,,,,,2.3,1.1,2.0*3F
$GPRMC,160349.000,A,1437.7888,S,07348.6102,W,26.14,61.88,200411,,,A*6B
$GPGGA,160350.001,1437.7856,S,07348.6035,W,1,06,1.2,4544.3,M,23.9,M,,0000*69
$GPGSA,M,3,21,25,29,12,31,18,,,,,,,2.4,1.2,2.1*3F
$GPRMC,160350.001,A,1437.7856,S,07348.6035,W,26.39,64.26,200411,,,A*6A
$GPGGA,160350.999,1437.7824,S,07348.5969,W,1,08,1.0,4545.2,M,23.9,M,,0000*6B
$GPGSA,M,3,21,25,29,12,31,14,09,18,,,,,2.2,1.0,2.0*36
$GPGSV,3,1,11,21,63,338,34,25,51,144,39,29,41,175,40,12,31,093,37*7C
$GPGSV,3,2,11,31,31,223,34,14,18,303,31,09,18,023,27,18,12,358,37*76
$GPGSV,3,3,11,05,06,111,31,27,01,027,,30,00,227,*4C
$GPRMC,160350.999,A,1437.7824,S,07348.5969,W,26.19,66.45,200411,,,A*61
$GPGGA,160351.998,1437.7797,S,07348.5900,W,1,08,1.0,4544.4,M,23.9,M,,0000*64
$GPGSA,M,3,21,25,29,12,31,14,09,18,,,,,2.2,1.0,2.0*36
$GPRMC,160351.998,A,1437.7797,S,07348.5900,W,25.50,69.90,200411,,,A*60
$GPGGA,160353.001,1437.7772,S,07348.5832,W,1,08,1.0,4544.5,M,23.9,M,,0000*65
$GPGSA,M,3,21,25,29,12,31,14,09,18,,,,,2.2,1.0,2.0*36
$GPRMC,160353.001,A,1437.7772,S,07348.5832,W,25.69,71.69,200411,,,A*65
$GPGGA,160354.000,1437.7753,S,07348.5762,W,1,07,1.2,4544.1,M,23.9,M,,0000*63
$GPGSA,M,3,21,25,29,12,14,09,18,,,,,,2.4,1.2,2.1*31
$GPRMC,160354.000,A,1437.7753,S,07348.5762,W,26.06,75.82,200411,,,A*61
$GPGGA,160354.999,1437.7735,S,07348.5692,W,1,07,1.1,4543.3,M,23.9,M,,0000*62
$GPGSA,M,3,21,25,29,12,31,14,18,,,,,,2.3,1.1,2.0*3F
$GPRMC,160354.999,A,1437.7735,S,07348.5692,W,25.77,77.05,200411,,,A*6E
$GPGGA,160355.999,1437.7720,S,07348.5619,W,1,07,1.2,4543.6,M,23.9,M,,0000*62
$GPGSA,M,3,21,25,29,31,14,09,18,,,,,,2.4,1.2,2.0*31
$GPGSV,3,1,11,21,63,338,36,25,51,144,39,29,41,175,42,12,31,093,*78
$GPGSV,3,2,11,31,31,223,39,14,18,303,38,09,18,023,30,18,12,358,28*7A
$GPGSV,3,3,11,05,06,111,30,27,01,027,,30,00,227,*4D
$GPRMC,160355.999,A,1437.7720,S,07348.5619,W,26.06,79.68,200411,,,A*68
$GPGGA,160357.003,1437.7705,S,07348.5548,W,1,08,1.0,4543.8,M,23.9,M,,0000*69
$GPGSA,M,3,21,25,29,12,31,14,09,18,,,,,2.2,1.0,2.0*36
$GPRMC,160357.003,A,1437.7705,S,07348.5548,W,25.41,79.67,200411,,,A*6F
$GPGGA,160357.998,1437.7690,S,07348.5476,W,1,06,1.4,4544.6,M,23.9,M,,0000*60
$GPGSA,M,3,21,25,29,31,14,18,,,,,,,2.6,1.4,2.2*3E
$GPRMC,160357.998,A,1437.7690,S,07348.5476,W,25.83,79.99,200411,,,A*6A
$GPGGA,160358.999,1437.7676,S,07348.5406,W,1,07,1.2,4544.6,M,23.9,M,,0000*66
$GPGSA,M,3,21,25,29,31,14,09,18,,,,,,2.4,1.2,2.0*31
$GPRMC,160358.999,A,1437.7676,S,07348.5406,W,25.47,80.48,200411,,,A*69
$GPGGA,160359.997,1437.7666,S,07348.5334,W,1,06,1.4,4544.3,M,23.9,M,,0000*6C
$GPGSA,M,3,21,25,29,31,14,18,,,,,,,2.6,1.4,2.2*3E
$GPRMC,160359.997,A,1437.7666,S,07348.5334,W,25.06,80.51,200411,,,A*6C
$GPGGA,160401.002,1437.7653,S,07348.5265,W,1,07,1.1,4544.7,M,23.9,M,,0000*60
$GPGSA,M,3,21,25,29,12,31,14,18,,,,,,2.3,1.1,2.0*3F
$GPGSV,3,1,11,21,63,338,34,25,51,144,38,29,41,175,40,12,31,093,27*7C
$GPGSV,3,2,11,31,31,223,36,14,18,303,32,09,18,023,,18,12,358,31*74
$GPGSV,3,3,11,05,06,111,38,27,01,027,28,30,00,227,*4F
$GPRMC,160401.002,A,1437.7653,S,07348.5265,W,24.80,82.72,200411,,,A*6C
$GPGGA,160401.999,1437.7642,S,07348.5197,W,1,08,1.0,4545.9,M,23.9,M,,0000*64
$GPGSA,M,3,21,25,29,12,31,14,09,18,,,,,2.2,1.0,2.0*36
$GPRMC,160401.999,A,1437.7642,S,07348.5197,W,24.35,80.89,200411,,,A*61
$GPGGA,160403.003,1437.7630,S,07348.5131,W,1,08,1.0,4545.9,M,23.9,M,,0000*65
$GPGSA,M,3,21,25,29,12,31,14,09,18,,,,,2.2,1.0,2.0*36
$GPRMC,160403.003,A,1437.7630,S,07348.5131,W,23.81,81.72,200411,,,A*6D
$GPGGA,160403.996,1437.7622,S,07348.5064,W,1,06,1.3,4545.9,M,23.9,M,,0000*6F
$GPGSA,M,3,21,25,29,12,14,18,,,,,,,2.5,1.3,2.1*38
$GPRMC,160403.996,A,1437.7622,S,07348.5064,W,23.46,83.06,200411,,,A*60
$GPGGA,160405.000,1437.7614,S,07348.4999,W,1,08,1.0,4546.3,M,23.9,M,,0000*64
$GPGSA,M,3,21,25,29,12,31,14,09,18,,,,,2.2,1.0,2.0*36
$GPRMC,160405.000,A,1437.7614,S,07348.4999,W,22.52,82.73,200411,,,A*68
$GPGGA,160406.001,1437.7606,S,07348.4936,W,1,07,1.1,4546.4,M,23.9,M,,0000*69
$GPGSA,M,3,21,25,29,12,31,14,18,,,,,,2.3,1.1,2.0*3F
$GPGSV,3,1,11,21,63,338,33,25,51,144,38,29,41,175,41,12,31,093,32*7E
$GPGSV,3,2,11,31,31,223,38,14,18,303,32,09,18,023,,18,12,358,32*79
$GPGSV,3,3,11,05,06,111,36,27,01,027,30,30,00,227,*48
$GPRMC,160406.001,A,1437.7606,S,07348.4936,W,22.59,83.88,200411,,,A*62
$GPGGA,160406.999,1437.7599,S,07348.4872,W,1,08,1.0,4545.8,M,23.9,M,,0000*64
$GPGSA,M,3,21,25,29,12,31,14,09,18,,,,,2.2,1.0,2.0*36
$GPRMC,160406.999,A,1437.7599,S,07348.4872,W,22.03,81.88,200411,,,A*63
$GPGGA,160407.998,1437.7591,S,07348.4805,W,1,08,1.0,4545.9,M,23.9,M,,0000*6D
$GPGSA,M,3,21,25,29,12,31,14,09,18,,,,,2.2,1.0,2.0*36
$GPRMC,160407.998,A,1437.7591,S,07348.4805,W,22.45,82.44,200411,,,A*6A
$GPGGA,160409.003,1437.7584,S,07348.4742,W,1,07,1.1,4544.8,M,23.9,M,,0000*6E
$GPGSA,M,3,21,25,29,12,31,14,18,,,,,,2.3,1.1,2.0*3F
$GPRMC,160409.003,A,1437.7584,S,07348.4742,W,21.04,81.99,200411,,,A*62
$GPGGA,160409.997,1437.7576,S,07348.4683,W,1,08,1.0,4544.5,M,23.9,M,,0000*68
$GPGSA,M,3,21,25,29,12,31,14,09,18,,,,,2.2,1.0,2.0*36
$GPRMC,160409.997,A,1437.7576,S,07348.4683,W,20.92,80.41,200411,,,A*6D
$GPGGA,160411.003,1437.7564,S,07348.4626,W,1,07,1.1,4544.7,M,23.9,M,,0000*65
$GPGSA,M,3,21,25,29,12,31,14,18,,,,,,2.3,1.1,2.0*3F
$GPGSV,3,1,11,21,63,338,35,25,51,144,39,29,41,175,41,12,31,093,29*73
$GPGSV,3,2,11,31,31,223,37,14,18,303,33,09,18,023,,18,12,358,31*74
$GPGSV,3,3,11,05,06,111,38,27,01,027,30,30,00,227,*46
$GPRMC,160411.003,A,1437.7564,S,07348.4626,W,20.69,81.09,200411,,,A*65
$GPGGA,160411.999,1437.7555,S,07348.4567,W,1,07,1.1,4544.3,M,23.9,M,,0000*6F
$GPGSA,M,3,21,25,29,12,31,14,18,,,,,,2.3,1.1,2.0*3F
$GPRMC,160411.999,A,1437.7555,S,07348.4567,W,20.70,80.79,200411,,,A*65
$GPGGA,160412.998,1437.7546,S,07348.4512,W,1,07,1.1,4544.6,M,23.9,M,,0000*68
$GPGSA,M,3,21,25,29,12,31,14,18,,,,,,2.3,1.1,2.0*3F
$GPRMC,160412.998,A,1437.7546,S,07348.4512,W,19.71,81.26,200411,,,A*67
$GPGGA,160413.999,1437.7540,S,07348.4456,W,1,07,1.1,4543.5,M,23.9,M,,0000*6B
$GPGSA,M,3,21,25,29,12,31,14,18,,,,,,2.3,1.1,2.0*3F
$GPRMC,160413.999,A,1437.7540,S,07348.4456,W,19.27,82.57,200411,,,A*66
$GPGGA,160415.003,1437.7532,S,07348.4400,W,1,07,1.1,4542.9,M,23.9,M,,0000*6C
$GPGSA,M,3,21,25,29,12,31,14,18,,,,,,2.3,1.1,2.0*3F
$GPRMC,160415.003,A,1437.7532,S,07348.4400,W,19.76,82.28,200411,,,A*60
$GPGGA,160415.998,1437.7529,S,07348.4344,W,1,07,1.1,4541.7,M,23.9,M,,0000*67
$GPGSA,M,3,21,25,29,12,31,14,18,,,,,,2.3,1.1,2.0*3F
$GPGSV,3,1,11,21,63,338,34,25,51,144,38,29,41,175,40,12,31,093,29*72
$GPGSV,3,2,11,31,31,223,38,14,18,303,31,09,18,023,,18,12,358,33*7B
$GPGSV,3,3,11,05,06,111,36,27,01,027,29,30,00,227,*40
$GPRMC,160415.998,A,1437.7529,S,07348.4344,W,19.80,83.05,200411,,,A*61
$GPGGA,160417.001,1437.7522,S,07348.4288,W,1,07,1.1,4541.2,M,23.9,M,,0000*63
$GPGSA,M,3,21,25,29,12,31,14,18,,,,,,2.3,1.1,2.0*3F
$GPRMC,160417.001,A,1437.7522,S,07348.4288,W,20.03,82.81,200411,,,A*6C
$GPGGA,160418.000,1437.7513,S,07348.4232,W,1,07,1.1,4541.9,M,23.9,M,,0000*65
$GPGSA,M,3,21,25,29,12,31,14,18,,,,,,2.3,1.1,2.0*3F
$GPRMC,160418.000,A,1437.7513,S,07348.4232,W,20.44,82.16,200411,,,A*6C
$GPGGA,160418.999,1437.7505,S,07348.4176,W,1,07,1.1,4540.5,M,23.9,M,,0000*65
$GPGSA,M,3,21,25,29,12,31,14,18,,,,,,2.3,1.1,2.0*3F
$GPRMC,160418.999,A,1437.7505,S,07348.4176,W,20.95,80.86,200411,,,A*66
$GPGGA,160420.000,1437.7495,S,07348.4115,W,1,08,1.0,4540.4,M,23.9,M,,0000*65
$GPGSA,M,3,21,25,29,12,31,14,09,18,,,,,2.2,1.0,2.0*36
$GPRMC,160420.000,A,1437.7495,S,07348.4115,W,21.04,80.64,200411,,,A*6C
$GPGGA,160421.000,1437.7487,S,07348.4052,W,1,07,1.1,4539.9,M,23.9,M,,0000*68
$GPGSA,M,3,21,25,29,12,31,14,18,,,,,,2.3,1.1,2.0*3F
$GPGSV,3,1,11,21,63,338,33,25,51,144,38,29,41,175,42,12,31,093,31*7E
$GPGSV,3,2,11,31,31,223,39,14,18,303,32,09,18,023,,18,12,358,32*78
$GPGSV,3,3,11,05,06,111,32,27,01,027,25,30,00,227,*48
$GPRMC,160421.000,A,1437.7487,S,07348.4052,W,21.69,82.24,200411,,,A*61
$GPGGA,160422.001,1437.7477,S,07348.3991,W,1,08,1.0,4540.4,M,23.9,M,,0000*69
$GPGSA,M,3,21,25,29,12,31,14,09,18,,,,,2.2,1.0,2.0*36
$GPRMC,160422.001,A,1437.7477,S,07348.3991,W,22.14,82.80,200411,,,A*6A
$GPGGA,160422.997,1437.7468,S,07348.3928,W,1,07,1.1,4540.4,M,23.9,M,,0000*6D
$GPGSA,M,3,21,25,29,12,31,14,18,,,,,,2.3,1.1,2.0*3F
$GPRMC,160422.997,A,1437.7468,S,07348.3928,W,22.23,81.60,200411,,,A*69
$GPGGA,160424.003,1437.7456,S,07348.3861,W,1,08,1.0,4540.4,M,23.9,M,,0000*60
$GPGSA,M,3,21,25,29,12,31,14,09,18,,,,,2.2,1.0,2.0*36
$GPRMC,160424.003,A,1437.7456,S,07348.3861,W,22.61,81.34,200411,,,A*6D
$GPGGA,160424.997,1437.7446,S,07348.3795,W,1,07,1.1,4539.7,M,23.9,M,,0000*62
$GPGSA,M,3,21,25,29,12,31,14,18,,,,,,2.3,1.1,2.0*3F
$GPRMC,160424.997,A,1437.7446,S,07348.3795,W,24.16,81.20,200411,,,A*6F
$GPGGA,160426.003,1437.7434,S,07348.3728,W,1,08,1.0,4539.9,M,23.9,M,,0000*67
$GPGSA,M,3,21,25,29,12,31,14,09,18,,,,,2.2,1.0,2.0*36
$GPGSV,3,1,11,21,63,338,31,25,51,144,38,29,41,175,42,12,31,093,28*74
$GPGSV,3,2,11,31,31,223,38,14,18,303,32,09,18,023,24,18,12,358,30*7D
$GPGSV,3,3,11,05,06,111,33,27,01,027,31,30,00,227,*4C
$GPRMC,160426.003,A,1437.7434,S,07348.3728,W,23.86,81.19,200411,,,A*6E
$GPGGA,160426.997,1437.7421,S,07348.3661,W,1,07,1.1,4540.1,M,23.9,M,,0000*63
$GPGSA,M,3,21,25,29,12,31,14,18,,,,,,2.3,1.1,2.0*3F
$GPRMC,160426.997,A,1437.7421,S,07348.3661,W,23.91,81.62,200411,,,A*68
$GPGGA,160428.001,1437.7410,S,07348.3595,W,1,07,1.1,4540.9,M,23.9,M,,0000*69
$GPGSA,M,3,21,25,29,12,31,14,18,,,,,,2.3,1.1,2.0*3F
$GPRMC,160428.001,A,1437.7410,S,07348.3595,W,23.71,81.93,200411,,,A*6A
$GPGGA,160429.001,1437.7398,S,07348.3531,W,1,08,1.0,4542.1,M,23.9,M,,0000*65
$GPGSA,M,3,21,25,29,12,31,14,09,18,,,,,2.2,1.0,2.0*36
$GPRMC,160429.001,A,1437.7398,S,07348.3531,W,23.91,82.51,200411,,,A*61
$GPGGA,160430.000,1437.7388,S,07348.3466,W,1,07,1.1,4542.6,M,23.9,M,,0000*67
$GPGSA,M,3,21,25,29,12,31,14,18,,,,,,2.3,1.1,2.0*3F
$GPRMC,160430.000,A,1437.7388,S,07348.3466,W,23.90,80.85,200411,,,A*60
$GPGGA,160430.998,1437.7375,S,07348.3399,W,1,07,1.1,4543.9,M,23.9,M,,0000*64
$GPGSA,M,3,21,25,29,12,31,14,18,,,,,,2.3,1.1,2.0*3F
$GPGSV,3,1,11,21,63,338,33,25,51,144,38,29,41,175,41,12,31,093,28*75
$GPGSV,3,2,11,31,31,223,37,14,18,303,32,09,18,023,,18,12,358,30*74
$GPGSV,3,3,11,05,06,111,31,27,01,027,,30,00,227,*4C
$GPRMC,160430.998,A,1437.7375,S,07348.3399,W,23.79,80.86,200411,,,A*69
$GPGGA,160432.001,1437.7365,S,07348.3332,W,1,08,1.0,4543.4,M,23.9,M,,0000*6C
$GPGSA,M,3,21,25,29,12,31,14,09,18,,,,,2.2,1.0,2.0*36
$GPRMC,160432.001,A,1437.7365,S,07348.3332,W,23.73,81.59,200411,,,A*6B
$GPGGA,160433.002,1437.7356,S,07348.3268,W,1,07,1.1,4542.8,M,23.9,M,,0000*63
$GPGSA,M,3,21,25,29,12,31,14,18,,,,,,2.3,1.1,2.0*3F
$GPRMC,160433.002,A,1437.7356,S,07348.3268,W,23.44,83.24,200411,,,A*6B
$GPGGA,160433.997,1437.7348,S,07348.3200,W,1,08,1.0,4541.6,M,23.9,M,,0000*64
$GPGSA,M,3,21,25,29,12,31,14,09,18,,,,,2.2,1.0,2.0*36
$GPRMC,160433.997,A,1437.7348,S,07348.3200,W,23.60,81.69,200411,,,A*62
$GPGGA,160434.998,1437.7341,S,07348.3134,W,1,07,1.1,4540.1,M,23.9,M,,0000*69
$GPGSA,M,3,21,25,29,12,31,14,18,,,,,,2.3,1.1,2.0*3F
$GPRMC,160434.998,A,1437.7341,S,07348.3134,W,23.70,83.57,200411,,,A*69
$GPGGA,160436.003,1437.7333,S,07348.3066,W,1,08,1.0,4541.1,M,23.9,M,,0000*6C
$GPGSA,M,3,21,25,29,12,31,14,09,18,,,,,2.2,1.0,2.0*36
$GPGSV,3,1,11,21,63,338,33,25,51,144,38,29,41,175,41,12,31,093,33*7F
$GPGSV,3,2,11,31,31,223,32,14,18,303,31,09,18,023,27,18,12,358,35*72
$GPGSV,3,3,11,05,06,111,33,27,01,027,,30,00,227,*4E
$GPRMC,160436.003,A,1437.7333,S,07348.3066,W,22.44,84.43,200411,,,A*67
$GPGGA,160437.000,1437.7328,S,07348.3003,W,1,08,1.0,4541.3,M,23.9,M,,0000*65
$GPGSA,M,3,21,25,29,12,31,14,09,18,,,,,2.2,1.0,2.0*36
$GPRMC,160437.000,A,1437.7328,S,07348.3003,W,22.38,85.00,200411,,,A*61
$GPGGA,160438.000,1437.7324,S,07348.2939,W,1,08,1.0,4542.3,M,23.9,M,,0000*64
$GPGSA,M,3,21,25,29,12,31,14,09,18,,,,,2.2,1.0,2.0*36
$GPRMC,160438.000,A,1437.7324,S,07348.2939,W,23.16,89.83,200411,,,A*69
$GPGGA,160439.000,1437.7325,S,07348.2875,W,1,08,1.0,4542.3,M,23.9,M,,0000*6D
$GPGSA,M,3,21,25,29,12,31,14,09,18,,,,,2.2,1.0,2.0*36
$GPRMC,160439.000,A,1437.7325,S,07348.2875,W,22.25,92.72,200411,,,A*65
$GPGGA,160440.000,1437.7330,S,07348.2813,W,1,08,1.0,4543.1,M,23.9,M,,0000*64
$GPGSA,M,3,21,25,29,12,31,14,09,18,,,,,2.2,1.0,2.0*36
$GPRMC,160440.000,A,1437.7330,S,07348.2813,W,22.69,95.46,200411,,,A*67
$GPGGA,160441.000,1437.7338,S,07348.2750,W,1,08,1.0,4543.2,M,23.9,M,,0000*66
$GPGSA,M,3,21,25,29,12,31,14,09,18,,,,,2.2,1.0,2.0*36
$GPGSV,3,1,11,21,63,338,34,25,51,144,41,29,41,175,37,12,31,093,36*72
$GPGSV,3,2,11,31,31,223,36,14,18,303,31,09,18,023,34,18,12,358,37*76
$GPGSV,3,3,11,05,06,111,37,27,01,027,,30,00,227,*4A
$GPRMC,160441.000,A,1437.7338,S,07348.2750,W,22.61,99.66,200411,,,A*60
$GPGGA,160442.000,1437.7349,S,07348.2691,W,1,08,1.0,4545.4,M,23.9,M,,0000*6F
$GPGSA,M,3,21,25,29,12,31,14,09,18,,,,,2.2,1.0,2.0*36
$GPRMC,160442.000,A,1437.7349,S,07348.2691,W,21.64,102.99,200411,,,A*5C
$GPGGA,160442.998,1437.7362,S,07348.2628,W,1,07,1.1,4546.2,M,23.9,M,,0000*67
$GPGSA,M,3,21,25,29,12,31,09,18,,,,,,2.3,1.1,2.0*33
$GPRMC,160442.998,A,1437.7362,S,07348.2628,W,21.22,104.70,200411,,,A*5C
$GPGGA,160444.001,1437.7375,S,07348.2569,W,1,06,1.2,4547.1,M,23.9,M,,0000*68
$GPGSA,M,3,21,25,29,12,31,18,,,,,,,2.4,1.2,2.1*3F
$GPRMC,160444.001,A,1437.7375,S,07348.2569,W,20.55,105.37,200411,,,A*50
$GPGGA,160445.003,1437.7392,S,07348.2512,W,1,06,1.2,4547.5,M,23.9,M,,0000*6A
$GPGSA,M,3,21,25,29,12,31,18,,,,,,,2.4,1.2,2.1*3F
$GPRMC,160445.003,A,1437.7392,S,07348.2512,W,20.91,107.50,200411,,,A*5D
$GPGGA,160445.995,1437.7408,S,07348.2456,W,1,07,1.1,4548.4,M,23.9,M,,0000*65
$GPGSA,M,3,21,25,29,12,31,09,18,,,,,,2.3,1.1,2.0*33
$GPGSV,3,1,11,21,63,338,32,25,51,144,42,29,41,175,38,12,31,093,34*7A
$GPGSV,3,2,11,31,31,223,38,14,18,303,,09,18,023,27,18,12,358,31*7E
$GPGSV,3,3,11,05,06,111,38,27,01,027,,30,00,227,*45
$GPRMC,160445.995,A,1437.7408,S,07348.2456,W,20.33,107.72,200411,,,A*56
$GPGGA,160447.003,1437.7426,S,07348.2398,W,1,07,1.1,4549.4,M,23.9,M,,0000*69
$GPGSA,M,3,21,25,29,12,31,09,18,,,,,,2.3,1.1,2.0*33
$GPRMC,160447.003,A,1437.7426,S,07348.2398,W,20.52,105.65,200411,,,A*58
$GPGGA,160448.000,1437.7441,S,07348.2341,W,1,06,1.2,4549.7,M,23.9,M,,0000*61
$GPGSA,M,3,21,25,29,12,31,18,,,,,,,2.4,1.2,2.1*3F
$GPRMC,160448.000,A,1437.7441,S,07348.2341,W,19.68,107.20,200411,,,A*51
$GPGGA,160449.000,1437.7458,S,07348.2281,W,1,06,1.2,4548.0,M,23.9,M,,0000*63
$GPGSA,M,3,21,25,29,12,31,18,,,,,,,2.4,1.2,2.1*3F
$GPRMC,160449.000,A,1437.7458,S,07348.2281,W,19.87,105.55,200411,,,A*54
$GPGGA,160449.999,1437.7474,S,07348.2227,W,1,06,1.2,4548.2,M,23.9,M,,0000*6A
$GPGSA,M,3,21,25,29,12,31,18,,,,,,,2.4,1.2,2.1*3F
$GPRMC,160449.999,A,1437.7474,S,07348.2227,W,19.95,107.12,200411,,,A*5D
$GPGGA,160451.000,1437.7491,S,07348.2169,W,1,06,1.2,4547.3,M,23.9,M,,0000*66
$GPGSA,M,3,21,25,29,12,31,18,,,,,,,2.4,1.2,2.1*3F
$GPGSV,3,1,11,21,63,338,31,25,51,144,42,29,41,175,38,12,31,093,38*75
$GPGSV,3,2,11,31,31,223,38,14,18,303,,09,18,023,,18,12,358,30*7A
$GPGSV,3,3,11,05,06,111,37,27,01,027,,30,00,227,*4A
$GPRMC,160451.000,A,1437.7491,S,07348.2169,W,19.98,106.17,200411,,,A*56
$GPGGA,160451.998,1437.7504,S,07348.2117,W,1,07,1.1,4548.6,M,23.9,M,,0000*62
$GPGSA,M,3,21,25,29,12,31,14,18,,,,,,2.3,1.1,2.0*3F
$GPRMC,160451.998,A,1437.7504,S,07348.2117,W,19.92,107.64,200411,,,A*55
$GPGGA,160453.000,1437.7523,S,07348.2061,W,1,07,1.1,4548.1,M,23.9,M,,0000*6A
$GPGSA,M,3,21,25,29,12,31,14,18,,,,,,2.3,1.1,2.0*3F
$GPRMC,160453.000,A,1437.7523,S,07348.2061,W,20.27,106.11,200411,,,A*5D
$GPGGA,160454.005,1437.7538,S,07348.2008,W,1,08,1.0,4549.1,M,23.9,M,,0000*62
$GPGSA,M,3,21,25,29,12,31,14,09,18,,,,,2.2,1.0,2.0*36
$GPRMC,160454.005,A,1437.7538,S,07348.2008,W,20.57,106.42,200411,,,A*5B
$GPGGA,160454.995,1437.7553,S,07348.1955,W,1,07,1.1,4549.8,M,23.9,M,,0000*6A
$GPGSA,M,3,21,25,29,12,31,14,18,,,,,,2.3,1.1,2.0*3F
$GPRMC,160454.995,A,1437.7553,S,07348.1955,W,20.64,105.17,200411,,,A*57
$GPGGA,160456.001,1437.7567,S,07348.1897,W,1,08,1.0,4550.1,M,23.9,M,,0000*6B
$GPGSA,M,3,21,25,29,12,31,14,09,18,,,,,2.2,1.0,2.0*36
$GPGSV,3,1,11,21,63,338,31,25,51,144,41,29,41,175,37,12,31,093,38*79
$GPGSV,3,2,11,31,31,223,38,14,18,303,26,09,18,023,27,18,12,358,31*7A
$GPGSV,3,3,11,05,06,111,35,27,01,027,,30,00,227,*48
$GPRMC,160456.001,A,1437.7567,S,07348.1897,W,20.35,105.10,200411,,,A*5A
$GPGGA,160456.999,1437.7583,S,07348.1838,W,1,07,1.1,4549.5,M,23.9,M,,0000*6E
$GPGSA,M,3,21,25,29,12,31,14,18,,,,,,2.3,1.1,2.0*3F
$GPRMC,160456.999,A,1437.7583,S,07348.1838,W,20.28,105.90,200411,,,A*59
$GPGGA,160458.001,1437.7598,S,07348.1784,W,1,07,1.1,4550.0,M,23.9,M,,0000*67
$GPGSA,M,3,21,25,29,12,31,14,18,,,,,,2.3,1.1,2.0*3F
$GPRMC,160458.001,A,1437.7598,S,07348.1784,W,19.78,106.67,200411,,,A*59
$GPGGA,160458.997,1437.7613,S,07348.1733,W,1,07,1.1,4550.5,M,23.9,M,,0000*68
$GPGSA,M,3,21,25,29,12,31,14,18,,,,,,2.3,1.1,2.0*3F
$GPRMC,160458.997,A,1437.7613,S,07348.1733,W,18.40,106.56,200411,,,A*5B
$GPGGA,160500.001,1437.7630,S,07348.1679,W,1,08,1.0,4550.4,M,23.9,M,,0000*63
$GPGSA,M,3,21,25,29,12,31,14,09,18,,,,,2.2,1.0,2.0*36
$GPRMC,160500.001,A,1437.7630,S,07348.1679,W,18.32,106.33,200411,,,A*59
$GPGGA,160501.000,1437.7643,S,07348.1629,W,1,08,1.0,4551.0,M,23.9,M,,0000*67
$GPGSA,M,3,21,25,29,12,31,14,09,18,,,,,2.2,1.0,2.0*36
$GPGSV,3,1,11,21,63,338,30,25,51,144,41,29,41,175,38,12,31,093,37*78
$GPGSV,3,2,11,31,31,223,37,14,18,303,29,09,18,023,25,18,12,358,30*79
$GPGSV,3,3,11,05,06,111,31,27,01,027,,30,00,227,*4C
$GPRMC,160501.000,A,1437.7643,S,07348.1629,W,18.48,106.00,200411,,,A*55
$GPGGA,160502.001,1437.7656,S,07348.1576,W,1,07,1.1,4550.5,M,23.9,M,,0000*62
$GPGSA,M,3,21,25,29,12,31,14,18,,,,,,2.3,1.1,2.0*3F
$GPRMC,160502.001,A,1437.7656,S,07348.1576,W,18.44,106.81,200411,,,A*5F
$GPGGA,160503.000,1437.7671,S,07348.1525,W,1,06,1.2,4549.6,M,23.9,M,,0000*68
$GPGSA,M,3,21,25,29,12,31,14,,,,,,,2.6,1.2,2.3*33
$GPRMC,160503.000,A,1437.7671,S,07348.1525,W,18.54,105.99,200411,,,A*57
$GPGGA,160504.002,1437.7682,S,07348.1473,W,1,08,1.0,4550.8,M,23.9,M,,0000*69
$GPGSA,M,3,21,25,29,12,31,14,09,18,,,,,2.2,1.0,2.0*36
$GPRMC,160504.002,A,1437.7682,S,07348.1473,W,18.86,104.86,200411,,,A*5C
$GPGGA,160504.997,1437.7698,S,07348.1425,W,1,08,1.0,4550.3,M,23.9,M,,0000*6F
$GPGSA,M,3,21,25,29,12,31,14,09,18,,,,,2.2,1.0,2.0*36
$GPRMC,160504.997,A,1437.7698,S,07348.1425,W,18.94,105.85,200411,,,A*50
$GPGGA,160506.002,1437.7712,S,07348.1375,W,1,06,1.2,4549.7,M,23.9,M,,0000*69
$GPGSA,M,3,21,25,29,12,31,14,,,,,,,2.6,1.2,2.3*33
$GPGSV,3,1,11,21,63,338,31,25,51,144,39,29,41,175,37,12,31,093,36*78
$GPGSV,3,2,11,31,31,223,37,14,18,303,29,09,18,023,,18,12,358,*7D
$GPGSV,3,3,11,05,06,111,31,27,01,027,,30,00,227,*4C
$GPRMC,160506.002,A,1437.7712,S,07348.1375,W,19.43,107.01,200411,,,A*53
$GPGGA,160506.998,1437.7725,S,07348.1325,W,1,08,1.0,4550.5,M,23.9,M,,0000*64
$GPGSA,M,3,21,25,29,12,31,14,09,18,,,,,2.2,1.0,2.0*36
$GPRMC,160506.998,A,1437.7725,S,07348.1325,W,19.84,105.04,200411,,,A*54
$GPGGA,160508.003,1437.7740,S,07348.1270,W,1,07,1.1,4551.0,M,23.9,M,,0000*69
$GPGSA,M,3,21,25,29,12,31,14,18,,,,,,2.3,1.1,2.0*3F
$GPRMC,160508.003,A,1437.7740,S,07348.1270,W,20.64,106.44,200411,,,A*50
$GPGGA,160508.997,1437.7758,S,07348.1212,W,1,08,1.0,4550.1,M,23.9,M,,0000*6E
$GPGSA,M,3,21,25,29,12,31,14,09,18,,,,,2.2,1.0,2.0*36
$GPRMC,160508.997,A,1437.7758,S,07348.1212,W,21.60,105.42,200411,,,A*59
$GPGGA,160510.001,1437.7773,S,07348.1151,W,1,08,1.0,4549.7,M,23.9,M,,0000*62
$GPGSA,M,3,21,25,29,12,31,14,09,18,,,,,2.2,1.0,2.0*36
$GPRMC,160510.001,A,1437.7773,S,07348.1151,W,22.74,105.12,200411,,,A*58
$GPGGA,160511.003,1437.7790,S,07348.1084,W,1,07,1.1,4549.2,M,23.9,M,,0000*6E
$GPGSA,M,3,21,25,29,12,31,14,18,,,,,,2.3,1.1,2.0*3F
$GPGSV,3,1,11,21,63,338,30,25,51,144,41,29,41,175,37,12,31,093,37*77
$GPGSV,3,2,11,31,31,223,37,14,18,303,30,09,18,023,,18,12,358,31*77
$GPGSV,3,3,11,05,06,111,33,27,01,027,,30,00,227,*4E
$GPRMC,160511.003,A,1437.7790,S,07348.1084,W,22.97,105.91,200411,,,A*59
$GPGGA,160512.002,1437.7808,S,07348.1020,W,1,07,1.1,4548.7,M,23.9,M,,0000*68
$GPGSA,M,3,21,25,29,12,31,14,18,,,,,,2.3,1.1,2.0*3F
$GPRMC,160512.002,A,1437.7808,S,07348.1020,W,23.68,106.24,200411,,,A*57
$GPGGA,160512.996,1437.7829,S,07348.0955,W,1,08,1.0,4548.1,M,23.9,M,,0000*6D
$GPGSA,M,3,21,25,29,12,31,14,09,18,,,,,2.2,1.0,2.0*36
$GPRMC,160512.996,A,1437.7829,S,07348.0955,W,25.10,108.12,200411,,,A*58
$GPGGA,160514.000,1437.7848,S,07348.0890,W,1,08,1.0,4548.2,M,23.9,M,,0000*61
$GPGSA,M,3,21,25,29,12,31,14,09,18,,,,,2.2,1.0,2.0*36
$GPRMC,160514.000,A,1437.7848,S,07348.0890,W,24.60,105.82,200411,,,A*55
$GPGGA,160515.000,1437.7868,S,07348.0819,W,1,08,1.0,4547.0,M,23.9,M,,0000*6E
$GPGSA,M,3,21,25,29,12,31,14,09,18,,,,,2.2,1.0,2.0*36
$GPRMC,160515.000,A,1437.7868,S,07348.0819,W,25.55,105.54,200411,,,A*5B
$GPGGA,160515.999,1437.7885,S,07348.0749,W,1,08,1.0,4546.5,M,23.9,M,,0000*6A
$GPGSA,M,3,21,25,29,12,31,14,09,18,,,,,2.2,1.0,2.0*36
$GPGSV,3,1,11,21,63,338,30,25,51,144,40,29,41,175,37,12,31,093,35*74
$GPGSV,3,2,11,31,31,223,37,14,18,303,29,09,18,023,30,18,12,358,31*7C
$GPGSV,3,3,11,05,06,111,33,27,01,027,,30,00,227,*4E
$GPRMC,160515.999,A,1437.7885,S,07348.0749,W,25.01,104.08,200411,,,A*52
$GPGGA,160517.002,1437.7905,S,07348.0676,W,1,07,1.1,4544.5,M,23.9,M,,0000*6B
$GPGSA,M,3,21,25,29,12,31,14,18,,,,,,2.3,1.1,2.0*3F
$GPRMC,160517.002,A,1437.7905,S,07348.0676,W,24.93,105.74,200411,,,A*5F
$GPGGA,160517.997,1437.7926,S,07348.0605,W,1,07,1.1,4541.8,M,23.9,M,,0000*63
$GPGSA,M,3,21,25,29,12,31,14,18,,,,,,2.3,1.1,2.0*3F
$GPRMC,160517.997,A,1437.7926,S,07348.0605,W,25.02,106.26,200411,,,A*52
$GPGGA,160519.002,1437.7948,S,07348.0539,W,1,08,1.0,4539.9,M,23.9,M,,0000*6C
$GPGSA,M,3,21,25,29,12,31,14,09,18,,,,,2.2,1.0,2.0*36
$GPRMC,160519.002,A,1437.7948,S,07348.0539,W,23.94,106.86,200411,,,A*5E
$GPGGA,160520.000,1437.7966,S,07348.0476,W,1,08,1.0,4540.9,M,23.9,M,,0000*6C
$GPGSA,M,3,21,25,29,12,31,14,09,18,,,,,2.2,1.0,2.0*36
$GPRMC,160520.000,A,1437.7966,S,07348.0476,W,23.81,107.19,200411,,,A*53
$GPGGA,160521.000,1437.7985,S,07348.0411,W,1,08,1.0,4539.5,M,23.9,M,,0000*63
$GPGSA,M,3,21,25,29,12,31,14,09,18,,,,,2.2,1.0,2.0*36
$GPGSV,3,1,11,21,63,338,32,25,51,144,40,29,41,175,36,12,31,093,36*74
$GPGSV,3,2,11,31,31,223,34,14,18,303,30,09,18,023,26,18,12,358,32*73
$GPGSV,3,3,11,05,06,111,36,27,01,027,,30,00,227,*4B
$GPRMC,160521.000,A,1437.7985,S,07348.0411,W,23.28,105.30,200411,,,A*54
$GPGGA,160521.997,1437.8003,S,07348.0348,W,1,07,1.1,4539.2,M,23.9,M,,0000*6E
$GPGSA,M,3,21,25,29,12,31,14,18,,,,,,2.3,1.1,2.0*3F
$GPRMC,160521.997,A,1437.8003,S,07348.0348,W,23.19,107.55,200411,,,A*53
$GPGGA,160523.002,1437.8020,S,07348.0287,W,1,08,1.0,4539.2,M,23.9,M,,0000*64
$GPGSA,M,3,21,25,29,12,31,14,09,18,,,,,2.2,1.0,2.0*36
$GPRMC,160523.002,A,1437.8020,S,07348.0287,W,22.15,109.04,200411,,,A*50
$GPGGA,160523.998,1437.8044,S,07348.0226,W,1,07,1.2,4538.3,M,23.9,M,,0000*6A
$GPGSA,M,3,21,25,29,31,14,09,18,,,,,,2.3,1.2,2.0*36
$GPRMC,160523.998,A,1437.8044,S,07348.0226,W,22.23,111.21,200411,,,A*58
$GPGGA,160525.000,1437.8067,S,07348.0169,W,1,08,1.0,4537.7,M,23.9,M,,0000*6B
$GPGSA,M,3,21,25,29,12,31,14,09,18,,,,,2.2,1.0,2.0*36
$GPRMC,160525.000,A,1437.8067,S,07348.0169,W,21.22,116.57,200411,,,A*5B
$GPGGA,160526.002,1437.8091,S,07348.0117,W,1,06,1.5,4537.3,M,23.9,M,,0000*65
$GPGSA,M,3,21,25,29,31,09,18,,,,,,,2.5,1.5,2.0*32
$GPGSV,3,1,11,21,63,338,36,25,51,144,39,29,41,175,38,12,31,093,*75
$GPGSV,3,2,11,31,31,223,40,14,18,303,,09,18,023,34,18,12,358,38*7A
$GPGSV,3,3,11,05,06,111,32,27,01,027,,30,00,227,*4F
$GPRMC,160526.002,A,1437.8091,S,07348.0117,W,19.84,118.76,200411,,,A*50
$GPGGA,160526.998,1437.8126,S,07348.0067,W,1,08,1.0,4536.1,M,23.9,M,,0000*6C
$GPGSA,M,3,21,25,29,12,31,14,09,18,,,,,2.2,1.0,2.0*36
$GPRMC,160526.998,A,1437.8126,S,07348.0067,W,20.33,123.92,200411,,,A*55
$GPGGA,160528.000,1437.8167,S,07348.0020,W,1,07,1.1,4535.2,M,23.9,M,,0000*62
$GPGSA,M,3,21,25,29,12,31,09,18,,,,,,2.3,1.1,2.0*33
$GPRMC,160528.000,A,1437.8167,S,07348.0020,W,21.62,130.33,200411,,,A*59
$GPGGA,160529.001,1437.8214,S,07347.9985,W,1,08,1.0,4534.5,M,23.9,M,,0000*6D
$GPGSA,M,3,21,25,29,12,31,14,09,18,,,,,2.2,1.0,2.0*36
$GPRMC,160529.001,A,1437.8214,S,07347.9985,W,20.73,137.08,200411,,,A*50
$GPGGA,160530.001,1437.8251,S,07347.9937,W,1,08,1.0,4533.3,M,23.9,M,,0000*6C
$GPGSA,M,3,21,25,29,12,31,14,09,18,,,,,2.2,1.0,2.0*36
$GPRMC,160530.001,A,1437.8251,S,07347.9937,W,19.92,134.27,200411,,,A*5B
$GPGGA,160531.001,1437.8291,S,07347.9910,W,1,08,1.0,4532.9,M,23.9,M,,0000*6F
$GPGSA,M,3,21,25,29,12,31,14,09,18,,,,,2.2,1.0,2.0*36
$GPGSV,3,1,11,21,63,338,31,25,51,144,39,29,41,175,34,12,31,093,30*7D
$GPGSV,3,2,11,31,31,223,40,14,18,303,29,09,18,023,32,18,12,358,31*7E
$GPGSV,3,3,11,05,06,111,31,27,01,027,,30,00,227,*4C
$GPRMC,160531.001,A,1437.8291,S,07347.9910,W,18.55,138.62,200411,,,A*54
$GPGGA,160532.001,1437.8348,S,07347.9904,W,1,08,1.0,4532.0,M,23.9,M,,0000*65
$GPGSA,M,3,21,25,29,12,31,14,09,18,,,,,2.2,1.0,2.0*36
$GPRMC,160532.001,A,1437.8348,S,07347.9904,W,18.32,151.24,200411,,,A*5B
$GPGGA,160533.002,1437.8405,S,07347.9910,W,1,08,1.0,4531.2,M,23.9,M,,0000*6D
$GPGSA,M,3,21,25,29,12,31,14,09,18,,,,,2.2,1.0,2.0*36
$GPRMC,160533.002,A,1437.8405,S,07347.9910,W,17.79,163.06,200411,,,A*53
$GPGGA,160534.000,1437.8468,S,07347.9933,W,1,08,1.0,4529.5,M,23.9,M,,0000*6C
$GPGSA,M,3,21,25,29,12,31,14,09,18,,,,,2.2,1.0,2.0*36
$GPRMC,160534.000,A,1437.8468,S,07347.9933,W,18.84,176.89,200411,,,A*52
$GPGGA,160534.998,1437.8534,S,07347.9976,W,1,07,1.0,4527.4,M,23.9,M,,0000*6D
$GPGSA,M,3,21,25,29,12,31,14,09,,,,,,2.3,1.0,2.1*3F
$GPRMC,160534.998,A,1437.8534,S,07347.9976,W,17.91,190.43,200411,,,A*56
$GPGGA,160536.001,1437.8586,S,07348.0038,W,1,08,1.0,4526.7,M,23.9,M,,0000*67
$GPGSA,M,3,21,25,29,12,31,14,09,18,,,,,2.2,1.0,2.0*36
$GPGSV,3,1,11,21,63,338,35,25,51,144,38,29,41,175,38,12,31,093,28*7D
$GPGSV,3,2,11,31,31,223,36,14,18,303,39,09,18,023,35,18,12,358,31*79
$GPGSV,3,3,11,05,06,111,28,27,01,027,,30,00,227,*44
$GPRMC,160536.001,A,1437.8586,S,07348.0038,W,18.74,206.93,200411,,,A*54
$GPGGA,160537.001,1437.8630,S,07348.0081,W,1,08,1.0,4527.5,M,23.9,M,,0000*69
$GPGSA,M,3,21,25,29,12,31,14,09,18,,,,,2.2,1.0,2.0*36
$GPRMC,160537.001,A,1437.8630,S,07348.0081,W,19.70,214.55,200411,,,A*55
$GPGGA,160538.001,1437.8670,S,07348.0135,W,1,08,1.0,4529.0,M,23.9,M,,0000*67
$GPGSA,M,3,21,25,29,12,31,14,09,18,,,,,2.2,1.0,2.0*36
$GPRMC,160538.001,A,1437.8670,S,07348.0135,W,22.28,223.94,200411,,,A*5C
$GPGGA,160539.002,1437.8723,S,07348.0205,W,1,08,1.0,4527.2,M,23.9,M,,0000*6E
$GPGSA,M,3,21,25,29,12,31,14,09,18,,,,,2.2,1.0,2.0*36
$GPRMC,160539.002,A,1437.8723,S,07348.0205,W,21.86,225.02,200411,,,A*57
$GPGGA,160539.997,1437.8770,S,07348.0231,W,1,08,1.0,4526.7,M,23.9,M,,0000*6E
$GPGSA,M,3,21,25,29,12,31,14,09,18,,,,,2.2,1.0,2.0*36
$GPRMC,160539.997,A,1437.8770,S,07348.0231,W,22.99,224.43,200411,,,A*5A
$GPGGA,160541.002,1437.8824,S,07348.0299,W,1,08,1.0,4524.9,M,23.9,M,,0000*64
$GPGSA,M,3,21,25,29,12,31,14,09,18,,,,,2.2,1.0,2.0*36
$GPGSV,3,1,11,21,63,338,36,25,51,144,39,29,41,175,38,12,31,093,28*7F
$GPGSV,3,2,11,31,31,223,38,14,18,303,38,09,18,023,32,18,12,358,16*74
$GPGSV,3,3,11,05,06,111,31,27,01,027,,30,00,227,*4C
$GPRMC,160541.002,A,1437.8824,S,07348.0299,W,23.20,224.17,200411,,,A*5E
$GPGGA,160542.001,1437.8872,S,07348.0342,W,1,08,1.0,4524.5,M,23.9,M,,0000*6C
$GPGSA,M,3,21,25,29,12,31,14,09,18,,,,,2.2,1.0,2.0*36
$GPRMC,160542.001,A,1437.8872,S,07348.0342,W,23.24,224.44,200411,,,A*58
$GPGGA,160543.000,1437.8916,S,07348.0394,W,1,08,1.0,4525.7,M,23.9,M,,0000*67
$GPGSA,M,3,21,25,29,12,31,14,09,18,,,,,2.2,1.0,2.0*36
$GPRMC,160543.000,A,1437.8916,S,07348.0394,W,23.11,225.14,200411,,,A*52
$GPGGA,160544.003,1437.8964,S,07348.0441,W,1,07,1.0,4524.6,M,23.9,M,,0000*66
$GPGSA,M,3,21,25,29,12,31,14,09,,,,,,2.3,1.0,2.1*3F
$GPRMC,160544.003,A,1437.8964,S,07348.0441,W,22.83,224.73,200411,,,A*56
$GPGGA,160544.997,1437.9014,S,07348.0491,W,1,08,1.0,4524.5,M,23.9,M,,0000*6C
$GPGSA,M,3,21,25,29,12,31,14,09,18,,,,,2.2,1.0,2.0*36
$GPRMC,160544.997,A,1437.9014,S,07348.0491,W,23.02,222.67,200411,,,A*5B
$GPGGA,160546.000,1437.9062,S,07348.0540,W,1,08,1.0,4524.9,M,23.9,M,,0000*69
$GPGSA,M,3,21,25,29,12,31,14,09,18,,,,,2.2,1.0,2.0*36
$GPGSV,3,1,11,21,63,338,37,25,51,144,38,29,41,175,37,12,31,093,30*79
$GPGSV,3,2,11,31,31,223,36,14,18,303,31,09,18,023,36,18,12,358,38*7B
$GPGSV,3,3,11,05,06,111,27,27,01,027,,30,00,227,*4B
$GPRMC,160546.000,A,1437.9062,S,07348.0540,W,23.06,221.20,200411,,,A*56
$GPGGA,160547.000,1437.9119,S,07348.0589,W,1,07,1.2,4523.2,M,23.9,M,,0000*61
$GPGSA,M,3,21,25,29,31,14,09,18,,,,,,2.3,1.2,2.0*36
$GPRMC,160547.000,A,1437.9119,S,07348.0589,W,22.29,218.52,200411,,,A*5C
$GPGGA,160548.000,1437.9171,S,07348.0628,W,1,08,1.0,4522.5,M,23.9,M,,0000*63
$GPGSA,M,3,21,25,29,12,31,14,09,18,,,,,2.2,1.0,2.0*36
$GPRMC,160548.000,A,1437.9171,S,07348.0628,W,22.24,215.63,200411,,,A*57
$GPGGA,160549.000,1437.9219,S,07348.0675,W,1,08,1.0,4524.0,M,23.9,M,,0000*64
$GPGSA,M,3,21,25,29,12,31,14,09,18,,,,,2.2,1.0,2.0*36
$GPRMC,160549.000,A,1437.9219,S,07348.0675,W,22.69,214.01,200411,,,A*5F
$GPGGA,160550.001,1437.9272,S,07348.0711,W,1,08,1.0,4524.2,M,23.9,M,,0000*61
$GPGSA,M,3,21,25,29,12,31,14,09,18,,,,,2.2,1.0,2.0*36
$GPRMC,160550.001,A,1437.9272,S,07348.0711,W,22.71,210.82,200411,,,A*5E
$GPGGA,160551.001,1437.9329,S,07348.0737,W,1,08,1.0,4521.9,M,23.9,M,,0000*65
$GPGSA,M,3,21,25,29,12,31,14,09,18,,,,,2.2,1.0,2.0*36
$GPGSV,3,1,11,21,63,338,34,25,51,144,41,29,41,175,37,12,31,093,38*7C
$GPGSV,3,2,11,31,31,223,23,14,18,303,29,09,18,023,31,18,12,358,31*78
$GPGSV,3,3,11,05,06,111,37,27,01,027,,30,00,227,*4A
$GPRMC,160551.001,A,1437.9329,S,07348.0737,W,23.25,209.21,200411,,,A*55
$GPGGA,160552.001,1437.9389,S,07348.0773,W,1,08,1.0,4522.1,M,23.9,M,,0000*67
$GPGSA,M,3,21,25,29,12,31,14,09,18,,,,,2.2,1.0,2.0*36
$GPRMC,160552.001,A,1437.9389,S,07348.0773,W,23.14,209.90,200411,,,A*54
$GPGGA,160553.001,1437.9444,S,07348.0813,W,1,08,1.0,4522.4,M,23.9,M,,0000*6C
$GPGSA,M,3,21,25,29,12,31,14,09,18,,,,,2.2,1.0,2.0*36
$GPRMC,160553.001,A,1437.9444,S,07348.0813,W,23.66,210.44,200411,,,A*5E
$GPGGA,160554.001,1437.9501,S,07348.0850,W,1,08,1.0,4521.7,M,23.9,M,,0000*6C
$GPGSA,M,3,21,25,29,12,31,14,09,18,,,,,2.2,1.0,2.0*36
$GPRMC,160554.001,A,1437.9501,S,07348.0850,W,23.73,211.82,200411,,,A*51
$GPGGA,160555.001,1437.9559,S,07348.0890,W,1,08,1.0,4520.3,M,23.9,M,,0000*69
$GPGSA,M,3,21,25,29,12,31,14,09,18,,,,,2.2,1.0,2.0*36
$GPRMC,160555.001,A,1437.9559,S,07348.0890,W,23.77,212.46,200411,,,A*5E
$GPGGA,160555.999,1437.9618,S,07348.0927,W,1,07,1.1,4518.4,M,23.9,M,,0000*68
$GPGSA,M,3,21,25,29,12,31,14,18,,,,,,2.3,1.1,2.0*3F
$GPGSV,3,1,11,21,63,338,33,25,51,144,41,29,41,175,36,12,31,093,38*7A
$GPGSV,3,2,11,31,31,223,33,14,18,303,25,09,18,023,,18,12,358,32*74
$GPGSV,3,3,11,05,06,111,35,27,01,027,,30,00,227,*48
$GPRMC,160555.999,A,1437.9618,S,07348.0927,W,24.04,211.38,200411,,,A*54
$GPGGA,160557.003,1437.9679,S,07348.0966,W,1,06,1.6,4516.9,M,23.9,M,,0000*67
$GPGSA,M,3,21,25,29,12,09,18,,,,,,,2.9,1.6,2.4*38
$GPRMC,160557.003,A,1437.9679,S,07348.0966,W,23.92,210.18,200411,,,A*55
$GPGGA,160557.996,1437.9738,S,07348.1005,W,1,07,1.1,4516.3,M,23.9,M,,0000*67
$GPGSA,M,3,21,25,29,12,31,14,18,,,,,,2.3,1.1,2.0*3F
$GPRMC,160557.996,A,1437.9738,S,07348.1005,W,24.62,211.39,200411,,,A*53
$GPGGA,160559.002,1437.9799,S,07348.1046,W,1,06,1.2,4514.9,M,23.9,M,,0000*6B
$GPGSA,M,3,21,25,29,12,31,18,,,,,,,2.4,1.2,2.1*3F
$GPRMC,160559.002,A,1437.9799,S,07348.1046,W,24.33,211.29,200411,,,A*50
$GPGGA,160600.001,1437.9857,S,07348.1086,W,1,06,1.2,4515.0,M,23.9,M,,0000*6E
$GPGSA,M,3,21,25,29,12,31,18,,,,,,,2.4,1.2,2.1*3F
$GPRMC,160600.001,A,1437.9857,S,07348.1086,W,24.45,210.50,200411,,,A*53
$GPGGA,160601.001,1437.9915,S,07348.1120,W,1,06,1.2,4514.2,M,23.9,M,,0000*66
$GPGSA,M,3,21,25,29,12,31,18,,,,,,,2.4,1.2,2.1*3F
$GPGSV,3,1,11,21,63,338,34,25,51,144,41,29,41,175,36,12,31,093,36*73
$GPGSV,3,2,11,31,31,223,32,14,18,303,,09,18,023,,18,12,358,33*73
$GPGSV,3,3,11,05,06,111,37,27,01,027,,30,00,227,*4A
$GPRMC,160601.001,A,1437.9915,S,07348.1120,W,24.42,209.42,200411,,,A*54
$GPGGA,160602.001,1437.9973,S,07348.1154,W,1,06,1.2,4512.5,M,23.9,M,,0000*67
$GPGSA,M,3,21,25,29,12,31,18,,,,,,,2.4,1.2,2.1*3F
$GPRMC,160602.001,A,1437.9973,S,07348.1154,W,23.30,211.40,200411,,,A*5D
$GPGGA,160602.999,1438.0028,S,07348.1191,W,1,07,1.1,4510.8,M,23.9,M,,0000*6A
$GPGSA,M,3,21,25,29,12,31,14,18,,,,,,2.3,1.1,2.0*3F
$GPRMC,160602.999,A,1438.0028,S,07348.1191,W,23.57,210.55,200411,,,A*59
$GPGGA,160604.002,1438.0083,S,07348.1224,W,1,06,1.2,4510.7,M,23.9,M,,0000*66
$GPGSA,M,3,21,25,29,12,31,18,,,,,,,2.4,1.2,2.1*3F
$GPRMC,160604.002,A,1438.0083,S,07348.1224,W,23.36,209.09,200411,,,A*5E
$GPGGA,160605.000,1438.0138,S,07348.1260,W,1,06,1.2,4510.9,M,23.9,M,,0000*6A
$GPGSA,M,3,21,25,29,12,31,18,,,,,,,2.4,1.2,2.1*3F
$GPRMC,160605.000,A,1438.0138,S,07348.1260,W,23.35,206.78,200411,,,A*56
$GPGGA,160605.997,1438.0198,S,07348.1291,W,1,07,1.0,4509.9,M,23.9,M,,0000*62
$GPGSA,M,3,21,25,29,12,31,14,09,,,,,,2.3,1.0,2.1*3F
$GPGSV,3,1,11,21,63,338,28,25,51,144,41,29,41,175,33,12,31,093,36*7B
$GPGSV,3,2,11,31,31,223,32,14,18,303,36,09,18,023,28,18,12,358,*7C
$GPGSV,3,3,11,05,06,111,35,27,01,027,,30,00,227,*48
$GPRMC,160605.997,A,1438.0198,S,07348.1291,W,23.69,203.08,200411,,,A*5E
$GPGGA,160607.003,1438.0260,S,07348.1315,W,1,07,1.1,4509.1,M,23.9,M,,0000*64
$GPGSA,M,3,21,25,29,12,31,09,18,,,,,,2.3,1.1,2.0*33
$GPRMC,160607.003,A,1438.0260,S,07348.1315,W,23.71,201.11,200411,,,A*52
$GPGGA,160607.997,1438.0323,S,07348.1344,W,1,07,1.0,4509.1,M,23.9,M,,0000*63
$GPGSA,M,3,21,25,29,12,31,14,09,,,,,,2.3,1.0,2.1*3F
$GPRMC,160607.997,A,1438.0323,S,07348.1344,W,23.60,198.39,200411,,,A*5D
$GPGGA,160609.002,1438.0393,S,07348.1363,W,1,08,1.0,4508.3,M,23.9,M,,0000*6A
$GPGSA,M,3,21,25,29,12,31,14,09,18,,,,,2.2,1.0,2.0*36
$GPRMC,160609.002,A,1438.0393,S,07348.1363,W,23.86,194.64,200411,,,A*54
$GPGGA,160609.998,1438.0455,S,07348.1373,W,1,07,1.1,4507.5,M,23.9,M,,0000*6B
$GPGSA,M,3,21,25,29,12,31,09,18,,,,,,2.3,1.1,2.0*33
$GPRMC,160609.998,A,1438.0455,S,07348.1373,W,23.54,190.95,200411,,,A*57
$GPGGA,160611.001,1438.0519,S,07348.1387,W,1,08,1.0,4506.7,M,23.9,M,,0000*64
$GPGSA,M,3,21,25,29,12,31,14,09,18,,,,,2.2,1.0,2.0*36
$GPGSV,3,1,11,21,63,338,36,25,51,144,38,29,41,175,36,12,31,093,32*7B
$GPGSV,3,2,11,31,31,223,40,14,18,303,31,09,18,023,34,18,12,358,25*74
$GPGSV,3,3,11,05,06,111,27,27,01,027,,30,00,227,*4B
$GPRMC,160611.001,A,1438.0519,S,07348.1387,W,23.30,187.09,200411,,,A*54
$GPGGA,160612.000,1438.0587,S,07348.1395,W,1,07,1.2,4505.5,M,23.9,M,,0000*6E
$GPGSA,M,3,21,25,29,31,14,09,18,,,,,,2.3,1.2,2.0*36
$GPRMC,160612.000,A,1438.0587,S,07348.1395,W,24.21,186.22,200411,,,A*5D
$GPGGA,160613.002,1438.0652,S,07348.1399,W,1,08,1.0,4505.1,M,23.9,M,,0000*63
$GPGSA,M,3,21,25,29,12,31,14,09,18,,,,,2.2,1.0,2.0*36
$GPRMC,160613.002,A,1438.0652,S,07348.1399,W,24.09,184.89,200411,,,A*50
$GPGGA,160614.000,1438.0717,S,07348.1398,W,1,08,1.0,4505.3,M,23.9,M,,0000*65
$GPGSA,M,3,21,25,29,12,31,14,09,18,,,,,2.2,1.0,2.0*36
$GPRMC,160614.000,A,1438.0717,S,07348.1398,W,24.20,182.40,200411,,,A*5C
$GPGGA,160614.999,1438.0785,S,07348.1406,W,1,07,1.0,4504.4,M,23.9,M,,0000*6E
$GPGSA,M,3,21,25,29,12,31,14,09,,,,,,2.3,1.0,2.1*3F
$GPRMC,160614.999,A,1438.0785,S,07348.1406,W,24.62,183.83,200411,,,A*56
$GPGGA,160616.001,1438.0849,S,07348.1408,W,1,08,1.0,4505.4,M,23.9,M,,0000*6B
$GPGSA,M,3,21,25,29,12,31,14,09,18,,,,,2.2,1.0,2.0*36
$GPGSV,3,1,11,21,63,338,32,25,51,144,39,29,41,175,34,12,31,093,33*7D
$GPGSV,3,2,11,31,31,223,39,14,18,303,36,09,18,023,31,18,12,358,25*78
$GPGSV,3,3,11,05,06,111,30,27,01,027,,30,00,227,*4D
$GPRMC,160616.001,A,1438.0849,S,07348.1408,W,24.22,182.11,200411,,,A*53
$GPGGA,160617.000,1438.0918,S,07348.1412,W,1,07,1.0,4504.3,M,23.9,M,,0000*6C
$GPGSA,M,3,21,25,29,12,31,14,09,,,,,,2.3,1.0,2.1*3F
$GPRMC,160617.000,A,1438.0918,S,07348.1412,W,24.18,183.02,200411,,,A*57
$GPGGA,160618.001,1438.0985,S,07348.1417,W,1,08,1.0,4505.0,M,23.9,M,,0000*6E
$GPGSA,M,3,21,25,29,12,31,14,09,18,,,,,2.2,1.0,2.0*36
$GPRMC,160618.001,A,1438.0985,S,07348.1417,W,24.51,183.01,200411,,,A*56
$GPGGA,160619.001,1438.1051,S,07348.1418,W,1,08,1.0,4506.2,M,23.9,M,,0000*60
$GPGSA,M,3,21,25,29,12,31,14,09,18,,,,,2.2,1.0,2.0*36
$GPRMC,160619.001,A,1438.1051,S,07348.1418,W,24.41,182.95,200411,,,A*54
$GPGGA,160619.999,1438.1119,S,07348.1422,W,1,08,1.0,4506.6,M,23.9,M,,0000*68
$GPGSA,M,3,21,25,29,12,31,14,09,18,,,,,2.2,1.0,2.0*36
$GPRMC,160619.999,A,1438.1119,S,07348.1422,W,24.61,183.50,200411,,,A*52
$GPGGA,160621.001,1438.1185,S,07348.1426,W,1,08,1.0,4506.6,M,23.9,M,,0000*6A
$GPGSA,M,3,21,25,29,12,31,14,09,18,,,,,2.2,1.0,2.0*36
$GPGSV,3,1,11,21,63,338,31,25,51,144,38,29,41,175,33,12,31,093,32*79
$GPGSV,3,2,11,31,31,223,41,14,18,303,38,09,18,023,30,18,12,358,28*75
$GPGSV,3,3,11,05,06,111,31,27,01,027,,30,00,227,*4C
$GPRMC,160621.001,A,1438.1185,S,07348.1426,W,24.09,181.46,200411,,,A*5B
$GPGGA,160622.027,1438.1254,S,07348.1428,W,0,00,,4506.3,M,23.9,M,,0000*4F
$GPGSA,M,1,,,,,,,,,,,,,,,*12
$GPRMC,160622.027,V,1438.1254,S,07348.1428,W,,,200411,,,N*70
$GPGGA,160622.724,1438.1301,S,07348.1429,W,0,00,,4506.1,M,23.9,M,,0000*49
$GPGSA,M,1,,,,,,,,,,,,,,,*12
$GPRMC,160622.724,V,1438.1301,S,07348.1429,W,,,200411,,,N*74
$GPGGA,160623.000,1438.1319,S,07348.1429,W,0,00,,4506.1,M,23.9,M,,0000*40
$GPGSA,M,1,,,,,,,,,,,,,,,*12
$GPRMC,160623.000,V,1438.1319,S,07348.1429,W,,,200411,,,N*7D
$GPGGA,160624.000,1438.1386,S,07348.1431,W,0,00,,4505.8,M,23.9,M,,0000*42
$GPGSA,M,1,,,,,,,,,,,,,,,*12
$GPRMC,160624.000,V,1438.1386,S,07348.1431,W,,,200411,,,N*75
$GPGGA,160625.000,1438.1444,S,07348.1460,W,1,08,1.0,4508.2,M,23.9,M,,0000*6F
$GPGSA,M,3,09,18,31,21,25,29,12,14,,,,,2.2,1.0,2.0*36
$GPRMC,160625.000,A,1438.1444,S,07348.1460,W,23.38,189.06,200411,,,A*5D
$GPGGA,160626.000,1438.1505,S,07348.1474,W,1,08,1.0,4509.2,M,23.9,M,,0000*6C
$GPGSA,M,3,09,18,31,21,25,29,12,14,,,,,2.2,1.0,2.0*36
$GPGSV,3,1,11,21,65,337,36,25,51,142,43,29,40,174,35,31,32,224,43*71
$GPGSV,3,2,11,12,31,091,30,14,18,304,39,09,17,023,38,18,13,358,25*74
$GPGSV,3,3,11,05,06,112,,27,00,027,,30,00,226,*4D
$GPRMC,160626.000,A,1438.1505,S,07348.1474,W,23.08,193.04,200411,,,A*55
$GPGGA,160627.000,1438.1563,S,07348.1497,W,1,08,1.0,4509.5,M,23.9,M,,0000*67
$GPGSA,M,3,09,18,31,21,25,29,12,14,,,,,2.2,1.0,2.0*36
$GPRMC,160627.000,A,1438.1563,S,07348.1497,W,23.30,196.27,200411,,,A*56
$GPGGA,160628.000,1438.1624,S,07348.1523,W,1,08,1.0,4509.4,M,23.9,M,,0000*67
$GPGSA,M,3,09,18,31,21,25,29,12,14,,,,,2.2,1.0,2.0*36
$GPRMC,160628.000,A,1438.1624,S,07348.1523,W,23.57,201.73,200411,,,A*5A
$GPGGA,160629.000,1438.1685,S,07348.1562,W,1,08,1.0,4511.9,M,23.9,M,,0000*6C
$GPGSA,M,3,09,18,31,21,25,29,12,14,,,,,2.2,1.0,2.0*36
$GPRMC,160629.000,A,1438.1685,S,07348.1562,W,23.80,208.50,200411,,,A*57
$GPGGA,160630.000,1438.1741,S,07348.1601,W,1,08,1.0,4512.1,M,23.9,M,,0000*60
$GPGSA,M,3,09,18,31,21,25,29,12,14,,,,,2.2,1.0,2.0*36
$GPRMC,160630.000,A,1438.1741,S,07348.1601,W,23.76,214.26,200411,,,A*55
$GPGGA,160631.000,1438.1794,S,07348.1643,W,1,08,1.0,4511.4,M,23.9,M,,0000*69
$GPGSA,M,3,09,18,31,21,25,29,12,14,,,,,2.2,1.0,2.0*36
$GPGSV,3,1,11,21,65,337,38,25,51,142,48,29,40,174,39,31,32,224,39*75
$GPGSV,3,2,11,12,31,091,32,14,18,304,36,09,17,023,39,18,13,358,34*78
$GPGSV,3,3,11,05,06,112,30,27,00,027,,30,00,226,*4E
$GPRMC,160631.000,A,1438.1794,S,07348.1643,W,24.11,219.00,200411,,,A*55
$GPGGA,160632.000,1438.1843,S,07348.1690,W,1,08,1.0,4511.3,M,23.9,M,,0000*66
$GPGSA,M,3,09,18,31,21,25,29,12,14,,,,,2.2,1.0,2.0*36
$GPRMC,160632.000,A,1438.1843,S,07348.1690,W,24.40,222.44,200411,,,A*51
$GPGGA,160633.000,1438.1892,S,07348.1740,W,1,08,1.0,4510.6,M,23.9,M,,0000*63
$GPGSA,M,3,09,18,31,21,25,29,12,14,,,,,2.2,1.0,2.0*36
$GPRMC,160633.000,A,1438.1892,S,07348.1740,W,24.80,225.01,200411,,,A*5A
$GPGGA,160634.000,1438.1940,S,07348.1791,W,1,08,1.0,4509.9,M,23.9,M,,0000*61
$GPGSA,M,3,09,18,31,21,25,29,12,14,,,,,2.2,1.0,2.0*36
$GPRMC,160634.000,A,1438.1940,S,07348.1791,W,24.90,225.73,200411,,,A*5B
$GPGGA,160635.000,1438.1989,S,07348.1842,W,1,08,1.0,4509.0,M,23.9,M,,0000*6D
$GPGSA,M,3,09,18,31,21,25,29,12,14,,,,,2.2,1.0,2.0*36
$GPRMC,160635.000,A,1438.1989,S,07348.1842,W,24.83,225.76,200411,,,A*59
$GPGGA,160636.013,1438.2037,S,07348.1893,W,1,07,1.2,4508.5,M,23.9,M,,0000*66
$GPGSA,M,3,21,25,29,31,14,09,18,,,,,,2.3,1.2,2.0*36
$GPGSV,3,1,11,21,65,337,37,25,51,142,38,29,40,174,38,31,32,224,37*72
$GPGSV,3,2,11,12,31,091,,14,18,304,37,09,17,023,30,18,13,358,29*7D
$GPGSV,3,3,11,05,06,112,30,30,00,226,,27,00,027,*4E
$GPRMC,160636.013,A,1438.2037,S,07348.1893,W,24.62,226.71,200411,,,A*50
$GPGGA,160636.987,1438.2083,S,07348.1943,W,1,07,1.2,4507.7,M,23.9,M,,0000*6C
$GPGSA,M,3,21,25,29,31,14,09,18,,,,,,2.3,1.2,2.0*36
$GPRMC,160636.987,A,1438.2083,S,07348.1943,W,24.87,227.14,200411,,,A*5E
$GPGGA,160638.000,1438.2129,S,07348.1994,W,1,07,1.1,4506.5,M,23.9,M,,0000*6F
$GPGSA,M,3,21,25,29,31,12,14,18,,,,,,2.3,1.1,2.0*3F
$GPRMC,160638.000,A,1438.2129,S,07348.1994,W,23.73,226.96,200411,,,A*5A
$GPGGA,160639.002,1438.2176,S,07348.2044,W,1,07,1.1,4505.7,M,23.9,M,,0000*60
$GPGSA,M,3,21,25,29,31,12,14,18,,,,,,2.3,1.1,2.0*3F
$GPRMC,160639.002,A,1438.2176,S,07348.2044,W,24.49,225.87,200411,,,A*59
$GPGGA,160640.000,1438.2223,S,07348.2095,W,1,08,1.0,4505.3,M,23.9,M,,0000*69
$GPGSA,M,3,21,25,29,31,12,14,09,18,,,,,2.2,1.0,2.0*36
$GPRMC,160640.000,A,1438.2223,S,07348.2095,W,24.61,226.90,200411,,,A*55
$GPGGA,160641.000,1438.2271,S,07348.2144,W,1,08,1.0,4504.5,M,23.9,M,,0000*65
$GPGSA,M,3,21,25,29,31,12,14,09,18,,,,,2.2,1.0,2.0*36
$GPGSV,3,1,11,21,65,337,37,25,51,142,41,29,40,174,38,31,32,224,37*7C
$GPGSV,3,2,11,12,31,091,30,14,18,304,39,09,17,023,28,18,13,358,31*70
$GPGSV,3,3,11,05,06,112,26,30,00,226,,27,00,027,*49
$GPRMC,160641.000,A,1438.2271,S,07348.2144,W,24.45,226.56,200411,,,A*52
$GPGGA,160641.999,1438.2316,S,07348.2191,W,1,07,1.1,4503.1,M,23.9,M,,0000*69
$GPGSA,M,3,21,25,29,31,12,14,18,,,,,,2.3,1.1,2.0*3F
$GPRMC,160641.999,A,1438.2316,S,07348.2191,W,23.59,226.56,200411,,,A*59
$GPGGA,160643.002,1438.2362,S,07348.2240,W,1,08,1.0,4502.7,M,23.9,M,,0000*65
$GPGSA,M,3,21,25,29,31,12,14,09,18,,,,,2.2,1.0,2.0*36
$GPRMC,160643.002,A,1438.2362,S,07348.2240,W,24.40,226.09,200411,,,A*59
$GPGGA,160643.999,1438.2409,S,07348.2291,W,1,08,1.0,4502.1,M,23.9,M,,0000*6E
$GPGSA,M,3,21,25,29,31,12,14,09,18,,,,,2.2,1.0,2.0*36
$GPRMC,160643.999,A,1438.2409,S,07348.2291,W,23.92,225.74,200411,,,A*55
$GPGGA,160645.000,1438.2457,S,07348.2338,W,1,08,1.0,4501.3,M,23.9,M,,0000*69
$GPGSA,M,3,21,25,29,31,12,14,09,18,,,,,2.2,1.0,2.0*36
$GPRMC,160645.000,A,1438.2457,S,07348.2338,W,23.54,221.79,200411,,,A*50
$GPGGA,160646.000,1438.2508,S,07348.2382,W,1,08,1.0,4500.2,M,23.9,M,,0000*60
$GPGSA,M,3,21,25,29,31,12,14,09,18,,,,,2.2,1.0,2.0*36
$GPGSV,3,1,11,21,65,337,38,25,51,142,40,29,40,174,36,31,32,224,35*7E
$GPGSV,3,2,11,12,31,091,29,14,18,304,36,09,17,023,37,18,13,358,33*7B
$GPGSV,3,3,11,05,06,112,32,30,00,226,,27,00,027,*4C
$GPRMC,160646.000,A,1438.2508,S,07348.2382,W,23.65,218.53,200411,,,A*59
$GPGGA,160647.001,1438.2562,S,07348.2425,W,1,08,1.0,4500.5,M,23.9,M,,0000*61
$GPGSA,M,3,21,25,29,31,12,14,09,18,,,,,2.2,1.0,2.0*36
$GPRMC,160647.001,A,1438.2562,S,07348.2425,W,24.10,213.00,200411,,,A*57
$GPGGA,160648.000,1438.2620,S,07348.2461,W,1,06,1.3,4500.1,M,23.9,M,,0000*63
$GPGSA,M,3,21,25,29,12,14,18,,,,,,,2.4,1.3,2.1*39
$GPRMC,160648.000,A,1438.2620,S,07348.2461,W,24.61,209.14,200411,,,A*54
$GPGGA,160649.001,1438.2681,S,07348.2494,W,1,07,1.0,4499.2,M,23.9,M,,0000*62
$GPGSA,M,3,21,25,29,31,12,14,09,,,,,,2.3,1.0,2.0*3E
