$GPGGA,175156.007,1429.7972,S,07514.8396,W,1,07,1.0,544.5,M,17.5,M,,0000*56
$GPGSA,M,3,21,31,18,30,22,29,06,,,,,,2.0,1.0,1.7*3D
$GPRMC,175156.007,A,1429.7972,S,07514.8396,W,15.53,221.74,170411,,,A*53
$GPGGA,175156.994,1429.8001,S,07514.8423,W,1,08,0.9,544.6,M,17.5,M,,0000*5A
$GPGSA,M,3,21,31,25,18,30,22,29,06,,,,,1.9,0.9,1.7*38
$GPRMC,175156.994,A,1429.8001,S,07514.8423,W,15.15,225.47,170411,,,A*5D
$GPGGA,175158.016,1429.8047,S,07514.8452,W,1,09,0.9,544.8,M,17.5,M,,0000*5C
$GPGSA,M,3,21,31,25,18,30,22,29,06,16,,,,1.8,0.9,1.6*3F
$GPGSV,3,1,12,21,64,172,33,31,49,282,38,25,46,069,29,18,41,031,38*75
$GPGSV,3,2,12,30,30,208,34,22,24,357,34,29,22,132,31,06,10,248,39*7C
$GPGSV,3,3,12,16,09,215,25,12,09,051,35,14,06,341,27,03,01,252,35*7C
$GPRMC,175158.016,A,1429.8047,S,07514.8452,W,16.99,221.95,170411,,,A*58
$GPGGA,175158.992,1429.8089,S,07514.8488,W,1,08,0.9,545.5,M,17.5,M,,0000*51
$GPGSA,M,3,21,31,25,18,30,22,29,06,,,,,1.9,0.9,1.7*38
$GPRMC,175158.992,A,1429.8089,S,07514.8488,W,17.97,224.02,170411,,,A*5C
$GPGGA,175159.997,1429.8133,S,07514.8524,W,1,07,1.0,545.7,M,17.5,M,,0000*57
$GPGSA,M,3,21,31,18,30,22,29,06,,,,,,2.0,1.0,1.7*3D
$GPRMC,175159.997,A,1429.8133,S,07514.8524,W,19.80,221.29,170411,,,A*5B
$GPGGA,175201.006,1429.8184,S,07514.8565,W,1,07,1.0,545.2,M,17.5,M,,0000*54
$GPGSA,M,3,21,31,18,30,22,29,06,,,,,,2.0,1.0,1.7*3D
$GPRMC,175201.006,A,1429.8184,S,07514.8565,W,19.98,221.87,170411,,,A*50
$GPGGA,175201.995,1429.8234,S,07514.8599,W,1,08,0.9,545.9,M,17.5,M,,0000*50
$GPGSA,M,3,21,31,25,18,30,22,29,06,,,,,1.9,0.9,1.7*38
$GPRMC,175201.995,A,1429.8234,S,07514.8599,W,20.58,219.57,170411,,,A*58
$GPGGA,175203.017,1429.8279,S,07514.8639,W,1,07,1.0,546.3,M,17.5,M,,0000*5F
$GPGSA,M,3,21,31,18,30,22,29,06,,,,,,2.0,1.0,1.7*3D
$GPGSV,3,1,12,21,64,172,31,31,49,282,39,25,46,069,,18,41,031,38*7D
$GPGSV,3,2,12,30,30,208,36,22,24,357,32,29,22,132,28,06,10,248,38*71
$GPGSV,3,3,12,16,09,215,,12,09,051,31,14,06,341,,03,01,252,36*79
$GPRMC,175203.017,A,1429.8279,S,07514.8639,W,21.47,222.21,170411,,,A*5F
$GPGGA,175203.987,1429.8330,S,07514.8685,W,1,06,1.6,545.6,M,17.5,M,,0000*55
$GPGSA,M,3,21,31,18,30,22,06,,,,,,,2.7,1.6,2.2*31
$GPRMC,175203.987,A,1429.8330,S,07514.8685,W,22.31,222.27,170411,,,A*50
$GPGGA,175205.003,1429.8378,S,07514.8729,W,1,07,1.0,545.8,M,17.5,M,,0000*54
$GPGSA,M,3,21,31,18,30,22,29,06,,,,,,2.0,1.0,1.7*3D
$GPRMC,175205.003,A,1429.8378,S,07514.8729,W,23.04,221.04,170411,,,A*5D
$GPGGA,175205.997,1429.8434,S,07514.8776,W,1,06,1.1,545.3,M,17.5,M,,0000*5E
$GPGSA,M,3,21,18,30,22,29,06,,,,,,,2.3,1.1,2.0*39
$GPRMC,175205.997,A,1429.8434,S,07514.8776,W,23.70,222.94,170411,,,A*55
$GPGGA,175207.018,1429.8479,S,07514.8823,W,1,07,1.0,545.1,M,17.5,M,,0000*56
$GPGSA,M,3,21,31,18,30,22,29,06,,,,,,2.0,1.0,1.7*3D
$GPRMC,175207.018,A,1429.8479,S,07514.8823,W,23.94,223.40,170411,,,A*5D
$GPGGA,175207.988,1429.8527,S,07514.8869,W,1,07,1.0,545.2,M,17.5,M,,0000*51
$GPGSA,M,3,21,31,18,30,22,29,06,,,,,,2.0,1.0,1.7*3D
$GPGSV,3,1,12,21,64,172,33,31,49,282,40,25,46,069,,18,41,031,37*7E
$GPGSV,3,2,12,30,30,208,35,22,24,357,34,29,22,132,29,06,10,248,38*75
$GPGSV,3,3,12,16,09,215,,12,09,051,33,14,06,341,,03,01,252,38*75
$GPRMC,175207.988,A,1429.8527,S,07514.8869,W,23.69,221.43,170411,,,A*5A
$GPGGA,175209.002,1429.8573,S,07514.8917,W,1,06,1.6,545.4,M,17.5,M,,0000*5C
$GPGSA,M,3,21,31,18,30,22,06,,,,,,,2.7,1.6,2.2*31
$GPRMC,175209.002,A,1429.8573,S,07514.8917,W,24.36,225.23,170411,,,A*59
$GPGGA,175210.000,1429.8620,S,07514.8966,W,1,06,1.6,546.3,M,17.5,M,,0000*51
$GPGSA,M,3,21,31,18,30,22,06,,,,,,,2.7,1.6,2.2*31
$GPRMC,175210.000,A,1429.8620,S,07514.8966,W,24.69,224.79,170411,,,A*54
$GPGGA,175210.999,1429.8671,S,07514.9022,W,1,06,1.6,546.9,M,17.5,M,,0000*5E
$GPGSA,M,3,21,31,18,30,22,06,,,,,,,2.7,1.6,2.2*31
$GPRMC,175210.999,A,1429.8671,S,07514.9022,W,24.63,226.06,170411,,,A*51
$GPGGA,175212.002,1429.8720,S,07514.9074,W,1,07,1.3,546.1,M,17.5,M,,0000*5D
$GPGSA,M,3,21,31,25,18,30,22,06,,,,,,2.5,1.3,2.1*32
$GPRMC,175212.002,A,1429.8720,S,07514.9074,W,24.76,228.78,170411,,,A*5D
$GPGGA,175212.995,1429.8767,S,07514.9122,W,1,07,1.3,545.4,M,17.5,M,,0000*5D
$GPGSA,M,3,21,31,25,18,30,22,06,,,,,,2.5,1.3,2.1*32
$GPGSV,3,1,12,21,64,172,28,31,49,282,38,25,46,069,24,18,41,031,37*7D
$GPGSV,3,2,12,30,30,208,36,22,24,357,33,29,22,132,,06,10,248,39*7B
$GPGSV,3,3,12,16,09,215,,12,09,051,30,14,06,341,34,03,01,252,39*70
$GPRMC,175212.995,A,1429.8767,S,07514.9122,W,24.59,228.23,170411,,,A*58
$GPGGA,175214.005,1429.8812,S,07514.9178,W,1,06,1.6,545.8,M,17.5,M,,0000*51
$GPGSA,M,3,21,31,18,30,22,06,,,,,,,2.7,1.6,2.2*31
$GPRMC,175214.005,A,1429.8812,S,07514.9178,W,25.51,228.77,170411,,,A*54
$GPGGA,175215.001,1429.8858,S,07514.9233,W,1,05,1.7,546.1,M,17.5,M,,0000*5E
$GPGSA,M,3,31,18,30,22,06,,,,,,,,3.0,1.7,2.5*32
$GPRMC,175215.001,A,1429.8858,S,07514.9233,W,26.10,229.74,170411,,,A*57
$GPGGA,175216.036,1429.8907,S,07514.9292,W,0,00,,546.1,M,17.5,M,,0000*75
$GPGSA,M,1,,,,,,,,,,,,,,,*12
$GPRMC,175216.036,V,1429.8907,S,07514.9292,W,,,170411,,,N*77
$GPGGA,175216.736,1429.8940,S,07514.9332,W,0,00,,546.2,M,17.5,M,,0000*79
$GPGSA,M,1,,,,,,,,,,,,,,,*12
$GPRMC,175216.736,V,1429.8940,S,07514.9332,W,,,170411,,,N*78
$GPGGA,175217.000,1429.8952,S,07514.9347,W,0,00,,546.2,M,17.5,M,,0000*7B
$GPGSA,M,1,,,,,,,,,,,,,,,*12
$GPRMC,175217.000,V,1429.8952,S,07514.9347,W,,,170411,,,N*7A
$GPGGA,175218.000,1429.8999,S,07514.9404,W,0,00,,546.3,M,17.5,M,,0000*72
$GPGSA,M,1,,,,,,,,,,,,,,,*12
$GPGSV,3,1,12,21,63,171,,31,49,283,,25,45,067,,18,42,032,*76
$GPGSV,3,2,12,30,31,208,,22,25,358,,29,22,131,,06,11,247,*76
$GPGSV,3,3,12,16,10,215,,12,09,051,,14,06,342,,03,01,252,*75
$GPRMC,175218.000,V,1429.8999,S,07514.9404,W,,,170411,,,N*72
$GPGGA,175219.000,1429.9042,S,07514.9455,W,1,05,1.7,545.2,M,17.5,M,,0000*57
$GPGSA,M,3,31,30,22,18,06,,,,,,,,3.0,1.7,2.5*32
$GPRMC,175219.000,A,1429.9042,S,07514.9455,W,26.21,228.60,170411,,,A*58
$GPGGA,175220.000,1429.9091,S,07514.9497,W,1,07,1.3,543.3,M,17.5,M,,0000*5C
$GPGSA,M,3,31,21,25,30,22,18,06,,,,,,2.5,1.3,2.1*32
$GPRMC,175220.000,A,1429.9091,S,07514.9497,W,26.25,229.72,170411,,,A*54
$GPGGA,175221.000,1429.9143,S,07514.9549,W,1,07,1.3,542.2,M,17.5,M,,0000*51
$GPGSA,M,3,31,21,25,30,22,18,06,,,,,,2.5,1.3,2.1*32
$GPRMC,175221.000,A,1429.9143,S,07514.9549,W,26.12,229.69,170411,,,A*57
$GPGGA,175222.000,1429.9193,S,07514.9604,W,1,07,1.3,541.9,M,17.5,M,,0000*5D
$GPGSA,M,3,31,21,25,30,22,18,06,,,,,,2.5,1.3,2.1*32
$GPRMC,175222.000,A,1429.9193,S,07514.9604,W,26.26,230.09,170411,,,A*5A
$GPGGA,175223.000,1429.9240,S,07514.9661,W,1,07,1.3,541.9,M,17.5,M,,0000*52
$GPGSA,M,3,31,21,25,30,22,18,06,,,,,,2.5,1.3,2.1*32
$GPGSV,3,1,12,21,63,171,25,31,49,283,43,25,45,067,24,18,42,032,38*7B
$GPGSV,3,2,12,30,31,208,37,22,25,358,33,29,22,131,,06,11,247,40*76
$GPGSV,3,3,12,16,10,215,,12,09,051,28,14,06,342,,03,01,252,40*7B
$GPRMC,175223.000,A,1429.9240,S,07514.9661,W,26.18,229.21,170411,,,A*5A
$GPGGA,175224.000,1429.9286,S,07514.9719,W,1,07,1.3,540.9,M,17.5,M,,0000*50
$GPGSA,M,3,31,21,25,30,22,18,06,,,,,,2.5,1.3,2.1*32
$GPRMC,175224.000,A,1429.9286,S,07514.9719,W,26.52,229.77,170411,,,A*54
$GPGGA,175225.000,1429.9335,S,07514.9775,W,1,07,1.3,541.1,M,17.5,M,,0000*5B
$GPGSA,M,3,31,21,25,30,22,18,06,,,,,,2.5,1.3,2.2*31
$GPRMC,175225.000,A,1429.9335,S,07514.9775,W,26.70,229.73,170411,,,A*52
$GPGGA,175226.000,1429.9383,S,07514.9833,W,1,07,1.3,541.0,M,17.5,M,,0000*59
$GPGSA,M,3,31,21,25,30,22,18,06,,,,,,2.5,1.3,2.2*31
$GPRMC,175226.000,A,1429.9383,S,07514.9833,W,26.65,228.77,170411,,,A*50
$GPGGA,175227.000,1429.9431,S,07514.9889,W,1,07,1.3,540.6,M,17.5,M,,0000*50
$GPGSA,M,3,31,21,25,30,22,18,06,,,,,,2.5,1.3,2.2*31
$GPRMC,175227.000,A,1429.9431,S,07514.9889,W,26.64,229.15,170411,,,A*5A
$GPGGA,175228.000,1429.9479,S,07514.9948,W,1,07,1.3,540.4,M,17.5,M,,0000*5D
$GPGSA,M,3,31,21,25,30,22,18,06,,,,,,2.5,1.3,2.2*31
$GPGSV,3,1,12,21,63,171,26,31,49,283,44,25,45,067,24,18,42,032,37*70
$GPGSV,3,2,12,30,31,208,36,22,25,358,32,29,22,131,,06,11,247,40*76
$GPGSV,3,3,12,16,10,215,,12,09,051,29,14,06,342,,03,01,252,*7E
$GPRMC,175228.000,A,1429.9479,S,07514.9948,W,26.77,229.05,170411,,,A*56
$GPGGA,175229.000,1429.9529,S,07515.0005,W,1,07,1.3,540.1,M,17.5,M,,0000*55
$GPGSA,M,3,31,21,25,30,22,18,06,,,,,,2.5,1.3,2.2*31
$GPRMC,175229.000,A,1429.9529,S,07515.0005,W,26.81,228.91,170411,,,A*5E
$GPGGA,175230.008,1429.9579,S,07515.0063,W,1,08,1.2,540.3,M,17.5,M,,0000*5C
$GPGSA,M,3,21,31,25,18,30,22,06,16,,,,,2.2,1.2,1.8*39
$GPRMC,175230.008,A,1429.9579,S,07515.0063,W,27.13,228.60,170411,,,A*5F
$GPGGA,175230.994,1429.9627,S,07515.0119,W,1,08,0.9,540.0,M,17.5,M,,0000*5D
$GPGSA,M,3,21,31,25,18,30,22,29,06,,,,,1.9,0.9,1.7*38
$GPRMC,175230.994,A,1429.9627,S,07515.0119,W,26.61,229.06,170411,,,A*52
$GPGGA,175232.018,1429.9676,S,07515.0180,W,1,07,1.0,540.1,M,17.5,M,,0000*50
$GPGSA,M,3,21,31,18,30,22,29,06,,,,,,2.0,1.0,1.7*3D
$GPRMC,175232.018,A,1429.9676,S,07515.0180,W,26.96,228.45,170411,,,A*57
$GPGGA,175232.984,1429.9725,S,07515.0235,W,1,07,1.0,539.9,M,17.5,M,,0000*50
$GPGSA,M,3,21,31,18,30,22,29,06,,,,,,2.0,1.0,1.7*3D
$GPGSV,3,1,12,21,63,171,29,31,49,283,40,25,45,067,,18,42,032,35*7F
$GPGSV,3,2,12,30,31,208,35,22,25,358,34,29,22,131,31,06,11,247,38*7E
$GPGSV,3,3,12,16,10,215,,12,09,051,30,14,06,342,33,03,01,252,37*72
$GPRMC,175232.984,A,1429.9725,S,07515.0235,W,26.44,228.54,170411,,,A*5E
$GPGGA,175234.002,1429.9776,S,07515.0293,W,1,06,1.0,540.6,M,17.5,M,,0000*5B
$GPGSA,M,3,31,18,30,22,29,06,,,,,,,2.5,1.0,2.3*3C
$GPRMC,175234.002,A,1429.9776,S,07515.0293,W,26.60,228.47,170411,,,A*51
$GPGGA,175235.001,1429.9826,S,07515.0352,W,1,07,1.0,541.2,M,17.5,M,,0000*5B
$GPGSA,M,3,21,31,18,30,22,29,06,,,,,,2.0,1.0,1.7*3D
$GPRMC,175235.001,A,1429.9826,S,07515.0352,W,26.46,228.97,170411,,,A*5C
$GPGGA,175235.997,1429.9875,S,07515.0410,W,1,08,1.0,541.7,M,17.5,M,,0000*50
$GPGSA,M,3,21,31,18,30,22,29,06,16,,,,,1.8,1.0,1.6*30
$GPRMC,175235.997,A,1429.9875,S,07515.0410,W,26.84,229.37,170411,,,A*58
$GPGGA,175236.999,1429.9923,S,07515.0469,W,1,08,1.0,541.6,M,17.5,M,,0000*50
$GPGSA,M,3,21,31,18,30,22,29,06,16,,,,,1.8,1.0,1.6*30
$GPRMC,175236.999,A,1429.9923,S,07515.0469,W,26.72,229.87,170411,,,A*5B
$GPGGA,175237.995,1429.9971,S,07515.0527,W,1,07,1.1,541.6,M,17.5,M,,0000*5F
$GPGSA,M,3,21,18,30,22,29,06,16,,,,,,2.2,1.1,1.9*35
$GPGSV,3,1,12,21,63,171,29,31,49,283,,25,45,067,,18,42,032,35*7B
$GPGSV,3,2,12,30,31,208,35,22,25,358,35,29,22,131,29,06,11,247,40*79
$GPGSV,3,3,12,16,10,215,27,12,09,051,32,14,06,342,33,03,01,252,39*7B
$GPRMC,175237.995,A,1429.9971,S,07515.0527,W,26.70,229.95,170411,,,A*5B
$GPGGA,175239.006,1430.0020,S,07515.0587,W,1,07,1.0,542.2,M,17.5,M,,0000*52
$GPGSA,M,3,21,31,18,30,22,29,06,,,,,,2.0,1.0,1.7*3D
$GPRMC,175239.006,A,1430.0020,S,07515.0587,W,26.90,229.14,170411,,,A*57
$GPGGA,175239.997,1430.0067,S,07515.0647,W,1,07,1.0,541.5,M,17.5,M,,0000*5B
$GPGSA,M,3,21,31,18,30,22,29,06,,,,,,2.0,1.0,1.7*3D
$GPRMC,175239.997,A,1430.0067,S,07515.0647,W,27.21,228.63,170411,,,A*50
$GPGGA,175241.020,1430.0117,S,07515.0705,W,1,08,0.9,540.8,M,17.5,M,,0000*5B
$GPGSA,M,3,21,31,25,18,30,22,29,06,,,,,1.9,0.9,1.7*38
$GPRMC,175241.020,A,1430.0117,S,07515.0705,W,26.76,228.22,170411,,,A*5D
$GPGGA,175241.977,1430.0163,S,07515.0763,W,1,07,1.0,540.6,M,17.5,M,,0000*5A
$GPGSA,M,3,21,31,18,30,22,29,06,,,,,,2.0,1.0,1.7*3D
$GPRMC,175241.977,A,1430.0163,S,07515.0763,W,27.95,229.48,170411,,,A*54
$GPGGA,175243.004,1430.0214,S,07515.0826,W,1,07,1.0,540.0,M,17.5,M,,0000*5E
$GPGSA,M,3,21,31,18,30,22,29,06,,,,,,2.0,1.0,1.7*3D
$GPGSV,3,1,12,21,63,171,29,31,49,283,38,25,45,067,,18,42,032,34*71
$GPGSV,3,2,12,30,31,208,33,22,25,358,31,29,22,131,28,06,11,247,39*74
$GPGSV,3,3,12,16,10,215,,12,09,051,29,14,06,342,33,03,01,252,36*7B
$GPRMC,175243.004,A,1430.0214,S,07515.0826,W,27.76,229.26,170411,,,A*53
$GPGGA,175244.000,1430.0263,S,07515.0884,W,1,05,1.7,539.0,M,17.5,M,,0000*5E
$GPGSA,M,3,31,18,30,22,06,,,,,,,,3.0,1.7,2.5*32
$GPRMC,175244.000,A,1430.0263,S,07515.0884,W,27.22,230.33,170411,,,A*55
$GPGGA,175245.023,1430.0313,S,07515.0946,W,1,08,1.2,540.0,M,17.5,M,,0000*51
$GPGSA,M,3,21,31,25,18,30,22,06,16,,,,,2.2,1.2,1.8*39
$GPRMC,175245.023,A,1430.0313,S,07515.0946,W,27.54,231.32,170411,,,A*5D
$GPGGA,175245.974,1430.0357,S,07515.1006,W,1,07,1.3,540.0,M,17.5,M,,0000*58
$GPGSA,M,3,21,31,25,18,30,22,06,,,,,,2.5,1.3,2.2*31
$GPRMC,175245.974,A,1430.0357,S,07515.1006,W,27.13,229.37,170411,,,A*55
$GPGGA,175247.002,1430.0407,S,07515.1069,W,1,06,1.6,539.8,M,17.5,M,,0000*5B
$GPGSA,M,3,31,18,30,22,06,16,,,,,,,2.7,1.6,2.2*35
$GPRMC,175247.002,A,1430.0407,S,07515.1069,W,27.58,231.09,170411,,,A*5F
$GPGGA,175248.001,1430.0456,S,07515.1129,W,1,08,1.2,540.0,M,17.5,M,,0000*5A
$GPGSA,M,3,21,31,25,18,30,22,06,16,,,,,2.2,1.2,1.8*39
$GPGSV,3,1,12,21,63,171,30,31,49,283,39,25,45,067,29,18,42,032,35*72
$GPGSV,3,2,12,30,31,208,35,22,25,358,35,29,22,131,,06,11,247,37*72
$GPGSV,3,3,12,16,10,215,30,12,09,051,30,14,06,342,,03,01,252,*75
$GPRMC,175248.001,A,1430.0456,S,07515.1129,W,27.91,232.18,170411,,,A*54
$GPGGA,175249.024,1430.0502,S,07515.1198,W,1,07,1.3,539.5,M,17.5,M,,0000*53
$GPGSA,M,3,21,31,25,18,30,22,06,,,,,,2.5,1.3,2.2*31
$GPRMC,175249.024,A,1430.0502,S,07515.1198,W,27.44,231.41,170411,,,A*5F
$GPGGA,175249.978,1430.0548,S,07515.1254,W,1,06,1.6,539.3,M,17.5,M,,0000*5C
$GPGSA,M,3,21,31,18,30,22,06,,,,,,,2.7,1.6,2.2*31
$GPRMC,175249.978,A,1430.0548,S,07515.1254,W,26.81,229.76,170411,,,A*57
$GPGGA,175251.001,1430.0598,S,07515.1313,W,1,08,0.9,539.5,M,17.5,M,,0000*5B
$GPGSA,M,3,21,31,25,18,30,22,29,06,,,,,1.9,0.9,1.7*38
$GPRMC,175251.001,A,1430.0598,S,07515.1313,W,26.75,230.01,170411,,,A*55
$GPGGA,175252.001,1430.0648,S,07515.1370,W,1,08,0.9,539.8,M,17.5,M,,0000*5E
$GPGSA,M,3,21,31,25,18,30,22,29,06,,,,,1.9,0.9,1.7*38
$GPRMC,175252.001,A,1430.0648,S,07515.1370,W,26.63,228.53,170411,,,A*54
$GPGGA,175252.999,1430.0697,S,07515.1432,W,1,07,1.0,540.9,M,17.5,M,,0000*5D
$GPGSA,M,3,21,31,18,30,22,29,06,,,,,,2.0,1.0,1.7*3D
$GPGSV,3,1,12,21,63,171,27,31,49,283,38,25,45,067,,18,42,032,32*79
$GPGSV,3,2,12,30,31,208,31,22,25,358,30,29,22,131,29,06,11,247,37*78
$GPGSV,3,3,12,16,10,215,,12,09,051,30,14,06,342,31,03,01,252,38*7F
$GPRMC,175252.999,A,1430.0697,S,07515.1432,W,26.72,227.97,170411,,,A*58
$GPGGA,175254.001,1430.0748,S,07515.1488,W,1,08,0.9,540.9,M,17.5,M,,0000*56
$GPGSA,M,3,21,31,25,18,30,22,29,06,,,,,1.9,0.9,1.7*38
$GPRMC,175254.001,A,1430.0748,S,07515.1488,W,27.27,228.42,170411,,,A*52
$GPGGA,175254.999,1430.0800,S,07515.1547,W,1,07,1.0,541.0,M,17.5,M,,0000*50
$GPGSA,M,3,21,31,18,30,22,29,06,,,,,,2.0,1.0,1.7*3D
$GPRMC,175254.999,A,1430.0800,S,07515.1547,W,27.86,229.46,170411,,,A*55
$GPGGA,175256.023,1430.0853,S,07515.1612,W,1,08,0.9,541.6,M,17.5,M,,0000*5E
$GPGSA,M,3,21,31,25,18,30,22,29,06,,,,,1.9,0.9,1.7*38
$GPRMC,175256.023,A,1430.0853,S,07515.1612,W,28.23,229.89,170411,,,A*59
$GPGGA,175256.980,1430.0905,S,07515.1668,W,1,08,0.9,541.2,M,17.5,M,,0000*55
$GPGSA,M,3,21,31,25,18,30,22,29,06,,,,,1.9,0.9,1.7*38
$GPRMC,175256.980,A,1430.0905,S,07515.1668,W,28.06,229.35,170411,,,A*56
$GPGGA,175257.996,1430.0957,S,07515.1727,W,1,07,1.0,540.5,M,17.5,M,,0000*5F
$GPGSA,M,3,21,31,18,30,22,29,06,,,,,,2.0,1.0,1.7*3D
$GPGSV,3,1,12,21,63,171,29,31,49,283,39,25,45,067,,18,42,032,35*71
$GPGSV,3,2,12,30,31,208,34,22,25,358,34,29,22,131,30,06,11,247,39*7F
$GPGSV,3,3,12,16,10,215,,12,09,051,29,14,06,342,33,03,01,252,38*75
$GPRMC,175257.996,A,1430.0957,S,07515.1727,W,28.09,229.41,170411,,,A*51
$GPGGA,175259.003,1430.1012,S,07515.1789,W,1,07,1.0,541.3,M,17.5,M,,0000*5E
$GPGSA,M,3,21,31,18,30,22,29,06,,,,,,2.0,1.0,1.7*3D
$GPRMC,175259.003,A,1430.1012,S,07515.1789,W,28.43,228.40,170411,,,A*59
$GPGGA,175300.003,1430.1067,S,07515.1847,W,1,08,0.9,540.7,M,17.5,M,,0000*5E
$GPGSA,M,3,21,31,25,18,30,22,29,06,,,,,1.9,0.9,1.7*38
$GPRMC,175300.003,A,1430.1067,S,07515.1847,W,28.08,228.67,170411,,,A*51
$GPGGA,175300.998,1430.1118,S,07515.1907,W,1,08,1.0,541.0,M,17.5,M,,0000*57
$GPGSA,M,3,21,31,18,30,22,29,06,16,,,,,1.8,1.0,1.6*30
$GPRMC,175300.998,A,1430.1118,S,07515.1907,W,28.34,229.47,170411,,,A*5A
$GPGGA,175302.000,1430.1170,S,07515.1967,W,1,08,0.9,540.3,M,17.5,M,,0000*5F
$GPGSA,M,3,21,31,25,18,30,22,29,06,,,,,1.9,0.9,1.7*38
$GPRMC,175302.000,A,1430.1170,S,07515.1967,W,28.61,229.36,170411,,,A*5E
$GPGGA,175302.996,1430.1224,S,07515.2025,W,1,09,0.9,539.5,M,17.5,M,,0000*5E
$GPGSA,M,3,21,31,25,18,30,22,29,06,16,,,,1.8,0.9,1.6*3F
$GPGSV,3,1,12,21,63,171,30,31,49,283,38,25,45,067,24,18,42,032,35*7E
$GPGSV,3,2,12,30,31,208,35,22,25,358,35,29,22,131,33,06,11,247,39*7C
$GPGSV,3,3,12,16,10,215,26,12,09,051,29,14,06,342,32,03,01,252,38*70
$GPRMC,175302.996,A,1430.1224,S,07515.2025,W,28.84,229.51,170411,,,A*5C
$GPGGA,175304.018,1430.1279,S,07515.2087,W,1,07,1.0,539.3,M,17.5,M,,0000*57
$GPGSA,M,3,21,31,18,30,22,29,06,,,,,,2.0,1.0,1.7*3D
$GPRMC,175304.018,A,1430.1279,S,07515.2087,W,28.73,229.94,170411,,,A*54
$GPGGA,175304.978,1430.1328,S,07515.2152,W,1,06,1.0,541.4,M,17.5,M,,0000*5D
$GPGSA,M,3,31,18,30,22,29,06,,,,,,,2.6,1.0,2.3*3F
$GPRMC,175304.978,A,1430.1328,S,07515.2152,W,28.70,228.53,170411,,,A*5E
$GPGGA,175306.007,1430.1382,S,07515.2215,W,1,07,1.0,540.9,M,17.5,M,,0000*53
$GPGSA,M,3,21,31,18,30,22,29,06,,,,,,2.0,1.0,1.7*3D
$GPRMC,175306.007,A,1430.1382,S,07515.2215,W,29.22,230.60,170411,,,A*52
$GPGGA,175306.993,1430.1432,S,07515.2275,W,1,09,0.9,540.9,M,17.5,M,,0000*5B
$GPGSA,M,3,21,31,25,18,30,22,29,06,16,,,,1.8,0.9,1.6*3F
$GPRMC,175306.993,A,1430.1432,S,07515.2275,W,28.54,229.03,170411,,,A*51
$GPGGA,175308.017,1430.1487,S,07515.2337,W,1,07,1.0,541.0,M,17.5,M,,0000*57
$GPGSA,M,3,21,31,18,30,22,29,06,,,,,,2.0,1.0,1.7*3D
$GPGSV,3,1,12,21,63,171,27,31,49,283,39,25,45,067,,18,42,032,33*79
$GPGSV,3,2,12,30,31,208,32,22,25,358,30,29,22,131,29,06,11,247,38*74
$GPGSV,3,3,12,16,10,215,,12,09,051,,14,06,342,32,03,01,252,37*70
$GPRMC,175308.017,A,1430.1487,S,07515.2337,W,28.87,229.04,170411,,,A*5A
$GPGGA,175308.987,1430.1539,S,07515.2401,W,1,07,1.0,543.2,M,17.5,M,,0000*51
$GPGSA,M,3,21,31,18,30,22,29,06,,,,,,2.0,1.0,1.7*3D
$GPRMC,175308.987,A,1430.1539,S,07515.2401,W,28.93,228.81,170411,,,A*55
$GPGGA,175310.001,1430.1591,S,07515.2467,W,1,08,0.9,543.5,M,17.5,M,,0000*5D
$GPGSA,M,3,21,31,25,18,30,22,29,06,,,,,2.0,0.9,1.7*32
$GPRMC,175310.001,A,1430.1591,S,07515.2467,W,29.29,231.35,170411,,,A*5E
$GPGGA,175310.998,1430.1642,S,07515.2528,W,1,07,1.0,542.8,M,17.5,M,,0000*58
$GPGSA,M,3,21,31,18,30,22,29,06,,,,,,2.0,1.0,1.7*3D
$GPRMC,175310.998,A,1430.1642,S,07515.2528,W,28.39,227.89,170411,,,A*50
$GPGGA,175312.006,1430.1700,S,07515.2586,W,1,07,1.0,543.4,M,17.5,M,,0000*5A
$GPGSA,M,3,21,31,18,30,22,29,06,,,,,,2.0,1.0,1.7*3D
$GPRMC,175312.006,A,1430.1700,S,07515.2586,W,28.65,228.25,170411,,,A*5F
$GPGGA,175312.999,1430.1753,S,07515.2646,W,1,09,0.9,543.3,M,17.5,M,,0000*5D
$GPGSA,M,3,21,31,25,18,30,22,29,06,16,,,,1.8,0.9,1.6*3F
$GPGSV,3,1,12,21,63,171,28,31,49,283,38,25,45,067,26,18,42,032,34*74
$GPGSV,3,2,12,30,31,208,35,22,25,358,33,29,22,131,32,06,11,247,40*75
$GPGSV,3,3,12,16,10,215,28,12,09,051,29,14,06,342,34,03,01,252,40*77
$GPRMC,175312.999,A,1430.1753,S,07515.2646,W,28.35,229.72,170411,,,A*5F
$GPGGA,175314.024,1430.1808,S,07515.2707,W,1,08,1.0,542.5,M,17.5,M,,0000*5F
$GPGSA,M,3,31,25,18,30,22,29,06,16,,,,,2.3,1.0,2.1*38
$GPRMC,175314.024,A,1430.1808,S,07515.2707,W,28.40,232.76,170411,,,A*5F
$GPGGA,175314.978,1430.1851,S,07515.2773,W,1,08,1.0,542.5,M,17.5,M,,0000*50
$GPGSA,M,3,21,31,25,18,22,29,06,16,,,,,1.9,1.0,1.6*35
$GPRMC,175314.978,A,1430.1851,S,07515.2773,W,28.69,235.31,170411,,,A*5F
$GPGGA,175316.000,1430.1896,S,07515.2841,W,1,08,0.9,541.8,M,17.5,M,,0000*57
$GPGSA,M,3,21,31,25,18,30,22,29,06,,,,,2.0,0.9,1.7*32
$GPRMC,175316.000,A,1430.1896,S,07515.2841,W,28.40,237.99,170411,,,A*55
$GPGGA,175316.997,1430.1935,S,07515.2910,W,1,07,1.1,542.2,M,17.5,M,,0000*52
$GPGSA,M,3,21,31,25,18,30,29,06,,,,,,2.2,1.1,1.9*37
$GPRMC,175316.997,A,1430.1935,S,07515.2910,W,28.07,240.52,170411,,,A*5B
$GPGGA,175318.020,1430.1972,S,07515.2984,W,1,08,0.9,541.8,M,17.5,M,,0000*58
$GPGSA,M,3,21,31,25,18,30,22,29,06,,,,,2.0,0.9,1.7*32
$GPGSV,3,1,12,21,63,171,36,31,49,284,35,25,45,067,31,18,42,032,37*74
$GPGSV,3,2,12,30,32,208,28,22,25,358,25,29,22,131,30,06,11,246,28*70
$GPGSV,3,3,12,16,10,215,,12,08,050,28,14,06,342,37,03,02,251,36*7E
$GPRMC,175318.020,A,1430.1972,S,07515.2984,W,28.92,244.04,170411,,,A*55
$GPGGA,175318.979,1430.2006,S,07515.3055,W,1,08,1.0,542.2,M,17.5,M,,0000*51
$GPGSA,M,3,21,31,25,18,22,29,06,16,,,,,1.9,1.0,1.6*35
$GPRMC,175318.979,A,1430.2006,S,07515.3055,W,28.83,245.68,170411,,,A*56
$GPGGA,175320.002,1430.2037,S,07515.3133,W,1,06,1.4,542.6,M,17.5,M,,0000*52
$GPGSA,M,3,21,31,25,18,30,22,,,,,,,3.3,1.4,3.0*34
$GPRMC,175320.002,A,1430.2037,S,07515.3133,W,29.88,248.01,170411,,,A*53
$GPGGA,175321.001,1430.2067,S,07515.3208,W,1,07,1.3,542.7,M,17.5,M,,0000*59
$GPGSA,M,3,21,31,25,18,30,22,16,,,,,,2.3,1.3,1.9*3E
$GPRMC,175321.001,A,1430.2067,S,07515.3208,W,29.46,249.96,170411,,,A*52
$GPGGA,175322.000,1430.2091,S,07515.3290,W,1,06,1.3,542.2,M,17.5,M,,0000*57
$GPGSA,M,3,21,31,25,18,22,29,,,,,,,2.8,1.3,2.5*35
$GPRMC,175322.000,A,1430.2091,S,07515.3290,W,29.49,253.12,170411,,,A*50
$GPGGA,175322.997,1430.2111,S,07515.3372,W,1,08,1.0,541.8,M,17.5,M,,0000*50
$GPGSA,M,3,21,31,25,18,30,22,29,16,,,,,2.0,1.0,1.7*3B
$GPGSV,3,1,12,21,63,171,34,31,49,284,39,25,45,067,33,18,42,032,28*76
$GPGSV,3,2,12,30,32,208,31,22,25,358,37,29,22,131,36,06,11,246,*77
$GPGSV,3,3,12,16,10,215,29,12,08,050,35,14,06,342,,03,02,251,23*79
$GPRMC,175322.997,A,1430.2111,S,07515.3372,W,29.19,256.29,170411,,,A*5B
$GPGGA,175324.002,1430.2126,S,07515.3448,W,1,07,1.0,540.8,M,17.5,M,,0000*57
$GPGSA,M,3,21,31,25,30,22,29,16,,,,,,2.0,1.0,1.7*32
$GPRMC,175324.002,A,1430.2126,S,07515.3448,W,28.77,260.32,170411,,,A*54
$GPGGA,175324.999,1430.2138,S,07515.3527,W,1,08,1.0,541.8,M,17.5,M,,0000*55
$GPGSA,M,3,21,31,25,18,22,29,06,16,,,,,1.9,1.0,1.6*35
$GPRMC,175324.999,A,1430.2138,S,07515.3527,W,28.61,262.90,170411,,,A*55
$GPGGA,175326.024,1430.2148,S,07515.3606,W,1,05,1.4,540.8,M,17.5,M,,0000*57
$GPGSA,M,3,31,25,18,22,29,,,,,,,,3.4,1.4,3.1*39
$GPRMC,175326.024,A,1430.2148,S,07515.3606,W,29.39,265.31,170411,,,A*5F
$GPGGA,175326.978,1430.2153,S,07515.3686,W,1,08,1.0,540.8,M,17.5,M,,0000*5C
$GPGSA,M,3,21,31,25,18,30,22,29,16,,,,,2.0,1.0,1.7*3B
$GPRMC,175326.978,A,1430.2153,S,07515.3686,W,29.23,268.77,170411,,,A*59
$GPGGA,175327.995,1430.2155,S,07515.3764,W,1,07,1.0,540.5,M,17.5,M,,0000*57
$GPGSA,M,3,21,31,25,18,22,29,06,,,,,,2.0,1.0,1.7*39
$GPGSV,3,1,12,21,63,171,32,31,49,284,38,25,45,067,37,18,42,032,38*74
$GPGSV,3,2,12,30,32,208,,22,25,358,36,29,22,131,36,06,11,246,26*70
$GPGSV,3,3,12,16,10,215,,12,08,050,33,14,06,342,33,03,02,251,*75
$GPRMC,175327.995,A,1430.2155,S,07515.3764,W,29.14,269.84,170411,,,A*59
$GPGGA,175329.003,1430.2151,S,07515.3846,W,1,06,1.3,540.4,M,17.5,M,,0000*57
$GPGSA,M,3,21,31,25,18,22,29,,,,,,,2.8,1.3,2.5*35
$GPRMC,175329.003,A,1430.2151,S,07515.3846,W,28.86,274.63,170411,,,A*55
$GPGGA,175329.999,1430.2140,S,07515.3932,W,1,07,1.0,539.6,M,17.5,M,,0000*51
$GPGSA,M,3,21,31,25,18,30,22,29,,,,,,2.5,1.0,2.2*3F
$GPRMC,175329.999,A,1430.2140,S,07515.3932,W,29.67,276.99,170411,,,A*54
$GPGGA,175331.023,1430.2131,S,07515.4018,W,1,08,0.9,539.6,M,17.5,M,,0000*57
$GPGSA,M,3,21,31,25,18,30,22,29,06,,,,,2.0,0.9,1.7*32
$GPRMC,175331.023,A,1430.2131,S,07515.4018,W,29.88,280.68,170411,,,A*53
$GPGGA,175331.976,1430.2111,S,07515.4097,W,1,09,0.9,537.9,M,17.5,M,,0000*5B
$GPGSA,M,3,21,31,25,18,30,22,29,06,16,,,,1.8,0.9,1.6*3F
$GPRMC,175331.976,A,1430.2111,S,07515.4097,W,29.75,283.78,170411,,,A*5F
$GPGGA,175333.001,1430.2088,S,07515.4178,W,1,06,1.3,536.0,M,17.5,M,,0000*5D
$GPGSA,M,3,21,31,25,18,22,16,,,,,,,2.3,1.3,1.9*3D
$GPGSV,3,1,12,21,63,171,36,31,49,284,37,25,45,067,30,18,42,032,36*76
$GPGSV,3,2,12,30,32,208,,22,25,358,37,29,22,131,,06,11,246,*70
$GPGSV,3,3,12,16,10,215,28,12,08,050,,14,06,342,22,03,02,251,*7F
$GPRMC,175333.001,A,1430.2088,S,07515.4178,W,29.71,285.80,170411,,,A*50
$GPGGA,175334.001,1430.2064,S,07515.4255,W,1,07,1.0,535.0,M,17.5,M,,0000*55
$GPGSA,M,3,21,31,25,18,22,29,06,,,,,,2.0,1.0,1.7*39
$GPRMC,175334.001,A,1430.2064,S,07515.4255,W,29.60,288.53,170411,,,A*5A
$GPGGA,175335.004,1430.2033,S,07515.4333,W,1,08,1.0,533.1,M,17.5,M,,0000*5A
$GPGSA,M,3,21,31,25,18,22,29,06,16,,,,,1.9,1.0,1.6*35
$GPRMC,175335.004,A,1430.2033,S,07515.4333,W,29.49,292.85,170411,,,A*56
$GPGGA,175335.994,1430.1995,S,07515.4410,W,1,09,0.9,530.9,M,17.5,M,,0000*58
$GPGSA,M,3,21,31,25,18,30,22,29,06,16,,,,1.8,0.9,1.6*3F
$GPRMC,175335.994,A,1430.1995,S,07515.4410,W,28.72,293.86,170411,,,A*5D
$GPGGA,175337.020,1430.1959,S,07515.4486,W,1,05,1.6,529.8,M,17.5,M,,0000*58
$GPGSA,M,3,21,31,18,22,29,,,,,,,,3.2,1.6,2.8*31
$GPRMC,175337.020,A,1430.1959,S,07515.4486,W,28.73,297.29,170411,,,A*56
$GPGGA,175337.987,1430.1923,S,07515.4556,W,1,08,0.9,529.0,M,17.5,M,,0000*56
$GPGSA,M,3,21,31,25,18,30,22,29,06,,,,,2.0,0.9,1.7*32
$GPGSV,3,1,12,21,63,171,36,31,49,284,38,25,45,067,35,18,42,032,37*7D
$GPGSV,3,2,12,30,32,208,33,22,25,358,39,29,22,131,39,06,11,246,26*70
$GPGSV,3,3,12,16,10,215,,12,08,050,30,14,06,342,33,03,02,251,*76
$GPRMC,175337.987,A,1430.1923,S,07515.4556,W,28.50,299.73,170411,,,A*53
$GPGGA,175338.996,1430.1878,S,07515.4624,W,1,07,1.0,527.8,M,17.5,M,,0000*51
$GPGSA,M,3,21,31,25,18,30,22,29,,,,,,2.5,1.0,2.2*3F
$GPRMC,175338.996,A,1430.1878,S,07515.4624,W,28.99,302.28,170411,,,A*5D
$GPGGA,175340.001,1430.1831,S,07515.4692,W,1,07,1.0,527.2,M,17.5,M,,0000*53
$GPGSA,M,3,21,31,25,18,30,22,29,,,,,,2.5,1.0,2.2*3F
$GPRMC,175340.001,A,1430.1831,S,07515.4692,W,28.87,305.46,170411,,,A*55
$GPGGA,175341.003,1430.1785,S,07515.4758,W,1,07,1.0,526.9,M,17.5,M,,0000*5D
$GPGSA,M,3,21,31,25,18,30,22,29,,,,,,2.5,1.0,2.2*3F
$GPRMC,175341.003,A,1430.1785,S,07515.4758,W,29.35,307.00,170411,,,A*59
$GPGGA,175341.998,1430.1734,S,07515.4823,W,1,08,1.0,525.5,M,17.5,M,,0000*5F
$GPGSA,M,3,21,31,25,18,30,22,29,16,,,,,2.0,1.0,1.7*3B
$GPRMC,175341.998,A,1430.1734,S,07515.4823,W,28.59,308.78,170411,,,A*50
$GPGGA,175343.025,1430.1679,S,07515.4885,W,1,08,1.0,524.0,M,17.5,M,,0000*52
$GPGSA,M,3,21,31,25,18,30,22,29,16,,,,,2.0,1.0,1.7*3B
$GPGSV,3,1,12,21,63,171,32,31,49,284,32,25,45,067,31,18,42,032,38*78
$GPGSV,3,2,12,30,32,208,32,22,25,358,38,29,22,131,33,06,11,246,*7E
$GPGSV,3,3,12,16,10,215,26,12,08,050,38,14,06,342,,03,02,251,26*7E
$GPRMC,175343.025,A,1430.1679,S,07515.4885,W,28.77,311.62,170411,,,A*56
$GPGGA,175343.974,1430.1627,S,07515.4941,W,1,08,1.0,523.0,M,17.5,M,,0000*5A
$GPGSA,M,3,21,31,25,18,30,22,29,16,,,,,2.0,1.0,1.7*3B
$GPRMC,175343.974,A,1430.1627,S,07515.4941,W,29.28,312.17,170411,,,A*53
$GPGGA,175345.001,1430.1572,S,07515.5002,W,1,08,1.0,522.9,M,17.5,M,,0000*53
$GPGSA,M,3,21,31,25,18,30,22,29,16,,,,,2.0,1.0,1.7*3B
$GPRMC,175345.001,A,1430.1572,S,07515.5002,W,28.60,312.04,170411,,,A*5D
$GPGGA,175345.998,1430.1523,S,07515.5062,W,1,08,1.0,523.4,M,17.5,M,,0000*54
$GPGSA,M,3,21,31,25,18,30,22,29,16,,,,,2.0,1.0,1.7*3B
$GPRMC,175345.998,A,1430.1523,S,07515.5062,W,28.17,311.77,170411,,,A*51
$GPGGA,175347.004,1430.1471,S,07515.5126,W,1,08,1.0,522.6,M,17.5,M,,0000*5E
$GPGSA,M,3,21,31,25,18,30,22,29,16,,,,,2.0,1.0,1.7*3B
$GPRMC,175347.004,A,1430.1471,S,07515.5126,W,28.31,311.34,170411,,,A*5B
$GPGGA,175347.998,1430.1419,S,07515.5186,W,1,08,1.0,522.8,M,17.5,M,,0000*58
$GPGSA,M,3,21,31,25,18,30,22,29,16,,,,,2.0,1.0,1.7*3B
$GPGSV,3,1,12,21,63,171,35,31,49,284,34,25,45,067,34,18,42,032,36*72
$GPGSV,3,2,12,30,32,208,35,22,25,358,37,29,22,131,33,06,11,246,*76
$GPGSV,3,3,12,16,10,215,30,12,08,050,36,14,06,342,,03,02,251,25*74
$GPRMC,175347.998,A,1430.1419,S,07515.5186,W,27.92,313.18,170411,,,A*59
$GPGGA,175349.025,1430.1362,S,07515.5246,W,1,08,1.0,521.4,M,17.5,M,,0000*52
$GPGSA,M,3,21,31,25,18,30,22,29,16,,,,,2.0,1.0,1.7*3B
$GPRMC,175349.025,A,1430.1362,S,07515.5246,W,27.82,311.73,170411,,,A*52
$GPGGA,175349.978,1430.1314,S,07515.5301,W,1,08,1.0,521.7,M,17.5,M,,0000*53
$GPGSA,M,3,21,31,25,18,30,22,29,16,,,,,2.0,1.0,1.7*3B
$GPRMC,175349.978,A,1430.1314,S,07515.5301,W,27.86,310.38,170411,,,A*5A
$GPGGA,175351.000,1430.1262,S,07515.5364,W,1,08,1.0,522.4,M,17.5,M,,0000*5F
$GPGSA,M,3,21,31,25,18,30,22,29,16,,,,,2.0,1.0,1.7*3B
$GPRMC,175351.000,A,1430.1262,S,07515.5364,W,27.72,311.02,170411,,,A*55
$GPGGA,175351.998,1430.1211,S,07515.5425,W,1,08,1.0,522.4,M,17.5,M,,0000*51
$GPGSA,M,3,21,31,25,18,30,22,29,16,,,,,2.0,1.0,1.7*3B
$GPRMC,175351.998,A,1430.1211,S,07515.5425,W,28.42,311.34,170411,,,A*52
$GPGGA,175353.016,1430.1158,S,07515.5484,W,1,08,1.0,521.9,M,17.5,M,,0000*57
$GPGSA,M,3,21,31,25,18,30,22,29,16,,,,,2.0,1.0,1.7*3B
$GPGSV,3,1,12,21,63,171,33,31,49,284,35,25,45,067,34,18,42,032,38*7B
$GPGSV,3,2,12,30,32,208,35,22,25,358,36,29,22,131,33,06,11,246,*77
$GPGSV,3,3,12,16,10,215,29,12,08,050,34,14,06,342,,03,02,251,*79
$GPRMC,175353.016,A,1430.1158,S,07515.5484,W,27.57,311.42,170411,,,A*50
$GPGGA,175353.986,1430.1109,S,07515.5544,W,1,08,1.0,522.6,M,17.5,M,,0000*52
$GPGSA,M,3,21,31,25,18,30,22,29,16,,,,,2.0,1.0,1.7*3B
$GPRMC,175353.986,A,1430.1109,S,07515.5544,W,28.05,311.37,170411,,,A*53
$GPGGA,175354.995,1430.1059,S,07515.5604,W,1,08,1.0,523.1,M,17.5,M,,0000*52
$GPGSA,M,3,21,31,25,18,30,22,29,16,,,,,2.0,1.0,1.7*3B
$GPRMC,175354.995,A,1430.1059,S,07515.5604,W,27.91,310.62,170411,,,A*56
$GPGGA,175356.004,1430.1008,S,07515.5664,W,1,08,1.0,522.7,M,17.5,M,,0000*54
$GPGSA,M,3,21,31,25,18,30,22,29,16,,,,,2.0,1.0,1.7*3B
$GPRMC,175356.004,A,1430.1008,S,07515.5664,W,27.67,311.08,170411,,,A*53
$GPGGA,175356.995,1430.0959,S,07515.5723,W,1,08,1.0,522.8,M,17.5,M,,0000*54
$GPGSA,M,3,21,31,25,18,30,22,29,16,,,,,2.0,1.0,1.7*3B
$GPRMC,175356.995,A,1430.0959,S,07515.5723,W,27.40,311.36,170411,,,A*54
$GPGGA,175358.018,1430.0907,S,07515.5784,W,1,08,1.0,523.6,M,17.5,M,,0000*5F
$GPGSA,M,3,21,31,25,18,30,22,29,16,,,,,2.0,1.0,1.7*3B
$GPGSV,3,1,12,21,63,171,32,31,49,284,31,25,45,067,35,18,42,032,37*70
$GPGSV,3,2,12,30,32,208,33,22,25,358,38,29,22,131,28,06,11,246,*75
$GPGSV,3,3,12,16,10,215,29,12,08,050,35,14,06,342,,03,02,251,*78
$GPRMC,175358.018,A,1430.0907,S,07515.5784,W,27.87,311.53,170411,,,A*58
$GPGGA,175358.982,1430.0858,S,07515.5843,W,1,07,1.3,523.9,M,17.5,M,,0000*59
$GPGSA,M,3,21,31,25,18,30,22,16,,,,,,2.3,1.3,1.9*3E
$GPRMC,175358.982,A,1430.0858,S,07515.5843,W,27.91,311.08,170411,,,A*54
$GPGGA,175400.002,1430.0799,S,07515.5905,W,1,07,1.3,523.0,M,17.5,M,,0000*5A
$GPGSA,M,3,21,31,25,18,30,22,16,,,,,,2.3,1.3,1.9*3E
$GPRMC,175400.002,A,1430.0799,S,07515.5905,W,28.04,312.51,170411,,,A*52
$GPGGA,175400.997,1430.0748,S,07515.5964,W,1,07,1.3,522.8,M,17.5,M,,0000*5D
$GPGSA,M,3,21,31,25,18,30,22,16,,,,,,2.3,1.3,1.9*3E
$GPRMC,175400.997,A,1430.0748,S,07515.5964,W,27.34,311.22,170411,,,A*57
$GPGGA,175402.019,1430.0697,S,07515.6025,W,1,08,1.2,522.6,M,17.5,M,,0000*5C
$GPGSA,M,3,21,31,25,18,30,22,06,16,,,,,2.2,1.2,1.8*39
$GPRMC,175402.019,A,1430.0697,S,07515.6025,W,27.48,311.47,170411,,,A*5E
$GPGGA,175402.984,1430.0646,S,07515.6082,W,1,08,1.0,523.7,M,17.5,M,,0000*52
$GPGSA,M,3,21,31,25,18,30,22,29,16,,,,,2.0,1.0,1.7*3B
$GPGSV,3,1,12,21,63,171,35,31,49,284,31,25,45,067,36,18,42,032,36*75
$GPGSV,3,2,12,30,32,208,35,22,25,358,38,29,22,131,25,06,11,246,*7E
$GPGSV,3,3,12,16,10,215,31,12,08,050,37,14,06,342,,03,02,251,*73
$GPRMC,175402.984,A,1430.0646,S,07515.6082,W,27.69,312.33,170411,,,A*51
$GPGGA,175404.001,1430.0595,S,07515.6139,W,1,08,1.0,525.8,M,17.5,M,,0000*55
$GPGSA,M,3,21,31,25,18,30,22,29,16,,,,,2.0,1.0,1.7*3B
$GPRMC,175404.001,A,1430.0595,S,07515.6139,W,27.05,311.93,170411,,,A*5C
$GPGGA,175405.001,1430.0544,S,07515.6195,W,1,08,1.0,524.4,M,17.5,M,,0000*53
$GPGSA,M,3,21,31,25,18,30,22,29,16,,,,,2.0,1.0,1.7*3B
$GPRMC,175405.001,A,1430.0544,S,07515.6195,W,26.23,311.76,170411,,,A*59
$GPGGA,175406.003,1430.0495,S,07515.6252,W,1,07,1.3,524.7,M,17.5,M,,0000*58
$GPGSA,M,3,21,31,25,18,30,22,16,,,,,,2.3,1.3,1.9*3E
$GPRMC,175406.003,A,1430.0495,S,07515.6252,W,27.14,310.53,170411,,,A*5E
$GPGGA,175406.999,1430.0447,S,07515.6310,W,1,07,1.3,524.6,M,17.5,M,,0000*5B
$GPGSA,M,3,21,31,25,18,30,22,16,,,,,,2.3,1.3,1.9*3E
$GPRMC,175406.999,A,1430.0447,S,07515.6310,W,26.54,311.09,170411,,,A*57
$GPGGA,175408.017,1430.0397,S,07515.6367,W,1,08,1.0,526.2,M,17.5,M,,0000*5A
$GPGSA,M,3,21,31,25,18,30,22,29,16,,,,,2.0,1.0,1.7*3B
$GPGSV,3,1,12,21,63,171,36,31,49,284,36,25,45,067,36,18,42,032,36*71
$GPGSV,3,2,12,30,32,208,35,22,25,358,35,29,22,131,26,06,11,246,*70
$GPGSV,3,3,12,16,10,215,33,12,08,050,36,14,06,342,,03,02,251,*70
$GPRMC,175408.017,A,1430.0397,S,07515.6367,W,26.74,310.08,170411,,,A*5E
$GPGGA,175408.981,1430.0354,S,07515.6421,W,1,07,1.3,527.0,M,17.5,M,,0000*59
$GPGSA,M,3,21,31,25,18,30,22,16,,,,,,2.3,1.3,1.9*3E
$GPRMC,175408.981,A,1430.0354,S,07515.6421,W,27.16,308.70,170411,,,A*51
$GPGGA,175409.998,1430.0305,S,07515.6486,W,1,08,1.0,527.7,M,17.5,M,,0000*52
$GPGSA,M,3,21,31,25,18,30,22,29,16,,,,,2.0,1.0,1.7*3B
$GPRMC,175409.998,A,1430.0305,S,07515.6486,W,26.82,308.26,170411,,,A*5E
$GPGGA,175411.004,1430.0258,S,07515.6547,W,1,08,1.0,527.8,M,17.5,M,,0000*5D
$GPGSA,M,3,21,31,25,18,30,22,29,16,,,,,2.0,1.0,1.7*3B
$GPRMC,175411.004,A,1430.0258,S,07515.6547,W,27.70,308.33,170411,,,A*56
$GPGGA,175411.995,1430.0214,S,07515.6603,W,1,08,1.0,528.0,M,17.5,M,,0000*50
$GPGSA,M,3,21,31,18,30,22,29,06,16,,,,,1.9,1.0,1.6*31
$GPRMC,175411.995,A,1430.0214,S,07515.6603,W,26.92,309.57,170411,,,A*52
$GPGGA,175413.019,1430.0164,S,07515.6667,W,1,08,1.0,529.1,M,17.5,M,,0000*59
$GPGSA,M,3,21,31,18,30,22,29,06,16,,,,,1.9,1.0,1.6*31
$GPGSV,3,1,12,21,63,171,31,31,49,284,37,25,45,067,,18,42,032,37*73
$GPGSV,3,2,12,30,32,208,29,22,25,358,34,29,22,131,29,06,11,246,21*70
$GPGSV,3,3,12,16,10,215,32,12,08,050,,14,06,342,,03,02,251,*74
$GPRMC,175413.019,A,1430.0164,S,07515.6667,W,26.93,306.89,170411,,,A*56
$GPGGA,175413.984,1430.0123,S,07515.6728,W,1,07,1.0,528.7,M,17.5,M,,0000*55
$GPGSA,M,3,21,31,25,18,30,22,29,,,,,,2.5,1.0,2.3*3E
$GPRMC,175413.984,A,1430.0123,S,07515.6728,W,26.54,304.64,170411,,,A*58
$GPGGA,175415.003,1430.0078,S,07515.6790,W,1,07,1.0,528.2,M,17.5,M,,0000*5C
$GPGSA,M,3,21,31,25,18,30,22,29,,,,,,2.5,1.0,2.3*3E
$GPRMC,175415.003,A,1430.0078,S,07515.6790,W,26.35,304.29,170411,,,A*5A
$GPGGA,175415.993,1430.0039,S,07515.6852,W,1,09,0.9,528.3,M,17.5,M,,0000*5F
$GPGSA,M,3,21,31,25,18,30,22,29,06,16,,,,1.8,0.9,1.6*3F
$GPRMC,175415.993,A,1430.0039,S,07515.6852,W,26.36,301.74,170411,,,A*50
$GPGGA,175417.019,1430.0001,S,07515.6922,W,1,09,0.9,528.4,M,17.5,M,,0000*5C
$GPGSA,M,3,21,31,25,18,30,22,29,06,16,,,,1.8,0.9,1.6*3F
$GPRMC,175417.019,A,1430.0001,S,07515.6922,W,25.62,299.10,170411,,,A*54
$GPGGA,175417.987,1429.9971,S,07515.6980,W,1,06,1.3,527.7,M,17.5,M,,0000*5D
$GPGSA,M,3,21,31,25,18,22,29,,,,,,,2.8,1.3,2.5*35
$GPGSV,3,1,12,21,63,171,36,31,49,284,39,25,45,067,35,18,42,032,38*73
$GPGSV,3,2,12,30,32,208,,22,25,358,36,29,22,131,36,06,11,246,*74
$GPGSV,3,3,12,16,10,215,,12,08,050,35,14,06,342,,03,02,251,*73
$GPRMC,175417.987,A,1429.9971,S,07515.6980,W,24.10,296.46,170411,,,A*55
$GPGGA,175419.001,1429.9940,S,07515.7047,W,1,08,0.9,529.0,M,17.5,M,,0000*59
$GPGSA,M,3,21,31,25,18,30,22,29,06,,,,,2.0,0.9,1.7*32
$GPRMC,175419.001,A,1429.9940,S,07515.7047,W,22.89,294.41,170411,,,A*5E
$GPGGA,175419.999,1429.9917,S,07515.7104,W,1,08,1.0,528.2,M,17.5,M,,0000*5E
$GPGSA,M,3,21,31,18,30,22,29,06,16,,,,,1.9,1.0,1.6*31
$GPRMC,175419.999,A,1429.9917,S,07515.7104,W,20.61,293.20,170411,,,A*56
$GPGGA,175421.023,1429.9891,S,07515.7158,W,1,08,1.0,528.2,M,17.5,M,,0000*5B
$GPGSA,M,3,21,31,18,30,22,29,06,16,,,,,1.9,1.0,1.6*31
$GPRMC,175421.023,A,1429.9891,S,07515.7158,W,18.76,291.84,170411,,,A*52
$GPGGA,175421.979,1429.9874,S,07515.7206,W,1,09,0.9,527.5,M,17.5,M,,0000*5F
$GPGSA,M,3,21,31,25,18,30,22,29,06,16,,,,1.8,0.9,1.6*3F
$GPRMC,175421.979,A,1429.9874,S,07515.7206,W,18.16,292.18,170411,,,A*57
$GPGGA,175422.996,1429.9855,S,07515.7255,W,1,08,1.0,527.6,M,17.5,M,,0000*52
$GPGSA,M,3,21,31,18,30,22,29,06,16,,,,,1.9,1.0,1.6*31
$GPGSV,3,1,12,21,63,171,36,31,49,284,37,25,45,067,,18,42,032,38*7B
$GPGSV,3,2,12,30,32,208,26,22,25,358,27,29,22,131,37,06,11,246,29*7A
$GPGSV,3,3,12,16,10,215,30,12,08,050,,14,06,342,,03,02,251,*76
$GPRMC,175422.996,A,1429.9855,S,07515.7255,W,17.10,292.73,170411,,,A*54
$GPGGA,175424.002,1429.9837,S,07515.7301,W,1,08,1.0,527.2,M,17.5,M,,0000*50
$GPGSA,M,3,21,31,18,30,22,29,06,16,,,,,1.9,1.0,1.6*31
$GPRMC,175424.002,A,1429.9837,S,07515.7301,W,17.62,292.65,170411,,,A*50
$GPGGA,175425.000,1429.9813,S,07515.7348,W,1,08,1.0,525.2,M,17.5,M,,0000*5A
$GPGSA,M,3,21,31,18,30,22,29,06,16,,,,,1.9,1.0,1.6*31
$GPRMC,175425.000,A,1429.9813,S,07515.7348,W,17.84,293.37,170411,,,A*56
$GPGGA,175426.000,1429.9793,S,07515.7396,W,1,08,1.0,525.1,M,17.5,M,,0000*5E
$GPGSA,M,3,21,31,18,30,22,29,06,16,,,,,1.9,1.0,1.6*31
$GPRMC,175426.000,A,1429.9793,S,07515.7396,W,17.78,293.99,170411,,,A*56
$GPGGA,175427.001,1429.9776,S,07515.7441,W,1,06,1.1,524.6,M,17.5,M,,0000*51
$GPGSA,M,3,21,31,18,22,29,16,,,,,,,2.1,1.1,1.8*30
$GPRMC,175427.001,A,1429.9776,S,07515.7441,W,17.33,292.74,170411,,,A*5D
$GPGGA,175428.000,1429.9758,S,07515.7487,W,1,08,1.0,524.5,M,17.5,M,,0000*55
$GPGSA,M,3,21,31,25,18,30,22,29,16,,,,,2.0,1.0,1.7*3B
$GPGSV,3,1,12,21,63,171,37,31,49,284,37,25,45,067,26,18,42,032,39*7F
$GPGSV,3,2,12,30,32,208,25,22,25,358,35,29,22,131,37,06,11,246,*71
$GPGSV,3,3,12,16,10,215,34,12,08,050,30,14,06,342,,03,02,251,*71
$GPRMC,175428.000,A,1429.9758,S,07515.7487,W,16.19,291.33,170411,,,A*5C
$GPGGA,175429.000,1429.9743,S,07515.7527,W,1,08,1.0,524.3,M,17.5,M,,0000*53
$GPGSA,M,3,21,31,25,18,22,29,06,16,,,,,1.9,1.0,1.6*35
$GPRMC,175429.000,A,1429.9743,S,07515.7527,W,15.05,292.08,170411,,,A*59
$GPGGA,175429.998,1429.9728,S,07515.7567,W,1,09,0.9,523.4,M,17.5,M,,0000*5B
$GPGSA,M,3,21,31,25,18,30,22,29,06,16,,,,1.8,0.9,1.6*3F
$GPRMC,175429.998,A,1429.9728,S,07515.7567,W,14.15,290.93,170411,,,A*58
$GPGGA,175431.001,1429.9722,S,07515.7596,W,1,07,1.0,522.9,M,17.5,M,,0000*55
$GPGSA,M,3,21,31,25,18,30,22,29,,,,,,2.5,1.0,2.3*3E
$GPRMC,175431.001,A,1429.9722,S,07515.7596,W,12.00,283.00,170411,,,A*56
$GPGGA,175432.002,1429.9720,S,07515.7621,W,1,06,1.3,523.8,M,17.5,M,,0000*5A
$GPGSA,M,3,21,31,25,18,22,29,,,,,,,2.8,1.3,2.5*35
$GPRMC,175432.002,A,1429.9720,S,07515.7621,W,10.35,279.04,170411,,,A*5E
$GPGGA,175432.995,1429.9727,S,07515.7635,W,1,07,1.1,523.1,M,17.5,M,,0000*55
$GPGSA,M,3,21,31,25,18,30,29,06,,,,,,2.2,1.1,1.9*37
$GPGSV,3,1,12,21,63,171,31,31,49,284,39,25,45,067,33,18,42,032,38*72
$GPGSV,3,2,12,30,32,208,35,22,25,358,,29,22,131,36,06,11,246,32*76
$GPGSV,3,3,12,16,10,215,,12,08,050,31,14,06,342,,03,02,251,25*70
$GPRMC,175432.995,A,1429.9727,S,07515.7635,W,7.84,268.83,170411,,,A*68
$GPGGA,175434.001,1429.9746,S,07515.7626,W,1,09,0.9,522.6,M,17.5,M,,0000*53
$GPGSA,M,3,21,31,25,18,30,22,29,06,16,,,,1.8,0.9,1.6*3F
$GPRMC,175434.001,A,1429.9746,S,07515.7626,W,4.43,235.76,170411,,,A*65
$GPGGA,175435.003,1429.9750,S,07515.7639,W,1,07,1.1,523.4,M,17.5,M,,0000*5D
$GPGSA,M,3,21,31,25,18,30,29,06,,,,,,2.2,1.1,1.9*37
$GPRMC,175435.003,A,1429.9750,S,07515.7639,W,3.99,218.36,170411,,,A*64
$GPGGA,175435.999,1429.9757,S,07515.7642,W,1,08,0.9,522.4,M,17.5,M,,0000*5B
$GPGSA,M,3,21,31,25,18,30,22,29,06,,,,,2.0,0.9,1.7*32
$GPRMC,175435.999,A,1429.9757,S,07515.7642,W,2.67,210.58,170411,,,A*65
$GPGGA,175436.996,1429.9761,S,07515.7643,W,1,08,1.2,522.0,M,17.5,M,,0000*5D
$GPGSA,M,3,21,31,25,18,30,22,06,16,,,,,2.2,1.2,1.8*39
$GPRMC,175436.996,A,1429.9761,S,07515.7643,W,2.20,195.26,170411,,,A*69
$GPGGA,175438.004,1429.9765,S,07515.7644,W,1,09,0.9,524.4,M,17.5,M,,0000*5B
$GPGSA,M,3,21,31,25,18,30,22,29,06,16,,,,1.8,0.9,1.6*3F
$GPGSV,3,1,12,21,63,171,38,31,49,284,36,25,45,067,36,18,42,032,36*7F
$GPGSV,3,2,12,30,32,208,33,22,25,358,25,29,22,131,29,06,11,246,32*79
$GPGSV,3,3,12,16,10,215,36,12,08,050,28,14,06,342,,03,02,251,36*7F
$GPRMC,175438.004,A,1429.9765,S,07515.7644,W,2.09,185.30,170411,,,A*6B
$GPGGA,175439.001,1429.9768,S,07515.7647,W,1,07,1.4,523.8,M,17.5,M,,0000*58
$GPGSA,M,3,21,31,25,18,30,06,16,,,,,,2.4,1.4,2.0*32
$GPRMC,175439.001,A,1429.9768,S,07515.7647,W,1.92,169.79,170411,,,A*6F
$GPGGA,175440.022,1429.9768,S,07515.7647,W,1,09,0.9,523.0,M,17.5,M,,0000*5D
$GPGSA,M,3,21,31,25,18,30,22,29,06,16,,,,1.8,0.9,1.6*3F
$GPRMC,175440.022,A,1429.9768,S,07515.7647,W,2.01,190.88,170411,,,A*61
$GPGGA,175440.975,1429.9779,S,07515.7644,W,1,09,0.9,522.8,M,17.5,M,,0000*5C
$GPGSA,M,3,21,31,25,18,30,22,29,06,16,,,,1.8,0.9,1.6*3F
$GPRMC,175440.975,A,1429.9779,S,07515.7644,W,3.84,174.43,170411,,,A*68
$GPGGA,175442.005,1429.9796,S,07515.7638,W,1,07,1.3,524.2,M,17.5,M,,0000*53
$GPGSA,M,3,21,31,25,18,30,22,16,,,,,,2.3,1.3,1.9*3E
$GPRMC,175442.005,A,1429.9796,S,07515.7638,W,5.87,170.82,170411,,,A*62
$GPGGA,175443.000,1429.9811,S,07515.7636,W,1,07,1.3,523.3,M,17.5,M,,0000*5F
$GPGSA,M,3,21,31,25,30,22,06,16,,,,,,2.2,1.3,1.8*31
$GPGSV,3,1,12,21,63,171,38,31,49,284,32,25,45,067,25,18,42,032,*7C
$GPGSV,3,2,12,30,32,208,38,22,25,358,34,29,22,131,,06,11,246,36*7D
$GPGSV,3,3,12,16,10,215,37,12,08,050,29,14,06,342,,03,02,251,32*7B
$GPRMC,175443.000,A,1429.9811,S,07515.7636,W,7.34,158.25,170411,,,A*65
$GPGGA,175444.025,1429.9831,S,07515.7627,W,1,09,0.9,522.8,M,17.5,M,,0000*52
$GPGSA,M,3,21,31,25,18,30,22,29,06,16,,,,1.8,0.9,1.6*3F
$GPRMC,175444.025,A,1429.9831,S,07515.7627,W,7.22,156.63,170411,,,A*6C
$GPGGA,175444.976,1429.9849,S,07515.7616,W,1,09,0.9,521.8,M,17.5,M,,0000*53
$GPGSA,M,3,21,31,25,18,30,22,29,06,16,,,,1.8,0.9,1.6*3F
$GPRMC,175444.976,A,1429.9849,S,07515.7616,W,6.90,147.17,170411,,,A*65
$GPGGA,175445.997,1429.9861,S,07515.7610,W,1,07,1.3,522.2,M,17.5,M,,0000*5D
$GPGSA,M,3,21,31,25,30,22,06,16,,,,,,2.2,1.3,1.8*31
$GPRMC,175445.997,A,1429.9861,S,07515.7610,W,4.99,144.45,170411,,,A*68
$GPGGA,175447.002,1429.9867,S,07515.7602,W,1,08,1.2,521.7,M,17.5,M,,0000*57
$GPGSA,M,3,21,31,25,18,30,22,06,16,,,,,2.2,1.2,1.8*39
$GPRMC,175447.002,A,1429.9867,S,07515.7602,W,2.60,137.51,170411,,,A*6B
$GPGGA,175448.002,1429.9866,S,07515.7604,W,1,06,1.7,520.1,M,17.5,M,,0000*53
$GPGSA,M,3,21,31,30,22,06,16,,,,,,,2.5,1.7,1.9*34
$GPGSV,3,1,12,21,63,171,37,31,49,284,35,25,45,067,,18,42,032,*73
$GPGSV,3,2,12,30,32,208,35,22,25,358,31,29,22,131,,06,11,246,25*77
$GPGSV,3,3,12,16,10,215,31,12,08,050,28,14,06,342,,03,02,251,*7D
$GPRMC,175448.002,A,1429.9866,S,07515.7604,W,1.40,116.09,170411,,,A*6C
$GPGGA,175449.001,1429.9866,S,07515.7601,W,1,09,0.9,518.2,M,17.5,M,,0000*5C
$GPGSA,M,3,21,31,25,18,30,22,29,06,16,,,,1.8,0.9,1.6*3F
$GPRMC,175449.001,A,1429.9866,S,07515.7601,W,0.11,122.15,170411,,,A*64
$GPGGA,175449.998,1429.9863,S,07515.7605,W,1,08,1.0,516.1,M,17.5,M,,0000*50
$GPGSA,M,3,21,31,25,18,30,22,29,16,,,,,2.0,1.0,1.7*3B
$GPRMC,175449.998,A,1429.9863,S,07515.7605,W,0.21,272.83,170411,,,A*66
$GPGGA,175451.018,1429.9863,S,07515.7601,W,1,09,0.9,518.0,M,17.5,M,,0000*5A
$GPGSA,M,3,21,31,25,18,30,22,29,06,16,,,,1.8,0.9,1.6*3F
$GPRMC,175451.018,A,1429.9863,S,07515.7601,W,0.51,288.14,170411,,,A*66
$GPGGA,175451.979,1429.9863,S,07515.7604,W,1,07,1.0,519.4,M,17.5,M,,0000*52
$GPGSA,M,3,21,31,25,30,22,29,16,,,,,,2.0,1.0,1.7*32
$GPRMC,175451.979,A,1429.9863,S,07515.7604,W,0.21,228.69,170411,,,A*6A
$GPGGA,175453.003,1429.9863,S,07515.7601,W,1,09,0.9,518.8,M,17.5,M,,0000*5A
$GPGSA,M,3,21,31,25,18,30,22,29,06,16,,,,1.8,0.9,1.6*3F
$GPGSV,3,1,12,21,63,171,38,31,49,284,35,25,45,067,31,18,42,032,28*74
$GPGSV,3,2,12,30,32,208,36,22,25,358,35,29,22,131,28,06,11,246,28*77
$GPGSV,3,3,12,16,10,215,34,12,08,050,,14,06,342,,03,02,251,27*77
$GPRMC,175453.003,A,1429.9863,S,07515.7601,W,0.26,179.84,170411,,,A*6A
$GPGGA,175453.999,1429.9864,S,07515.7597,W,1,07,1.2,518.8,M,17.5,M,,0000*5F
$GPGSA,M,3,21,31,25,18,30,29,16,,,,,,2.4,1.2,2.1*38
$GPRMC,175453.999,A,1429.9864,S,07515.7597,W,0.18,110.31,170411,,,A*67
$GPGGA,175455.022,1429.9864,S,07515.7597,W,1,09,0.9,518.3,M,17.5,M,,0000*5F
$GPGSA,M,3,21,31,25,18,30,22,29,06,16,,,,1.8,0.9,1.6*3F
$GPRMC,175455.022,A,1429.9864,S,07515.7597,W,0.38,303.93,170411,,,A*62
$GPGGA,175455.979,1429.9868,S,07515.7594,W,1,08,1.0,518.8,M,17.5,M,,0000*55
$GPGSA,M,3,21,31,25,18,30,22,29,16,,,,,2.0,1.0,1.7*3B
$GPRMC,175455.979,A,1429.9868,S,07515.7594,W,0.51,173.34,170411,,,A*6D
$GPGGA,175456.999,1429.9874,S,07515.7594,W,1,09,0.9,519.5,M,17.5,M,,0000*50
$GPGSA,M,3,21,31,25,18,30,22,29,06,16,,,,1.8,0.9,1.6*3F
$GPRMC,175456.999,A,1429.9874,S,07515.7594,W,0.60,221.55,170411,,,A*6C
$GPGGA,175457.996,1429.9877,S,07515.7592,W,1,09,0.9,520.1,M,17.5,M,,0000*55
$GPGSA,M,3,21,31,25,18,30,22,29,06,16,,,,1.8,0.9,1.6*3F
$GPGSV,3,1,12,21,63,171,38,31,49,284,36,25,45,067,32,18,42,032,28*74
$GPGSV,3,2,12,30,32,208,37,22,25,358,35,29,22,131,29,06,11,246,28*77
$GPGSV,3,3,12,16,10,215,35,12,08,050,30,14,06,342,,03,02,251,25*77
$GPRMC,175457.996,A,1429.9877,S,07515.7592,W,0.19,14.04,170411,,,A*59
$GPGGA,175459.003,1429.9872,S,07515.7590,W,1,07,1.3,519.0,M,17.5,M,,0000*57
$GPGSA,M,3,21,31,25,30,22,06,16,,,,,,2.2,1.3,1.8*31
$GPRMC,175459.003,A,1429.9872,S,07515.7590,W,0.22,68.14,170411,,,A*57
$GPGGA,175459.999,1429.9871,S,07515.7589,W,1,08,1.0,519.2,M,17.5,M,,0000*58
$GPGSA,M,3,21,31,25,18,30,22,29,16,,,,,2.0,1.0,1.7*3B
$GPRMC,175459.999,A,1429.9871,S,07515.7589,W,0.55,100.26,170411,,,A*68
$GPGGA,175501.020,1429.9871,S,07515.7584,W,1,08,1.0,518.1,M,17.5,M,,0000*50
$GPGSA,M,3,21,31,25,18,22,29,06,16,,,,,1.9,1.0,1.6*35
$GPRMC,175501.020,A,1429.9871,S,07515.7584,W,0.12,187.13,170411,,,A*68
$GPGGA,175501.976,1429.9873,S,07515.7583,W,1,09,0.9,518.6,M,17.5,M,,0000*51
$GPGSA,M,3,21,31,25,18,30,22,29,06,16,,,,1.8,0.9,1.6*3F
$GPRMC,175501.976,A,1429.9873,S,07515.7583,W,0.26,156.21,170411,,,A*6D
$GPGGA,175503.004,1429.9873,S,07515.7582,W,1,09,0.9,519.0,M,17.5,M,,0000*59
$GPGSA,M,3,21,31,25,18,30,22,29,06,16,,,,1.8,0.9,1.6*3F
$GPGSV,3,1,12,21,63,171,40,31,49,284,37,25,45,067,29,18,42,032,28*70
$GPGSV,3,2,12,30,32,208,37,22,25,358,34,29,22,131,26,06,11,246,27*76
$GPGSV,3,3,12,16,10,215,31,12,08,050,28,14,06,342,,03,02,251,*7D
$GPRMC,175503.004,A,1429.9873,S,07515.7582,W,0.41,118.74,170411,,,A*69
$GPGGA,175504.000,1429.9871,S,07515.7586,W,1,08,1.0,519.8,M,17.5,M,,0000*5D
$GPGSA,M,3,21,31,25,30,22,29,06,16,,,,,1.9,1.0,1.6*3F
$GPRMC,175504.000,A,1429.9871,S,07515.7586,W,0.43,208.09,170411,,,A*66
$GPGGA,175505.024,1429.9871,S,07515.7586,W,1,09,0.9,521.0,M,17.5,M,,0000*50
$GPGSA,M,3,21,31,25,18,30,22,29,06,16,,,,1.8,0.9,1.6*3F
$GPRMC,175505.024,A,1429.9871,S,07515.7586,W,0.50,266.11,170411,,,A*62
$GPGGA,175505.976,1429.9871,S,07515.7585,W,1,09,0.9,519.7,M,17.5,M,,0000*51
$GPGSA,M,3,21,31,25,18,30,22,29,06,16,,,,1.8,0.9,1.6*3F
$GPRMC,175505.976,A,1429.9871,S,07515.7585,W,0.06,337.64,170411,,,A*6B
$GPGGA,175507.004,1429.9873,S,07515.7584,W,1,08,1.0,519.5,M,17.5,M,,0000*57
$GPGSA,M,3,21,31,25,30,22,29,06,16,,,,,1.9,1.0,1.6*3F
$GPRMC,175507.004,A,1429.9873,S,07515.7584,W,0.11,231.06,170411,,,A*63
$GPGGA,175507.997,1429.9871,S,07515.7583,W,1,09,0.9,518.7,M,17.5,M,,0000*5B
$GPGSA,M,3,21,31,25,18,30,22,29,06,16,,,,1.8,0.9,1.6*3F
$GPGSV,3,1,12,21,63,171,39,31,49,284,35,25,45,067,32,18,42,032,28*76
$GPGSV,3,2,12,30,32,208,37,22,25,358,36,29,22,131,29,06,11,246,28*74
$GPGSV,3,3,12,16,10,215,35,12,08,050,29,14,06,342,,03,02,251,*78
$GPRMC,175507.997,A,1429.9871,S,07515.7583,W,0.46,73.76,170411,,,A*54
$GPGGA,175509.024,1429.9870,S,07515.7583,W,1,09,0.9,518.5,M,17.5,M,,0000*57
$GPGSA,M,3,21,31,25,18,30,22,29,06,16,,,,1.8,0.9,1.6*3F
$GPRMC,175509.024,A,1429.9870,S,07515.7583,W,0.09,83.58,170411,,,A*52
$GPGGA,175509.978,1429.9868,S,07515.7584,W,1,08,1.0,518.5,M,17.5,M,,0000*50
$GPGSA,M,3,21,31,25,18,30,22,29,16,,,,,2.0,1.0,1.7*3B
$GPRMC,175509.978,A,1429.9868,S,07515.7584,W,0.41,0.69,170411,,,A*69
$GPGGA,175511.002,1429.9867,S,07515.7585,W,1,09,0.9,519.9,M,17.5,M,,0000*57
$GPGSA,M,3,21,31,25,18,30,22,29,06,16,,,,1.8,0.9,1.6*3F
$GPRMC,175511.002,A,1429.9867,S,07515.7585,W,0.40,73.38,170411,,,A*5B
$GPGGA,175512.000,1429.9865,S,07515.7582,W,1,09,0.9,519.0,M,17.5,M,,0000*5A
$GPGSA,M,3,21,31,25,18,30,22,29,06,16,,,,1.8,0.9,1.6*3F
$GPRMC,175512.000,A,1429.9865,S,07515.7582,W,0.47,320.94,170411,,,A*6B
$GPGGA,175512.996,1429.9863,S,07515.7583,W,1,08,1.0,519.0,M,17.5,M,,0000*52
$GPGSA,M,3,21,31,25,18,30,22,29,16,,,,,2.0,1.0,1.7*3B
$GPGSV,3,1,12,21,63,171,38,31,49,284,35,25,45,067,29,18,42,032,25*70
$GPGSV,3,2,12,30,32,208,36,22,25,358,33,29,22,131,28,06,11,246,*7B
$GPGSV,3,3,12,16,10,215,31,12,08,050,27,14,06,342,,03,02,251,*72
$GPRMC,175512.996,A,1429.9863,S,07515.7583,W,0.09,147.93,170411,,,A*64
$GPGGA,175514.001,1429.9864,S,07515.7581,W,1,09,0.9,519.2,M,17.5,M,,0000*5D
$GPGSA,M,3,21,31,25,18,30,22,29,06,16,,,,1.8,0.9,1.6*3F
$GPRMC,175514.001,A,1429.9864,S,07515.7581,W,0.27,76.33,170411,,,A*55
$GPGGA,175515.001,1429.9863,S,07515.7584,W,1,08,1.0,519.6,M,17.5,M,,0000*53
$GPGSA,M,3,21,31,25,18,30,22,29,16,,,,,2.0,1.0,1.7*3B
$GPRMC,175515.001,A,1429.9863,S,07515.7584,W,0.32,210.80,170411,,,A*68
$GPGGA,175516.002,1429.9863,S,07515.7584,W,1,09,0.9,519.4,M,17.5,M,,0000*58
$GPGSA,M,3,21,31,25,18,30,22,29,06,16,,,,1.8,0.9,1.6*3F
$GPRMC,175516.002,A,1429.9863,S,07515.7584,W,0.38,257.01,170411,,,A*68
$GPGGA,175516.998,1429.9864,S,07515.7579,W,1,08,1.0,520.8,M,17.5,M,,0000*58
$GPGSA,M,3,21,31,25,30,22,29,06,16,,,,,1.9,1.0,1.6*3F
$GPRMC,175516.998,A,1429.9864,S,07515.7579,W,0.50,142.58,170411,,,A*62
$GPGGA,175518.021,1429.9865,S,07515.7576,W,1,08,1.0,520.5,M,17.5,M,,0000*5E
$GPGSA,M,3,21,31,25,30,22,29,06,16,,,,,1.9,1.0,1.6*3F
$GPGSV,3,1,12,21,63,171,38,31,49,284,36,25,45,067,31,18,42,032,*7D
$GPGSV,3,2,12,30,32,208,38,22,25,358,34,29,22,131,31,06,11,246,28*70
$GPGSV,3,3,12,16,10,215,32,12,08,050,29,14,06,342,,03,02,251,*7F
$GPRMC,175518.021,A,1429.9865,S,07515.7576,W,0.22,179.51,170411,,,A*6D
$GPGGA,175518.981,1429.9865,S,07515.7578,W,1,07,1.0,521.1,M,17.5,M,,0000*59
$GPGSA,M,3,21,31,25,30,22,29,16,,,,,,2.0,1.0,1.8*3D
$GPRMC,175518.981,A,1429.9865,S,07515.7578,W,0.95,116.04,170411,,,A*65
$GPGGA,175520.001,1429.9862,S,07515.7579,W,1,09,0.9,521.3,M,17.5,M,,0000*51
$GPGSA,M,3,21,31,25,18,30,22,29,06,16,,,,1.8,0.9,1.6*3F
$GPRMC,175520.001,A,1429.9862,S,07515.7579,W,0.26,80.14,170411,,,A*5E
$GPGGA,175520.999,1429.9862,S,07515.7576,W,1,09,0.9,521.4,M,17.5,M,,0000*51
$GPGSA,M,3,21,31,25,18,30,22,29,06,16,,,,1.8,0.9,1.6*3F
$GPRMC,175520.999,A,1429.9862,S,07515.7576,W,0.84,117.35,170411,,,A*6D
$GPGGA,175522.020,1429.9867,S,07515.7570,W,1,09,0.9,521.8,M,17.5,M,,0000*57
$GPGSA,M,3,21,31,25,18,30,22,29,06,16,,,,1.8,0.9,1.6*3F
$GPRMC,175522.020,A,1429.9867,S,07515.7570,W,0.05,315.00,170411,,,A*68
$GPGGA,175522.977,1429.9868,S,07515.7567,W,1,09,0.9,521.9,M,17.5,M,,0000*54
$GPGSA,M,3,21,31,25,18,30,22,29,06,16,,,,1.8,0.9,1.6*3F
$GPGSV,3,1,12,21,63,171,38,31,49,284,36,25,45,067,31,18,42,032,27*78
$GPGSV,3,2,12,30,32,208,37,22,25,358,35,29,22,131,31,06,11,246,29*7F
$GPGSV,3,3,12,16,10,215,33,12,08,050,30,14,06,342,,03,02,251,*76
$GPRMC,175522.977,A,1429.9868,S,07515.7567,W,0.70,192.91,170411,,,A*6D
$GPGGA,175524.001,1429.9868,S,07515.7564,W,1,08,1.0,522.1,M,17.5,M,,0000*5B
$GPGSA,M,3,21,31,25,30,22,29,06,16,,,,,1.9,1.0,1.6*3F
$GPRMC,175524.001,A,1429.9868,S,07515.7564,W,0.30,52.28,170411,,,A*5B
$GPGGA,175524.998,1429.9867,S,07515.7564,W,1,05,1.4,521.2,M,17.5,M,,0000*54
$GPGSA,M,3,21,31,25,30,22,,,,,,,,3.5,1.4,3.2*39
$GPRMC,175524.998,A,1429.9867,S,07515.7564,W,0.07,339.04,170411,,,A*69
$GPGGA,175526.007,1429.9868,S,07515.7563,W,1,09,0.9,520.0,M,17.5,M,,0000*52
$GPGSA,M,3,21,31,25,18,30,22,29,06,16,,,,1.8,0.9,1.6*3F
$GPRMC,175526.007,A,1429.9868,S,07515.7563,W,0.77,280.39,170411,,,A*66
$GPGGA,175526.993,1429.9864,S,07515.7567,W,1,09,0.9,519.3,M,17.5,M,,0000*57
$GPGSA,M,3,21,31,25,18,30,22,29,06,16,,,,1.8,0.9,1.6*3F
$GPRMC,175526.993,A,1429.9864,S,07515.7567,W,1.07,283.02,170411,,,A*67
$GPGGA,175528.015,1429.9862,S,07515.7567,W,1,07,1.0,519.4,M,17.5,M,,0000*59
$GPGSA,M,3,21,31,25,18,30,22,29,,,,,,2.5,1.0,2.3*3E
$GPGSV,3,1,12,21,63,171,34,31,49,284,32,25,45,067,37,18,42,032,30*70
$GPGSV,3,2,12,30,32,208,29,22,25,358,28,29,22,131,33,06,11,246,*75
$GPGSV,3,3,12,16,10,215,,12,08,050,,14,06,342,,03,02,251,*75
$GPRMC,175528.015,A,1429.9862,S,07515.7567,W,1.70,296.62,170411,,,A*6A
$GPGGA,175528.988,1429.9861,S,07515.7573,W,1,07,1.2,519.0,M,17.5,M,,0000*54
$GPGSA,M,3,21,31,25,18,29,06,16,,,,,,2.2,1.2,1.9*30
$GPRMC,175528.988,A,1429.9861,S,07515.7573,W,1.85,280.47,170411,,,A*6B
$GPGGA,175530.002,1429.9861,S,07515.7583,W,1,08,1.0,519.6,M,17.5,M,,0000*52
$GPGSA,M,3,21,31,25,18,30,22,29,16,,,,,2.0,1.0,1.8*34
$GPRMC,175530.002,A,1429.9861,S,07515.7583,W,2.62,263.03,170411,,,A*61
$GPGGA,175530.996,1429.9865,S,07515.7592,W,1,07,1.1,519.2,M,17.5,M,,0000*58
$GPGSA,M,3,21,31,25,18,30,29,06,,,,,,2.2,1.1,1.9*37
$GPRMC,175530.996,A,1429.9865,S,07515.7592,W,2.71,254.99,170411,,,A*64
$GPGGA,175532.018,1429.9867,S,07515.7600,W,1,05,1.5,519.5,M,17.5,M,,0000*5E
$GPGSA,M,3,21,31,25,18,29,,,,,,,,3.6,1.5,3.3*3B
$GPRMC,175532.018,A,1429.9867,S,07515.7600,W,2.79,247.71,170411,,,A*6F
$GPGGA,175533.000,1429.9870,S,07515.7607,W,1,05,1.5,519.9,M,17.5,M,,0000*5B
$GPGSA,M,3,21,31,25,18,29,,,,,,,,3.6,1.5,3.3*3B
$GPGSV,3,1,12,21,61,170,39,31,49,286,38,25,45,065,42,18,43,033,38*7E
$GPGSV,3,2,12,30,32,208,,22,26,359,,29,21,130,34,16,11,214,*75
$GPGSV,3,3,12,06,11,245,,12,08,050,,14,05,343,,03,02,250,*73
$GPRMC,175533.000,A,1429.9870,S,07515.7607,W,2.35,243.11,170411,,,A*6C
$GPGGA,175534.000,1429.9873,S,07515.7616,W,1,05,1.5,520.4,M,17.5,M,,0000*58
$GPGSA,M,3,21,31,25,18,29,,,,,,,,3.6,1.5,3.3*3B
$GPRMC,175534.000,A,1429.9873,S,07515.7616,W,2.38,245.44,170411,,,A*63
$GPGGA,175535.000,1429.9878,S,07515.7621,W,1,09,0.9,520.3,M,17.5,M,,0000*50
$GPGSA,M,3,21,31,25,18,29,06,22,16,30,,,,1.9,0.9,1.6*3E
$GPRMC,175535.000,A,1429.9878,S,07515.7621,W,1.70,284.72,170411,,,A*6A
$GPGGA,175536.000,1429.9884,S,07515.7629,W,1,07,1.0,520.8,M,17.5,M,,0000*55
$GPGSA,M,3,21,31,25,18,29,22,30,,,,,,2.5,1.0,2.3*3E
$GPRMC,175536.000,A,1429.9884,S,07515.7629,W,1.93,281.98,170411,,,A*6E
$GPGGA,175537.000,1429.9889,S,07515.7633,W,1,09,0.9,520.8,M,17.5,M,,0000*54
$GPGSA,M,3,21,31,25,18,29,06,22,16,30,,,,1.9,0.9,1.6*3E
$GPRMC,175537.000,A,1429.9889,S,07515.7633,W,1.76,298.79,170411,,,A*65
$GPGGA,175538.000,1429.9891,S,07515.7637,W,1,09,0.9,520.4,M,17.5,M,,0000*5A
$GPGSA,M,3,21,31,25,18,29,06,22,16,30,,,,1.9,0.9,1.6*3E
$GPGSV,3,1,12,21,61,170,42,31,49,286,39,25,45,065,39,18,43,033,32*75
$GPGSV,3,2,12,30,32,208,38,22,26,359,37,29,21,130,35,16,11,214,31*79
$GPGSV,3,3,12,06,11,245,24,12,08,050,32,14,05,343,,03,02,250,*74
$GPRMC,175538.000,A,1429.9891,S,07515.7637,W,1.38,300.08,170411,,,A*6B
$GPGGA,175539.000,1429.9893,S,07515.7640,W,1,09,0.9,520.5,M,17.5,M,,0000*58
$GPGSA,M,3,21,31,25,18,29,06,22,16,30,,,,1.9,0.9,1.6*3E
$GPRMC,175539.000,A,1429.9893,S,07515.7640,W,1.26,291.48,170411,,,A*6A
$GPGGA,175540.000,1429.9893,S,07515.7644,W,1,09,0.9,521.0,M,17.5,M,,0000*56
$GPGSA,M,3,21,31,25,18,29,06,22,16,30,,,,1.9,0.9,1.6*3E
$GPRMC,175540.000,A,1429.9893,S,07515.7644,W,0.89,287.74,170411,,,A*6C
$GPGGA,175541.000,1429.9893,S,07515.7647,W,1,08,1.0,521.2,M,17.5,M,,0000*5F
$GPGSA,M,3,21,31,25,18,29,22,16,30,,,,,2.0,1.0,1.8*34
$GPRMC,175541.000,A,1429.9893,S,07515.7647,W,1.18,294.20,170411,,,A*64
$GPGGA,175542.000,1429.9892,S,07515.7649,W,1,08,1.0,521.7,M,17.5,M,,0000*56
$GPGSA,M,3,21,31,25,18,29,22,16,30,,,,,2.0,1.0,1.8*34
$GPRMC,175542.000,A,1429.9892,S,07515.7649,W,0.49,303.39,170411,,,A*6A
$GPGGA,175543.000,1429.9893,S,07515.7651,W,1,09,0.9,522.0,M,17.5,M,,0000*52
$GPGSA,M,3,21,31,25,18,29,06,22,16,30,,,,1.9,0.9,1.6*3E
$GPGSV,3,1,12,21,61,170,43,31,49,286,37,25,45,065,36,18,43,033,27*71
$GPGSV,3,2,12,30,32,208,40,22,26,359,37,29,21,130,26,16,11,214,28*7C
$GPGSV,3,3,12,06,11,245,27,12,08,050,30,14,05,343,,03,02,250,22*75
$GPRMC,175543.000,A,1429.9893,S,07515.7651,W,0.18,121.28,170411,,,A*65
$GPGGA,175544.002,1429.9893,S,07515.7652,W,1,07,1.0,522.1,M,17.5,M,,0000*53
$GPGSA,M,3,21,31,25,30,22,29,06,,,,,,2.0,1.0,1.8*3C
$GPRMC,175544.002,A,1429.9893,S,07515.7652,W,0.47,215.23,170411,,,A*66
$GPGGA,175545.005,1429.9893,S,07515.7653,W,1,09,0.9,522.2,M,17.5,M,,0000*51
$GPGSA,M,3,21,31,25,18,30,22,29,16,06,,,,1.9,0.9,1.6*3E
$GPRMC,175545.005,A,1429.9893,S,07515.7653,W,0.62,287.74,170411,,,A*6F
$GPGGA,175546.000,1429.9894,S,07515.7653,W,1,07,1.0,522.1,M,17.5,M,,0000*55
$GPGSA,M,3,21,31,25,18,30,22,29,,,,,,2.5,1.0,2.3*3E
$GPRMC,175546.000,A,1429.9894,S,07515.7653,W,0.45,131.39,170411,,,A*6C
$GPGGA,175547.000,1429.9893,S,07515.7653,W,1,09,0.9,522.5,M,17.5,M,,0000*51
$GPGSA,M,3,21,31,25,18,30,22,29,16,06,,,,1.9,0.9,1.6*3E
$GPRMC,175547.000,A,1429.9893,S,07515.7653,W,0.71,25.99,170411,,,A*53
$GPGGA,175547.992,1429.9892,S,07515.7651,W,1,09,0.9,523.0,M,17.5,M,,0000*54
$GPGSA,M,3,21,31,25,18,30,22,29,16,06,,,,1.9,0.9,1.6*3E
$GPGSV,3,1,12,21,61,170,38,31,49,286,37,25,45,065,35,18,43,033,28*71
$GPGSV,3,2,12,30,32,208,39,22,26,359,37,29,21,130,28,16,11,214,30*75
$GPGSV,3,3,12,06,11,245,28,12,08,050,28,14,05,343,,03,02,250,26*77
$GPRMC,175547.992,A,1429.9892,S,07515.7651,W,0.96,94.90,170411,,,A*58
$GPGGA,175549.017,1429.9893,S,07515.7650,W,1,07,1.0,523.7,M,17.5,M,,0000*5F
$GPGSA,M,3,21,31,25,30,22,29,06,,,,,,2.0,1.0,1.8*3C
$GPRMC,175549.017,A,1429.9893,S,07515.7650,W,0.21,114.05,170411,,,A*6B
$GPGGA,175549.984,1429.9894,S,07515.7647,W,1,06,1.1,522.9,M,17.5,M,,0000*52
$GPGSA,M,3,21,31,25,30,22,29,,,,,,,2.6,1.1,2.4*32
$GPRMC,175549.984,A,1429.9894,S,07515.7647,W,0.38,182.63,170411,,,A*6E
$GPGGA,175551.005,1429.9893,S,07515.7650,W,1,08,1.2,523.0,M,17.5,M,,0000*5F
$GPGSA,M,3,21,31,25,18,30,22,16,06,,,,,2.2,1.2,1.8*39
$GPRMC,175551.005,A,1429.9893,S,07515.7650,W,1.34,293.77,170411,,,A*6D
$GPGGA,175551.996,1429.9893,S,07515.7652,W,1,08,1.0,523.7,M,17.5,M,,0000*5B
$GPGSA,M,3,21,31,25,30,22,29,16,06,,,,,1.9,1.0,1.6*3F
$GPRMC,175551.996,A,1429.9893,S,07515.7652,W,0.42,109.43,170411,,,A*6B
$GPGGA,175553.018,1429.9893,S,07515.7651,W,1,07,1.3,523.1,M,17.5,M,,0000*5F
$GPGSA,M,3,21,31,25,30,22,16,06,,,,,,2.2,1.3,1.9*30
$GPGSV,3,1,12,21,61,170,38,31,49,286,35,25,45,065,35,18,43,033,*79
$GPGSV,3,2,12,30,32,208,38,22,26,359,36,29,21,130,,16,11,214,19*74
$GPGSV,3,3,12,06,11,245,28,12,08,050,27,14,05,343,,03,02,250,23*7D
$GPRMC,175553.018,A,1429.9893,S,07515.7651,W,0.39,174.87,170411,,,A*6B
$GPGGA,175553.981,1429.9895,S,07515.7651,W,1,06,1.4,522.9,M,17.5,M,,0000*5F
$GPGSA,M,3,21,31,25,30,22,06,,,,,,,2.6,1.4,2.2*3C
$GPRMC,175553.981,A,1429.9895,S,07515.7651,W,0.60,160.74,170411,,,A*61
$GPGGA,175555.007,1429.9895,S,07515.7651,W,1,08,1.0,522.8,M,17.5,M,,0000*55
$GPGSA,M,3,21,31,25,30,22,29,16,06,,,,,1.9,1.0,1.6*3F
$GPRMC,175555.007,A,1429.9895,S,07515.7651,W,0.09,118.09,170411,,,A*6A
$GPGGA,175555.994,1429.9895,S,07515.7652,W,1,08,1.0,523.7,M,17.5,M,,0000*5B
$GPGSA,M,3,21,31,25,30,22,29,16,06,,,,,1.9,1.0,1.6*3F
$GPRMC,175555.994,A,1429.9895,S,07515.7652,W,0.40,163.85,170411,,,A*6F
$GPGGA,175557.014,1429.9895,S,07515.7653,W,1,08,1.0,524.1,M,17.5,M,,0000*58
$GPGSA,M,3,21,31,25,30,22,29,16,06,,,,,1.9,1.0,1.6*3F
$GPRMC,175557.014,A,1429.9895,S,07515.7653,W,0.38,210.12,170411,,,A*6B
$GPGGA,175557.989,1429.9897,S,07515.7652,W,1,08,1.0,524.8,M,17.5,M,,0000*5F
$GPGSA,M,3,21,31,25,30,22,29,16,06,,,,,1.9,1.0,1.6*3F
$GPGSV,3,1,12,21,61,170,39,31,49,286,36,25,45,065,36,18,43,033,*78
$GPGSV,3,2,12,30,32,208,39,22,26,359,36,29,21,130,28,16,11,214,34*70
$GPGSV,3,3,12,06,11,245,29,12,08,050,,14,05,343,,03,02,250,*78
$GPRMC,175557.989,A,1429.9897,S,07515.7652,W,0.14,269.10,170411,,,A*67
$GPGGA,175559.000,1429.9899,S,07515.7652,W,1,06,1.3,525.1,M,17.5,M,,0000*52
$GPGSA,M,3,21,31,25,30,22,16,,,,,,,2.4,1.3,2.0*3A
$GPRMC,175559.000,A,1429.9899,S,07515.7652,W,0.53,104.29,170411,,,A*6E
$GPGGA,175559.997,1429.9898,S,07515.7649,W,1,09,0.9,524.8,M,17.5,M,,0000*52
$GPGSA,M,3,21,31,25,18,30,22,29,16,06,,,,1.9,0.9,1.6*3E
$GPRMC,175559.997,A,1429.9898,S,07515.7649,W,0.12,74.04,170411,,,A*5E
$GPGGA,175601.003,1429.9897,S,07515.7648,W,1,08,1.0,525.1,M,17.5,M,,0000*57
$GPGSA,M,3,21,31,25,30,22,29,16,06,,,,,1.9,1.0,1.6*3F
$GPRMC,175601.003,A,1429.9897,S,07515.7648,W,0.79,120.42,170411,,,A*65
$GPGGA,175601.998,1429.9898,S,07515.7645,W,1,08,1.0,525.2,M,17.5,M,,0000*5D
$GPGSA,M,3,21,31,25,30,22,29,16,06,,,,,1.9,1.0,1.6*3F
$GPRMC,175601.998,A,1429.9898,S,07515.7645,W,0.33,287.28,170411,,,A*60
$GPGGA,175603.017,1429.9896,S,07515.7648,W,1,09,0.9,525.8,M,17.5,M,,0000*51
$GPGSA,M,3,21,31,25,18,30,22,29,16,06,,,,1.9,0.9,1.6*3E
$GPGSV,3,1,12,21,61,170,39,31,49,286,35,25,45,065,37,18,43,033,28*70
$GPGSV,3,2,12,30,32,208,38,22,26,359,35,29,21,130,30,16,11,214,29*77
$GPGSV,3,3,12,06,11,245,32,12,08,050,26,14,05,343,,03,02,250,27*73
$GPRMC,175603.017,A,1429.9896,S,07515.7648,W,0.07,159.87,170411,,,A*6D
$GPGGA,175603.987,1429.9893,S,07515.7646,W,1,07,1.3,526.8,M,17.5,M,,0000*5C
