$GPGGA,220632.001,1257.8145,S,07629.9619,W,1,11,0.9,67.1,M,11.0,M,,0000*68
$GPGSA,M,3,03,06,16,19,32,14,22,30,11,20,24,,1.8,0.9,1.5*33
$GPRMC,220632.001,A,1257.8145,S,07629.9619,W,26.80,171.15,150411,,,A*5C
$GPGGA,220632.999,1257.8218,S,07629.9607,W,1,11,0.9,66.5,M,11.0,M,,0000*61
$GPGSA,M,3,03,06,16,19,32,14,22,30,11,20,24,,1.8,0.9,1.5*33
$GPRMC,220632.999,A,1257.8218,S,07629.9607,W,26.90,170.77,150411,,,A*54
$GPGGA,220634.000,1257.8292,S,07629.9596,W,1,11,0.9,66.8,M,11.0,M,,0000*6A
$GPGSA,M,3,03,06,16,19,32,14,22,30,11,20,24,,1.8,0.9,1.5*33
$GPRMC,220634.000,A,1257.8292,S,07629.9596,W,26.49,170.33,150411,,,A*56
$GPGGA,220635.000,1257.8366,S,07629.9584,W,1,11,0.9,66.7,M,11.0,M,,0000*6D
$GPGSA,M,3,03,06,16,19,32,14,22,30,11,20,24,,1.8,0.9,1.5*33
$GPGSV,3,1,12,03,72,167,39,06,69,110,39,16,43,344,31,19,42,196,38*7D
$GPGSV,3,2,12,32,39,307,37,14,37,091,39,22,29,148,37,30,27,002,37*71
$GPGSV,3,3,12,11,15,234,39,20,14,308,31,24,14,248,38,31,03,028,*72
$GPRMC,220635.000,A,1257.8366,S,07629.9584,W,26.30,169.37,150411,,,A*5C
$GPGGA,220636.000,1257.8437,S,07629.9569,W,1,11,0.9,66.2,M,11.0,M,,0000*6B
$GPGSA,M,3,03,06,16,19,32,14,22,30,11,20,24,,1.8,0.9,1.5*33
$GPRMC,220636.000,A,1257.8437,S,07629.9569,W,26.13,169.67,150411,,,A*5B
$GPGGA,220637.000,1257.8509,S,07629.9558,W,1,11,0.9,66.3,M,11.0,M,,0000*65
$GPGSA,M,3,03,06,16,19,32,14,22,30,11,20,24,,1.8,0.9,1.5*33
$GPRMC,220637.000,A,1257.8509,S,07629.9558,W,26.08,170.77,150411,,,A*57
$GPGGA,220638.000,1257.8581,S,07629.9545,W,1,11,0.9,66.4,M,11.0,M,,0000*61
$GPGSA,M,3,03,06,16,19,32,14,22,30,11,20,24,,1.8,0.9,1.5*33
$GPRMC,220638.000,A,1257.8581,S,07629.9545,W,25.89,169.78,150411,,,A*59
$GPGGA,220639.000,1257.8652,S,07629.9532,W,1,11,0.9,66.1,M,11.0,M,,0000*68
$GPGSA,M,3,03,06,16,19,32,14,22,30,11,20,24,,1.8,0.9,1.5*33
$GPRMC,220639.000,A,1257.8652,S,07629.9532,W,25.58,170.04,150411,,,A*5A
$GPGGA,220640.000,1257.8722,S,07629.9521,W,1,11,0.9,66.3,M,11.0,M,,0000*60
$GPGSA,M,3,03,06,16,19,32,14,22,30,11,20,24,,1.8,0.9,1.5*33
$GPGSV,3,1,12,03,72,167,40,06,69,110,38,16,43,344,30,19,42,196,39*72
$GPGSV,3,2,12,32,39,307,36,14,37,091,38,22,29,148,36,30,27,002,38*7F
$GPGSV,3,3,12,11,15,234,38,20,14,308,31,24,14,248,37,31,03,028,*7C
$GPRMC,220640.000,A,1257.8722,S,07629.9521,W,25.97,169.65,150411,,,A*5C
$GPGGA,220641.000,1257.8793,S,07629.9510,W,1,11,0.9,66.4,M,11.0,M,,0000*6E
$GPGSA,M,3,03,06,16,19,32,14,22,30,11,20,24,,1.8,0.9,1.5*33
$GPRMC,220641.000,A,1257.8793,S,07629.9510,W,25.88,170.42,150411,,,A*56
$GPGGA,220642.001,1257.8863,S,07629.9501,W,1,11,0.9,66.0,M,11.0,M,,0000*68
$GPGSA,M,3,03,06,16,19,32,14,22,30,11,20,24,,1.8,0.9,1.5*33
$GPRMC,220642.001,A,1257.8863,S,07629.9501,W,25.66,171.25,150411,,,A*54
$GPGGA,220643.001,1257.8934,S,07629.9491,W,1,11,0.9,66.1,M,11.0,M,,0000*63
$GPGSA,M,3,03,06,16,19,32,14,22,30,11,20,24,,1.8,0.9,1.5*33
$GPRMC,220643.001,A,1257.8934,S,07629.9491,W,25.71,170.94,150411,,,A*53
$GPGGA,220644.000,1257.9004,S,07629.9479,W,1,11,0.9,65.7,M,11.0,M,,0000*6D
$GPGSA,M,3,03,06,16,19,32,14,22,30,11,20,24,,1.8,0.9,1.5*33
$GPRMC,220644.000,A,1257.9004,S,07629.9479,W,25.62,170.54,150411,,,A*56
$GPGGA,220645.000,1257.9073,S,07629.9468,W,1,11,0.9,64.7,M,11.0,M,,0000*6D
$GPGSA,M,3,03,06,16,19,32,14,22,30,11,20,24,,1.8,0.9,1.5*33
$GPGSV,3,1,12,03,72,167,40,06,69,110,38,16,43,344,35,19,42,196,37*79
$GPGSV,3,2,12,32,39,307,36,14,37,091,39,22,29,148,40,30,27,002,37*70
$GPGSV,3,3,12,11,15,234,38,20,14,308,28,24,14,248,38,31,03,028,*7B
$GPRMC,220645.000,A,1257.9073,S,07629.9468,W,25.72,170.51,150411,,,A*53
$GPGGA,220646.002,1257.9144,S,07629.9459,W,1,11,0.9,65.5,M,11.0,M,,0000*68
$GPGSA,M,3,03,06,16,19,32,14,22,30,11,20,24,,1.8,0.9,1.5*33
$GPRMC,220646.002,A,1257.9144,S,07629.9459,W,26.10,170.53,150411,,,A*50
$GPGGA,220647.001,1257.9216,S,07629.9450,W,1,09,1.1,65.4,M,11.0,M,,0000*66
$GPGSA,M,3,03,06,16,19,32,14,22,30,20,,,,2.0,1.1,1.7*35
$GPRMC,220647.001,A,1257.9216,S,07629.9450,W,25.46,171.92,150411,,,A*53
$GPGGA,220647.998,1257.9284,S,07629.9440,W,1,08,1.2,64.8,M,11.0,M,,0000*6A
$GPGSA,M,3,03,06,16,19,32,14,22,30,,,,,2.4,1.2,2.2*36
$GPRMC,220647.998,A,1257.9284,S,07629.9440,W,25.84,170.98,150411,,,A*55
$GPGGA,220649.001,1257.9359,S,07629.9429,W,1,08,1.2,65.0,M,11.0,M,,0000*6A
$GPGSA,M,3,03,06,16,19,32,14,22,30,,,,,2.4,1.2,2.2*36
$GPRMC,220649.001,A,1257.9359,S,07629.9429,W,25.85,170.69,150411,,,A*53
$GPGGA,220650.003,1257.9431,S,07629.9417,W,1,09,1.0,64.7,M,11.0,M,,0000*61
$GPGSA,M,3,03,06,16,19,32,14,22,30,11,,,,2.0,1.0,1.7*36
$GPGSV,3,1,12,03,72,167,38,06,69,110,38,16,43,344,32,19,42,196,38*7E
$GPGSV,3,2,12,32,39,307,35,14,37,091,39,22,29,148,38,30,27,002,38*73
$GPGSV,3,3,12,11,15,234,35,20,14,308,,24,14,248,,31,03,028,*77
$GPRMC,220650.003,A,1257.9431,S,07629.9417,W,26.38,170.07,150411,,,A*50
$GPGGA,220651.001,1257.9506,S,07629.9404,W,1,10,0.9,64.3,M,11.0,M,,0000*61
$GPGSA,M,3,03,06,16,19,32,14,22,30,11,24,,,1.9,0.9,1.6*33
$GPRMC,220651.001,A,1257.9506,S,07629.9404,W,26.02,170.58,150411,,,A*57
$GPGGA,220652.001,1257.9577,S,07629.9392,W,1,10,0.9,63.9,M,11.0,M,,0000*61
$GPGSA,M,3,03,06,16,19,32,14,22,30,11,24,,,1.9,0.9,1.6*33
$GPRMC,220652.001,A,1257.9577,S,07629.9392,W,26.25,170.54,150411,,,A*53
$GPGGA,220652.999,1257.9648,S,07629.9379,W,1,11,0.9,63.9,M,11.0,M,,0000*62
$GPGSA,M,3,03,06,16,19,32,14,22,30,11,20,24,,1.8,0.9,1.5*33
$GPRMC,220652.999,A,1257.9648,S,07629.9379,W,26.52,170.34,150411,,,A*57
$GPGGA,220654.001,1257.9721,S,07629.9365,W,1,11,0.9,63.4,M,11.0,M,,0000*62
$GPGSA,M,3,03,06,16,19,32,14,22,30,11,20,24,,1.8,0.9,1.5*33
$GPRMC,220654.001,A,1257.9721,S,07629.9365,W,26.62,170.11,150411,,,A*5E
$GPGGA,220655.001,1257.9794,S,07629.9350,W,1,11,0.9,62.7,M,11.0,M,,0000*69
$GPGSA,M,3,03,06,16,19,32,14,22,30,11,20,24,,1.8,0.9,1.5*33
$GPGSV,3,1,12,03,72,167,39,06,69,110,39,16,43,344,32,19,42,196,38*7E
$GPGSV,3,2,12,32,39,307,37,14,37,091,40,22,29,148,40,30,27,002,37*7F
$GPGSV,3,3,12,11,15,234,37,20,14,308,31,24,14,248,38,31,03,028,*7C
$GPRMC,220655.001,A,1257.9794,S,07629.9350,W,26.55,169.32,150411,,,A*5A
$GPGGA,220656.001,1257.9866,S,07629.9336,W,1,11,0.9,62.2,M,11.0,M,,0000*6D
$GPGSA,M,3,03,06,16,19,32,14,22,30,11,20,24,,1.8,0.9,1.5*33
$GPRMC,220656.001,A,1257.9866,S,07629.9336,W,27.14,170.36,150411,,,A*53
$GPGGA,220657.001,1257.9939,S,07629.9323,W,1,11,0.9,61.5,M,11.0,M,,0000*67
$GPGSA,M,3,03,06,16,19,32,14,22,30,11,20,24,,1.8,0.9,1.5*33
$GPRMC,220657.001,A,1257.9939,S,07629.9323,W,27.02,171.03,150411,,,A*5D
$GPGGA,220658.003,1258.0015,S,07629.9311,W,1,11,0.9,61.2,M,11.0,M,,0000*6D
$GPGSA,M,3,03,06,16,19,32,14,22,30,11,20,24,,1.8,0.9,1.5*33
$GPRMC,220658.003,A,1258.0015,S,07629.9311,W,27.08,169.66,150411,,,A*50
$GPGGA,220659.001,1258.0087,S,07629.9298,W,1,09,1.1,60.6,M,11.0,M,,0000*60
$GPGSA,M,3,03,06,16,19,32,14,22,30,20,,,,2.0,1.1,1.7*35
$GPRMC,220659.001,A,1258.0087,S,07629.9298,W,26.27,170.51,150411,,,A*58
$GPGGA,220659.998,1258.0161,S,07629.9283,W,1,09,1.1,60.2,M,11.0,M,,0000*6E
$GPGSA,M,3,03,06,16,19,32,14,22,30,20,,,,2.0,1.1,1.7*35
$GPGSV,3,1,12,03,72,167,38,06,69,110,38,16,43,344,33,19,42,196,39*7E
$GPGSV,3,2,12,32,39,307,38,14,37,091,38,22,29,148,37,30,27,002,38*70
$GPGSV,3,3,12,11,15,234,,20,14,308,34,24,14,248,,31,03,028,*76
$GPRMC,220659.998,A,1258.0161,S,07629.9283,W,27.48,169.92,150411,,,A*5D
$GPGGA,220701.001,1258.0236,S,07629.9270,W,1,09,1.1,59.9,M,11.0,M,,0000*67
$GPGSA,M,3,03,06,16,19,32,14,22,30,20,,,,2.0,1.1,1.7*35
$GPRMC,220701.001,A,1258.0236,S,07629.9270,W,27.01,169.46,150411,,,A*51
$GPGGA,220702.003,1258.0310,S,07629.9256,W,1,08,1.2,59.0,M,11.0,M,,0000*6C
$GPGSA,M,3,03,06,16,19,32,14,22,30,,,,,2.4,1.2,2.1*35
$GPRMC,220702.003,A,1258.0310,S,07629.9256,W,27.12,170.18,150411,,,A*50
$GPGGA,220702.998,1258.0385,S,07629.9243,W,1,08,1.2,59.0,M,11.0,M,,0000*6F
$GPGSA,M,3,03,06,16,19,32,14,22,30,,,,,2.4,1.2,2.1*35
$GPRMC,220702.998,A,1258.0385,S,07629.9243,W,27.66,168.92,150411,,,A*5B
$GPGGA,220704.003,1258.0459,S,07629.9228,W,1,09,1.0,59.0,M,11.0,M,,0000*6A
$GPGSA,M,3,03,06,16,19,32,14,22,30,11,,,,2.0,1.0,1.7*36
$GPRMC,220704.003,A,1258.0459,S,07629.9228,W,27.48,168.31,150411,,,A*58
$GPGGA,220704.998,1258.0532,S,07629.9212,W,1,11,0.9,59.2,M,11.0,M,,0000*67
$GPGSA,M,3,03,06,16,19,32,14,22,30,11,20,24,,1.8,0.9,1.5*33
$GPGSV,3,1,12,03,72,167,40,06,69,110,38,16,43,344,35,19,42,196,38*76
$GPGSV,3,2,12,32,39,307,39,14,37,091,39,22,29,148,39,30,27,002,37*71
$GPGSV,3,3,12,11,15,234,36,20,14,308,28,24,14,248,32,31,03,028,*7F
$GPRMC,220704.998,A,1258.0532,S,07629.9212,W,27.62,167.18,150411,,,A*5A
$GPGGA,220706.001,1258.0608,S,07629.9195,W,1,11,0.9,58.4,M,11.0,M,,0000*6D
$GPGSA,M,3,03,06,16,19,32,14,22,30,11,20,24,,1.8,0.9,1.5*33
$GPRMC,220706.001,A,1258.0608,S,07629.9195,W,28.47,167.66,150411,,,A*56
$GPGGA,220706.999,1258.0686,S,07629.9178,W,1,11,0.9,57.1,M,11.0,M,,0000*6A
$GPGSA,M,3,03,06,16,19,32,14,22,30,11,20,24,,1.8,0.9,1.5*33
$GPRMC,220706.999,A,1258.0686,S,07629.9178,W,28.54,166.99,150411,,,A*58
$GPGGA,220707.999,1258.0763,S,07629.9159,W,1,11,0.9,56.7,M,11.0,M,,0000*65
$GPGSA,M,3,03,06,16,19,32,14,22,30,11,20,24,,1.8,0.9,1.5*33
$GPRMC,220707.999,A,1258.0763,S,07629.9159,W,28.19,165.87,150411,,,A*55
$GPGGA,220708.999,1258.0839,S,07629.9138,W,1,11,0.9,55.8,M,11.0,M,,0000*61
$GPGSA,M,3,03,06,16,19,32,14,22,30,11,20,24,,1.8,0.9,1.5*33
$GPRMC,220708.999,A,1258.0839,S,07629.9138,W,28.30,165.17,150411,,,A*5F
$GPGGA,220709.999,1258.0916,S,07629.9120,W,1,11,0.9,55.2,M,11.0,M,,0000*6F
$GPGSA,M,3,03,06,16,19,32,14,22,30,11,20,24,,1.8,0.9,1.5*33
$GPGSV,3,1,12,03,72,167,41,06,69,110,39,16,43,344,35,19,42,196,37*79
$GPGSV,3,2,12,32,39,307,39,14,37,091,38,22,29,148,41,30,27,002,37*7F
$GPGSV,3,3,12,11,15,234,37,20,14,308,37,24,14,248,35,31,03,028,*77
$GPRMC,220709.999,A,1258.0916,S,07629.9120,W,28.46,164.07,150411,,,A*5A
$GPGGA,220710.999,1258.0993,S,07629.9098,W,1,11,0.9,54.4,M,11.0,M,,0000*6F
$GPGSA,M,3,03,06,16,19,32,14,22,30,11,20,24,,1.8,0.9,1.5*33
$GPRMC,220710.999,A,1258.0993,S,07629.9098,W,28.25,163.27,150411,,,A*5D
$GPGGA,220712.000,1258.1070,S,07629.9074,W,1,11,0.9,54.3,M,11.0,M,,0000*64
$GPGSA,M,3,03,06,16,19,32,14,22,30,11,20,24,,1.8,0.9,1.5*33
$GPRMC,220712.000,A,1258.1070,S,07629.9074,W,28.34,163.54,150411,,,A*55
$GPGGA,220712.999,1258.1145,S,07629.9051,W,1,11,0.9,53.9,M,11.0,M,,0000*60
$GPGSA,M,3,03,06,16,19,32,14,22,30,11,20,24,,1.8,0.9,1.5*33
$GPRMC,220712.999,A,1258.1145,S,07629.9051,W,27.73,162.28,150411,,,A*5A
$GPGGA,220714.001,1258.1219,S,07629.9027,W,1,11,0.9,52.9,M,11.0,M,,0000*64
$GPGSA,M,3,03,06,16,19,32,14,22,30,11,20,24,,1.8,0.9,1.5*33
$GPRMC,220714.001,A,1258.1219,S,07629.9027,W,27.82,161.45,150411,,,A*59
$GPGGA,220714.998,1258.1292,S,07629.9003,W,1,11,0.9,52.3,M,11.0,M,,0000*62
$GPGSA,M,3,03,06,16,19,32,14,22,30,11,20,24,,1.8,0.9,1.5*33
$GPGSV,3,1,12,03,72,167,40,06,69,110,39,16,43,344,32,19,42,196,36*7E
$GPGSV,3,2,12,32,39,307,39,14,37,091,39,22,29,148,41,30,27,002,37*7E
$GPGSV,3,3,12,11,15,234,36,20,14,308,33,24,14,248,32,31,03,028,*75
$GPRMC,220714.998,A,1258.1292,S,07629.9003,W,27.53,161.92,150411,,,A*53
$GPGGA,220716.000,1258.1364,S,07629.8979,W,1,11,0.9,52.1,M,11.0,M,,0000*67
$GPGSA,M,3,03,06,16,19,32,14,22,30,11,20,24,,1.8,0.9,1.5*33
$GPRMC,220716.000,A,1258.1364,S,07629.8979,W,27.77,160.25,150411,,,A*5F
$GPGGA,220717.001,1258.1438,S,07629.8954,W,1,11,0.9,52.3,M,11.0,M,,0000*64
$GPGSA,M,3,03,06,16,19,32,14,22,30,11,20,24,,1.8,0.9,1.5*33
$GPRMC,220717.001,A,1258.1438,S,07629.8954,W,27.91,160.17,150411,,,A*57
$GPGGA,220717.999,1258.1509,S,07629.8927,W,1,11,0.9,51.8,M,11.0,M,,0000*63
$GPGSA,M,3,03,06,16,19,32,14,22,30,11,20,24,,1.8,0.9,1.5*33
$GPRMC,220717.999,A,1258.1509,S,07629.8927,W,28.14,158.63,150411,,,A*52
$GPGGA,220718.999,1258.1580,S,07629.8900,W,1,11,0.9,50.4,M,11.1,M,,0000*64
$GPGSA,M,3,03,06,16,19,32,14,22,30,11,20,24,,1.8,0.9,1.5*33
$GPRMC,220718.999,A,1258.1580,S,07629.8900,W,27.46,158.52,150411,,,A*53
$GPGGA,220719.999,1258.1650,S,07629.8871,W,1,11,0.9,49.4,M,11.1,M,,0000*64
$GPGSA,M,3,03,06,16,19,32,14,22,30,11,20,24,,1.8,0.9,1.5*33
$GPGSV,3,1,12,03,72,167,41,06,69,110,39,16,43,344,37,19,42,196,34*78
$GPGSV,3,2,12,32,39,307,38,14,37,091,38,22,29,148,38,30,27,002,37*70
$GPGSV,3,3,12,11,15,234,38,20,14,308,33,24,14,248,36,31,03,028,*7F
$GPRMC,220719.999,A,1258.1650,S,07629.8871,W,26.86,158.16,150411,,,A*56
$GPGGA,220720.999,1258.1717,S,07629.8845,W,1,11,0.9,48.9,M,11.1,M,,0000*67
$GPGSA,M,3,03,06,16,19,32,14,22,30,11,20,24,,1.8,0.9,1.5*33
$GPRMC,220720.999,A,1258.1717,S,07629.8845,W,26.30,157.23,150411,,,A*5D
$GPGGA,220721.999,1258.1783,S,07629.8817,W,1,11,0.9,47.9,M,11.1,M,,0000*63
$GPGSA,M,3,03,06,16,19,32,14,22,30,11,20,24,,1.8,0.9,1.5*33
$GPRMC,220721.999,A,1258.1783,S,07629.8817,W,25.32,155.45,150411,,,A*55
$GPGGA,220723.000,1258.1846,S,07629.8788,W,1,11,0.9,46.3,M,11.1,M,,0000*6C
$GPGSA,M,3,03,06,16,19,32,14,22,30,11,20,24,,1.8,0.9,1.5*33
$GPRMC,220723.000,A,1258.1846,S,07629.8788,W,24.75,154.94,150411,,,A*5E
$GPGGA,220723.999,1258.1910,S,07629.8760,W,1,11,0.9,45.1,M,11.1,M,,0000*60
$GPGSA,M,3,03,06,16,19,32,14,22,30,11,20,24,,1.8,0.9,1.5*33
$GPRMC,220723.999,A,1258.1910,S,07629.8760,W,25.23,157.08,150411,,,A*57
$GPGGA,220724.999,1258.1977,S,07629.8728,W,1,11,0.9,43.5,M,11.1,M,,0000*68
$GPGSA,M,3,03,06,16,19,32,14,22,30,11,20,24,,1.8,0.9,1.5*33
$GPGSV,3,1,12,03,72,167,40,06,69,110,39,16,43,344,37,19,42,196,36*7B
$GPGSV,3,2,12,32,39,307,36,14,37,091,37,22,29,148,40,30,27,002,35*7C
$GPGSV,3,3,12,11,15,234,38,20,14,308,36,24,14,248,33,31,03,028,*7F
$GPRMC,220724.999,A,1258.1977,S,07629.8728,W,25.54,156.83,150411,,,A*5F
$GPGGA,220726.000,1258.2043,S,07629.8699,W,1,11,0.9,42.6,M,11.1,M,,0000*67
$GPGSA,M,3,03,06,16,19,32,14,22,30,11,20,24,,1.8,0.9,1.5*33
$GPRMC,220726.000,A,1258.2043,S,07629.8699,W,25.77,155.98,150411,,,A*5A
$GPGGA,220726.999,1258.2107,S,07629.8670,W,1,11,0.9,41.5,M,11.1,M,,0000*68
$GPGSA,M,3,03,06,16,19,32,14,22,30,11,20,24,,1.8,0.9,1.5*33
$GPRMC,220726.999,A,1258.2107,S,07629.8670,W,25.91,156.74,150411,,,A*5C
$GPGGA,220727.999,1258.2173,S,07629.8640,W,1,11,0.9,40.6,M,11.1,M,,0000*6B
$GPGSA,M,3,03,06,16,19,32,14,22,30,11,20,24,,1.8,0.9,1.5*33
$GPRMC,220727.999,A,1258.2173,S,07629.8640,W,26.24,157.11,150411,,,A*52
$GPGGA,220729.000,1258.2240,S,07629.8612,W,1,11,0.9,39.0,M,11.1,M,,0000*60
$GPGSA,M,3,03,06,16,19,32,14,22,30,11,20,24,,1.8,0.9,1.5*33
$GPRMC,220729.000,A,1258.2240,S,07629.8612,W,26.30,157.75,150411,,,A*56
$GPGGA,220730.000,1258.2307,S,07629.8584,W,1,11,0.9,37.9,M,11.1,M,,0000*61
$GPGSA,M,3,03,06,16,19,32,14,22,30,11,20,24,,1.8,0.9,1.5*33
$GPGSV,3,1,12,03,72,167,40,06,69,110,39,16,43,344,38,19,42,196,37*75
$GPGSV,3,2,12,32,39,307,37,14,37,091,37,22,29,148,41,30,27,002,33*7A
$GPGSV,3,3,12,11,15,234,38,20,14,308,29,24,14,248,32,31,03,028,*70
$GPRMC,220730.000,A,1258.2307,S,07629.8584,W,26.15,157.96,150411,,,A*5A
$GPGGA,220730.999,1258.2375,S,07629.8557,W,1,11,0.9,37.0,M,11.1,M,,0000*6A
$GPGSA,M,3,03,06,16,19,32,14,22,30,11,20,24,,1.8,0.9,1.5*33
$GPRMC,220730.999,A,1258.2375,S,07629.8557,W,26.66,158.39,150411,,,A*56
$GPGGA,220731.999,1258.2444,S,07629.8527,W,1,11,0.9,35.8,M,11.1,M,,0000*63
$GPGSA,M,3,03,06,16,19,32,14,22,30,11,20,24,,1.8,0.9,1.5*33
$GPRMC,220731.999,A,1258.2444,S,07629.8527,W,26.35,158.49,150411,,,A*54
$GPGGA,220732.999,1258.2510,S,07629.8499,W,1,11,0.9,34.5,M,11.1,M,,0000*68
$GPGSA,M,3,03,06,16,19,32,14,22,30,11,20,24,,1.8,0.9,1.5*33
$GPRMC,220732.999,A,1258.2510,S,07629.8499,W,26.75,156.89,150411,,,A*55
$GPGGA,220733.999,1258.2578,S,07629.8471,W,1,11,0.9,34.3,M,11.1,M,,0000*67
$GPGSA,M,3,03,06,16,19,32,14,22,30,11,20,24,,1.8,0.9,1.5*33
$GPRMC,220733.999,A,1258.2578,S,07629.8471,W,26.69,157.14,150411,,,A*54
$GPGGA,220735.000,1258.2645,S,07629.8439,W,1,11,0.9,32.8,M,11.1,M,,0000*64
$GPGSA,M,3,03,06,16,19,32,14,22,30,11,20,24,,1.8,0.9,1.5*33
$GPGSV,3,1,12,03,72,167,40,06,69,110,38,16,43,344,36,19,42,196,35*78
$GPGSV,3,2,12,32,39,307,36,14,37,091,38,22,29,148,39,30,27,002,33*7B
$GPGSV,3,3,12,11,15,234,38,20,14,308,33,24,14,248,36,31,03,028,*7F
$GPRMC,220735.000,A,1258.2645,S,07629.8439,W,26.70,157.97,150411,,,A*59
$GPGGA,220736.000,1258.2715,S,07629.8411,W,1,11,0.9,31.6,M,11.1,M,,0000*64
$GPGSA,M,3,03,06,16,19,32,14,22,30,11,20,24,,1.8,0.9,1.5*33
$GPRMC,220736.000,A,1258.2715,S,07629.8411,W,26.82,157.47,150411,,,A*54
$GPGGA,220736.999,1258.2784,S,07629.8378,W,1,11,0.9,29.9,M,11.1,M,,0000*6B
$GPGSA,M,3,03,06,16,19,32,14,22,30,11,20,24,,1.8,0.9,1.5*33
$GPRMC,220736.999,A,1258.2784,S,07629.8378,W,27.81,156.00,150411,,,A*5D
$GPGGA,220737.998,1258.2853,S,07629.8350,W,1,11,0.9,30.0,M,11.1,M,,0000*65
$GPGSA,M,3,03,06,16,19,32,14,22,30,11,20,24,,1.8,0.9,1.5*33
$GPRMC,220737.998,A,1258.2853,S,07629.8350,W,26.96,156.83,150411,,,A*5E
$GPGGA,220739.002,1258.2923,S,07629.8323,W,1,11,0.9,28.7,M,11.1,M,,0000*6D
$GPGSA,M,3,03,06,16,19,32,14,22,30,11,20,24,,1.8,0.9,1.5*33
$GPRMC,220739.002,A,1258.2923,S,07629.8323,W,27.36,157.44,150411,,,A*59
$GPGGA,220740.000,1258.2991,S,07629.8291,W,1,11,0.9,27.8,M,11.1,M,,0000*60
$GPGSA,M,3,03,06,16,19,32,14,22,30,11,20,24,,1.8,0.9,1.5*33
$GPGSV,3,1,12,03,72,167,41,06,69,110,41,16,43,344,37,19,42,196,35*76
$GPGSV,3,2,12,32,39,307,37,14,37,091,38,22,29,148,40,30,27,002,34*73
$GPGSV,3,3,12,11,15,234,41,20,14,308,35,24,14,248,34,31,03,028,*75
$GPRMC,220740.000,A,1258.2991,S,07629.8291,W,26.57,156.12,150411,,,A*50
$GPGGA,220741.000,1258.3057,S,07629.8262,W,1,11,0.9,26.5,M,11.1,M,,0000*63
$GPGSA,M,3,03,06,16,19,32,14,22,30,11,20,24,,1.8,0.9,1.5*33
$GPRMC,220741.000,A,1258.3057,S,07629.8262,W,26.16,157.46,150411,,,A*5A
$GPGGA,220741.998,1258.3125,S,07629.8234,W,1,11,0.9,26.1,M,11.1,M,,0000*68
$GPGSA,M,3,03,06,16,19,32,14,22,30,11,20,24,,1.8,0.9,1.5*33
$GPRMC,220741.998,A,1258.3125,S,07629.8234,W,25.75,157.29,150411,,,A*5A
$GPGGA,220743.001,1258.3191,S,07629.8205,W,1,11,0.9,24.8,M,11.1,M,,0000*65
$GPGSA,M,3,03,06,16,19,32,14,22,30,11,20,24,,1.8,0.9,1.5*33
$GPRMC,220743.001,A,1258.3191,S,07629.8205,W,25.58,157.34,150411,,,A*5F
$GPGGA,220744.000,1258.3258,S,07629.8178,W,1,11,0.9,23.9,M,11.1,M,,0000*6A
$GPGSA,M,3,03,06,16,19,32,14,22,30,11,20,24,,1.8,0.9,1.5*33
$GPRMC,220744.000,A,1258.3258,S,07629.8178,W,25.66,157.42,150411,,,A*5A
$GPGGA,220745.000,1258.3327,S,07629.8153,W,1,11,0.9,23.5,M,11.1,M,,0000*67
$GPGSA,M,3,03,06,16,19,32,14,22,30,11,20,24,,1.8,0.9,1.5*33
$GPGSV,3,1,12,03,72,167,41,06,69,110,40,16,43,344,36,19,42,196,37*74
$GPGSV,3,2,12,32,39,307,39,14,37,091,38,22,29,148,39,30,27,002,32*75
$GPGSV,3,3,12,11,15,234,40,20,14,308,33,24,14,248,34,31,03,028,*72
$GPRMC,220745.000,A,1258.3327,S,07629.8153,W,26.11,158.41,150411,,,A*54
$GPGGA,220746.000,1258.3394,S,07629.8127,W,1,11,0.9,22.8,M,11.1,M,,0000*63
$GPGSA,M,3,03,06,16,19,32,14,22,30,11,20,24,,1.8,0.9,1.5*33
$GPRMC,220746.000,A,1258.3394,S,07629.8127,W,25.46,158.64,150411,,,A*5A
$GPGGA,220746.999,1258.3460,S,07629.8100,W,1,11,0.9,21.9,M,11.1,M,,0000*61
$GPGSA,M,3,03,06,16,19,32,14,22,30,11,20,24,,1.8,0.9,1.5*33
$GPRMC,220746.999,A,1258.3460,S,07629.8100,W,25.63,157.25,150411,,,A*57
$GPGGA,220747.999,1258.3525,S,07629.8070,W,1,11,0.9,21.2,M,11.1,M,,0000*6D
$GPGSA,M,3,03,06,16,19,32,14,22,30,11,20,24,,1.8,0.9,1.5*33
$GPRMC,220747.999,A,1258.3525,S,07629.8070,W,25.64,156.74,150411,,,A*52
$GPGGA,220748.998,1258.3593,S,07629.8045,W,1,10,1.0,21.4,M,11.1,M,,0000*67
$GPGSA,M,3,03,06,16,19,32,14,22,11,20,24,,,1.9,1.0,1.6*3A
$GPRMC,220748.998,A,1258.3593,S,07629.8045,W,25.89,157.21,150411,,,A*55
$GPGGA,220750.001,1258.3659,S,07629.8017,W,1,11,0.9,20.8,M,11.1,M,,0000*61
$GPGSA,M,3,03,06,16,19,32,14,22,30,11,20,24,,1.8,0.9,1.5*33
$GPGSV,3,1,12,03,72,167,39,06,69,110,41,16,43,344,34,19,42,196,37*78
$GPGSV,3,2,12,32,39,307,38,14,37,091,39,22,29,148,38,30,27,002,37*71
$GPGSV,3,3,12,11,15,234,39,20,14,308,31,24,14,248,35,31,03,028,*7F
$GPRMC,220750.001,A,1258.3659,S,07629.8017,W,25.81,157.94,150411,,,A*51
$GPGGA,220751.000,1258.3723,S,07629.7988,W,1,11,0.9,19.4,M,11.1,M,,0000*6B
$GPGSA,M,3,03,06,16,19,32,14,22,30,11,20,24,,1.8,0.9,1.5*33
$GPRMC,220751.000,A,1258.3723,S,07629.7988,W,26.03,156.18,150411,,,A*51
$GPGGA,220752.000,1258.3791,S,07629.7959,W,1,11,0.9,18.9,M,11.1,M,,0000*61
$GPGSA,M,3,03,06,16,19,32,14,22,30,11,20,24,,1.8,0.9,1.5*33
$GPRMC,220752.000,A,1258.3791,S,07629.7959,W,26.50,157.20,150411,,,A*5B
$GPGGA,220753.000,1258.3860,S,07629.7933,W,1,11,0.9,18.5,M,11.1,M,,0000*61
$GPGSA,M,3,03,06,16,19,32,14,22,30,11,20,24,,1.8,0.9,1.5*33
$GPRMC,220753.000,A,1258.3860,S,07629.7933,W,26.69,157.62,150411,,,A*5B
$GPGGA,220754.000,1258.3928,S,07629.7907,W,1,11,0.9,19.1,M,11.1,M,,0000*69
$GPGSA,M,3,03,06,16,19,32,14,22,30,11,20,24,,1.8,0.9,1.5*33
$GPRMC,220754.000,A,1258.3928,S,07629.7907,W,26.41,158.32,150411,,,A*56
$GPGGA,220755.003,1258.3995,S,07629.7877,W,1,10,0.9,17.4,M,11.1,M,,0000*61
$GPGSA,M,3,03,06,16,19,32,14,22,30,11,24,,,1.8,0.9,1.6*32
$GPGSV,3,1,12,03,72,167,39,06,69,110,40,16,43,344,36,19,42,196,36*7A
$GPGSV,3,2,12,32,39,307,38,14,37,091,38,22,29,148,38,30,27,002,36*71
$GPGSV,3,3,12,11,15,234,38,20,14,308,,24,14,248,34,31,03,028,*7D
$GPRMC,220755.003,A,1258.3995,S,07629.7877,W,26.53,157.09,150411,,,A*50
$GPGGA,220755.998,1258.4062,S,07629.7847,W,1,11,0.9,17.4,M,11.1,M,,0000*6E
$GPGSA,M,3,03,06,16,19,32,14,22,30,11,20,24,,1.8,0.9,1.5*33
$GPRMC,220755.998,A,1258.4062,S,07629.7847,W,26.43,155.92,150411,,,A*5F
$GPGGA,220757.000,1258.4131,S,07629.7819,W,1,11,0.9,16.9,M,11.1,M,,0000*64
$GPGSA,M,3,03,06,16,19,32,14,22,30,11,20,24,,1.8,0.9,1.5*33
$GPRMC,220757.000,A,1258.4131,S,07629.7819,W,26.57,158.07,150411,,,A*5D
$GPGGA,220758.000,1258.4201,S,07629.7793,W,1,11,0.9,16.6,M,11.1,M,,0000*69
$GPGSA,M,3,03,06,16,19,32,14,22,30,11,20,24,,1.8,0.9,1.5*33
$GPRMC,220758.000,A,1258.4201,S,07629.7793,W,26.65,158.36,150411,,,A*5C
$GPGGA,220758.999,1258.4270,S,07629.7767,W,1,11,0.9,16.3,M,11.1,M,,0000*68
$GPGSA,M,3,03,06,16,19,32,14,22,30,11,20,24,,1.8,0.9,1.5*33
$GPRMC,220758.999,A,1258.4270,S,07629.7767,W,26.63,158.19,150411,,,A*53
$GPGGA,220759.999,1258.4339,S,07629.7739,W,1,11,0.9,15.3,M,11.1,M,,0000*6D
$GPGSA,M,3,03,06,16,19,32,14,22,30,11,20,24,,1.8,0.9,1.5*33
$GPGSV,3,1,12,03,72,167,41,06,69,110,41,16,43,344,36,19,42,196,37*75
$GPGSV,3,2,12,32,39,307,39,14,37,091,40,22,29,148,37,30,27,002,37*71
$GPGSV,3,3,12,11,15,234,38,20,14,308,34,24,14,248,35,31,03,028,*7B
$GPRMC,220759.999,A,1258.4339,S,07629.7739,W,26.57,158.83,150411,,,A*51
$GPGGA,220800.999,1258.4408,S,07629.7710,W,1,11,0.9,14.3,M,11.1,M,,0000*61
$GPGSA,M,3,03,06,16,19,32,14,22,30,11,20,24,,1.8,0.9,1.5*33
$GPRMC,220800.999,A,1258.4408,S,07629.7710,W,26.45,157.97,150411,,,A*55
$GPGGA,220801.999,1258.4475,S,07629.7681,W,1,11,0.9,12.9,M,11.1,M,,0000*6F
$GPGSA,M,3,03,06,16,19,32,14,22,30,11,20,24,,1.8,0.9,1.5*33
$GPRMC,220801.999,A,1258.4475,S,07629.7681,W,26.16,155.06,150411,,,A*5B
$GPGGA,220802.999,1258.4542,S,07629.7649,W,1,11,0.9,11.5,M,11.1,M,,0000*62
$GPGSA,M,3,03,06,16,19,32,14,22,30,11,20,24,,1.8,0.9,1.5*33
$GPRMC,220802.999,A,1258.4542,S,07629.7649,W,25.64,155.30,150411,,,A*5A
$GPGGA,220803.999,1258.4609,S,07629.7620,W,1,11,0.9,10.3,M,11.1,M,,0000*67
$GPGSA,M,3,03,06,16,19,32,14,22,30,11,20,24,,1.8,0.9,1.5*33
$GPRMC,220803.999,A,1258.4609,S,07629.7620,W,26.87,157.14,150411,,,A*52
$GPGGA,220804.999,1258.4679,S,07629.7590,W,1,11,0.9,8.9,M,11.1,M,,0000*5C
$GPGSA,M,3,03,06,16,19,32,14,22,30,11,20,24,,1.8,0.9,1.5*33
$GPGSV,3,1,12,03,72,167,37,06,69,110,40,16,43,344,34,19,42,196,36*76
$GPGSV,3,2,12,32,39,307,40,14,37,091,39,22,29,148,38,30,27,002,37*7E
$GPGSV,3,3,12,11,15,234,38,20,14,308,30,24,14,248,34,31,03,028,*7E
$GPRMC,220804.999,A,1258.4679,S,07629.7590,W,27.13,157.18,150411,,,A*5A
$GPGGA,220805.999,1258.4748,S,07629.7562,W,1,11,0.9,8.1,M,11.1,M,,0000*5B
$GPGSA,M,3,03,06,16,19,32,14,22,30,11,20,24,,1.8,0.9,1.5*33
$GPRMC,220805.999,A,1258.4748,S,07629.7562,W,26.77,157.60,150411,,,A*59
$GPGGA,220806.999,1258.4817,S,07629.7534,W,1,11,0.9,7.0,M,11.1,M,,0000*50
$GPGSA,M,3,03,06,16,19,32,14,22,30,11,20,24,,1.8,0.9,1.5*33
$GPRMC,220806.999,A,1258.4817,S,07629.7534,W,26.95,157.75,150411,,,A*54
$GPGGA,220807.999,1258.4887,S,07629.7504,W,1,11,0.9,6.1,M,11.1,M,,0000*5B
$GPGSA,M,3,03,06,16,19,32,14,22,30,11,20,24,,1.8,0.9,1.5*33
$GPRMC,220807.999,A,1258.4887,S,07629.7504,W,27.19,157.18,150411,,,A*51
$GPGGA,220808.999,1258.4956,S,07629.7475,W,1,11,0.9,5.5,M,11.1,M,,0000*59
$GPGSA,M,3,03,06,16,19,32,14,22,30,11,20,24,,1.8,0.9,1.5*33
$GPRMC,220808.999,A,1258.4956,S,07629.7475,W,26.58,157.53,150411,,,A*5F
$GPGGA,220809.999,1258.5026,S,07629.7446,W,1,11,0.9,5.2,M,11.1,M,,0000*50
$GPGSA,M,3,03,06,16,19,32,14,22,30,11,20,24,,1.8,0.9,1.5*33
$GPGSV,3,1,12,03,72,167,40,06,69,110,41,16,43,344,37,19,42,196,36*74
$GPGSV,3,2,12,32,39,307,40,14,37,091,39,22,29,148,39,30,27,002,33*7B
$GPGSV,3,3,12,11,15,234,39,20,14,308,32,24,14,248,35,31,03,028,*7C
$GPRMC,220809.999,A,1258.5026,S,07629.7446,W,26.69,156.97,150411,,,A*5A
$GPGGA,220810.999,1258.5092,S,07629.7416,W,1,11,0.9,4.2,M,11.1,M,,0000*53
$GPGSA,M,3,03,06,16,19,32,14,22,30,11,20,24,,1.8,0.9,1.5*33
$GPRMC,220810.999,A,1258.5092,S,07629.7416,W,26.29,157.01,150411,,,A*52
$GPGGA,220811.999,1258.5160,S,07629.7386,W,1,11,0.9,3.0,M,11.1,M,,0000*55
$GPGSA,M,3,03,06,16,19,32,14,22,30,11,20,24,,1.8,0.9,1.5*33
$GPRMC,220811.999,A,1258.5160,S,07629.7386,W,26.30,156.69,150411,,,A*56
$GPGGA,220812.999,1258.5226,S,07629.7358,W,1,11,0.9,2.7,M,11.1,M,,0000*52
$GPGSA,M,3,03,06,16,19,32,14,22,30,11,20,24,,1.8,0.9,1.5*33
$GPRMC,220812.999,A,1258.5226,S,07629.7358,W,26.51,156.11,150411,,,A*5F
$GPGGA,220813.998,1258.5294,S,07629.7329,W,1,11,0.9,2.0,M,11.1,M,,0000*5A
$GPGSA,M,3,03,06,16,19,32,14,22,30,11,20,24,,1.8,0.9,1.5*33
$GPRMC,220813.998,A,1258.5294,S,07629.7329,W,26.59,156.31,150411,,,A*5A
$GPGGA,220814.999,1258.5365,S,07629.7300,W,1,10,0.9,2.1,M,11.1,M,,0000*58
$GPGSA,M,3,03,06,16,19,32,14,22,30,11,24,,,1.8,0.9,1.6*32
$GPGSV,3,1,12,03,72,167,39,06,69,110,40,16,43,344,37,19,42,196,38*75
$GPGSV,3,2,12,32,39,307,39,14,37,091,39,22,29,148,39,30,27,002,33*75
$GPGSV,3,3,12,11,15,234,39,20,14,308,,24,14,248,35,31,03,028,*7D
$GPRMC,220814.999,A,1258.5365,S,07629.7300,W,26.72,157.68,150411,,,A*5C
$GPGGA,220816.000,1258.5435,S,07629.7272,W,1,11,0.9,2.0,M,11.1,M,,0000*55
$GPGSA,M,3,03,06,16,19,32,14,22,30,11,20,24,,1.8,0.9,1.5*33
$GPRMC,220816.000,A,1258.5435,S,07629.7272,W,26.29,158.42,150411,,,A*58
$GPGGA,220817.000,1258.5506,S,07629.7247,W,1,11,0.9,1.8,M,11.1,M,,0000*58
$GPGSA,M,3,03,06,16,19,32,14,22,30,11,20,24,,1.8,0.9,1.5*33
$GPRMC,220817.000,A,1258.5506,S,07629.7247,W,26.69,157.37,150411,,,A*57
$GPGGA,220817.999,1258.5574,S,07629.7218,W,1,10,0.9,1.2,M,11.1,M,,0000*55
$GPGSA,M,3,03,06,16,19,32,14,22,30,11,24,,,1.8,0.9,1.6*32
$GPRMC,220817.999,A,1258.5574,S,07629.7218,W,26.80,157.00,150411,,,A*52
$GPGGA,220819.001,1258.5644,S,07629.7188,W,1,09,1.1,0.9,M,11.1,M,,0000*52
$GPGSA,M,3,03,06,16,19,32,14,22,30,20,,,,2.0,1.1,1.7*35
$GPRMC,220819.001,A,1258.5644,S,07629.7188,W,27.40,156.41,150411,,,A*57
$GPGGA,220819.998,1258.5716,S,07629.7158,W,1,10,0.9,0.5,M,11.1,M,,0000*5D
$GPGSA,M,3,03,06,16,19,32,14,22,30,11,24,,,1.8,0.9,1.6*32
$GPGSV,3,1,12,03,72,167,37,06,69,110,39,16,43,344,37,19,42,196,37*7A
$GPGSV,3,2,12,32,39,307,40,14,37,091,39,22,29,148,37,30,27,002,34*72
$GPGSV,3,3,12,11,15,234,38,20,14,308,,24,14,248,32,31,03,028,*7B
$GPRMC,220819.998,A,1258.5716,S,07629.7158,W,27.39,157.05,150411,,,A*5A
$GPGGA,220821.000,1258.5787,S,07629.7130,W,1,10,0.9,0.6,M,11.1,M,,0000*5B
$GPGSA,M,3,03,06,16,19,32,14,22,30,11,24,,,1.8,0.9,1.6*32
$GPRMC,220821.000,A,1258.5787,S,07629.7130,W,26.69,157.34,150411,,,A*59
$GPGGA,220822.001,1258.5856,S,07629.7101,W,1,10,0.9,0.2,M,11.1,M,,0000*5C
$GPGSA,M,3,03,06,16,19,32,14,22,30,11,24,,,1.8,0.9,1.6*32
$GPRMC,220822.001,A,1258.5856,S,07629.7101,W,26.93,157.00,150411,,,A*58
$GPGGA,220823.000,1258.5926,S,07629.7072,W,1,11,0.9,0.2,M,11.1,M,,0000*5E
$GPGSA,M,3,03,06,16,19,32,14,22,30,11,20,24,,1.8,0.9,1.5*33
$GPRMC,220823.000,A,1258.5926,S,07629.7072,W,26.68,157.55,150411,,,A*5F
$GPGGA,220824.000,1258.5998,S,07629.7043,W,1,11,0.9,-0.7,M,11.1,M,,0000*76
$GPGSA,M,3,03,06,16,19,32,14,22,30,11,20,24,,1.8,0.9,1.5*33
$GPRMC,220824.000,A,1258.5998,S,07629.7043,W,26.17,158.03,150411,,,A*5B
$GPGGA,220825.000,1258.6065,S,07629.7013,W,1,11,0.9,-1.2,M,11.1,M,,0000*7E
$GPGSA,M,3,03,06,16,19,32,14,22,30,11,20,24,,1.8,0.9,1.5*33
$GPGSV,3,1,12,03,72,167,37,06,69,110,41,16,43,344,37,19,42,196,37*75
$GPGSV,3,2,12,32,39,307,40,14,37,091,38,22,29,148,38,30,27,002,32*7A
$GPGSV,3,3,12,11,15,234,39,20,14,308,30,24,14,248,35,31,03,028,*7E
$GPRMC,220825.000,A,1258.6065,S,07629.7013,W,26.55,156.72,150411,,,A*59
$GPGGA,220826.001,1258.6135,S,07629.6986,W,1,11,0.9,-0.7,M,11.1,M,,0000*78
$GPGSA,M,3,03,06,16,19,32,14,22,30,11,20,24,,1.8,0.9,1.5*33
$GPRMC,220826.001,A,1258.6135,S,07629.6986,W,25.73,156.90,150411,,,A*50
$GPGGA,220827.000,1258.6201,S,07629.6957,W,1,11,0.9,-1.1,M,11.1,M,,0000*77
$GPGSA,M,3,03,06,16,19,32,14,22,30,11,20,24,,1.8,0.9,1.5*33
$GPRMC,220827.000,A,1258.6201,S,07629.6957,W,26.21,157.15,150411,,,A*50
$GPGGA,220827.999,1258.6269,S,07629.6930,W,1,11,0.9,-1.2,M,11.1,M,,0000*72
$GPGSA,M,3,03,06,16,19,32,14,22,30,11,20,24,,1.8,0.9,1.5*33
$GPRMC,220827.999,A,1258.6269,S,07629.6930,W,25.86,158.96,150411,,,A*5C
$GPGGA,220828.999,1258.6338,S,07629.6907,W,1,11,0.9,-0.2,M,11.1,M,,0000*7D
$GPGSA,M,3,03,06,16,19,32,14,22,30,11,20,24,,1.8,0.9,1.5*33
$GPRMC,220828.999,A,1258.6338,S,07629.6907,W,25.14,157.79,150411,,,A*57
$GPGGA,220829.999,1258.6403,S,07629.6880,W,1,11,0.9,-1.4,M,11.1,M,,0000*7A
$GPGSA,M,3,03,06,16,19,32,14,22,30,11,20,24,,1.8,0.9,1.5*33
$GPGSV,3,1,12,03,72,167,39,06,69,110,41,16,43,344,37,19,42,196,38*74
$GPGSV,3,2,12,32,39,307,40,14,37,091,38,22,29,148,38,30,27,002,36*7E
$GPGSV,3,3,12,11,15,234,39,20,14,308,32,24,14,248,34,31,03,028,*7D
$GPRMC,220829.999,A,1258.6403,S,07629.6880,W,25.66,159.72,150411,,,A*57
$GPGGA,220830.999,1258.6470,S,07629.6853,W,1,11,0.9,-1.8,M,11.1,M,,0000*74
$GPGSA,M,3,03,06,16,19,32,14,22,30,11,20,24,,1.8,0.9,1.5*33
$GPRMC,220830.999,A,1258.6470,S,07629.6853,W,25.35,159.91,150411,,,A*5E
$GPGGA,220831.999,1258.6536,S,07629.6827,W,1,11,0.9,-1.6,M,11.1,M,,0000*7B
$GPGSA,M,3,03,06,16,19,32,14,22,30,11,20,24,,1.8,0.9,1.5*33
$GPRMC,220831.999,A,1258.6536,S,07629.6827,W,24.75,157.20,150411,,,A*5E
$GPGGA,220832.999,1258.6599,S,07629.6800,W,1,11,0.9,-2.0,M,11.1,M,,0000*7D
$GPGSA,M,3,03,06,16,19,32,14,22,30,11,20,24,,1.8,0.9,1.5*33
$GPRMC,220832.999,A,1258.6599,S,07629.6800,W,24.75,158.46,150411,,,A*52
$GPGGA,220834.000,1258.6665,S,07629.6775,W,1,11,0.9,-2.4,M,11.1,M,,0000*7B
$GPGSA,M,3,03,06,16,19,32,14,22,30,11,20,24,,1.8,0.9,1.5*33
$GPRMC,220834.000,A,1258.6665,S,07629.6775,W,24.51,157.02,150411,,,A*59
$GPGGA,220835.001,1258.6727,S,07629.6749,W,1,11,0.9,-2.3,M,11.1,M,,0000*74
$GPGSA,M,3,03,06,19,16,32,14,22,30,11,20,24,,1.8,0.9,1.5*33
$GPGSV,3,1,12,03,73,164,41,06,69,106,42,19,43,195,36,16,42,345,36*70
$GPGSV,3,2,12,32,40,305,40,14,37,093,38,22,28,148,38,30,26,002,37*71
$GPGSV,3,3,12,11,15,233,39,20,15,307,37,24,14,247,30,31,03,030,*73
$GPRMC,220835.001,A,1258.6727,S,07629.6749,W,24.74,157.33,150411,,,A*54
$GPGGA,220835.998,1258.6793,S,07629.6725,W,1,11,0.9,-1.8,M,11.1,M,,0000*70
$GPGSA,M,3,03,06,19,16,32,14,22,30,11,20,24,,1.8,0.9,1.5*33
$GPRMC,220835.998,A,1258.6793,S,07629.6725,W,24.71,157.83,150411,,,A*56
$GPGGA,220837.000,1258.6858,S,07629.6698,W,1,11,0.9,-2.2,M,11.1,M,,0000*7C
$GPGSA,M,3,03,06,19,16,32,14,22,30,11,20,24,,1.8,0.9,1.5*33
$GPRMC,220837.000,A,1258.6858,S,07629.6698,W,24.47,157.58,150411,,,A*50
$GPGGA,220838.000,1258.6920,S,07629.6673,W,1,11,0.9,-3.3,M,11.1,M,,0000*78
$GPGSA,M,3,03,06,19,16,32,14,22,30,11,20,24,,1.8,0.9,1.5*33
$GPRMC,220838.000,A,1258.6920,S,07629.6673,W,23.72,158.74,150411,,,A*54
$GPGGA,220839.000,1258.6983,S,07629.6649,W,1,11,0.9,-3.2,M,11.1,M,,0000*78
$GPGSA,M,3,03,06,19,16,32,14,22,30,11,20,24,,1.8,0.9,1.5*33
$GPRMC,220839.000,A,1258.6983,S,07629.6649,W,24.44,158.24,150411,,,A*52
$GPGGA,220840.001,1258.7050,S,07629.6625,W,1,11,0.9,-3.1,M,11.1,M,,0000*78
$GPGSA,M,3,03,06,19,16,32,14,22,30,11,20,24,,1.8,0.9,1.5*33
$GPGSV,3,1,12,03,73,164,40,06,69,106,41,19,43,195,37,16,42,345,36*73
$GPGSV,3,2,12,32,40,305,40,14,37,093,38,22,28,148,38,30,26,002,36*70
$GPGSV,3,3,12,11,15,233,38,20,15,307,29,24,14,247,35,31,03,030,*78
$GPRMC,220840.001,A,1258.7050,S,07629.6625,W,24.76,157.64,150411,,,A*5B
$GPGGA,220840.999,1258.7114,S,07629.6599,W,1,11,0.9,-3.2,M,11.1,M,,0000*76
$GPGSA,M,3,03,06,19,16,32,14,22,30,11,20,24,,1.8,0.9,1.5*33
$GPRMC,220840.999,A,1258.7114,S,07629.6599,W,25.07,156.97,150411,,,A*5C
$GPGGA,220842.000,1258.7178,S,07629.6569,W,1,11,0.9,-4.2,M,11.1,M,,0000*7F
$GPGSA,M,3,03,06,19,16,32,14,22,30,11,20,24,,1.8,0.9,1.5*33
$GPRMC,220842.000,A,1258.7178,S,07629.6569,W,24.75,157.45,150411,,,A*58
$GPGGA,220842.999,1258.7241,S,07629.6541,W,1,11,0.9,-5.3,M,11.1,M,,0000*75
$GPGSA,M,3,03,06,19,16,32,14,22,30,11,20,24,,1.8,0.9,1.5*33
$GPRMC,220842.999,A,1258.7241,S,07629.6541,W,24.89,157.17,150411,,,A*56
$GPGGA,220844.001,1258.7302,S,07629.6513,W,1,09,1.1,-5.9,M,11.1,M,,0000*70
$GPGSA,M,3,03,06,19,16,32,14,22,30,20,,,,2.0,1.1,1.7*35
$GPRMC,220844.001,A,1258.7302,S,07629.6513,W,24.72,156.25,150411,,,A*5D
$GPGGA,220845.001,1258.7366,S,07629.6485,W,1,09,1.1,-6.0,M,11.1,M,,0000*77
$GPGSA,M,3,03,06,19,16,32,14,22,30,20,,,,2.0,1.1,1.7*35
$GPGSV,3,1,12,03,73,164,39,06,69,106,39,19,43,195,37,16,42,345,37*73
$GPGSV,3,2,12,32,40,305,40,14,37,093,39,22,28,148,39,30,26,002,35*73
$GPGSV,3,3,12,11,15,233,,20,15,307,29,24,14,247,,31,03,030,*75
$GPRMC,220845.001,A,1258.7366,S,07629.6485,W,24.80,157.61,150411,,,A*5C
$GPGGA,220846.000,1258.7428,S,07629.6456,W,1,08,1.2,-6.6,M,11.1,M,,0000*72
$GPGSA,M,3,03,06,19,16,32,14,22,30,,,,,2.4,1.2,2.1*35
$GPRMC,220846.000,A,1258.7428,S,07629.6456,W,24.88,156.32,150411,,,A*52
$GPGGA,220846.996,1258.7491,S,07629.6431,W,1,08,1.2,-5.7,M,11.1,M,,0000*75
$GPGSA,M,3,03,06,19,16,32,14,22,30,,,,,2.4,1.2,2.1*35
$GPRMC,220846.996,A,1258.7491,S,07629.6431,W,24.63,157.61,150411,,,A*55
$GPGGA,220848.001,1258.7554,S,07629.6406,W,1,08,1.2,-5.7,M,11.1,M,,0000*70
$GPGSA,M,3,03,06,19,16,32,14,22,30,,,,,2.4,1.2,2.1*35
$GPRMC,220848.001,A,1258.7554,S,07629.6406,W,24.30,157.20,150411,,,A*53
$GPGGA,220848.999,1258.7614,S,07629.6379,W,1,08,1.2,-6.1,M,11.1,M,,0000*75
$GPGSA,M,3,03,06,19,16,32,14,22,30,,,,,2.4,1.2,2.1*35
$GPRMC,220848.999,A,1258.7614,S,07629.6379,W,22.94,155.75,150411,,,A*59
$GPGGA,220849.999,1258.7672,S,07629.6353,W,1,08,1.2,-5.5,M,11.1,M,,0000*7B
$GPGSA,M,3,03,06,19,16,32,14,22,30,,,,,2.4,1.2,2.1*35
$GPGSV,3,1,12,03,73,164,39,06,69,106,40,19,43,195,31,16,42,345,39*75
$GPGSV,3,2,12,32,40,305,38,14,37,093,38,22,28,148,39,30,26,002,35*7D
$GPGSV,3,3,12,11,15,233,,20,15,307,,24,14,247,,31,03,030,*7E
$GPRMC,220849.999,A,1258.7672,S,07629.6353,W,21.72,156.41,150411,,,A*5F
$GPGGA,220851.003,1258.7727,S,07629.6331,W,1,08,1.2,-5.4,M,11.1,M,,0000*7C
$GPGSA,M,3,03,06,19,16,32,14,22,30,,,,,2.4,1.2,2.1*35
$GPRMC,220851.003,A,1258.7727,S,07629.6331,W,20.88,157.67,150411,,,A*58
$GPGGA,220851.996,1258.7778,S,07629.6311,W,1,08,1.2,-4.7,M,11.1,M,,0000*73
$GPGSA,M,3,03,06,19,16,32,14,22,30,,,,,2.4,1.2,2.1*35
$GPRMC,220851.996,A,1258.7778,S,07629.6311,W,19.86,158.06,150411,,,A*59
$GPGGA,220853.000,1258.7827,S,07629.6290,W,1,08,1.2,-4.7,M,11.1,M,,0000*7A
$GPGSA,M,3,03,06,19,16,32,14,22,30,,,,,2.4,1.2,2.1*35
$GPRMC,220853.000,A,1258.7827,S,07629.6290,W,18.31,158.30,150411,,,A*58
$GPGGA,220854.000,1258.7874,S,07629.6273,W,1,08,1.2,-4.5,M,11.1,M,,0000*74
$GPGSA,M,3,03,06,19,16,32,14,22,30,,,,,2.4,1.2,2.1*35
$GPRMC,220854.000,A,1258.7874,S,07629.6273,W,17.09,158.77,150411,,,A*53
$GPGGA,220855.000,1258.7916,S,07629.6256,W,1,08,1.2,-4.5,M,11.1,M,,0000*77
$GPGSA,M,3,03,06,19,16,32,14,22,30,,,,,2.4,1.2,2.1*35
$GPGSV,3,1,12,03,73,164,39,06,69,106,40,19,43,195,35,16,42,345,37*7F
$GPGSV,3,2,12,32,40,305,40,14,37,093,37,22,28,148,38,30,26,002,34*7D
$GPGSV,3,3,12,11,15,233,,20,15,307,,24,14,247,,31,03,030,*7E
$GPRMC,220855.000,A,1258.7916,S,07629.6256,W,16.04,157.85,150411,,,A*5E
$GPGGA,220856.000,1258.7952,S,07629.6240,W,1,08,1.2,-4.3,M,11.1,M,,0000*75
$GPGSA,M,3,03,06,19,16,32,14,22,30,,,,,2.4,1.2,2.1*35
$GPRMC,220856.000,A,1258.7952,S,07629.6240,W,13.87,156.31,150411,,,A*5A
$GPGGA,220857.004,1258.7985,S,07629.6226,W,1,08,1.2,-4.2,M,11.1,M,,0000*7B
$GPGSA,M,3,03,06,19,16,32,14,22,30,,,,,2.4,1.2,2.1*35
$GPRMC,220857.004,A,1258.7985,S,07629.6226,W,12.28,160.22,150411,,,A*56
$GPGGA,220857.996,1258.8013,S,07629.6217,W,1,08,1.2,-3.9,M,11.1,M,,0000*7E
$GPGSA,M,3,03,06,19,16,32,14,22,30,,,,,2.4,1.2,2.1*35
$GPRMC,220857.996,A,1258.8013,S,07629.6217,W,10.46,164.06,150411,,,A*57
$GPGGA,220859.002,1258.8038,S,07629.6207,W,1,09,0.9,-4.1,M,11.1,M,,0000*78
$GPGSA,M,3,03,06,19,16,32,14,22,30,11,,,,1.9,0.9,1.7*34
$GPRMC,220859.002,A,1258.8038,S,07629.6207,W,8.65,161.21,150411,,,A*6D
$GPGGA,220900.000,1258.8057,S,07629.6200,W,1,09,0.9,-3.5,M,11.1,M,,0000*7A
$GPGSA,M,3,03,06,19,16,32,14,22,30,11,,,,1.9,0.9,1.7*34
$GPGSV,3,1,12,03,73,164,39,06,69,106,39,19,43,195,39,16,42,345,37*7D
$GPGSV,3,2,12,32,40,305,41,14,37,093,38,22,28,148,41,30,26,002,36*7F
$GPGSV,3,3,12,11,15,233,37,20,15,307,,24,14,247,,31,03,030,*7A
$GPRMC,220900.000,A,1258.8057,S,07629.6200,W,6.57,161.01,150411,,,A*61
$GPGGA,220901.001,1258.8070,S,07629.6194,W,1,09,0.9,-2.2,M,11.1,M,,0000*77
$GPGSA,M,3,03,06,19,16,32,14,22,30,11,,,,1.9,0.9,1.7*34
$GPRMC,220901.001,A,1258.8070,S,07629.6194,W,4.27,160.35,150411,,,A*69
$GPGGA,220901.999,1258.8079,S,07629.6191,W,1,09,0.9,-1.7,M,11.1,M,,0000*75
$GPGSA,M,3,03,06,19,16,32,14,22,30,11,,,,1.9,0.9,1.7*34
$GPRMC,220901.999,A,1258.8079,S,07629.6191,W,2.40,154.60,150411,,,A*6D
$GPGGA,220902.999,1258.8083,S,07629.6190,W,1,09,0.9,-1.3,M,11.1,M,,0000*76
$GPGSA,M,3,03,06,19,16,32,14,22,30,11,,,,1.9,0.9,1.7*34
$GPRMC,220902.999,A,1258.8083,S,07629.6190,W,0.30,134.24,150411,,,A*69
$GPGGA,220903.999,1258.8086,S,07629.6192,W,1,09,0.9,-0.5,M,11.1,M,,0000*77
$GPGSA,M,3,03,06,19,16,32,14,22,30,11,,,,1.9,0.9,1.7*34
$GPRMC,220903.999,A,1258.8086,S,07629.6192,W,0.12,165.28,150411,,,A*67
$GPGGA,220904.999,1258.8088,S,07629.6193,W,1,09,0.9,-0.3,M,11.1,M,,0000*79
$GPGSA,M,3,03,06,19,16,32,14,22,30,11,,,,1.9,0.9,1.7*34
$GPGSV,3,1,12,03,73,164,38,06,69,106,40,19,43,195,37,16,42,345,38*73
$GPGSV,3,2,12,32,40,305,41,14,37,093,38,22,28,148,39,30,26,002,28*7F
$GPGSV,3,3,12,11,15,233,35,20,15,307,,24,14,247,,31,03,030,*78
$GPRMC,220904.999,A,1258.8088,S,07629.6193,W,0.13,196.32,150411,,,A*69
$GPGGA,220905.999,1258.8088,S,07629.6192,W,1,09,0.9,-0.6,M,11.1,M,,0000*7C
$GPGSA,M,3,03,06,19,16,32,14,22,30,11,,,,1.9,0.9,1.7*34
$GPRMC,220905.999,A,1258.8088,S,07629.6192,W,0.12,46.08,150411,,,A*5D
$GPGGA,220907.000,1258.8089,S,07629.6192,W,1,09,0.9,-0.2,M,11.1,M,,0000*72
$GPGSA,M,3,03,06,19,16,32,14,22,30,11,,,,1.9,0.9,1.7*34
$GPRMC,220907.000,A,1258.8089,S,07629.6192,W,0.19,136.42,150411,,,A*64
$GPGGA,220907.999,1258.8090,S,07629.6191,W,1,09,0.9,0.7,M,11.1,M,,0000*58
$GPGSA,M,3,03,06,19,16,32,14,22,30,11,,,,1.9,0.9,1.7*34
$GPRMC,220907.999,A,1258.8090,S,07629.6191,W,0.24,237.88,150411,,,A*6C
$GPGGA,220908.999,1258.8089,S,07629.6191,W,1,09,0.9,1.6,M,11.1,M,,0000*5F
$GPGSA,M,3,03,06,19,16,32,14,22,30,11,,,,1.9,0.9,1.7*34
$GPRMC,220908.999,A,1258.8089,S,07629.6191,W,0.37,79.91,150411,,,A*59
$GPGGA,220909.998,1258.8089,S,07629.6192,W,1,09,0.9,2.3,M,11.1,M,,0000*5A
$GPGSA,M,3,03,06,19,16,32,14,22,30,11,,,,1.9,0.9,1.7*34
$GPGSV,3,1,12,03,73,164,38,06,69,106,40,19,43,195,37,16,42,345,38*73
$GPGSV,3,2,12,32,40,305,40,14,37,093,38,22,28,148,39,30,26,002,30*77
$GPGSV,3,3,12,11,15,233,34,20,15,307,,24,14,247,,31,03,030,*79
$GPRMC,220909.998,A,1258.8089,S,07629.6192,W,0.17,359.63,150411,,,A*64
$GPGGA,220910.999,1258.8088,S,07629.6195,W,1,08,1.1,3.7,M,11.1,M,,0000*58
$GPGSA,M,3,03,06,19,16,32,14,22,11,,,,,2.2,1.1,1.9*38
$GPRMC,220910.999,A,1258.8088,S,07629.6195,W,0.22,328.30,150411,,,A*6D
$GPGGA,220911.999,1258.8088,S,07629.6194,W,1,08,1.1,3.3,M,11.1,M,,0000*5C
$GPGSA,M,3,03,06,19,16,32,14,22,11,,,,,2.2,1.1,1.9*38
$GPRMC,220911.999,A,1258.8088,S,07629.6194,W,0.25,66.05,150411,,,A*55
$GPGGA,220913.001,1258.8090,S,07629.6196,W,1,09,0.9,3.6,M,11.1,M,,0000*50
$GPGSA,M,3,03,06,19,16,32,14,22,30,11,,,,1.9,0.9,1.7*34
$GPRMC,220913.001,A,1258.8090,S,07629.6196,W,0.12,241.62,150411,,,A*66
$GPGGA,220913.998,1258.8092,S,07629.6197,W,1,08,1.1,4.2,M,11.1,M,,0000*51
$GPGSA,M,3,03,06,19,16,32,14,22,11,,,,,2.2,1.1,1.9*38
$GPRMC,220913.998,A,1258.8092,S,07629.6197,W,0.23,200.08,150411,,,A*67
$GPGGA,220915.002,1258.8091,S,07629.6197,W,1,09,0.9,4.6,M,11.1,M,,0000*52
$GPGSA,M,3,03,06,19,16,32,14,22,30,11,,,,1.9,0.9,1.7*34
$GPGSV,3,1,12,03,73,164,37,06,69,106,39,19,43,195,38,16,42,345,37*72
$GPGSV,3,2,12,32,40,305,41,14,37,093,39,22,28,148,37,30,26,002,31*78
$GPGSV,3,3,12,11,15,233,36,20,15,307,,24,14,247,,31,03,030,*7B
$GPRMC,220915.002,A,1258.8091,S,07629.6197,W,0.16,356.01,150411,,,A*65
$GPGGA,220915.999,1258.8090,S,07629.6196,W,1,09,0.9,5.3,M,11.1,M,,0000*5D
$GPGSA,M,3,03,06,19,16,32,14,22,30,11,,,,1.9,0.9,1.7*34
$GPRMC,220915.999,A,1258.8090,S,07629.6196,W,0.11,292.17,150411,,,A*67
$GPGGA,220917.001,1258.8090,S,07629.6196,W,1,09,0.9,5.5,M,11.1,M,,0000*51
$GPGSA,M,3,03,06,19,16,32,14,22,30,11,,,,1.9,0.9,1.7*34
$GPRMC,220917.001,A,1258.8090,S,07629.6196,W,0.11,212.84,150411,,,A*6F
$GPGGA,220918.001,1258.8092,S,07629.6198,W,1,09,0.9,7.0,M,11.1,M,,0000*55
$GPGSA,M,3,03,06,19,16,32,14,22,30,11,,,,1.9,0.9,1.7*34
$GPRMC,220918.001,A,1258.8092,S,07629.6198,W,0.29,129.58,150411,,,A*6D
$GPGGA,220919.001,1258.8091,S,07629.6196,W,1,09,0.9,6.3,M,11.1,M,,0000*5B
$GPGSA,M,3,03,06,19,16,32,14,22,30,11,,,,1.9,0.9,1.7*34
$GPRMC,220919.001,A,1258.8091,S,07629.6196,W,0.04,18.69,150411,,,A*5F
$GPGGA,220920.001,1258.8090,S,07629.6196,W,1,09,0.9,6.5,M,11.1,M,,0000*56
$GPGSA,M,3,03,06,19,16,32,14,22,30,11,,,,1.9,0.9,1.7*34
$GPGSV,3,1,12,03,73,164,36,06,69,106,40,19,43,195,33,16,42,345,38*79
$GPGSV,3,2,12,32,40,305,39,14,37,093,37,22,28,148,38,30,26,002,37*70
$GPGSV,3,3,12,11,15,233,34,20,15,307,,24,14,247,,31,03,030,*79
$GPRMC,220920.001,A,1258.8090,S,07629.6196,W,0.22,23.43,150411,,,A*50
$GPGGA,220921.001,1258.8089,S,07629.6198,W,1,09,0.9,7.8,M,11.1,M,,0000*5D
$GPGSA,M,3,03,06,19,16,32,14,22,30,11,,,,1.9,0.9,1.7*34
$GPRMC,220921.001,A,1258.8089,S,07629.6198,W,0.20,356.24,150411,,,A*65
$GPGGA,220921.999,1258.8089,S,07629.6199,W,1,09,0.9,7.8,M,11.1,M,,0000*54
$GPGSA,M,3,03,06,19,16,32,14,22,30,11,,,,1.9,0.9,1.7*34
$GPRMC,220921.999,A,1258.8089,S,07629.6199,W,0.24,23.44,150411,,,A*5F
$GPGGA,220923.001,1258.8088,S,07629.6200,W,1,09,0.9,7.9,M,11.1,M,,0000*5D
$GPGSA,M,3,03,06,19,16,32,14,22,30,11,,,,1.9,0.9,1.7*34
$GPRMC,220923.001,A,1258.8088,S,07629.6200,W,0.35,218.76,150411,,,A*6C
$GPGGA,220924.002,1258.8089,S,07629.6202,W,1,09,0.9,8.1,M,11.1,M,,0000*5D
$GPGSA,M,3,03,06,19,16,32,14,22,30,11,,,,1.9,0.9,1.7*34
$GPRMC,220924.002,A,1258.8089,S,07629.6202,W,0.31,63.28,150411,,,A*5A
$GPGGA,220925.000,1258.8089,S,07629.6202,W,1,09,0.9,8.9,M,11.1,M,,0000*56
$GPGSA,M,3,03,06,19,16,32,14,22,30,11,,,,1.9,0.9,1.7*34
$GPGSV,3,1,12,03,73,164,40,06,69,106,41,19,43,195,38,16,42,345,37*7D
$GPGSV,3,2,12,32,40,305,40,14,37,093,38,22,28,148,38,30,26,002,32*74
$GPGSV,3,3,12,11,15,233,36,20,15,307,,24,14,247,,31,03,030,*7B
$GPRMC,220925.000,A,1258.8089,S,07629.6202,W,0.04,173.37,150411,,,A*61
$GPGGA,220925.997,1258.8090,S,07629.6202,W,1,09,0.9,8.8,M,11.1,M,,0000*58
$GPGSA,M,3,03,06,19,16,32,14,22,30,11,,,,1.9,0.9,1.7*34
$GPRMC,220925.997,A,1258.8090,S,07629.6202,W,0.38,61.75,150411,,,A*55
$GPGGA,220927.002,1258.8090,S,07629.6204,W,1,10,0.9,8.8,M,11.1,M,,0000*51
$GPGSA,M,3,03,06,19,16,32,14,22,30,11,24,,,1.8,0.9,1.6*32
$GPRMC,220927.002,A,1258.8090,S,07629.6204,W,0.19,278.93,150411,,,A*65
$GPGGA,220927.998,1258.8091,S,07629.6206,W,1,09,0.9,9.0,M,11.1,M,,0000*59
$GPGSA,M,3,03,06,19,16,32,14,22,30,11,,,,1.9,0.9,1.7*34
$GPRMC,220927.998,A,1258.8091,S,07629.6206,W,0.60,168.12,150411,,,A*69
$GPGGA,220928.998,1258.8096,S,07629.6206,W,1,10,0.9,10.1,M,11.1,M,,0000*60
$GPGSA,M,3,03,06,19,16,32,14,22,30,11,24,,,1.8,0.9,1.6*32
$GPRMC,220928.998,A,1258.8096,S,07629.6206,W,2.33,158.79,150411,,,A*6B
$GPGGA,220930.000,1258.8102,S,07629.6200,W,1,10,0.9,10.3,M,11.1,M,,0000*69
$GPGSA,M,3,03,06,19,16,32,14,22,30,11,24,,,1.8,0.9,1.6*32
$GPGSV,3,1,12,03,73,164,40,06,69,106,41,19,43,195,40,16,42,345,38*7D
$GPGSV,3,2,12,32,40,305,37,14,37,093,37,22,28,148,40,30,26,002,35*73
$GPGSV,3,3,12,11,15,233,35,20,15,307,,24,14,247,28,31,03,030,*72
$GPRMC,220930.000,A,1258.8102,S,07629.6200,W,3.69,168.93,150411,,,A*69
$GPGGA,220931.000,1258.8115,S,07629.6195,W,1,10,0.9,11.2,M,11.1,M,,0000*61
$GPGSA,M,3,03,06,19,16,32,14,22,30,11,24,,,1.8,0.9,1.6*32
$GPRMC,220931.000,A,1258.8115,S,07629.6195,W,5.48,159.83,150411,,,A*67
$GPGGA,220932.000,1258.8130,S,07629.6190,W,1,10,0.9,11.7,M,11.1,M,,0000*65
$GPGSA,M,3,03,06,19,16,32,14,22,30,11,24,,,1.8,0.9,1.6*32
$GPRMC,220932.000,A,1258.8130,S,07629.6190,W,7.40,159.41,150411,,,A*62
$GPGGA,220933.000,1258.8150,S,07629.6180,W,1,10,0.9,11.2,M,11.1,M,,0000*66
$GPGSA,M,3,03,06,19,16,32,14,22,30,11,24,,,1.8,0.9,1.6*32
$GPRMC,220933.000,A,1258.8150,S,07629.6180,W,8.43,157.78,150411,,,A*6C
$GPGGA,220934.001,1258.8174,S,07629.6169,W,1,10,0.9,11.0,M,11.1,M,,0000*63
$GPGSA,M,3,03,06,19,16,32,14,22,30,11,24,,,1.8,0.9,1.6*32
$GPRMC,220934.001,A,1258.8174,S,07629.6169,W,10.21,158.85,150411,,,A*5B
$GPGGA,220935.000,1258.8203,S,07629.6156,W,1,10,0.9,12.0,M,11.1,M,,0000*6F
$GPGSA,M,3,03,06,19,16,32,14,22,30,11,24,,,1.8,0.9,1.6*32
$GPGSV,3,1,12,03,73,164,39,06,69,106,41,19,43,195,39,16,42,345,36*73
$GPGSV,3,2,12,32,40,305,39,14,37,093,39,22,28,148,38,30,26,002,35*7C
$GPGSV,3,3,12,11,15,233,39,20,15,307,,24,14,247,34,31,03,030,*73
$GPRMC,220935.000,A,1258.8203,S,07629.6156,W,11.33,153.44,150411,,,A*50
$GPGGA,220936.000,1258.8233,S,07629.6143,W,1,10,0.9,11.8,M,11.1,M,,0000*60
$GPGSA,M,3,03,06,19,16,32,14,22,30,11,24,,,1.8,0.9,1.6*32
$GPRMC,220936.000,A,1258.8233,S,07629.6143,W,11.56,160.30,150411,,,A*54
$GPGGA,220937.001,1258.8264,S,07629.6132,W,1,10,0.9,12.4,M,11.1,M,,0000*6B
$GPGSA,M,3,03,06,19,16,32,14,22,30,11,24,,,1.8,0.9,1.6*32
$GPRMC,220937.001,A,1258.8264,S,07629.6132,W,12.71,161.19,150411,,,A*5C
$GPGGA,220938.000,1258.8301,S,07629.6120,W,1,11,0.9,11.9,M,11.1,M,,0000*6B
$GPGSA,M,3,03,06,19,16,32,14,22,30,11,20,24,,1.8,0.9,1.5*33
$GPRMC,220938.000,A,1258.8301,S,07629.6120,W,14.81,162.83,150411,,,A*5A
$GPGGA,220938.999,1258.8341,S,07629.6101,W,1,11,0.9,10.7,M,11.1,M,,0000*6A
$GPGSA,M,3,03,06,19,16,32,14,22,30,11,20,24,,1.8,0.9,1.5*33
$GPRMC,220938.999,A,1258.8341,S,07629.6101,W,15.70,158.24,150411,,,A*5F
$GPGGA,220939.999,1258.8381,S,07629.6081,W,1,11,0.9,9.0,M,11.1,M,,0000*51
$GPGSA,M,3,03,06,19,16,32,14,22,30,11,20,24,,1.8,0.9,1.5*33
$GPGSV,3,1,12,03,73,164,39,06,69,106,41,19,43,195,37,16,42,345,37*7C
$GPGSV,3,2,12,32,40,305,40,14,37,093,40,22,28,148,39,30,26,002,32*7A
$GPGSV,3,3,12,11,15,233,38,20,15,307,33,24,14,247,36,31,03,030,*70
$GPRMC,220939.999,A,1258.8381,S,07629.6081,W,16.30,157.56,150411,,,A*56
$GPGGA,220941.000,1258.8424,S,07629.6060,W,1,09,1.3,9.2,M,11.1,M,,0000*50
$GPGSA,M,3,03,06,19,16,32,22,11,20,24,,,,2.3,1.3,1.9*3A
$GPRMC,220941.000,A,1258.8424,S,07629.6060,W,16.68,153.44,150411,,,A*5D
$GPGGA,220942.000,1258.8466,S,07629.6037,W,1,11,0.9,8.8,M,11.1,M,,0000*5E
$GPGSA,M,3,03,06,19,16,32,14,22,30,11,20,24,,1.8,0.9,1.5*33
$GPRMC,220942.000,A,1258.8466,S,07629.6037,W,17.26,158.40,150411,,,A*5E
$GPGGA,220943.000,1258.8514,S,07629.6019,W,1,11,0.9,9.1,M,11.1,M,,0000*5F
$GPGSA,M,3,03,06,19,16,32,14,22,30,11,20,24,,1.7,0.9,1.5*3C
$GPRMC,220943.000,A,1258.8514,S,07629.6019,W,18.72,158.76,150411,,,A*5C
$GPGGA,220943.999,1258.8562,S,07629.5996,W,1,11,0.9,8.5,M,11.1,M,,0000*5F
$GPGSA,M,3,03,06,19,16,32,14,22,30,11,20,24,,1.7,0.9,1.5*3C
$GPRMC,220943.999,A,1258.8562,S,07629.5996,W,19.64,156.72,150411,,,A*55
$GPGGA,220944.999,1258.8611,S,07629.5972,W,1,11,0.9,7.5,M,11.1,M,,0000*5A
$GPGSA,M,3,03,06,19,16,32,14,22,30,11,20,24,,1.7,0.9,1.5*3C
$GPGSV,3,1,12,03,73,164,38,06,69,106,41,19,43,195,37,16,42,345,37*7D
$GPGSV,3,2,12,32,40,305,40,14,37,093,38,22,28,148,39,30,26,002,35*72
$GPGSV,3,3,12,11,15,233,39,20,15,307,33,24,14,247,35,31,03,030,*72
$GPRMC,220944.999,A,1258.8611,S,07629.5972,W,19.59,156.96,150411,,,A*5B
$GPGGA,220945.999,1258.8662,S,07629.5951,W,1,11,0.9,7.7,M,11.1,M,,0000*5C
$GPGSA,M,3,03,06,19,16,32,14,22,30,11,20,24,,1.7,0.9,1.5*3C
$GPRMC,220945.999,A,1258.8662,S,07629.5951,W,20.04,159.46,150411,,,A*5F
$GPGGA,220946.999,1258.8715,S,07629.5931,W,1,11,0.9,6.9,M,11.1,M,,0000*57
$GPGSA,M,3,03,06,19,16,32,14,22,30,11,20,24,,1.7,0.9,1.5*3C
$GPRMC,220946.999,A,1258.8715,S,07629.5931,W,20.81,158.61,150411,,,A*52
$GPGGA,220947.999,1258.8772,S,07629.5910,W,1,11,0.9,6.3,M,11.1,M,,0000*5E
$GPGSA,M,3,03,06,19,16,32,14,22,30,11,20,24,,1.7,0.9,1.5*3C
$GPRMC,220947.999,A,1258.8772,S,07629.5910,W,21.18,158.78,150411,,,A*58
$GPGGA,220948.999,1258.8827,S,07629.5888,W,1,11,0.9,6.5,M,11.1,M,,0000*58
$GPGSA,M,3,03,06,19,16,32,14,22,30,11,20,24,,1.7,0.9,1.5*3C
$GPRMC,220948.999,A,1258.8827,S,07629.5888,W,21.67,158.23,150411,,,A*5E
$GPGGA,220949.999,1258.8885,S,07629.5864,W,1,11,0.9,6.1,M,11.1,M,,0000*57
$GPGSA,M,3,03,06,19,16,32,14,22,30,11,20,24,,1.7,0.9,1.5*3C
$GPGSV,3,1,12,03,73,164,40,06,69,106,41,19,43,195,39,16,42,345,38*73
$GPGSV,3,2,12,32,40,305,39,14,37,093,40,22,28,148,40,30,26,002,36*7E
$GPGSV,3,3,12,11,15,233,39,20,15,307,34,24,14,247,37,31,03,030,*77
$GPRMC,220949.999,A,1258.8885,S,07629.5864,W,22.63,159.07,150411,,,A*55
$GPGGA,220950.999,1258.8945,S,07629.5839,W,1,11,0.9,4.5,M,11.1,M,,0000*5C
$GPGSA,M,3,03,06,19,16,32,14,22,30,11,20,24,,1.7,0.9,1.5*3C
$GPRMC,220950.999,A,1258.8945,S,07629.5839,W,22.75,157.16,150411,,,A*51
$GPGGA,220951.999,1258.9006,S,07629.5813,W,1,11,0.9,3.5,M,11.1,M,,0000*5D
$GPGSA,M,3,03,06,19,16,32,14,22,30,11,20,24,,1.7,0.9,1.5*3C
$GPRMC,220951.999,A,1258.9006,S,07629.5813,W,23.38,158.73,150411,,,A*53
$GPGGA,220952.999,1258.9069,S,07629.5788,W,1,11,0.9,2.8,M,11.1,M,,0000*56
$GPGSA,M,3,03,06,19,16,32,14,22,30,11,20,24,,1.7,0.9,1.5*3C
$GPRMC,220952.999,A,1258.9069,S,07629.5788,W,23.77,156.94,150411,,,A*58
$GPGGA,220953.999,1258.9131,S,07629.5761,W,1,11,0.9,2.7,M,11.1,M,,0000*53
$GPGSA,M,3,03,06,19,16,32,14,22,30,11,20,24,,1.7,0.9,1.5*3C
$GPRMC,220953.999,A,1258.9131,S,07629.5761,W,23.85,156.45,150411,,,A*53
$GPGGA,220954.999,1258.9193,S,07629.5733,W,1,11,0.9,1.6,M,11.1,M,,0000*59
$GPGSA,M,3,03,06,19,16,32,14,22,30,11,20,24,,1.7,0.9,1.5*3C
$GPGSV,3,1,12,03,73,164,39,06,69,106,39,19,43,195,38,16,42,345,37*7C
$GPGSV,3,2,12,32,40,305,40,14,37,093,38,22,28,148,39,30,26,002,35*72
$GPGSV,3,3,12,11,15,233,38,20,15,307,34,24,14,247,36,31,03,030,*77
$GPRMC,220954.999,A,1258.9193,S,07629.5733,W,24.52,157.69,150411,,,A*59
$GPGGA,220955.999,1258.9254,S,07629.5705,W,1,11,0.9,1.9,M,11.1,M,,0000*5A
$GPGSA,M,3,03,06,19,16,32,14,22,30,11,20,24,,1.7,0.9,1.5*3C
$GPRMC,220955.999,A,1258.9254,S,07629.5705,W,24.81,156.67,150411,,,A*54
$GPGGA,220956.999,1258.9316,S,07629.5677,W,1,11,0.9,1.2,M,11.1,M,,0000*51
$GPGSA,M,3,03,06,19,16,32,14,22,30,11,20,24,,1.7,0.9,1.5*3C
$GPRMC,220956.999,A,1258.9316,S,07629.5677,W,24.84,156.12,150411,,,A*53
$GPGGA,220957.999,1258.9382,S,07629.5650,W,1,11,0.9,1.2,M,11.1,M,,0000*58
$GPGSA,M,3,03,06,19,16,32,14,22,30,11,20,24,,1.7,0.9,1.5*3C
$GPRMC,220957.999,A,1258.9382,S,07629.5650,W,24.99,156.33,150411,,,A*55
$GPGGA,220958.999,1258.9447,S,07629.5622,W,1,11,0.9,1.0,M,11.1,M,,0000*5E
$GPGSA,M,3,03,06,19,16,32,14,22,30,11,20,24,,1.7,0.9,1.5*3C
$GPRMC,220958.999,A,1258.9447,S,07629.5622,W,25.17,157.10,150411,,,A*56
$GPGGA,221000.000,1258.9512,S,07629.5597,W,1,11,0.9,1.3,M,11.1,M,,0000*5D
$GPGSA,M,3,03,06,19,16,32,14,22,30,11,20,24,,1.7,0.9,1.5*3C
$GPGSV,3,1,12,03,73,164,41,06,69,106,40,19,43,195,38,16,42,345,37*7D
$GPGSV,3,2,12,32,40,305,40,14,37,093,37,22,28,148,38,30,26,002,33*7A
$GPGSV,3,3,12,11,15,233,39,20,15,307,33,24,14,247,36,31,03,030,15*75
$GPRMC,221000.000,A,1258.9512,S,07629.5597,W,24.76,157.39,150411,,,A*5B
$GPGGA,221001.011,1258.9577,S,07629.5570,W,0,00,,0.9,M,11.1,M,,0000*7B
$GPGSA,M,1,,,,,,,,,,,,,,,*12
$GPRMC,221001.011,V,1258.9577,S,07629.5570,W,,,150411,,,N*76
$GPGGA,221001.708,1258.9621,S,07629.5551,W,0,00,,0.7,M,11.1,M,,0000*79
$GPGSA,M,1,,,,,,,,,,,,,,,*12
$GPRMC,221001.708,V,1258.9621,S,07629.5551,W,,,150411,,,N*7A
$GPGGA,221002.000,1258.9640,S,07629.5543,W,0,00,,0.5,M,11.1,M,,0000*73
$GPGSA,M,1,,,,,,,,,,,,,,,*12
$GPRMC,221002.000,V,1258.9640,S,07629.5543,W,,,150411,,,N*72
$GPGGA,221003.000,1258.9703,S,07629.5516,W,0,00,,0.2,M,11.1,M,,0000*73
$GPGSA,M,1,,,,,,,,,,,,,,,*12
$GPRMC,221003.000,V,1258.9703,S,07629.5516,W,,,150411,,,N*75
$GPGGA,221004.000,1258.9768,S,07629.5494,W,1,05,1.9,1.5,M,11.1,M,,0000*56
$GPGSA,M,3,03,14,32,24,06,,,,,,,,2.8,1.9,2.1*38
$GPRMC,221004.000,A,1258.9768,S,07629.5494,W,24.66,157.35,150411,,,A*5F
$GPGGA,221005.000,1258.9834,S,07629.5463,W,1,07,1.2,3.7,M,11.1,M,,0000*50
$GPGSA,M,3,03,14,32,24,06,19,16,,,,,,2.4,1.2,2.1*30
$GPGSV,3,1,12,03,74,163,42,06,69,103,44,19,44,195,41,16,41,345,41*74
$GPGSV,3,2,12,32,41,305,44,14,37,094,42,22,27,148,,30,25,002,*7D
$GPGSV,3,3,12,11,16,232,,20,15,306,,24,14,246,39,31,03,030,*76
$GPRMC,221005.000,A,1258.9834,S,07629.5463,W,24.29,156.85,150411,,,A*51
$GPGGA,221006.000,1258.9896,S,07629.5435,W,1,09,1.1,3.7,M,11.1,M,,0000*55
$GPGSA,M,3,03,14,32,24,06,19,16,22,11,,,,2.1,1.1,1.8*3C
$GPRMC,221006.000,A,1258.9896,S,07629.5435,W,24.28,156.93,150411,,,A*5F
$GPGGA,221007.000,1258.9959,S,07629.5408,W,1,11,0.9,4.5,M,11.1,M,,0000*5D
$GPGSA,M,3,03,14,32,24,06,19,16,22,11,20,30,,1.7,0.9,1.5*3C
$GPRMC,221007.000,A,1258.9959,S,07629.5408,W,24.32,156.91,150411,,,A*5B
$GPGGA,221008.000,1259.0020,S,07629.5381,W,1,11,0.9,7.1,M,11.1,M,,0000*5C
$GPGSA,M,3,03,14,32,24,06,19,16,22,11,20,30,,1.7,0.9,1.5*3C
$GPRMC,221008.000,A,1259.0020,S,07629.5381,W,24.17,157.11,150411,,,A*53
$GPGGA,221009.000,1259.0082,S,07629.5351,W,1,11,0.9,8.8,M,11.1,M,,0000*5E
$GPGSA,M,3,03,14,32,24,06,19,16,22,11,20,30,,1.7,0.9,1.5*3C
$GPRMC,221009.000,A,1259.0082,S,07629.5351,W,24.11,156.81,150411,,,A*59
$GPGGA,221010.000,1259.0144,S,07629.5324,W,1,11,0.9,10.4,M,11.1,M,,0000*6A
$GPGSA,M,3,03,14,32,24,06,19,16,22,11,20,30,,1.7,0.9,1.5*3C
$GPGSV,3,1,12,03,74,163,43,06,69,103,45,19,44,195,42,16,41,345,40*76
$GPGSV,3,2,12,32,41,305,45,14,37,094,43,22,27,148,43,30,25,002,37*7E
$GPGSV,3,3,12,11,16,232,43,20,15,306,34,24,14,246,37,31,03,030,*78
$GPRMC,221010.000,A,1259.0144,S,07629.5324,W,23.99,156.51,150411,,,A*52
$GPGGA,221011.000,1259.0205,S,07629.5296,W,1,11,0.9,11.3,M,11.1,M,,0000*63
$GPGSA,M,3,03,14,32,24,06,19,16,22,11,20,30,,1.7,0.9,1.5*3C
$GPRMC,221011.000,A,1259.0205,S,07629.5296,W,24.04,156.64,150411,,,A*58
$GPGGA,221012.000,1259.0267,S,07629.5269,W,1,11,0.9,12.0,M,11.1,M,,0000*64
$GPGSA,M,3,03,14,32,24,06,19,16,22,11,20,30,,1.7,0.9,1.5*3C
$GPRMC,221012.000,A,1259.0267,S,07629.5269,W,24.22,156.85,150411,,,A*54
$GPGGA,221013.000,1259.0330,S,07629.5242,W,1,11,0.9,12.9,M,11.1,M,,0000*66
$GPGSA,M,3,03,14,32,24,06,19,16,22,11,20,30,,1.7,0.9,1.5*3C
$GPRMC,221013.000,A,1259.0330,S,07629.5242,W,24.33,157.00,150411,,,A*53
$GPGGA,221014.000,1259.0392,S,07629.5215,W,1,11,0.9,13.5,M,11.1,M,,0000*66
$GPGSA,M,3,03,14,32,24,06,19,16,22,11,20,30,,1.7,0.9,1.5*3C
$GPRMC,221014.000,A,1259.0392,S,07629.5215,W,24.34,157.63,150411,,,A*5C
$GPGGA,221014.998,1259.0455,S,07629.5189,W,1,11,0.9,13.5,M,11.1,M,,0000*64
$GPGSA,M,3,03,06,19,16,32,14,22,30,11,20,24,,1.7,0.9,1.5*3C
$GPGSV,3,1,12,03,74,163,38,06,69,103,39,19,44,195,38,16,41,345,38*73
$GPGSV,3,2,12,32,41,305,40,14,37,094,38,22,27,148,39,30,25,002,33*7E
$GPGSV,3,3,12,11,16,232,38,20,15,306,32,24,14,246,36,31,03,030,*73
$GPRMC,221014.998,A,1259.0455,S,07629.5189,W,24.40,156.97,150411,,,A*57
$GPGGA,221016.001,1259.0518,S,07629.5162,W,1,11,0.9,13.2,M,11.1,M,,0000*65
$GPGSA,M,3,03,06,19,16,32,14,22,30,11,20,24,,1.7,0.9,1.5*3C
$GPRMC,221016.001,A,1259.0518,S,07629.5162,W,24.30,156.91,150411,,,A*50
$GPGGA,221017.000,1259.0580,S,07629.5134,W,1,11,0.9,12.9,M,11.1,M,,0000*6D
$GPGSA,M,3,03,06,19,16,32,14,22,30,11,20,24,,1.7,0.9,1.5*3C
$GPRMC,221017.000,A,1259.0580,S,07629.5134,W,24.68,156.26,150411,,,A*53
$GPGGA,221018.000,1259.0643,S,07629.5105,W,1,11,0.9,13.0,M,11.1,M,,0000*64
$GPGSA,M,3,03,06,19,16,32,14,22,30,11,20,24,,1.7,0.9,1.5*3C
$GPRMC,221018.000,A,1259.0643,S,07629.5105,W,24.43,155.59,150411,,,A*50
$GPGGA,221019.000,1259.0707,S,07629.5076,W,1,11,0.9,13.0,M,11.1,M,,0000*61
$GPGSA,M,3,03,06,19,16,32,14,22,30,11,20,24,,1.7,0.9,1.5*3C
$GPRMC,221019.000,A,1259.0707,S,07629.5076,W,25.40,157.81,150411,,,A*50
$GPGGA,221020.000,1259.0771,S,07629.5050,W,1,11,0.9,12.9,M,11.1,M,,0000*66
$GPGSA,M,3,03,06,19,16,32,14,22,30,11,20,24,,1.7,0.9,1.5*3C
$GPGSV,3,1,12,03,74,163,39,06,69,103,40,19,44,195,38,16,41,345,37*73
$GPGSV,3,2,12,32,41,305,39,14,37,094,38,22,27,148,38,30,25,002,34*76
$GPGSV,3,3,12,11,16,232,38,20,15,306,32,24,14,246,36,31,03,030,*73
$GPRMC,221020.000,A,1259.0771,S,07629.5050,W,24.81,157.71,150411,,,A*5C
$GPGGA,221021.000,1259.0835,S,07629.5022,W,1,11,0.9,12.3,M,11.1,M,,0000*67
$GPGSA,M,3,03,06,19,16,32,14,22,30,11,20,24,,1.7,0.9,1.5*3C
$GPRMC,221021.000,A,1259.0835,S,07629.5022,W,24.96,157.63,150411,,,A*52
$GPGGA,221022.000,1259.0899,S,07629.4995,W,1,11,0.9,11.7,M,11.1,M,,0000*61
$GPGSA,M,3,03,06,19,16,32,14,22,30,11,20,24,,1.7,0.9,1.5*3C
$GPRMC,221022.000,A,1259.0899,S,07629.4995,W,24.74,157.64,150411,,,A*58
$GPGGA,221023.000,1259.0965,S,07629.4968,W,1,11,0.9,11.7,M,11.1,M,,0000*60
$GPGSA,M,3,03,06,19,16,32,14,22,30,11,20,24,,1.7,0.9,1.5*3C
$GPRMC,221023.000,A,1259.0965,S,07629.4968,W,25.43,158.14,150411,,,A*54
$GPGGA,221024.000,1259.1030,S,07629.4941,W,1,11,0.9,11.3,M,11.1,M,,0000*60
$GPGSA,M,3,03,06,19,16,32,14,22,30,11,20,24,,1.7,0.9,1.5*3C
$GPRMC,221024.000,A,1259.1030,S,07629.4941,W,25.18,157.82,150411,,,A*5E
$GPGGA,221025.000,1259.1094,S,07629.4913,W,1,11,0.9,10.9,M,11.1,M,,0000*63
$GPGSA,M,3,03,06,19,16,32,14,22,30,11,20,24,,1.7,0.9,1.5*3C
$GPGSV,3,1,12,03,74,163,39,06,69,103,41,19,44,195,38,16,41,345,38*7D
$GPGSV,3,2,12,32,41,305,40,14,37,094,37,22,27,148,39,30,25,002,34*76
$GPGSV,3,3,12,11,16,232,37,20,15,306,31,24,14,246,35,31,03,030,*7C
$GPRMC,221025.000,A,1259.1094,S,07629.4913,W,25.25,157.42,150411,,,A*54
$GPGGA,221026.000,1259.1158,S,07629.4884,W,1,11,0.9,10.1,M,11.1,M,,0000*66
$GPGSA,M,3,03,06,19,16,32,14,22,30,11,20,24,,1.7,0.9,1.5*3C
$GPRMC,221026.000,A,1259.1158,S,07629.4884,W,25.44,156.53,150411,,,A*5F
$GPGGA,221027.001,1259.1225,S,07629.4856,W,1,11,0.9,9.5,M,11.1,M,,0000*5C
$GPGSA,M,3,03,06,19,16,32,14,22,30,11,20,24,,1.7,0.9,1.5*3C
$GPRMC,221027.001,A,1259.1225,S,07629.4856,W,26.00,159.17,150411,,,A*55
$GPGGA,221027.999,1259.1292,S,07629.4828,W,1,11,0.9,9.0,M,11.1,M,,0000*54
$GPGSA,M,3,03,06,19,16,32,14,22,30,11,20,24,,1.7,0.9,1.5*3C
$GPRMC,221027.999,A,1259.1292,S,07629.4828,W,25.56,158.63,150411,,,A*5A
$GPGGA,221029.000,1259.1360,S,07629.4802,W,1,11,0.9,8.8,M,11.1,M,,0000*5E
$GPGSA,M,3,03,06,19,16,32,14,22,30,11,20,24,,1.7,0.9,1.5*3C
$GPRMC,221029.000,A,1259.1360,S,07629.4802,W,25.97,157.83,150411,,,A*55
$GPGGA,221029.999,1259.1428,S,07629.4774,W,1,11,0.9,8.3,M,11.1,M,,0000*59
$GPGSA,M,3,03,06,19,16,32,14,22,30,11,20,24,,1.7,0.9,1.5*3C
$GPGSV,3,1,12,03,74,163,39,06,69,103,39,19,44,195,37,16,41,345,37*72
$GPGSV,3,2,12,32,41,305,40,14,37,094,38,22,27,148,38,30,25,002,35*79
$GPGSV,3,3,12,11,16,232,38,20,15,306,33,24,14,246,34,31,03,030,*70
$GPRMC,221029.999,A,1259.1428,S,07629.4774,W,26.29,157.99,150411,,,A*54
$GPGGA,221030.999,1259.1497,S,07629.4746,W,1,11,0.9,8.0,M,11.1,M,,0000*57
$GPGSA,M,3,03,06,19,16,32,14,22,30,11,20,24,,1.7,0.9,1.5*3C
$GPRMC,221030.999,A,1259.1497,S,07629.4746,W,25.98,157.49,150411,,,A*5D
$GPGGA,221031.999,1259.1563,S,07629.4718,W,1,11,0.9,7.3,M,11.1,M,,0000*5B
$GPGSA,M,3,03,06,19,16,32,14,22,30,11,20,24,,1.7,0.9,1.5*3C
$GPRMC,221031.999,A,1259.1563,S,07629.4718,W,25.66,156.77,150411,,,A*50
$GPGGA,221032.999,1259.1630,S,07629.4689,W,1,11,0.9,6.8,M,11.1,M,,0000*5E
$GPGSA,M,3,03,06,19,16,32,14,22,30,11,20,24,,1.7,0.9,1.5*3C
$GPRMC,221032.999,A,1259.1630,S,07629.4689,W,25.95,158.74,150411,,,A*5E
$GPGGA,221033.999,1259.1697,S,07629.4662,W,1,11,0.9,5.9,M,11.1,M,,0000*55
$GPGSA,M,3,03,06,19,16,32,14,22,30,11,20,24,,1.7,0.9,1.5*3C
$GPRMC,221033.999,A,1259.1697,S,07629.4662,W,26.26,159.52,150411,,,A*59
$GPGGA,221034.999,1259.1763,S,07629.4635,W,1,11,0.9,5.9,M,11.1,M,,0000*5A
$GPGSA,M,3,03,06,19,16,32,14,22,30,11,20,24,,1.7,0.9,1.5*3C
$GPGSV,3,1,12,03,74,163,39,06,69,103,41,19,44,195,38,16,41,345,36*73
$GPGSV,3,2,12,32,41,305,40,14,37,094,38,22,27,148,38,30,25,002,34*78
$GPGSV,3,3,12,11,16,232,38,20,15,306,32,24,14,246,36,31,03,030,*73
