$GPGGA,161438.000,3948.1830,S,07036.6537,W,1,05,1.6,952.2,M,22.8,M,,0000*55
$GPGSA,M,3,31,25,30,29,21,,,,,,,,3.4,1.6,3.0*33
$GPRMC,161438.000,A,3948.1830,S,07036.6537,W,0.07,354.71,120511,,,A*64
$GPGGA,161439.000,3948.1830,S,07036.6537,W,1,05,1.6,952.3,M,22.8,M,,0000*55
$GPGSA,M,3,31,25,30,29,21,,,,,,,,3.4,1.6,3.0*33
$GPRMC,161439.000,A,3948.1830,S,07036.6537,W,0.11,9.37,120511,,,A*6B
$GPGGA,161440.000,3948.1830,S,07036.6537,W,1,05,1.6,952.4,M,22.8,M,,0000*5C
$GPGSA,M,3,31,25,30,29,21,,,,,,,,3.4,1.6,3.0*33
$GPRMC,161440.000,A,3948.1830,S,07036.6537,W,0.10,2.91,120511,,,A*63
$GPGGA,161441.000,3948.1830,S,07036.6537,W,1,05,1.6,952.4,M,22.8,M,,0000*5D
$GPGSA,M,3,31,25,30,29,21,,,,,,,,3.4,1.6,3.0*33
$GPRMC,161441.000,A,3948.1830,S,07036.6537,W,0.08,2.14,120511,,,A*66
$GPGGA,161442.000,3948.1830,S,07036.6536,W,1,05,1.6,952.5,M,22.8,M,,0000*5E
$GPGSA,M,3,31,25,30,29,21,,,,,,,,3.4,1.6,3.0*33
$GPRMC,161442.000,A,3948.1830,S,07036.6536,W,0.09,4.45,120511,,,A*67
$GPGGA,161443.000,3948.1829,S,07036.6536,W,1,05,1.6,952.5,M,22.8,M,,0000*57
$GPGSA,M,3,31,25,30,29,21,,,,,,,,3.4,1.6,3.0*33
$GPRMC,161443.000,A,3948.1829,S,07036.6536,W,0.09,6.79,120511,,,A*63
$GPGGA,161444.000,3948.1829,S,07036.6536,W,1,05,1.6,952.5,M,22.8,M,,0000*50
$GPGSA,M,3,31,25,30,29,21,,,,,,,,3.4,1.6,3.0*33
$GPRMC,161444.000,A,3948.1829,S,07036.6536,W,0.08,4.61,120511,,,A*6E
$GPGGA,161445.000,3948.1829,S,07036.6536,W,1,05,1.6,952.5,M,22.8,M,,0000*51
$GPGSA,M,3,31,25,30,29,21,,,,,,,,3.4,1.6,3.0*33
$GPGSV,3,1,10,21,84,349,47,30,53,233,46,29,41,109,42,31,29,309,46*7C
$GPGSV,3,2,10,25,29,037,46,16,29,225,42,18,19,018,42,06,16,256,48*7E
$GPGSV,3,3,10,05,11,140,,03,06,256,28*76
$GPRMC,161445.000,A,3948.1829,S,07036.6536,W,0.09,3.42,120511,,,A*68
$GPGGA,161446.000,3948.1829,S,07036.6536,W,1,05,1.6,952.5,M,22.8,M,,0000*52
$GPGSA,M,3,31,25,30,29,21,,,,,,,,3.4,1.6,3.0*33
$GPRMC,161446.000,A,3948.1829,S,07036.6536,W,0.08,1.27,120511,,,A*6B
$GPGGA,161447.000,3948.1829,S,07036.6536,W,1,05,1.6,952.5,M,22.8,M,,0000*53
$GPGSA,M,3,31,25,30,29,21,,,,,,,,3.4,1.6,3.0*33
$GPRMC,161447.000,A,3948.1829,S,07036.6536,W,0.08,7.46,120511,,,A*6B
$GPGGA,161448.000,3948.1829,S,07036.6536,W,1,05,1.6,952.5,M,22.8,M,,0000*5C
$GPGSA,M,3,31,25,30,29,21,,,,,,,,3.4,1.6,3.0*33
$GPRMC,161448.000,A,3948.1829,S,07036.6536,W,0.09,1.68,120511,,,A*6F
$GPGGA,161449.000,3948.1829,S,07036.6536,W,1,05,1.6,952.5,M,22.8,M,,0000*5D
$GPGSA,M,3,31,25,30,29,21,,,,,,,,3.4,1.6,3.0*33
$GPRMC,161449.000,A,3948.1829,S,07036.6536,W,0.08,6.65,120511,,,A*65
$GPGGA,161450.000,3948.1829,S,07036.6536,W,1,05,1.6,952.6,M,22.8,M,,0000*56
$GPGSA,M,3,31,25,30,29,21,,,,,,,,3.4,1.6,3.0*33
$GPGSV,3,1,10,21,84,349,47,30,53,233,45,29,41,109,42,31,29,309,45*7C
$GPGSV,3,2,10,25,29,037,46,16,29,225,42,18,19,018,42,06,16,256,47*71
$GPGSV,3,3,10,05,11,140,,03,06,256,28*76
$GPRMC,161450.000,A,3948.1829,S,07036.6536,W,0.09,3.34,120511,,,A*6D
$GPGGA,161451.000,3948.1828,S,07036.6535,W,1,05,1.6,952.6,M,22.8,M,,0000*55
$GPGSA,M,3,31,25,30,29,21,,,,,,,,3.4,1.6,3.0*33
$GPRMC,161451.000,A,3948.1828,S,07036.6535,W,0.07,9.22,120511,,,A*6D
$GPGGA,161452.000,3948.1828,S,07036.6535,W,1,05,1.6,952.6,M,22.8,M,,0000*56
$GPGSA,M,3,31,25,30,29,21,,,,,,,,3.4,1.6,3.0*33
$GPRMC,161452.000,A,3948.1828,S,07036.6535,W,0.09,358.09,120511,,,A*6E
$GPGGA,161453.000,3948.1828,S,07036.6535,W,1,05,1.6,952.6,M,22.8,M,,0000*57
$GPGSA,M,3,31,25,30,29,21,,,,,,,,3.4,1.6,3.0*33
$GPRMC,161453.000,A,3948.1828,S,07036.6535,W,0.08,27.58,120511,,,A*51
$GPGGA,161454.000,3948.1828,S,07036.6535,W,1,05,1.6,952.6,M,22.8,M,,0000*50
$GPGSA,M,3,31,25,30,29,21,,,,,,,,3.4,1.6,3.0*33
$GPRMC,161454.000,A,3948.1828,S,07036.6535,W,0.08,4.56,120511,,,A*69
$GPGGA,161455.000,3948.1828,S,07036.6535,W,1,05,1.6,952.6,M,22.8,M,,0000*51
$GPGSA,M,3,31,25,30,29,21,,,,,,,,3.4,1.6,3.0*33
$GPGSV,3,1,10,21,84,349,46,30,53,233,45,29,41,109,42,31,29,309,45*7D
$GPGSV,3,2,10,25,29,037,46,16,29,225,42,18,19,018,42,06,16,256,48*7E
$GPGSV,3,3,10,05,11,140,,03,06,256,27*79
$GPRMC,161455.000,A,3948.1828,S,07036.6535,W,0.09,359.56,120511,,,A*62
$GPGGA,161456.000,3948.1828,S,07036.6535,W,1,05,1.6,952.6,M,22.8,M,,0000*52
$GPGSA,M,3,31,25,30,29,21,,,,,,,,3.4,1.6,3.0*33
$GPRMC,161456.000,A,3948.1828,S,07036.6535,W,0.08,3.81,120511,,,A*66
$GPGGA,161457.000,3948.1828,S,07036.6535,W,1,05,1.6,952.6,M,22.8,M,,0000*53
$GPGSA,M,3,31,25,30,29,21,,,,,,,,3.4,1.6,3.0*33
$GPRMC,161457.000,A,3948.1828,S,07036.6535,W,0.09,1.44,120511,,,A*6D
$GPGGA,161458.000,3948.1827,S,07036.6535,W,1,06,1.3,953.0,M,22.8,M,,0000*52
$GPGSA,M,3,31,25,30,29,21,06,,,,,,,2.4,1.3,2.0*30
$GPRMC,161458.000,A,3948.1827,S,07036.6535,W,0.14,19.71,120511,,,A*5E
$GPGGA,161459.000,3948.1826,S,07036.6535,W,1,06,1.3,953.2,M,22.8,M,,0000*50
$GPGSA,M,3,31,25,30,29,21,06,,,,,,,2.4,1.3,2.0*30
$GPRMC,161459.000,A,3948.1826,S,07036.6535,W,0.15,17.11,120511,,,A*57
$GPGGA,161500.000,3948.1826,S,07036.6534,W,1,06,1.3,953.5,M,22.8,M,,0000*5B
$GPGSA,M,3,31,25,30,29,21,06,,,,,,,2.4,1.3,2.0*30
$GPGSV,3,1,10,21,84,350,46,30,54,233,45,29,41,109,42,31,29,310,45*7A
$GPGSV,3,2,10,16,29,225,42,25,29,037,46,18,20,018,41,06,17,256,47*79
$GPGSV,3,3,10,05,11,140,,03,06,256,27*79
$GPRMC,161500.000,A,3948.1826,S,07036.6534,W,0.15,14.48,120511,,,A*54
$GPGGA,161501.000,3948.1825,S,07036.6534,W,1,06,1.3,953.7,M,22.8,M,,0000*5B
$GPGSA,M,3,31,25,30,29,21,06,,,,,,,2.4,1.3,2.0*30
$GPRMC,161501.000,A,3948.1825,S,07036.6534,W,0.14,15.05,120511,,,A*5F
$GPGGA,161502.000,3948.1825,S,07036.6534,W,1,06,1.3,953.9,M,22.8,M,,0000*56
$GPGSA,M,3,31,25,30,29,21,06,,,,,,,2.4,1.3,2.0*30
$GPRMC,161502.000,A,3948.1825,S,07036.6534,W,0.15,17.46,120511,,,A*58
$GPGGA,161503.000,3948.1824,S,07036.6534,W,1,06,1.3,954.1,M,22.8,M,,0000*59
$GPGSA,M,3,31,25,30,29,21,06,,,,,,,2.4,1.3,2.0*30
$GPRMC,161503.000,A,3948.1824,S,07036.6534,W,0.15,12.82,120511,,,A*55
$GPGGA,161504.000,3948.1823,S,07036.6533,W,1,08,1.1,954.5,M,22.8,M,,0000*56
$GPGSA,M,3,31,16,25,30,29,18,21,06,,,,,2.1,1.1,1.8*32
$GPRMC,161504.000,A,3948.1823,S,07036.6533,W,0.07,17.42,120511,,,A*58
$GPGGA,161505.000,3948.1822,S,07036.6533,W,1,08,1.1,955.0,M,22.8,M,,0000*52
$GPGSA,M,3,31,16,25,30,29,18,21,06,,,,,2.1,1.1,1.8*32
$GPGSV,3,1,10,21,84,350,46,30,54,233,45,29,41,109,42,31,29,310,46*79
$GPGSV,3,2,10,16,29,225,42,25,29,037,46,18,20,018,41,06,17,256,47*79
$GPGSV,3,3,10,05,11,140,,03,06,256,27*79
$GPRMC,161505.000,A,3948.1822,S,07036.6533,W,0.07,11.47,120511,,,A*5B
$GPGGA,161506.115,3948.1823,S,07036.6533,W,1,08,1.1,954.9,M,22.8,M,,0000*5D
$GPGSA,M,3,21,30,29,31,16,25,18,06,,,,,2.1,1.1,1.8*32
$GPRMC,161506.115,A,3948.1823,S,07036.6533,W,0.35,359.96,120511,,,A*6E
$GPGGA,161506.999,3948.1822,S,07036.6533,W,1,08,1.1,955.1,M,22.8,M,,0000*59
$GPGSA,M,3,21,30,29,31,16,25,18,06,,,,,2.1,1.1,1.8*32
$GPRMC,161506.999,A,3948.1822,S,07036.6533,W,0.39,4.94,120511,,,A*66
$GPGGA,161508.007,3948.1821,S,07036.6533,W,1,08,1.1,955.4,M,22.8,M,,0000*5F
$GPGSA,M,3,21,30,29,31,16,25,18,06,,,,,2.1,1.1,1.8*32
$GPRMC,161508.007,A,3948.1821,S,07036.6533,W,0.23,317.74,120511,,,A*61
$GPGGA,161508.995,3948.1821,S,07036.6534,W,1,08,1.1,955.5,M,22.8,M,,0000*5B
$GPGSA,M,3,21,30,29,31,16,25,18,06,,,,,2.1,1.1,1.8*32
$GPRMC,161508.995,A,3948.1821,S,07036.6534,W,0.08,248.50,120511,,,A*60
$GPGGA,161510.000,3948.1821,S,07036.6534,W,1,08,1.1,955.7,M,22.8,M,,0000*55
$GPGSA,M,3,21,30,29,31,16,25,18,06,,,,,2.1,1.1,1.8*32
$GPGSV,3,1,10,21,84,350,39,30,54,233,39,29,41,109,37,31,29,310,38*71
$GPGSV,3,2,10,16,29,225,37,25,29,037,38,18,20,018,36,06,17,256,41*74
$GPGSV,3,3,10,05,11,140,,03,06,256,*7C
$GPRMC,161510.000,A,3948.1821,S,07036.6534,W,0.21,338.31,120511,,,A*66
$GPGGA,161511.000,3948.1820,S,07036.6534,W,1,07,1.3,955.8,M,22.8,M,,0000*57
$GPGSA,M,3,21,30,29,16,25,18,06,,,,,,2.2,1.3,1.8*31
$GPRMC,161511.000,A,3948.1820,S,07036.6534,W,0.11,349.29,120511,,,A*6A
$GPGGA,161511.997,3948.1820,S,07036.6535,W,1,08,1.1,956.1,M,22.8,M,,0000*56
$GPGSA,M,3,21,30,29,31,16,25,18,06,,,,,2.1,1.1,1.8*32
$GPRMC,161511.997,A,3948.1820,S,07036.6535,W,0.14,3.65,120511,,,A*6C
$GPGGA,161513.000,3948.1820,S,07036.6535,W,1,08,1.1,956.5,M,22.8,M,,0000*57
$GPGSA,M,3,21,30,29,31,16,25,18,06,,,,,2.1,1.1,1.8*32
$GPRMC,161513.000,A,3948.1820,S,07036.6535,W,0.24,52.20,120511,,,A*5F
$GPGGA,161514.003,3948.1821,S,07036.6534,W,1,08,1.1,956.7,M,22.8,M,,0000*51
$GPGSA,M,3,21,30,29,31,16,25,18,06,,,,,2.1,1.1,1.8*32
$GPRMC,161514.003,A,3948.1821,S,07036.6534,W,0.45,233.42,120511,,,A*6D
$GPGGA,161515.001,3948.1821,S,07036.6534,W,1,08,1.1,956.8,M,22.8,M,,0000*5D
$GPGSA,M,3,21,30,29,31,16,25,18,06,,,,,2.1,1.1,1.8*32
$GPGSV,3,1,10,21,84,350,40,30,54,233,39,29,41,109,38,31,29,310,40*7F
$GPGSV,3,2,10,16,29,225,37,25,29,037,39,18,20,018,37,06,17,256,39*7B
$GPGSV,3,3,10,05,11,140,,03,06,256,27*79
$GPRMC,161515.001,A,3948.1821,S,07036.6534,W,0.22,10.73,120511,,,A*5E
$GPGGA,161516.002,3948.1820,S,07036.6536,W,1,08,1.1,957.0,M,22.8,M,,0000*57
$GPGSA,M,3,21,30,29,31,16,25,18,06,,,,,2.1,1.1,1.8*32
$GPRMC,161516.002,A,3948.1820,S,07036.6536,W,0.90,279.08,120511,,,A*65
$GPGGA,161517.003,3948.1821,S,07036.6536,W,1,08,1.1,957.0,M,22.8,M,,0000*56
$GPGSA,M,3,21,30,29,31,16,25,18,06,,,,,2.1,1.1,1.8*32
$GPRMC,161517.003,A,3948.1821,S,07036.6536,W,0.12,34.41,120511,,,A*58
$GPGGA,161518.001,3948.1821,S,07036.6534,W,1,08,1.1,957.0,M,22.8,M,,0000*59
$GPGSA,M,3,21,30,29,31,16,25,18,06,,,,,2.1,1.1,1.8*32
$GPRMC,161518.001,A,3948.1821,S,07036.6534,W,0.10,41.65,120511,,,A*51
$GPGGA,161518.997,3948.1821,S,07036.6534,W,1,07,1.1,957.1,M,22.8,M,,0000*51
$GPGSA,M,3,21,29,31,16,25,18,06,,,,,,2.2,1.1,1.9*33
$GPRMC,161518.997,A,3948.1821,S,07036.6534,W,0.38,18.55,120511,,,A*52
$GPGGA,161519.992,3948.1821,S,07036.6534,W,1,08,1.1,957.1,M,22.8,M,,0000*5A
$GPGSA,M,3,21,30,29,31,16,25,18,06,,,,,2.1,1.1,1.8*32
$GPGSV,3,1,10,21,84,350,40,30,54,233,40,29,41,109,39,31,29,310,41*71
$GPGSV,3,2,10,16,29,225,38,25,29,037,40,18,20,018,40,06,17,256,40*74
$GPGSV,3,3,10,05,11,140,,03,06,256,27*79
$GPRMC,161519.992,A,3948.1821,S,07036.6534,W,0.37,124.91,120511,,,A*6F
$GPGGA,161521.005,3948.1822,S,07036.6532,W,1,08,1.1,956.3,M,22.8,M,,0000*50
$GPGSA,M,3,21,30,29,31,16,25,18,06,,,,,2.1,1.1,1.8*32
$GPRMC,161521.005,A,3948.1822,S,07036.6532,W,0.55,346.11,120511,,,A*6C
$GPGGA,161522.004,3948.1820,S,07036.6533,W,1,08,1.1,956.7,M,22.8,M,,0000*55
$GPGSA,M,3,21,30,29,31,16,25,18,06,,,,,2.1,1.1,1.8*32
$GPRMC,161522.004,A,3948.1820,S,07036.6533,W,0.01,278.19,120511,,,A*68
$GPGGA,161522.999,3948.1822,S,07036.6531,W,1,08,1.1,956.4,M,22.8,M,,0000*5B
$GPGSA,M,3,21,30,29,31,16,25,18,06,,,,,2.1,1.1,1.8*32
$GPRMC,161522.999,A,3948.1822,S,07036.6531,W,0.12,103.87,120511,,,A*6F
$GPGGA,161524.004,3948.1822,S,07036.6531,W,1,08,1.1,956.6,M,22.8,M,,0000*52
$GPGSA,M,3,21,30,29,31,16,25,18,06,,,,,2.1,1.1,1.8*32
$GPRMC,161524.004,A,3948.1822,S,07036.6531,W,0.15,44.60,120511,,,A*58
$GPGGA,161524.995,3948.1822,S,07036.6530,W,1,08,1.1,956.5,M,22.8,M,,0000*51
$GPGSA,M,3,21,30,29,31,16,25,18,06,,,,,2.1,1.1,1.8*32
$GPGSV,3,1,10,21,84,350,39,30,54,233,37,29,41,109,37,31,29,310,39*7E
$GPGSV,3,2,10,16,29,225,37,25,29,037,39,18,20,018,36,06,17,256,41*75
$GPGSV,3,3,10,05,11,140,,03,06,256,25*7B
$GPRMC,161524.995,A,3948.1822,S,07036.6530,W,0.36,27.69,120511,,,A*55
$GPGGA,161526.000,3948.1819,S,07036.6529,W,1,08,1.1,956.8,M,22.8,M,,0000*5B
$GPGSA,M,3,21,30,29,31,16,25,18,06,,,,,2.1,1.1,1.8*32
$GPRMC,161526.000,A,3948.1819,S,07036.6529,W,0.27,354.39,120511,,,A*60
$GPGGA,161527.002,3948.1819,S,07036.6528,W,1,08,1.1,956.8,M,22.8,M,,0000*59
$GPGSA,M,3,21,30,29,31,16,25,18,06,,,,,2.1,1.1,1.8*32
$GPRMC,161527.002,A,3948.1819,S,07036.6528,W,0.48,346.24,120511,,,A*64
$GPGGA,161527.997,3948.1820,S,07036.6527,W,1,08,1.1,956.5,M,22.8,M,,0000*54
$GPGSA,M,3,21,30,29,31,16,25,18,06,,,,,2.1,1.1,1.8*32
$GPRMC,161527.997,A,3948.1820,S,07036.6527,W,0.14,183.74,120511,,,A*63
$GPGGA,161529.002,3948.1821,S,07036.6527,W,1,08,1.1,956.6,M,22.8,M,,0000*5D
$GPGSA,M,3,21,30,29,31,16,25,18,06,,,,,2.1,1.1,1.8*32
$GPRMC,161529.002,A,3948.1821,S,07036.6527,W,0.22,301.56,120511,,,A*64
$GPGGA,161529.998,3948.1821,S,07036.6528,W,1,08,1.1,957.0,M,22.8,M,,0000*5F
$GPGSA,M,3,21,30,29,31,16,25,18,06,,,,,2.1,1.1,1.8*32
$GPGSV,3,1,10,21,84,350,40,30,54,233,39,29,41,109,38,31,29,310,40*7F
$GPGSV,3,2,10,16,29,225,39,25,29,037,40,18,20,018,39,06,17,256,39*75
$GPGSV,3,3,10,05,11,140,28,03,06,256,28*7C
$GPRMC,161529.998,A,3948.1821,S,07036.6528,W,0.16,86.44,120511,,,A*59
$GPGGA,161531.001,3948.1819,S,07036.6527,W,1,08,1.1,956.9,M,22.8,M,,0000*53
$GPGSA,M,3,21,30,29,31,16,25,18,06,,,,,2.1,1.1,1.8*32
$GPRMC,161531.001,A,3948.1819,S,07036.6527,W,1.20,344.74,120511,,,A*67
$GPGGA,161531.999,3948.1817,S,07036.6527,W,1,08,1.1,957.0,M,22.8,M,,0000*5D
$GPGSA,M,3,21,30,29,31,16,25,18,06,,,,,2.1,1.1,1.8*32
$GPRMC,161531.999,A,3948.1817,S,07036.6527,W,0.27,5.70,120511,,,A*65
$GPGGA,161533.001,3948.1817,S,07036.6528,W,1,08,1.1,957.0,M,22.8,M,,0000*58
$GPGSA,M,3,21,30,29,31,16,25,18,06,,,,,2.1,1.1,1.8*32
$GPRMC,161533.001,A,3948.1817,S,07036.6528,W,0.41,275.15,120511,,,A*66
$GPGGA,161533.999,3948.1817,S,07036.6530,W,1,08,1.1,957.2,M,22.8,M,,0000*5B
$GPGSA,M,3,21,30,29,31,16,25,18,06,,,,,2.1,1.1,1.8*32
$GPRMC,161533.999,A,3948.1817,S,07036.6530,W,0.87,252.56,120511,,,A*6F
$GPGGA,161534.994,3948.1818,S,07036.6529,W,1,08,1.1,957.4,M,22.8,M,,0000*50
$GPGSA,M,3,21,30,29,31,16,25,18,06,,,,,2.1,1.1,1.8*32
$GPGSV,3,1,10,21,84,350,40,30,54,233,39,29,41,109,39,31,29,310,41*7F
$GPGSV,3,2,10,16,29,225,39,25,29,037,40,18,20,018,38,06,17,256,40*7A
$GPGSV,3,3,10,05,11,140,,03,06,256,29*77
$GPRMC,161534.994,A,3948.1818,S,07036.6529,W,0.48,112.83,120511,,,A*6E
$GPGGA,161536.007,3948.1818,S,07036.6528,W,1,08,1.1,957.6,M,22.8,M,,0000*52
$GPGSA,M,3,21,30,29,31,16,25,18,06,,,,,2.1,1.1,1.8*32
$GPRMC,161536.007,A,3948.1818,S,07036.6528,W,0.22,22.82,120511,,,A*51
$GPGGA,161536.995,3948.1817,S,07036.6526,W,1,08,1.1,956.6,M,22.8,M,,0000*50
$GPGSA,M,3,21,30,29,31,16,25,18,06,,,,,2.1,1.1,1.8*32
$GPRMC,161536.995,A,3948.1817,S,07036.6526,W,0.35,340.43,120511,,,A*6E
$GPGGA,161538.010,3948.1817,S,07036.6526,W,1,08,1.1,956.9,M,22.8,M,,0000*55
$GPGSA,M,3,21,30,29,31,16,25,18,06,,,,,2.1,1.1,1.8*32
$GPRMC,161538.010,A,3948.1817,S,07036.6526,W,0.33,348.47,120511,,,A*6E
$GPGGA,161538.988,3948.1816,S,07036.6526,W,1,08,1.1,957.3,M,22.8,M,,0000*57
$GPGSA,M,3,21,30,29,31,16,25,18,06,,,,,2.1,1.1,1.8*32
$GPRMC,161538.988,A,3948.1816,S,07036.6526,W,0.92,25.40,120511,,,A*53
$GPGGA,161540.008,3948.1816,S,07036.6525,W,1,08,1.1,957.0,M,22.8,M,,0000*59
$GPGSA,M,3,21,30,29,31,16,25,18,06,,,,,2.1,1.1,1.8*32
$GPGSV,3,1,10,21,84,350,40,30,54,233,39,29,41,109,37,31,29,310,39*7E
$GPGSV,3,2,10,16,29,225,38,25,29,037,40,18,20,018,38,06,17,256,41*7A
$GPGSV,3,3,10,05,11,140,,03,06,256,27*79
$GPRMC,161540.008,A,3948.1816,S,07036.6525,W,0.20,225.82,120511,,,A*6B
$GPGGA,161540.997,3948.1816,S,07036.6526,W,1,08,1.1,956.9,M,22.8,M,,0000*5D
$GPGSA,M,3,21,30,29,31,16,25,18,06,,,,,2.1,1.1,1.8*32
$GPRMC,161540.997,A,3948.1816,S,07036.6526,W,0.26,118.07,120511,,,A*61
$GPGGA,161542.004,3948.1817,S,07036.6525,W,1,08,1.1,956.4,M,22.8,M,,0000*53
$GPGSA,M,3,21,30,29,31,16,25,18,06,,,,,2.1,1.1,1.8*32
$GPRMC,161542.004,A,3948.1817,S,07036.6525,W,0.70,2.23,120511,,,A*6D
$GPGGA,161542.998,3948.1815,S,07036.6525,W,1,08,1.1,956.6,M,22.8,M,,0000*5F
$GPGSA,M,3,21,30,29,31,16,25,18,06,,,,,2.1,1.1,1.8*32
$GPRMC,161542.998,A,3948.1815,S,07036.6525,W,0.36,5.81,120511,,,A*6E
$GPGGA,161543.999,3948.1814,S,07036.6526,W,1,08,1.1,957.3,M,22.8,M,,0000*59
$GPGSA,M,3,21,30,29,31,16,25,18,06,,,,,2.1,1.1,1.8*32
$GPRMC,161543.999,A,3948.1814,S,07036.6526,W,0.52,314.81,120511,,,A*6D
$GPGGA,161545.001,3948.1813,S,07036.6526,W,1,08,1.1,957.3,M,22.8,M,,0000*50
$GPGSA,M,3,21,30,29,31,16,25,18,06,,,,,2.1,1.1,1.8*32
$GPGSV,3,1,10,21,84,350,40,30,54,233,39,29,41,109,38,31,29,310,40*7F
$GPGSV,3,2,10,16,29,225,40,25,29,037,39,18,20,018,39,06,17,256,39*75
$GPGSV,3,3,10,05,11,140,27,03,06,256,30*7A
$GPRMC,161545.001,A,3948.1813,S,07036.6526,W,0.11,358.33,120511,,,A*62
$GPGGA,161545.999,3948.1813,S,07036.6525,W,1,08,1.1,956.7,M,22.8,M,,0000*5E
$GPGSA,M,3,21,30,29,31,16,25,18,06,,,,,2.1,1.1,1.8*32
$GPRMC,161545.999,A,3948.1813,S,07036.6525,W,0.27,321.42,120511,,,A*64
$GPGGA,161547.000,3948.1811,S,07036.6525,W,1,08,1.1,956.7,M,22.8,M,,0000*57
$GPGSA,M,3,21,30,29,31,16,25,18,06,,,,,2.1,1.1,1.8*32
$GPRMC,161547.000,A,3948.1811,S,07036.6525,W,0.01,13.55,120511,,,A*5D
$GPGGA,161548.004,3948.1812,S,07036.6526,W,1,08,1.1,957.0,M,22.8,M,,0000*5A
$GPGSA,M,3,21,30,29,31,16,25,18,06,,,,,2.1,1.1,1.8*32
$GPRMC,161548.004,A,3948.1812,S,07036.6526,W,0.12,233.02,120511,,,A*66
$GPGGA,161548.997,3948.1812,S,07036.6526,W,1,08,1.1,956.9,M,22.8,M,,0000*51
$GPGSA,M,3,21,30,29,31,16,25,18,06,,,,,2.1,1.1,1.8*32
$GPRMC,161548.997,A,3948.1812,S,07036.6526,W,0.05,108.31,120511,,,A*68
$GPGGA,161549.995,3948.1811,S,07036.6524,W,1,08,1.1,956.5,M,22.8,M,,0000*5F
$GPGSA,M,3,21,30,29,31,16,25,18,06,,,,,2.1,1.1,1.8*32
$GPGSV,3,1,10,21,84,350,39,30,54,233,40,29,41,109,40,31,29,310,40*70
$GPGSV,3,2,10,16,29,225,40,25,29,037,40,18,20,018,37,06,17,256,40*7B
$GPGSV,3,3,10,05,11,140,28,03,06,256,30*75
$GPRMC,161549.995,A,3948.1811,S,07036.6524,W,0.08,174.07,120511,,,A*69
$GPGGA,161551.000,3948.1811,S,07036.6524,W,1,08,1.1,956.6,M,22.8,M,,0000*50
$GPGSA,M,3,21,30,29,31,16,25,18,06,,,,,2.1,1.1,1.8*32
$GPRMC,161551.000,A,3948.1811,S,07036.6524,W,0.24,346.91,120511,,,A*67
$GPGGA,161552.009,3948.1810,S,07036.6524,W,1,08,1.1,956.7,M,22.8,M,,0000*5A
$GPGSA,M,3,21,30,29,31,16,25,18,06,,,,,2.1,1.1,1.8*32
$GPRMC,161552.009,A,3948.1810,S,07036.6524,W,0.72,324.58,120511,,,A*6E
$GPGGA,161552.999,3948.1811,S,07036.6525,W,1,08,1.1,956.7,M,22.8,M,,0000*5A
$GPGSA,M,3,21,30,29,31,16,25,18,06,,,,,2.1,1.1,1.8*32
$GPRMC,161552.999,A,3948.1811,S,07036.6525,W,0.06,3.06,120511,,,A*60
$GPGGA,161553.992,3948.1811,S,07036.6525,W,1,08,1.1,956.3,M,22.8,M,,0000*54
$GPGSA,M,3,21,30,29,31,16,25,18,06,,,,,2.1,1.1,1.8*32
$GPRMC,161553.992,A,3948.1811,S,07036.6525,W,0.24,136.90,120511,,,A*62
$GPGGA,161555.005,3948.1811,S,07036.6523,W,1,08,1.1,956.4,M,22.8,M,,0000*54
$GPGSA,M,3,21,30,29,31,16,25,18,06,,,,,2.1,1.1,1.8*32
$GPGSV,3,1,10,21,84,350,40,30,54,233,39,29,41,109,39,31,29,310,40*7E
$GPGSV,3,2,10,16,29,225,38,25,29,037,38,18,20,018,38,06,17,256,41*75
$GPGSV,3,3,10,05,11,140,29,03,06,256,29*7C
$GPRMC,161555.005,A,3948.1811,S,07036.6523,W,0.32,8.16,120511,,,A*60
$GPGGA,161556.000,3948.1812,S,07036.6522,W,1,08,1.1,955.9,M,22.8,M,,0000*5E
$GPGSA,M,3,21,30,29,31,16,25,18,06,,,,,2.1,1.1,1.8*32
$GPRMC,161556.000,A,3948.1812,S,07036.6522,W,0.03,298.94,120511,,,A*67
$GPGGA,161557.004,3948.1812,S,07036.6523,W,1,08,1.1,955.4,M,22.8,M,,0000*57
$GPGSA,M,3,21,30,29,31,16,25,18,06,,,,,2.1,1.1,1.8*32
$GPRMC,161557.004,A,3948.1812,S,07036.6523,W,0.99,304.23,120511,,,A*68
$GPGGA,161557.991,3948.1810,S,07036.6525,W,1,08,1.1,955.4,M,22.8,M,,0000*56
$GPGSA,M,3,21,30,29,31,16,25,18,06,,,,,2.1,1.1,1.8*32
$GPRMC,161557.991,A,3948.1810,S,07036.6525,W,0.83,305.44,120511,,,A*62
$GPGGA,161559.003,3948.1808,S,07036.6526,W,1,08,1.1,955.3,M,22.8,M,,0000*57
$GPGSA,M,3,21,30,29,31,16,25,18,06,,,,,2.1,1.1,1.8*32
$GPRMC,161559.003,A,3948.1808,S,07036.6526,W,0.23,356.04,120511,,,A*6C
$GPGGA,161600.001,3948.1810,S,07036.6526,W,1,08,1.1,955.7,M,22.8,M,,0000*57
$GPGSA,M,3,21,30,29,31,16,25,18,06,,,,,2.1,1.1,1.8*32
$GPGSV,3,1,10,21,84,350,40,30,54,233,40,29,41,109,40,31,29,310,41*7F
$GPGSV,3,2,10,16,29,225,37,25,29,037,40,18,20,018,37,06,17,256,40*7B
$GPGSV,3,3,10,05,11,140,30,03,06,256,30*7C
$GPRMC,161600.001,A,3948.1810,S,07036.6526,W,0.06,143.99,120511,,,A*6D
$GPGGA,161601.009,3948.1809,S,07036.6527,W,1,08,1.1,956.0,M,22.8,M,,0000*53
$GPGSA,M,3,21,30,29,31,16,25,18,06,,,,,2.1,1.1,1.8*32
$GPRMC,161601.009,A,3948.1809,S,07036.6527,W,0.35,324.38,120511,,,A*65
$GPGGA,161601.994,3948.1807,S,07036.6529,W,1,08,1.1,956.4,M,22.8,M,,0000*5A
$GPGSA,M,3,21,30,29,31,16,25,18,06,,,,,2.1,1.1,1.8*32
$GPRMC,161601.994,A,3948.1807,S,07036.6529,W,0.73,307.68,120511,,,A*6E
$GPGGA,161602.999,3948.1807,S,07036.6530,W,1,08,1.1,956.4,M,22.8,M,,0000*5C
$GPGSA,M,3,21,30,29,31,16,25,18,06,,,,,2.1,1.1,1.8*32
$GPRMC,161602.999,A,3948.1807,S,07036.6530,W,0.20,138.39,120511,,,A*64
$GPGGA,161604.000,3948.1807,S,07036.6530,W,1,08,1.1,956.4,M,22.8,M,,0000*53
$GPGSA,M,3,21,30,29,31,16,25,18,06,,,,,2.1,1.1,1.8*32
$GPRMC,161604.000,A,3948.1807,S,07036.6530,W,0.32,336.75,120511,,,A*6C
$GPGGA,161604.996,3948.1808,S,07036.6531,W,1,08,1.1,956.3,M,22.8,M,,0000*5C
$GPGSA,M,3,21,30,29,31,16,25,18,06,,,,,2.1,1.1,1.8*32
$GPGSV,3,1,10,21,84,350,39,30,54,233,40,29,41,109,40,31,29,310,42*72
$GPGSV,3,2,10,16,29,225,40,25,29,037,40,18,20,018,37,06,17,256,41*7A
$GPGSV,3,3,10,05,11,140,,03,06,256,30*7F
$GPRMC,161604.996,A,3948.1808,S,07036.6531,W,0.47,186.62,120511,,,A*69
$GPGGA,161606.002,3948.1808,S,07036.6530,W,1,08,1.1,956.0,M,22.8,M,,0000*58
$GPGSA,M,3,21,30,29,31,16,25,18,06,,,,,2.1,1.1,1.8*32
$GPRMC,161606.002,A,3948.1808,S,07036.6530,W,0.33,358.18,120511,,,A*61
$GPGGA,161606.998,3948.1809,S,07036.6531,W,1,08,1.1,955.8,M,22.8,M,,0000*59
$GPGSA,M,3,21,30,29,31,16,25,18,06,,,,,2.1,1.1,1.8*32
$GPRMC,161606.998,A,3948.1809,S,07036.6531,W,0.16,242.56,120511,,,A*6C
$GPGGA,161608.008,3948.1811,S,07036.6528,W,1,08,1.1,955.9,M,22.8,M,,0000*57
$GPGSA,M,3,21,30,29,31,16,25,18,06,,,,,2.1,1.1,1.8*32
$GPRMC,161608.008,A,3948.1811,S,07036.6528,W,0.35,350.22,120511,,,A*63
$GPGGA,161608.991,3948.1808,S,07036.6528,W,1,08,1.1,955.7,M,22.8,M,,0000*58
$GPGSA,M,3,21,30,29,31,16,25,18,06,,,,,2.1,1.1,1.8*32
$GPRMC,161608.991,A,3948.1808,S,07036.6528,W,0.88,338.10,120511,,,A*6B
$GPGGA,161610.005,3948.1807,S,07036.6530,W,1,08,1.1,956.3,M,22.8,M,,0000*54
$GPGSA,M,3,21,30,29,31,16,25,18,06,,,,,2.1,1.1,1.8*32
$GPGSV,3,1,10,21,84,350,39,30,54,233,38,29,41,109,39,31,29,310,40*71
$GPGSV,3,2,10,16,29,225,38,25,29,037,40,18,20,018,38,06,17,256,42*79
$GPGSV,3,3,10,05,11,140,,03,06,256,29*77
$GPRMC,161610.005,A,3948.1807,S,07036.6530,W,0.35,338.04,120511,,,A*63
$GPGGA,161610.996,3948.1807,S,07036.6531,W,1,08,1.1,956.8,M,22.8,M,,0000*5D
$GPGSA,M,3,21,30,29,31,16,25,18,06,,,,,2.1,1.1,1.8*32
$GPRMC,161610.996,A,3948.1807,S,07036.6531,W,0.66,324.25,120511,,,A*69
$GPGGA,161612.006,3948.1808,S,07036.6528,W,1,08,1.1,956.6,M,22.8,M,,0000*56
$GPGSA,M,3,21,30,29,31,16,25,18,06,,,,,2.1,1.1,1.8*32
$GPRMC,161612.006,A,3948.1808,S,07036.6528,W,0.67,328.14,120511,,,A*63
$GPGGA,161612.991,3948.1808,S,07036.6530,W,1,08,1.1,956.6,M,22.8,M,,0000*58
$GPGSA,M,3,21,30,29,31,16,25,18,06,,,,,2.1,1.1,1.8*32
$GPRMC,161612.991,A,3948.1808,S,07036.6530,W,0.14,245.01,120511,,,A*67
$GPGGA,161614.003,3948.1809,S,07036.6529,W,1,08,1.1,956.4,M,22.8,M,,0000*57
$GPGSA,M,3,21,30,29,31,16,25,18,06,,,,,2.1,1.1,1.8*32
$GPRMC,161614.003,A,3948.1809,S,07036.6529,W,0.08,178.36,120511,,,A*6E
$GPGGA,161615.001,3948.1811,S,07036.6528,W,1,08,1.1,955.9,M,22.8,M,,0000*52
$GPGSA,M,3,21,30,29,31,16,25,18,06,,,,,2.1,1.1,1.8*32
$GPGSV,3,1,10,21,84,350,40,30,54,233,40,29,41,109,37,31,29,310,40*7E
$GPGSV,3,2,10,16,29,225,39,25,29,037,39,18,20,018,39,06,17,256,40*75
$GPGSV,3,3,10,05,11,140,,03,06,256,29*77
$GPRMC,161615.001,A,3948.1811,S,07036.6528,W,0.40,88.94,120511,,,A*5F
$GPGGA,161616.006,3948.1810,S,07036.6528,W,1,08,1.1,955.6,M,22.8,M,,0000*58
$GPGSA,M,3,21,30,29,31,16,25,18,06,,,,,2.1,1.1,1.8*32
$GPRMC,161616.006,A,3948.1810,S,07036.6528,W,0.37,304.31,120511,,,A*62
$GPGGA,161617.000,3948.1810,S,07036.6529,W,1,08,1.1,955.0,M,22.8,M,,0000*58
$GPGSA,M,3,21,30,29,31,16,25,18,06,,,,,2.1,1.1,1.8*32
$GPRMC,161617.000,A,3948.1810,S,07036.6529,W,0.49,303.68,120511,,,A*66
$GPGGA,161618.004,3948.1809,S,07036.6530,W,1,08,1.1,955.1,M,22.8,M,,0000*52
$GPGSA,M,3,21,30,29,31,16,25,18,06,,,,,2.1,1.1,1.8*32
$GPRMC,161618.004,A,3948.1809,S,07036.6530,W,0.40,315.92,120511,,,A*66
$GPGGA,161618.992,3948.1813,S,07036.6528,W,1,08,1.1,954.6,M,22.8,M,,0000*50
$GPGSA,M,3,21,30,29,31,16,25,18,06,,,,,2.1,1.1,1.8*32
$GPRMC,161618.992,A,3948.1813,S,07036.6528,W,0.62,118.08,120511,,,A*6E
$GPGGA,161619.996,3948.1813,S,07036.6528,W,1,08,1.1,954.9,M,22.8,M,,0000*5A
$GPGSA,M,3,21,30,29,31,16,25,18,06,,,,,2.1,1.1,1.8*32
$GPGSV,3,1,10,21,84,350,40,30,54,233,40,29,41,109,38,31,29,310,40*71
$GPGSV,3,2,10,16,29,225,40,25,29,037,39,18,20,018,41,06,17,256,39*7A
$GPGSV,3,3,10,05,11,140,28,03,06,256,28*7C
$GPRMC,161619.996,A,3948.1813,S,07036.6528,W,0.15,171.32,120511,,,A*6D
$GPGGA,161621.005,3948.1812,S,07036.6528,W,1,08,1.1,954.9,M,22.8,M,,0000*53
$GPGSA,M,3,21,30,29,31,16,25,18,06,,,,,2.1,1.1,1.8*32
$GPRMC,161621.005,A,3948.1812,S,07036.6528,W,0.39,268.71,120511,,,A*66
$GPGGA,161621.996,3948.1813,S,07036.6529,W,1,08,1.1,954.9,M,22.8,M,,0000*50
$GPGSA,M,3,21,30,29,31,16,25,18,06,,,,,2.1,1.1,1.8*32
$GPRMC,161621.996,A,3948.1813,S,07036.6529,W,0.38,284.23,120511,,,A*61
$GPGGA,161623.008,3948.1812,S,07036.6529,W,1,08,1.1,955.1,M,22.8,M,,0000*54
$GPGSA,M,3,21,30,29,31,16,25,18,06,,,,,2.1,1.1,1.8*32
$GPRMC,161623.008,A,3948.1812,S,07036.6529,W,1.07,16.33,120511,,,A*59
$GPGGA,161623.993,3948.1811,S,07036.6529,W,1,08,1.1,955.7,M,22.8,M,,0000*5A
$GPGSA,M,3,21,30,29,31,16,25,18,06,,,,,2.1,1.1,1.8*32
$GPRMC,161623.993,A,3948.1811,S,07036.6529,W,0.47,309.26,120511,,,A*6D
$GPGGA,161625.002,3948.1812,S,07036.6527,W,1,08,1.1,955.1,M,22.8,M,,0000*56
$GPGSA,M,3,21,30,29,31,16,25,18,06,,,,,2.1,1.1,1.8*32
$GPGSV,3,1,10,21,84,350,41,30,54,233,39,29,41,109,38,31,29,310,40*7E
$GPGSV,3,2,10,16,29,225,38,25,29,037,37,18,20,018,38,06,17,256,40*7B
$GPGSV,3,3,10,05,11,140,,03,06,256,26*78
$GPRMC,161625.002,A,3948.1812,S,07036.6527,W,0.44,271.33,120511,,,A*6E
$GPGGA,161626.002,3948.1812,S,07036.6529,W,1,08,1.1,955.1,M,22.8,M,,0000*5B
$GPGSA,M,3,21,30,29,31,16,25,18,06,,,,,2.1,1.1,1.8*32
$GPRMC,161626.002,A,3948.1812,S,07036.6529,W,0.34,256.23,120511,,,A*60
$GPGGA,161627.005,3948.1811,S,07036.6532,W,1,08,1.1,956.2,M,22.8,M,,0000*54
$GPGSA,M,3,21,30,29,31,16,25,18,06,,,,,2.1,1.1,1.8*32
$GPRMC,161627.005,A,3948.1811,S,07036.6532,W,1.12,271.60,120511,,,A*68
$GPGGA,161627.990,3948.1814,S,07036.6530,W,1,08,1.1,955.6,M,22.8,M,,0000*51
$GPGSA,M,3,21,30,29,31,16,25,18,06,,,,,2.1,1.1,1.8*32
$GPRMC,161627.990,A,3948.1814,S,07036.6530,W,0.19,96.14,120511,,,A*58
$GPGGA,161629.003,3948.1816,S,07036.6527,W,1,08,1.1,955.2,M,22.8,M,,0000*5C
$GPGSA,M,3,21,30,29,31,16,25,18,06,,,,,2.1,1.1,1.8*32
$GPRMC,161629.003,A,3948.1816,S,07036.6527,W,0.25,226.68,120511,,,A*6C
$GPGGA,161630.001,3948.1815,S,07036.6530,W,1,08,1.1,955.7,M,22.8,M,,0000*56
$GPGSA,M,3,21,30,29,31,16,25,18,06,,,,,2.1,1.1,1.8*32
$GPGSV,3,1,10,21,84,350,40,30,54,233,39,29,41,109,39,31,29,310,40*7E
$GPGSV,3,2,10,16,29,225,40,25,29,037,38,18,20,018,39,06,17,256,40*7A
$GPGSV,3,3,10,05,11,140,,03,06,256,30*7F
$GPRMC,161630.001,A,3948.1815,S,07036.6530,W,0.28,335.79,120511,,,A*6D
$GPGGA,161630.997,3948.1816,S,07036.6529,W,1,07,1.3,955.3,M,22.8,M,,0000*52
$GPGSA,M,3,21,30,29,16,25,18,06,,,,,,2.3,1.3,1.8*30
$GPRMC,161630.997,A,3948.1816,S,07036.6529,W,0.22,223.10,120511,,,A*63
$GPGGA,161632.027,3948.1816,S,07036.6529,W,0,00,,955.5,M,22.8,M,,0000*7E
$GPGSA,M,1,,,,,,,,,,,,,,,*12
$GPRMC,161632.027,V,3948.1816,S,07036.6529,W,,,120511,,,N*79
$GPGGA,161632.718,3948.1817,S,07036.6530,W,0,00,,955.5,M,22.8,M,,0000*7C
$GPGSA,M,1,,,,,,,,,,,,,,,*12
$GPRMC,161632.718,V,3948.1817,S,07036.6530,W,,,120511,,,N*7B
$GPGGA,161633.000,3948.1817,S,07036.6530,W,0,00,,955.5,M,22.8,M,,0000*73
$GPGSA,M,1,,,,,,,,,,,,,,,*12
$GPRMC,161633.000,V,3948.1817,S,07036.6530,W,,,120511,,,N*74
$GPGGA,161634.000,3948.1817,S,07036.6531,W,0,00,,955.6,M,22.8,M,,0000*76
$GPGSA,M,1,,,,,,,,,,,,,,,*12
$GPRMC,161634.000,V,3948.1817,S,07036.6531,W,,,120511,,,N*72
$GPGGA,161635.000,3948.1819,S,07036.6530,W,1,05,2.0,955.7,M,22.8,M,,0000*51
$GPGSA,M,3,18,21,29,31,25,,,,,,,,3.7,2.0,3.1*3E
$GPRMC,161635.000,A,3948.1819,S,07036.6530,W,0.16,303.84,120511,,,A*6F
$GPGGA,161636.000,3948.1829,S,07036.6534,W,1,07,1.2,955.6,M,22.8,M,,0000*57
$GPGSA,M,3,18,21,29,31,25,16,30,,,,,,2.4,1.2,2.1*38
$GPRMC,161636.000,A,3948.1829,S,07036.6534,W,0.42,4.07,120511,,,A*65
$GPGGA,161637.000,3948.1832,S,07036.6532,W,1,07,1.2,955.5,M,22.8,M,,0000*59
$GPGSA,M,3,18,21,29,31,25,16,30,,,,,,2.4,1.2,2.1*38
$GPRMC,161637.000,A,3948.1832,S,07036.6532,W,0.08,3.86,120511,,,A*68
$GPGGA,161638.000,3948.1831,S,07036.6530,W,1,07,1.2,955.4,M,22.8,M,,0000*56
$GPGSA,M,3,18,21,29,31,25,16,30,,,,,,2.4,1.2,2.1*38
$GPRMC,161638.000,A,3948.1831,S,07036.6530,W,0.07,355.82,120511,,,A*6D
$GPGGA,161639.000,3948.1827,S,07036.6529,W,1,08,1.1,955.8,M,22.8,M,,0000*58
$GPGSA,M,3,18,21,29,31,25,16,06,30,,,,,2.1,1.1,1.8*32
$GPRMC,161639.000,A,3948.1827,S,07036.6529,W,0.09,27.35,120511,,,A*57
$GPGGA,161640.000,3948.1825,S,07036.6529,W,1,08,1.1,956.2,M,22.8,M,,0000*5D
$GPGSA,M,3,18,21,29,31,25,16,06,30,,,,,2.1,1.1,1.8*32
$GPRMC,161640.000,A,3948.1825,S,07036.6529,W,0.07,16.27,120511,,,A*54
$GPGGA,161641.000,3948.1824,S,07036.6528,W,1,08,1.1,955.7,M,22.8,M,,0000*5A
$GPGSA,M,3,18,21,29,31,25,16,06,30,,,,,2.1,1.1,1.8*32
$GPRMC,161641.000,A,3948.1824,S,07036.6528,W,0.08,11.34,120511,,,A*5F
$GPGGA,161642.000,3948.1823,S,07036.6527,W,1,08,1.1,955.6,M,22.8,M,,0000*50
$GPGSA,M,3,18,21,29,31,25,16,06,30,,,,,2.1,1.1,1.8*32
$GPRMC,161642.000,A,3948.1823,S,07036.6527,W,0.07,15.67,120511,,,A*59
$GPGGA,161643.000,3948.1823,S,07036.6526,W,1,08,1.1,955.6,M,22.8,M,,0000*50
$GPGSA,M,3,18,21,29,31,25,16,06,30,,,,,2.1,1.1,1.8*32
$GPRMC,161643.000,A,3948.1823,S,07036.6526,W,0.08,12.68,120511,,,A*5E
$GPGGA,161644.000,3948.1823,S,07036.6525,W,1,08,1.1,956.0,M,22.8,M,,0000*51
$GPGSA,M,3,18,21,29,31,25,16,06,30,,,,,2.1,1.1,1.8*32
$GPGSV,3,1,11,21,85,353,45,30,54,233,46,29,40,108,41,16,29,225,44*79
$GPGSV,3,2,11,31,28,310,45,25,28,037,42,18,20,019,44,06,17,255,46*7F
$GPGSV,3,3,11,05,10,141,,03,06,255,29,22,00,355,*46
$GPRMC,161644.000,A,3948.1823,S,07036.6525,W,0.07,14.12,120511,,,A*5E
$GPGGA,161645.000,3948.1822,S,07036.6524,W,1,08,1.1,956.2,M,22.8,M,,0000*52
$GPGSA,M,3,18,21,29,31,25,16,06,30,,,,,2.1,1.1,1.8*32
$GPRMC,161645.000,A,3948.1822,S,07036.6524,W,0.08,18.56,120511,,,A*5C
$GPGGA,161646.014,3948.1824,S,07036.6523,W,1,08,1.1,956.1,M,22.8,M,,0000*56
$GPGSA,M,3,21,30,29,16,31,25,18,06,,,,,2.1,1.1,1.8*32
$GPRMC,161646.014,A,3948.1824,S,07036.6523,W,0.30,150.36,120511,,,A*6B
$GPGGA,161646.992,3948.1824,S,07036.6524,W,1,08,1.1,955.9,M,22.8,M,,0000*5D
$GPGSA,M,3,21,30,29,16,31,25,18,06,,,,,2.1,1.1,1.8*32
$GPRMC,161646.992,A,3948.1824,S,07036.6524,W,0.38,342.80,120511,,,A*6F
$GPGGA,161648.002,3948.1823,S,07036.6523,W,1,08,1.1,956.4,M,22.8,M,,0000*5D
$GPGSA,M,3,21,30,29,16,31,25,18,06,,,,,2.1,1.1,1.8*32
$GPRMC,161648.002,A,3948.1823,S,07036.6523,W,0.26,347.89,120511,,,A*62
$GPGGA,161649.000,3948.1821,S,07036.6523,W,1,08,1.1,956.4,M,22.8,M,,0000*5C
$GPGSA,M,3,21,30,29,16,31,25,18,06,,,,,2.1,1.1,1.8*32
$GPRMC,161649.000,A,3948.1821,S,07036.6523,W,0.57,356.83,120511,,,A*6F
$GPGGA,161650.001,3948.1819,S,07036.6524,W,1,08,1.1,956.9,M,22.8,M,,0000*54
$GPGSA,M,3,21,30,29,16,31,25,18,06,,,,,2.1,1.1,1.8*32
$GPGSV,3,1,11,21,85,353,40,30,54,233,40,29,40,108,40,16,29,225,40*7F
$GPGSV,3,2,11,31,28,310,40,25,28,037,39,18,20,019,39,06,17,255,40*7A
$GPGSV,3,3,11,05,10,141,29,03,06,255,30,22,00,355,*45
$GPRMC,161650.001,A,3948.1819,S,07036.6524,W,0.03,84.88,120511,,,A*5C
$GPGGA,161651.000,3948.1820,S,07036.6524,W,1,08,1.1,956.9,M,22.8,M,,0000*5E
$GPGSA,M,3,21,30,29,16,31,25,18,06,,,,,2.1,1.1,1.8*32
$GPRMC,161651.000,A,3948.1820,S,07036.6524,W,0.52,304.80,120511,,,A*61
$GPGGA,161651.999,3948.1819,S,07036.6524,W,1,08,1.1,956.7,M,22.8,M,,0000*53
$GPGSA,M,3,21,30,29,16,31,25,18,06,,,,,2.1,1.1,1.8*32
$GPRMC,161651.999,A,3948.1819,S,07036.6524,W,0.20,84.97,120511,,,A*5A
$GPGGA,161652.998,3948.1820,S,07036.6522,W,1,08,1.1,956.2,M,22.8,M,,0000*58
$GPGSA,M,3,21,30,29,16,31,25,18,06,,,,,2.1,1.1,1.8*32
$GPRMC,161652.998,A,3948.1820,S,07036.6522,W,0.25,135.69,120511,,,A*6B
$GPGGA,161653.999,3948.1823,S,07036.6521,W,1,08,1.1,956.1,M,22.8,M,,0000*5B
$GPGSA,M,3,21,30,29,16,31,25,18,06,,,,,2.1,1.1,1.8*32
$GPRMC,161653.999,A,3948.1823,S,07036.6521,W,2.16,170.61,120511,,,A*60
$GPGGA,161654.996,3948.1824,S,07036.6522,W,1,08,1.1,955.9,M,22.8,M,,0000*5C
$GPGSA,M,3,21,30,29,16,31,25,18,06,,,,,2.1,1.1,1.8*32
$GPGSV,3,1,11,21,85,353,41,30,54,233,40,29,40,108,41,16,29,225,39*71
$GPGSV,3,2,11,31,28,310,41,25,28,037,38,18,20,019,36,06,17,255,41*74
$GPGSV,3,3,11,05,10,141,34,03,06,255,,22,00,355,*4A
$GPRMC,161654.996,A,3948.1824,S,07036.6522,W,0.18,352.34,120511,,,A*62
$GPGGA,161656.006,3948.1823,S,07036.6524,W,1,08,1.1,956.2,M,22.8,M,,0000*57
$GPGSA,M,3,21,30,29,16,31,25,18,06,,,,,2.1,1.1,1.8*32
$GPRMC,161656.006,A,3948.1823,S,07036.6524,W,0.28,316.65,120511,,,A*66
$GPGGA,161657.000,3948.1823,S,07036.6523,W,1,08,1.1,956.2,M,22.8,M,,0000*57
$GPGSA,M,3,21,30,29,16,31,25,18,06,,,,,2.1,1.1,1.8*32
$GPRMC,161657.000,A,3948.1823,S,07036.6523,W,0.37,108.56,120511,,,A*65
$GPGGA,161658.008,3948.1824,S,07036.6521,W,1,08,1.1,955.9,M,22.8,M,,0000*5D
$GPGSA,M,3,21,30,29,16,31,25,18,06,,,,,2.1,1.1,1.8*32
$GPRMC,161658.008,A,3948.1824,S,07036.6521,W,0.03,296.33,120511,,,A*67
$GPGGA,161658.993,3948.1825,S,07036.6521,W,1,08,1.1,955.7,M,22.8,M,,0000*59
$GPGSA,M,3,21,30,29,16,31,25,18,06,,,,,2.1,1.1,1.8*32
$GPRMC,161658.993,A,3948.1825,S,07036.6521,W,0.25,8.80,120511,,,A*64
$GPGGA,161659.999,3948.1823,S,07036.6522,W,1,08,1.1,955.3,M,22.8,M,,0000*53
$GPGSA,M,3,21,30,29,16,31,25,18,06,,,,,2.1,1.1,1.8*32
$GPGSV,3,1,11,21,85,353,37,30,54,233,38,29,40,108,38,16,29,225,37*7F
$GPGSV,3,2,11,31,28,310,39,25,28,037,38,18,20,019,30,06,17,255,39*72
$GPGSV,3,3,11,05,10,141,,03,06,255,29,22,00,355,*46
$GPRMC,161659.999,A,3948.1823,S,07036.6522,W,0.55,343.78,120511,,,A*66
$GPGGA,161701.001,3948.1822,S,07036.6522,W,1,08,1.1,955.2,M,22.8,M,,0000*57
$GPGSA,M,3,21,30,29,16,31,25,18,06,,,,,2.1,1.1,1.8*32
$GPRMC,161701.001,A,3948.1822,S,07036.6522,W,0.25,330.31,120511,,,A*6D
$GPGGA,161702.000,3948.1821,S,07036.6522,W,1,07,1.2,954.9,M,22.8,M,,0000*50
$GPGSA,M,3,21,30,29,16,31,25,06,,,,,,2.2,1.2,1.9*3A
$GPRMC,161702.000,A,3948.1821,S,07036.6522,W,0.42,340.64,120511,,,A*6A
$GPGGA,161703.000,3948.1821,S,07036.6520,W,1,07,1.2,954.5,M,22.8,M,,0000*5F
$GPGSA,M,3,21,30,29,31,25,18,06,,,,,,2.2,1.2,1.9*34
$GPRMC,161703.000,A,3948.1821,S,07036.6520,W,0.44,153.69,120511,,,A*62
$GPGGA,161704.000,3948.1821,S,07036.6519,W,1,08,1.1,954.1,M,22.8,M,,0000*5A
$GPGSA,M,3,21,30,29,16,31,25,18,06,,,,,2.1,1.1,1.8*32
$GPRMC,161704.000,A,3948.1821,S,07036.6519,W,0.62,6.03,120511,,,A*66
$GPGGA,161704.998,3948.1820,S,07036.6519,W,1,08,1.1,953.3,M,22.8,M,,0000*56
$GPGSA,M,3,21,30,29,16,31,25,18,06,,,,,2.1,1.1,1.8*32
$GPGSV,3,1,11,21,85,353,40,30,54,233,39,29,40,108,40,16,29,225,40*71
$GPGSV,3,2,11,31,28,310,40,25,28,037,40,18,20,019,31,06,17,255,40*7C
$GPGSV,3,3,11,05,10,141,30,03,06,255,36,22,00,355,27*4E
$GPRMC,161704.998,A,3948.1820,S,07036.6519,W,0.69,172.38,120511,,,A*6E
$GPGGA,161705.998,3948.1819,S,07036.6517,W,1,08,1.1,952.6,M,22.8,M,,0000*57
$GPGSA,M,3,21,30,29,16,31,25,18,06,,,,,2.1,1.1,1.8*32
$GPRMC,161705.998,A,3948.1819,S,07036.6517,W,0.48,8.96,120511,,,A*60
$GPGGA,161707.001,3948.1818,S,07036.6516,W,1,08,1.1,952.0,M,22.8,M,,0000*5A
$GPGSA,M,3,21,30,29,16,31,25,18,06,,,,,2.1,1.1,1.8*32
$GPRMC,161707.001,A,3948.1818,S,07036.6516,W,0.34,119.10,120511,,,A*6F
$GPGGA,161708.003,3948.1819,S,07036.6515,W,1,08,1.1,951.3,M,22.8,M,,0000*55
$GPGSA,M,3,21,30,29,16,31,25,18,06,,,,,2.1,1.1,1.8*32
$GPRMC,161708.003,A,3948.1819,S,07036.6515,W,0.15,104.60,120511,,,A*68
$GPGGA,161709.000,3948.1819,S,07036.6514,W,1,08,1.1,950.6,M,22.8,M,,0000*52
$GPGSA,M,3,21,30,29,16,31,25,18,06,,,,,2.1,1.1,1.8*32
$GPRMC,161709.000,A,3948.1819,S,07036.6514,W,0.27,43.46,120511,,,A*5C
$GPGGA,161709.992,3948.1818,S,07036.6511,W,1,08,1.1,950.1,M,22.8,M,,0000*53
$GPGSA,M,3,21,30,29,16,31,25,18,06,,,,,2.1,1.1,1.8*32
$GPGSV,3,1,11,21,85,353,40,30,54,233,40,29,40,108,40,16,29,225,40*7F
$GPGSV,3,2,11,31,28,310,41,25,28,037,40,18,20,019,39,06,17,255,41*74
$GPGSV,3,3,11,05,10,141,29,03,06,255,33,22,00,355,*46
$GPRMC,161709.992,A,3948.1818,S,07036.6511,W,1.93,63.77,120511,,,A*54
$GPGGA,161711.008,3948.1817,S,07036.6506,W,1,08,1.1,949.7,M,22.8,M,,0000*57
$GPGSA,M,3,21,30,29,16,31,25,18,06,,,,,2.1,1.1,1.8*32
$GPRMC,161711.008,A,3948.1817,S,07036.6506,W,0.39,34.03,120511,,,A*5E
$GPGGA,161711.998,3948.1817,S,07036.6505,W,1,08,1.1,949.4,M,22.8,M,,0000*57
$GPGSA,M,3,21,30,29,16,31,25,18,06,,,,,2.1,1.1,1.8*32
$GPRMC,161711.998,A,3948.1817,S,07036.6505,W,0.18,161.10,120511,,,A*6D
$GPGGA,161713.006,3948.1816,S,07036.6504,W,1,08,1.1,949.6,M,22.8,M,,0000*59
$GPGSA,M,3,21,30,29,16,31,25,18,06,,,,,2.1,1.1,1.8*32
$GPRMC,161713.006,A,3948.1816,S,07036.6504,W,0.81,20.53,120511,,,A*52
$GPGGA,161713.990,3948.1815,S,07036.6503,W,1,08,1.1,949.1,M,22.8,M,,0000*5C
$GPGSA,M,3,21,30,29,16,31,25,18,06,,,,,2.1,1.1,1.8*32
$GPRMC,161713.990,A,3948.1815,S,07036.6503,W,0.36,330.73,120511,,,A*6C
$GPGGA,161715.003,3948.1815,S,07036.6505,W,1,08,1.1,949.6,M,22.8,M,,0000*58
$GPGSA,M,3,21,30,29,16,31,25,18,06,,,,,2.1,1.1,1.8*32
$GPGSV,3,1,11,21,85,353,40,30,54,233,38,29,40,108,39,16,29,225,39*70
$GPGSV,3,2,11,31,28,310,41,25,28,037,39,18,20,019,38,06,17,255,41*7B
$GPGSV,3,3,11,05,10,141,,03,06,255,31,22,00,355,*4F
$GPRMC,161715.003,A,3948.1815,S,07036.6505,W,0.14,136.15,120511,,,A*6B
$GPGGA,161716.002,3948.1815,S,07036.6504,W,1,08,1.1,948.8,M,22.8,M,,0000*54
$GPGSA,M,3,21,30,29,16,31,25,18,06,,,,,2.1,1.1,1.8*32
$GPRMC,161716.002,A,3948.1815,S,07036.6504,W,0.09,27.30,120511,,,A*52
$GPGGA,161717.002,3948.1815,S,07036.6505,W,1,08,1.1,948.6,M,22.8,M,,0000*5A
$GPGSA,M,3,21,30,29,16,31,25,18,06,,,,,2.1,1.1,1.8*32
$GPRMC,161717.002,A,3948.1815,S,07036.6505,W,1.53,178.32,120511,,,A*65
$GPGGA,161717.993,3948.1818,S,07036.6504,W,1,08,1.1,948.6,M,22.8,M,,0000*57
$GPGSA,M,3,21,30,29,16,31,25,18,06,,,,,2.1,1.1,1.8*32
$GPRMC,161717.993,A,3948.1818,S,07036.6504,W,0.87,160.21,120511,,,A*6B
$GPGGA,161719.003,3948.1819,S,07036.6506,W,1,08,1.1,949.1,M,22.8,M,,0000*5C
$GPGSA,M,3,21,30,29,16,31,25,18,06,,,,,2.1,1.1,1.8*32
$GPRMC,161719.003,A,3948.1819,S,07036.6506,W,0.13,191.61,120511,,,A*61
$GPGGA,161720.001,3948.1818,S,07036.6505,W,1,08,1.1,948.8,M,22.8,M,,0000*5E
$GPGSA,M,3,21,30,29,16,31,25,18,06,,,,,2.1,1.1,1.8*32
$GPGSV,3,1,11,21,85,353,40,30,54,233,39,29,40,108,39,16,29,225,39*71
$GPGSV,3,2,11,31,28,310,39,25,28,037,40,18,20,019,37,06,17,255,40*74
$GPGSV,3,3,11,05,10,141,,03,06,255,33,22,00,355,*4D
$GPRMC,161720.001,A,3948.1818,S,07036.6505,W,0.29,317.11,120511,,,A*69
$GPGGA,161721.007,3948.1821,S,07036.6506,W,1,08,1.1,948.4,M,22.8,M,,0000*5C
$GPGSA,M,3,21,30,29,16,31,25,18,06,,,,,2.1,1.1,1.8*32
$GPRMC,161721.007,A,3948.1821,S,07036.6506,W,0.54,317.52,120511,,,A*6A
$GPGGA,161721.992,3948.1818,S,07036.6507,W,1,08,1.1,948.1,M,22.8,M,,0000*57
$GPGSA,M,3,21,30,29,16,31,25,18,06,,,,,2.1,1.1,1.8*32
$GPRMC,161721.992,A,3948.1818,S,07036.6507,W,1.05,21.42,120511,,,A*56
$GPGGA,161723.005,3948.1816,S,07036.6507,W,1,08,1.1,947.9,M,22.8,M,,0000*5B
$GPGSA,M,3,21,30,29,16,31,25,18,06,,,,,2.1,1.1,1.8*32
$GPRMC,161723.005,A,3948.1816,S,07036.6507,W,0.66,25.43,120511,,,A*5C
$GPGGA,161724.001,3948.1815,S,07036.6508,W,1,08,1.1,947.8,M,22.8,M,,0000*55
$GPGSA,M,3,21,30,29,16,31,25,18,06,,,,,2.1,1.1,1.8*32
$GPRMC,161724.001,A,3948.1815,S,07036.6508,W,0.16,306.26,120511,,,A*65
$GPGGA,161724.995,3948.1817,S,07036.6509,W,1,08,1.1,947.5,M,22.8,M,,0000*5F
$GPGSA,M,3,21,30,29,16,31,25,18,06,,,,,2.1,1.1,1.8*32
$GPGSV,3,1,11,21,85,353,39,30,54,233,38,29,40,108,38,16,29,225,37*71
$GPGSV,3,2,11,31,28,310,40,25,28,037,39,18,20,019,37,06,17,255,41*75
$GPGSV,3,3,11,05,10,141,27,03,06,255,30,22,00,355,*4B
$GPRMC,161724.995,A,3948.1817,S,07036.6509,W,0.32,286.86,120511,,,A*67
$GPGGA,161726.003,3948.1819,S,07036.6508,W,1,08,1.1,947.2,M,22.8,M,,0000*53
$GPGSA,M,3,21,30,29,16,31,25,18,06,,,,,2.1,1.1,1.8*32
$GPRMC,161726.003,A,3948.1819,S,07036.6508,W,1.07,170.49,120511,,,A*62
$GPGGA,161727.002,3948.1823,S,07036.6506,W,1,08,1.1,946.4,M,22.8,M,,0000*53
$GPGSA,M,3,21,30,29,16,31,25,18,06,,,,,2.1,1.1,1.8*32
$GPRMC,161727.002,A,3948.1823,S,07036.6506,W,0.47,125.31,120511,,,A*6F
$GPGGA,161728.001,3948.1823,S,07036.6505,W,1,08,1.1,945.9,M,22.8,M,,0000*52
$GPGSA,M,3,21,30,29,16,31,25,18,06,,,,,2.1,1.1,1.8*32
$GPRMC,161728.001,A,3948.1823,S,07036.6505,W,0.13,74.76,120511,,,A*57
$GPGGA,161728.995,3948.1823,S,07036.6503,W,1,08,1.1,946.1,M,22.8,M,,0000*5B
$GPGSA,M,3,21,30,29,16,31,25,18,06,,,,,2.1,1.1,1.8*32
$GPRMC,161728.995,A,3948.1823,S,07036.6503,W,0.39,177.85,120511,,,A*63
$GPGGA,161730.005,3948.1821,S,07036.6505,W,1,08,1.1,946.3,M,22.8,M,,0000*54
$GPGSA,M,3,21,30,29,16,31,25,18,06,,,,,2.1,1.1,1.8*32
$GPGSV,3,1,11,21,85,353,40,30,54,233,38,29,40,108,39,16,29,225,39*70
$GPGSV,3,2,11,31,28,310,41,25,28,037,40,18,20,019,39,06,17,255,42*77
$GPGSV,3,3,11,05,10,141,29,03,06,255,31,22,00,355,24*42
$GPRMC,161730.005,A,3948.1821,S,07036.6505,W,0.47,311.13,120511,,,A*6A
$GPGGA,161730.990,3948.1821,S,07036.6506,W,1,08,1.1,946.4,M,22.8,M,,0000*55
$GPGSA,M,3,21,30,29,16,31,25,18,06,,,,,2.1,1.1,1.8*32
$GPRMC,161730.990,A,3948.1821,S,07036.6506,W,0.06,234.49,120511,,,A*60
$GPGGA,161732.008,3948.1821,S,07036.6507,W,1,08,1.1,945.8,M,22.8,M,,0000*51
$GPGSA,M,3,21,30,29,16,31,25,18,06,,,,,2.1,1.1,1.8*32
$GPRMC,161732.008,A,3948.1821,S,07036.6507,W,0.61,277.84,120511,,,A*6C
$GPGGA,161732.997,3948.1821,S,07036.6508,W,1,08,1.1,945.8,M,22.8,M,,0000*51
$GPGSA,M,3,21,30,29,16,31,25,18,06,,,,,2.1,1.1,1.8*32
$GPRMC,161732.997,A,3948.1821,S,07036.6508,W,0.36,68.59,120511,,,A*52
$GPGGA,161734.003,3948.1821,S,07036.6505,W,1,08,1.1,945.9,M,22.8,M,,0000*5F
$GPGSA,M,3,21,30,29,16,31,25,18,06,,,,,2.1,1.1,1.8*32
$GPRMC,161734.003,A,3948.1821,S,07036.6505,W,0.50,301.94,120511,,,A*60
$GPGGA,161735.001,3948.1821,S,07036.6505,W,1,08,1.1,945.7,M,22.8,M,,0000*52
$GPGSA,M,3,21,30,29,16,31,25,18,06,,,,,2.1,1.1,1.8*32
$GPGSV,3,1,11,21,85,353,39,30,54,233,39,29,40,108,38,16,29,225,40*70
$GPGSV,3,2,11,31,28,310,41,25,28,037,32,18,20,019,29,06,17,255,40*71
$GPGSV,3,3,11,05,10,141,32,03,06,255,35,22,00,355,*4A
$GPRMC,161735.001,A,3948.1821,S,07036.6505,W,0.29,207.12,120511,,,A*64
$GPGGA,161735.997,3948.1821,S,07036.6505,W,1,07,1.2,946.2,M,22.8,M,,0000*5E
$GPGSA,M,3,21,30,29,16,31,25,06,,,,,,2.2,1.2,1.9*3A
$GPRMC,161735.997,A,3948.1821,S,07036.6505,W,0.34,272.33,120511,,,A*6F
$GPGGA,161737.000,3948.1824,S,07036.6503,W,1,07,1.2,945.5,M,22.8,M,,0000*5C
$GPGSA,M,3,21,30,29,16,31,25,06,,,,,,2.2,1.2,1.9*3A
$GPRMC,161737.000,A,3948.1824,S,07036.6503,W,0.45,353.03,120511,,,A*6E
$GPGGA,161738.007,3948.1822,S,07036.6507,W,1,07,1.2,945.7,M,22.8,M,,0000*54
$GPGSA,M,3,21,30,29,16,31,25,06,,,,,,2.2,1.2,1.9*3A
$GPRMC,161738.007,A,3948.1822,S,07036.6507,W,0.16,269.09,120511,,,A*60
$GPGGA,161738.993,3948.1820,S,07036.6507,W,1,08,1.1,946.7,M,22.8,M,,0000*5D
$GPGSA,M,3,21,30,29,16,31,25,18,06,,,,,2.1,1.1,1.8*32
$GPRMC,161738.993,A,3948.1820,S,07036.6507,W,0.37,22.46,120511,,,A*53
$GPGGA,161740.001,3948.1818,S,07036.6507,W,1,07,1.2,947.2,M,22.8,M,,0000*53
$GPGSA,M,3,21,30,29,16,31,25,06,,,,,,2.2,1.2,1.9*3A
$GPGSV,3,1,11,21,85,353,38,30,54,233,40,29,40,108,38,16,29,225,39*71
$GPGSV,3,2,11,31,28,310,39,25,28,037,38,18,20,019,,06,17,255,40*7F
$GPGSV,3,3,11,05,10,141,30,03,06,255,35,22,00,355,*48
$GPRMC,161740.001,A,3948.1818,S,07036.6507,W,0.60,332.84,120511,,,A*6B
$GPGGA,161741.000,3948.1816,S,07036.6506,W,1,08,1.1,947.7,M,22.8,M,,0000*55
$GPGSA,M,3,21,30,29,16,31,25,18,06,,,,,2.1,1.1,1.8*32
$GPRMC,161741.000,A,3948.1816,S,07036.6506,W,0.34,327.43,120511,,,A*6A
$GPGGA,161741.998,3948.1815,S,07036.6508,W,1,08,1.1,948.2,M,22.8,M,,0000*5A
$GPGSA,M,3,21,30,29,16,31,25,18,06,,,,,2.1,1.1,1.8*32
$GPRMC,161741.998,A,3948.1815,S,07036.6508,W,0.19,323.78,120511,,,A*6C
$GPGGA,161743.006,3948.1813,S,07036.6509,W,1,08,1.1,948.6,M,22.8,M,,0000*55
$GPGSA,M,3,21,30,29,16,31,25,18,06,,,,,2.1,1.1,1.8*32
$GPRMC,161743.006,A,3948.1813,S,07036.6509,W,0.89,320.22,120511,,,A*62
$GPGGA,161743.996,3948.1815,S,07036.6508,W,1,08,1.1,948.7,M,22.8,M,,0000*53
$GPGSA,M,3,21,30,29,16,31,25,18,06,,,,,2.1,1.1,1.8*32
$GPRMC,161743.996,A,3948.1815,S,07036.6508,W,0.24,320.44,120511,,,A*62
$GPGGA,161745.000,3948.1816,S,07036.6506,W,1,08,1.1,948.3,M,22.8,M,,0000*5A
$GPGSA,M,3,21,30,29,16,31,25,18,06,,,,,2.1,1.1,1.8*32
$GPGSV,3,1,11,21,85,353,38,30,54,233,40,29,40,108,40,16,29,225,39*7E
$GPGSV,3,2,11,31,28,310,40,25,28,037,38,18,20,019,27,06,17,255,39*7A
$GPGSV,3,3,11,05,10,141,32,03,06,255,36,22,00,355,30*4A
$GPRMC,161745.000,A,3948.1816,S,07036.6506,W,0.36,31.49,120511,,,A*52
$GPGGA,161746.001,3948.1814,S,07036.6505,W,1,08,1.1,948.2,M,22.8,M,,0000*58
$GPGSA,M,3,21,30,29,16,31,25,18,06,,,,,2.1,1.1,1.8*32
$GPRMC,161746.001,A,3948.1814,S,07036.6505,W,1.23,319.68,120511,,,A*6E
$GPGGA,161746.999,3948.1812,S,07036.6507,W,1,07,1.2,948.6,M,22.8,M,,0000*5C
$GPGSA,M,3,21,30,29,16,31,25,06,,,,,,2.2,1.2,1.9*3A
$GPRMC,161746.999,A,3948.1812,S,07036.6507,W,0.00,50.29,120511,,,A*59
$GPGGA,161748.012,3948.1813,S,07036.6506,W,1,07,1.2,948.3,M,22.8,M,,0000*5D
$GPGSA,M,3,21,30,29,16,31,25,06,,,,,,2.2,1.2,1.9*3A
$GPRMC,161748.012,A,3948.1813,S,07036.6506,W,0.30,259.78,120511,,,A*61
$GPGGA,161748.992,3948.1816,S,07036.6505,W,1,07,1.2,947.9,M,22.8,M,,0000*5F
$GPGSA,M,3,21,30,29,16,31,25,06,,,,,,2.2,1.2,1.9*3A
$GPRMC,161748.992,A,3948.1816,S,07036.6505,W,0.66,152.15,120511,,,A*66
$GPGGA,161749.995,3948.1817,S,07036.6507,W,1,07,1.2,948.8,M,22.8,M,,0000*54
$GPGSA,M,3,21,30,29,16,31,25,06,,,,,,2.2,1.2,1.9*3A
$GPGSV,3,1,11,21,85,353,39,30,54,233,40,29,40,108,40,16,29,225,41*70
$GPGSV,3,2,11,31,28,310,40,25,28,037,41,18,20,019,,06,17,255,40*7F
$GPGSV,3,3,11,05,10,141,31,03,06,255,37,22,00,355,29*40
$GPRMC,161749.995,A,3948.1817,S,07036.6507,W,0.47,73.65,120511,,,A*55
$GPGGA,161751.003,3948.1817,S,07036.6506,W,1,07,1.2,948.8,M,22.8,M,,0000*5A
$GPGSA,M,3,21,30,29,16,31,25,06,,,,,,2.2,1.2,1.9*3A
$GPRMC,161751.003,A,3948.1817,S,07036.6506,W,0.27,184.62,120511,,,A*63
$GPGGA,161751.999,3948.1817,S,07036.6508,W,1,08,1.1,949.3,M,22.8,M,,0000*58
$GPGSA,M,3,21,30,29,16,31,25,18,06,,,,,2.1,1.1,1.8*32
$GPRMC,161751.999,A,3948.1817,S,07036.6508,W,0.33,321.89,120511,,,A*6A
$GPGGA,161753.007,3948.1819,S,07036.6506,W,1,08,1.1,948.4,M,22.8,M,,0000*52
$GPGSA,M,3,21,30,29,16,31,25,18,06,,,,,2.1,1.1,1.8*32
$GPRMC,161753.007,A,3948.1819,S,07036.6506,W,0.52,220.72,120511,,,A*65
$GPGGA,161753.989,3948.1817,S,07036.6507,W,1,08,1.1,948.2,M,22.8,M,,0000*54
$GPGSA,M,3,21,30,29,16,31,25,18,06,,,,,2.1,1.1,1.8*32
$GPRMC,161753.989,A,3948.1817,S,07036.6507,W,0.13,56.87,120511,,,A*59
$GPGGA,161755.003,3948.1816,S,07036.6507,W,1,08,1.1,948.3,M,22.8,M,,0000*59
$GPGSA,M,3,21,30,29,16,31,25,18,06,,,,,2.1,1.1,1.8*32
$GPGSV,3,1,11,21,85,353,40,30,54,233,38,29,40,108,38,16,29,225,38*70
$GPGSV,3,2,11,31,28,310,41,25,28,037,32,18,20,019,30,06,17,255,39*77
$GPGSV,3,3,11,05,10,141,31,03,06,255,32,22,00,355,*4E
$GPRMC,161755.003,A,3948.1816,S,07036.6507,W,0.34,137.70,120511,,,A*6E
$GPGGA,161756.001,3948.1817,S,07036.6508,W,1,08,1.1,947.9,M,22.8,M,,0000*53
$GPGSA,M,3,21,30,29,16,31,25,18,06,,,,,2.1,1.1,1.8*32
$GPRMC,161756.001,A,3948.1817,S,07036.6508,W,0.21,261.12,120511,,,A*61
$GPGGA,161757.002,3948.1816,S,07036.6508,W,1,08,1.1,947.4,M,22.8,M,,0000*5D
$GPGSA,M,3,21,30,29,16,31,25,18,06,,,,,2.1,1.1,1.8*32
$GPRMC,161757.002,A,3948.1816,S,07036.6508,W,0.80,322.74,120511,,,A*6F
$GPGGA,161758.000,3948.1816,S,07036.6509,W,1,08,1.1,946.9,M,22.8,M,,0000*5D
$GPGSA,M,3,21,30,29,16,31,25,18,06,,,,,2.1,1.1,1.8*32
$GPRMC,161758.000,A,3948.1816,S,07036.6509,W,0.25,345.67,120511,,,A*6F
$GPGGA,161758.999,3948.1817,S,07036.6509,W,1,08,1.1,946.2,M,22.8,M,,0000*5E
$GPGSA,M,3,21,30,29,16,31,25,18,06,,,,,2.1,1.1,1.8*32
$GPRMC,161758.999,A,3948.1817,S,07036.6509,W,0.06,46.61,120511,,,A*50
$GPGGA,161759.999,3948.1815,S,07036.6509,W,1,08,1.1,945.8,M,22.8,M,,0000*54
$GPGSA,M,3,21,30,29,16,31,25,18,06,,,,,2.1,1.1,1.8*32
$GPGSV,3,1,11,21,85,353,41,30,54,233,38,29,40,108,40,16,29,225,40*71
$GPGSV,3,2,11,31,28,310,40,25,28,037,40,18,20,019,36,06,17,255,40*7B
$GPGSV,3,3,11,05,10,141,31,03,06,255,37,22,00,355,29*40
$GPRMC,161759.999,A,3948.1815,S,07036.6509,W,0.78,357.71,120511,,,A*68
$GPGGA,161800.998,3948.1813,S,07036.6507,W,1,08,1.1,945.4,M,22.8,M,,0000*52
$GPGSA,M,3,21,30,29,16,31,25,18,06,,,,,2.1,1.1,1.8*32
$GPRMC,161800.998,A,3948.1813,S,07036.6507,W,0.09,49.85,120511,,,A*53
$GPGGA,161802.000,3948.1813,S,07036.6506,W,1,08,1.1,945.1,M,22.8,M,,0000*5C
$GPGSA,M,3,21,30,29,16,31,25,18,06,,,,,2.1,1.1,1.8*32
$GPRMC,161802.000,A,3948.1813,S,07036.6506,W,0.29,106.51,120511,,,A*69
$GPGGA,161803.001,3948.1813,S,07036.6505,W,1,08,1.1,945.2,M,22.8,M,,0000*5C
$GPGSA,M,3,21,30,29,16,31,25,18,06,,,,,2.1,1.1,1.8*32
$GPRMC,161803.001,A,3948.1813,S,07036.6505,W,0.30,50.79,120511,,,A*5A
$GPGGA,161804.004,3948.1814,S,07036.6503,W,1,08,1.1,945.1,M,22.8,M,,0000*5C
$GPGSA,M,3,21,30,29,16,31,25,18,06,,,,,2.1,1.1,1.8*32
$GPRMC,161804.004,A,3948.1814,S,07036.6503,W,0.97,110.78,120511,,,A*60
$GPGGA,161804.993,3948.1816,S,07036.6502,W,1,08,1.1,945.0,M,22.8,M,,0000*59
$GPGSA,M,3,21,30,29,16,31,25,18,06,,,,,2.1,1.1,1.8*32
$GPGSV,3,1,11,21,85,357,40,30,55,234,39,29,40,107,40,16,30,225,39*7A
$GPGSV,3,2,11,31,28,311,40,25,27,036,40,18,21,019,35,06,18,255,41*78
$GPGSV,3,3,11,05,10,141,30,03,07,255,37,22,00,355,*4B
$GPRMC,161804.993,A,3948.1816,S,07036.6502,W,0.58,141.78,120511,,,A*63
$GPGGA,161806.005,3948.1816,S,07036.6502,W,1,08,1.1,945.3,M,22.8,M,,0000*5E
$GPGSA,M,3,21,30,29,16,31,25,18,06,,,,,2.1,1.1,1.8*32
$GPRMC,161806.005,A,3948.1816,S,07036.6502,W,0.19,126.83,120511,,,A*67
$GPGGA,161807.002,3948.1817,S,07036.6502,W,1,08,1.1,945.7,M,22.8,M,,0000*5D
$GPGSA,M,3,21,30,29,16,31,25,18,06,,,,,2.1,1.1,1.8*32
$GPRMC,161807.002,A,3948.1817,S,07036.6502,W,0.44,163.85,120511,,,A*6F
$GPGGA,161808.005,3948.1817,S,07036.6498,W,1,08,1.1,945.5,M,22.8,M,,0000*55
$GPGSA,M,3,21,30,29,16,31,25,18,06,,,,,2.1,1.1,1.8*32
$GPRMC,161808.005,A,3948.1817,S,07036.6498,W,0.18,2.95,120511,,,A*6B
$GPGGA,161808.988,3948.1817,S,07036.6496,W,1,08,1.1,945.4,M,22.8,M,,0000*56
$GPGSA,M,3,21,30,29,16,31,25,18,06,,,,,2.1,1.1,1.8*32
$GPRMC,161808.988,A,3948.1817,S,07036.6496,W,0.69,29.67,120511,,,A*5B
$GPGGA,161810.004,3948.1815,S,07036.6495,W,1,08,1.1,945.1,M,22.8,M,,0000*56
$GPGSA,M,3,21,30,29,16,31,25,18,06,,,,,2.1,1.1,1.8*32
$GPGSV,3,1,11,21,85,357,41,30,55,234,37,29,40,107,39,16,30,225,39*7B
$GPGSV,3,2,11,31,28,311,41,25,27,036,40,18,21,019,37,06,18,255,41*7B
$GPGSV,3,3,11,05,10,141,29,03,07,255,36,22,00,355,24*44
$GPRMC,161810.004,A,3948.1815,S,07036.6495,W,0.50,48.15,120511,,,A*56
$GPGGA,161811.003,3948.1814,S,07036.6491,W,1,08,1.1,944.9,M,22.8,M,,0000*5C
$GPGSA,M,3,21,30,29,16,31,25,18,06,,,,,2.1,1.1,1.8*32
$GPRMC,161811.003,A,3948.1814,S,07036.6491,W,0.36,19.54,120511,,,A*54
$GPGGA,161812.002,3948.1813,S,07036.6491,W,1,08,1.1,944.5,M,22.8,M,,0000*55
$GPGSA,M,3,21,30,29,16,31,25,18,06,,,,,2.1,1.1,1.8*32
$GPRMC,161812.002,A,3948.1813,S,07036.6491,W,0.13,84.91,120511,,,A*5B
$GPGGA,161812.996,3948.1814,S,07036.6490,W,1,08,1.1,943.9,M,22.8,M,,0000*5C
$GPGSA,M,3,21,30,29,16,31,25,18,06,,,,,2.1,1.1,1.8*32
$GPRMC,161812.996,A,3948.1814,S,07036.6490,W,0.52,93.82,120511,,,A*58
$GPGGA,161814.002,3948.1814,S,07036.6489,W,1,08,1.1,943.5,M,22.8,M,,0000*5A
$GPGSA,M,3,21,30,29,16,31,25,18,06,,,,,2.1,1.1,1.8*32
$GPRMC,161814.002,A,3948.1814,S,07036.6489,W,0.46,137.86,120511,,,A*6C
$GPGGA,161814.998,3948.1813,S,07036.6491,W,1,08,1.1,943.7,M,22.8,M,,0000*5C
$GPGSA,M,3,21,30,29,16,31,25,18,06,,,,,2.1,1.1,1.8*32
$GPGSV,3,1,11,21,85,357,40,30,55,234,38,29,40,107,40,16,30,225,40*75
$GPGSV,3,2,11,31,28,311,40,25,27,036,40,18,21,019,37,06,18,255,40*7B
$GPGSV,3,3,11,05,10,141,30,03,07,255,37,22,00,355,26*4F
$GPRMC,161814.998,A,3948.1813,S,07036.6491,W,0.36,141.34,120511,,,A*67
$GPGGA,161816.001,3948.1813,S,07036.6492,W,1,08,1.1,943.4,M,22.8,M,,0000*57
$GPGSA,M,3,21,30,29,16,31,25,18,06,,,,,2.1,1.1,1.8*32
$GPRMC,161816.001,A,3948.1813,S,07036.6492,W,0.46,15.45,120511,,,A*5E
$GPGGA,161816.999,3948.1812,S,07036.6490,W,1,08,1.1,943.4,M,22.8,M,,0000*5C
$GPGSA,M,3,21,30,29,16,31,25,18,06,,,,,2.1,1.1,1.8*32
$GPRMC,161816.999,A,3948.1812,S,07036.6490,W,0.98,79.75,120511,,,A*5F
$GPGGA,161818.003,3948.1811,S,07036.6490,W,1,08,1.1,943.2,M,22.8,M,,0000*5D
$GPGSA,M,3,21,30,29,16,31,25,18,06,,,,,2.1,1.1,1.8*32
$GPRMC,161818.003,A,3948.1811,S,07036.6490,W,0.34,351.86,120511,,,A*6B
$GPGGA,161819.000,3948.1811,S,07036.6492,W,1,08,1.1,943.3,M,22.8,M,,0000*5C
$GPGSA,M,3,21,30,29,16,31,25,18,06,,,,,2.1,1.1,1.8*32
$GPRMC,161819.000,A,3948.1811,S,07036.6492,W,0.05,97.47,120511,,,A*5D
$GPGGA,161820.001,3948.1811,S,07036.6491,W,1,08,1.1,943.3,M,22.8,M,,0000*54
$GPGSA,M,3,21,30,29,16,31,25,18,06,,,,,2.1,1.1,1.8*32
$GPGSV,3,1,11,21,85,357,39,30,55,234,37,29,40,107,39,16,30,225,38*75
$GPGSV,3,2,11,31,28,311,40,25,27,036,40,18,21,019,35,06,18,255,38*76
$GPGSV,3,3,11,05,10,141,28,03,07,255,33,22,00,355,*46
$GPRMC,161820.001,A,3948.1811,S,07036.6491,W,0.55,112.11,120511,,,A*6F
$GPGGA,161820.999,3948.1811,S,07036.6491,W,1,08,1.1,943.7,M,22.8,M,,0000*58
$GPGSA,M,3,21,30,29,16,31,25,18,06,,,,,2.1,1.1,1.8*32
$GPRMC,161820.999,A,3948.1811,S,07036.6491,W,0.84,80.82,120511,,,A*5B
$GPGGA,161822.001,3948.1808,S,07036.6489,W,1,08,1.1,944.4,M,22.8,M,,0000*57
$GPGSA,M,3,21,30,29,16,31,25,18,06,,,,,2.1,1.1,1.8*32
$GPRMC,161822.001,A,3948.1808,S,07036.6489,W,0.57,22.07,120511,,,A*5B
$GPGGA,161822.999,3948.1811,S,07036.6490,W,1,08,1.1,944.1,M,22.8,M,,0000*5A
$GPGSA,M,3,21,30,29,16,31,25,18,06,,,,,2.1,1.1,1.8*32
$GPRMC,161822.999,A,3948.1811,S,07036.6490,W,1.46,158.26,120511,,,A*6D
$GPGGA,161824.002,3948.1810,S,07036.6490,W,1,08,1.1,944.0,M,22.8,M,,0000*57
$GPGSA,M,3,21,30,29,16,31,25,18,06,,,,,2.1,1.1,1.8*32
$GPRMC,161824.002,A,3948.1810,S,07036.6490,W,0.53,26.83,120511,,,A*53
$GPGGA,161824.996,3948.1812,S,07036.6488,W,1,08,1.1,943.6,M,22.8,M,,0000*59
$GPGSA,M,3,21,30,29,16,31,25,18,06,,,,,2.1,1.1,1.8*32
$GPGSV,3,1,11,21,85,357,41,30,55,234,40,29,40,107,39,16,30,225,39*7B
$GPGSV,3,2,11,31,28,311,41,25,27,036,40,18,21,019,38,06,18,255,40*75
$GPGSV,3,3,11,05,10,141,29,03,07,255,36,22,00,355,*42
$GPRMC,161824.996,A,3948.1812,S,07036.6488,W,0.23,138.84,120511,,,A*62
$GPGGA,161826.006,3948.1812,S,07036.6488,W,1,08,1.1,943.5,M,22.8,M,,0000*58
$GPGSA,M,3,21,30,29,16,31,25,18,06,,,,,2.1,1.1,1.8*32
$GPRMC,161826.006,A,3948.1812,S,07036.6488,W,0.11,5.27,120511,,,A*67
$GPGGA,161826.999,3948.1811,S,07036.6488,W,1,08,1.1,944.2,M,22.8,M,,0000*54
$GPGSA,M,3,21,30,29,16,31,25,18,06,,,,,2.1,1.1,1.8*32
$GPRMC,161826.999,A,3948.1811,S,07036.6488,W,0.59,330.22,120511,,,A*67
$GPGGA,161827.996,3948.1813,S,07036.6490,W,1,08,1.1,944.7,M,22.8,M,,0000*54
$GPGSA,M,3,21,30,29,16,31,25,18,06,,,,,2.1,1.1,1.8*32
$GPRMC,161827.996,A,3948.1813,S,07036.6490,W,0.11,150.21,120511,,,A*69
$GPGGA,161829.000,3948.1813,S,07036.6491,W,1,08,1.1,944.5,M,22.8,M,,0000*5F
$GPGSA,M,3,21,30,29,16,31,25,18,06,,,,,2.1,1.1,1.8*32
$GPRMC,161829.000,A,3948.1813,S,07036.6491,W,0.17,325.45,120511,,,A*64
$GPGGA,161830.000,3948.1813,S,07036.6491,W,1,08,1.1,943.6,M,22.8,M,,0000*53
$GPGSA,M,3,21,30,29,16,31,25,18,06,,,,,2.1,1.1,1.8*32
$GPGSV,3,1,11,21,85,357,40,30,55,234,39,29,40,107,40,16,30,225,38*7B
$GPGSV,3,2,11,31,28,311,41,25,27,036,40,18,21,019,38,06,18,255,40*75
$GPGSV,3,3,11,05,10,141,30,03,07,255,37,22,00,355,29*40
$GPRMC,161830.000,A,3948.1813,S,07036.6491,W,0.53,343.23,120511,,,A*6C
$GPGGA,161831.001,3948.1814,S,07036.6490,W,1,08,1.1,943.1,M,22.8,M,,0000*52
$GPGSA,M,3,21,30,29,16,31,25,18,06,,,,,2.1,1.1,1.8*32
$GPRMC,161831.001,A,3948.1814,S,07036.6490,W,0.48,353.87,120511,,,A*6F
$GPGGA,161832.001,3948.1812,S,07036.6490,W,1,08,1.1,943.4,M,22.8,M,,0000*52
$GPGSA,M,3,21,30,29,16,31,25,18,06,,,,,2.1,1.1,1.8*32
$GPRMC,161832.001,A,3948.1812,S,07036.6490,W,0.46,153.60,120511,,,A*6F
$GPGGA,161832.999,3948.1812,S,07036.6492,W,1,08,1.1,943.6,M,22.8,M,,0000*5A
$GPGSA,M,3,21,30,29,16,31,25,18,06,,,,,2.1,1.1,1.8*32
$GPRMC,161832.999,A,3948.1812,S,07036.6492,W,0.18,75.47,120511,,,A*5E
$GPGGA,161834.002,3948.1813,S,07036.6491,W,1,07,1.2,943.5,M,22.8,M,,0000*5A
$GPGSA,M,3,21,30,29,16,31,25,18,,,,,,2.4,1.2,2.1*38
$GPRMC,161834.002,A,3948.1813,S,07036.6491,W,0.84,148.26,120511,,,A*6C
$GPGGA,161834.998,3948.1814,S,07036.6490,W,1,08,1.1,942.5,M,22.8,M,,0000*5B
$GPGSA,M,3,21,30,29,16,31,25,18,06,,,,,2.1,1.1,1.8*32
$GPGSV,3,1,11,21,85,357,40,30,55,234,38,29,40,107,38,16,30,225,38*75
$GPGSV,3,2,11,31,28,311,41,25,27,036,39,18,21,019,38,06,18,255,40*7B
$GPGSV,3,3,11,05,10,141,28,03,07,255,38,22,00,355,29*46
$GPRMC,161834.998,A,3948.1814,S,07036.6490,W,0.61,353.70,120511,,,A*60
$GPGGA,161836.000,3948.1813,S,07036.6491,W,1,08,1.1,941.8,M,22.8,M,,0000*59
$GPGSA,M,3,21,30,29,16,31,25,18,06,,,,,2.1,1.1,1.8*32
$GPRMC,161836.000,A,3948.1813,S,07036.6491,W,0.18,267.87,120511,,,A*6C
$GPGGA,161837.007,3948.1814,S,07036.6491,W,1,08,1.1,941.0,M,22.8,M,,0000*50
$GPGSA,M,3,21,30,29,16,31,25,18,06,,,,,2.1,1.1,1.8*32
$GPRMC,161837.007,A,3948.1814,S,07036.6491,W,0.43,324.29,120511,,,A*61
$GPGGA,161837.998,3948.1814,S,07036.6489,W,1,08,1.1,941.1,M,22.8,M,,0000*57
$GPGSA,M,3,21,30,29,16,31,25,18,06,,,,,2.1,1.1,1.8*32
$GPRMC,161837.998,A,3948.1814,S,07036.6489,W,0.59,97.53,120511,,,A*5A
$GPGGA,161838.998,3948.1815,S,07036.6488,W,1,08,1.1,940.5,M,22.8,M,,0000*5D
$GPGSA,M,3,21,30,29,16,31,25,18,06,,,,,2.1,1.1,1.8*32
$GPRMC,161838.998,A,3948.1815,S,07036.6488,W,0.22,159.32,120511,,,A*6D
$GPGGA,161839.999,3948.1815,S,07036.6487,W,1,08,1.1,939.6,M,22.8,M,,0000*5F
$GPGSA,M,3,21,30,29,16,31,25,18,06,,,,,2.1,1.1,1.8*32
$GPGSV,3,1,11,21,85,357,41,30,55,234,40,29,40,107,40,16,30,225,40*7B
$GPGSV,3,2,11,31,28,311,40,25,27,036,39,18,21,019,39,06,18,255,39*75
$GPGSV,3,3,11,05,10,141,29,03,07,255,37,22,00,355,30*40
$GPRMC,161839.999,A,3948.1815,S,07036.6487,W,0.60,141.52,120511,,,A*6B
$GPGGA,161841.001,3948.1814,S,07036.6487,W,1,08,1.1,939.9,M,22.8,M,,0000*56
$GPGSA,M,3,21,30,29,16,31,25,18,06,,,,,2.1,1.1,1.8*32
$GPRMC,161841.001,A,3948.1814,S,07036.6487,W,0.73,349.03,120511,,,A*61
$GPGGA,161842.000,3948.1813,S,07036.6489,W,1,08,1.1,940.5,M,22.8,M,,0000*5F
$GPGSA,M,3,21,30,29,16,31,25,18,06,,,,,2.1,1.1,1.8*32
$GPRMC,161842.000,A,3948.1813,S,07036.6489,W,0.56,87.05,120511,,,A*5A
$GPGGA,161843.002,3948.1815,S,07036.6488,W,1,08,1.1,939.7,M,22.8,M,,0000*57
$GPGSA,M,3,21,30,29,16,31,25,18,06,,,,,2.1,1.1,1.8*32
$GPRMC,161843.002,A,3948.1815,S,07036.6488,W,0.27,138.75,120511,,,A*6A
$GPGGA,161844.000,3948.1813,S,07036.6492,W,1,08,1.1,939.5,M,22.8,M,,0000*5D
$GPGSA,M,3,21,30,29,16,31,25,18,06,,,,,2.1,1.1,1.8*32
$GPRMC,161844.000,A,3948.1813,S,07036.6492,W,0.47,307.83,120511,,,A*63
$GPGGA,161844.994,3948.1815,S,07036.6494,W,1,08,1.1,939.3,M,22.8,M,,0000*5F
$GPGSA,M,3,21,30,29,16,31,25,18,06,,,,,2.1,1.1,1.8*32
$GPGSV,3,1,11,21,85,357,41,30,55,234,40,29,40,107,40,16,30,225,40*7B
$GPGSV,3,2,11,31,28,311,41,25,27,036,40,18,21,019,38,06,18,255,41*74
$GPGSV,3,3,11,05,10,141,28,03,07,255,37,22,00,355,29*49
$GPRMC,161844.994,A,3948.1815,S,07036.6494,W,0.65,102.70,120511,,,A*6C
$GPGGA,161846.003,3948.1815,S,07036.6494,W,1,08,1.1,939.7,M,22.8,M,,0000*5E
$GPGSA,M,3,21,30,29,16,31,25,18,06,,,,,2.1,1.1,1.8*32
$GPRMC,161846.003,A,3948.1815,S,07036.6494,W,0.32,22.00,120511,,,A*5F
$GPGGA,161847.002,3948.1811,S,07036.6494,W,1,08,1.1,940.2,M,22.8,M,,0000*51
$GPGSA,M,3,21,30,29,16,31,25,18,06,,,,,2.1,1.1,1.8*32
$GPRMC,161847.002,A,3948.1811,S,07036.6494,W,0.21,322.23,120511,,,A*6B
$GPGGA,161848.005,3948.1813,S,07036.6496,W,1,08,1.1,940.1,M,22.8,M,,0000*5A
$GPGSA,M,3,21,30,29,16,31,25,18,06,,,,,2.1,1.1,1.8*32
$GPRMC,161848.005,A,3948.1813,S,07036.6496,W,0.04,23.75,120511,,,A*55
$GPGGA,161848.989,3948.1813,S,07036.6495,W,1,08,1.1,940.1,M,22.8,M,,0000*54
$GPGSA,M,3,21,30,29,16,31,25,18,06,,,,,2.1,1.1,1.8*32
$GPRMC,161848.989,A,3948.1813,S,07036.6495,W,0.26,158.25,120511,,,A*63
$GPGGA,161850.005,3948.1813,S,07036.6495,W,1,08,1.1,940.5,M,22.8,M,,0000*54
$GPGSA,M,3,21,30,29,16,31,25,18,06,,,,,2.1,1.1,1.8*32
$GPGSV,3,1,11,21,85,357,38,30,55,234,38,29,40,107,39,16,30,225,38*7B
$GPGSV,3,2,11,31,28,311,41,25,27,036,39,18,21,019,37,06,18,255,40*74
$GPGSV,3,3,11,05,10,141,28,03,07,255,38,22,00,355,27*48
$GPRMC,161850.005,A,3948.1813,S,07036.6495,W,0.12,273.83,120511,,,A*66
$GPGGA,161850.999,3948.1814,S,07036.6499,W,1,08,1.1,940.6,M,22.8,M,,0000*50
$GPGSA,M,3,21,30,29,16,31,25,18,06,,,,,2.1,1.1,1.8*32
$GPRMC,161850.999,A,3948.1814,S,07036.6499,W,0.40,269.55,120511,,,A*66
$GPGGA,161852.006,3948.1814,S,07036.6497,W,1,08,1.1,939.6,M,22.8,M,,0000*5D
$GPGSA,M,3,21,30,29,16,31,25,18,06,,,,,2.1,1.1,1.8*32
$GPRMC,161852.006,A,3948.1814,S,07036.6497,W,1.01,3.42,120511,,,A*69
