$GPGGA,191920.004,1802.5099,S,07016.3770,W,1,06,3.5,428.8,M,34.6,M,,0000*5F
$GPGSA,M,3,22,30,16,18,06,03,,,,,,,8.4,3.5,7.6*3D
$GPRMC,191920.004,A,1802.5099,S,07016.3770,W,0.33,15.21,290411,,,A*52
$GPGGA,191920.996,1802.5093,S,07016.3771,W,1,06,3.5,426.2,M,34.6,M,,0000*52
$GPGSA,M,3,22,30,16,18,06,03,,,,,,,8.4,3.5,7.6*3D
$GPRMC,191920.996,A,1802.5093,S,07016.3771,W,0.85,355.65,290411,,,A*61
$GPGGA,191922.003,1802.5106,S,07016.3765,W,1,06,3.5,427.7,M,34.6,M,,0000*59
$GPGSA,M,3,22,30,16,18,06,03,,,,,,,8.4,3.5,7.6*3D
$GPGSV,3,1,11,22,81,053,36,30,67,308,30,16,61,249,36,18,51,132,35*7A
$GPGSV,3,2,11,06,41,200,28,03,31,212,27,21,19,135,,14,17,028,*73
$GPGSV,3,3,11,31,09,345,,29,08,070,31,19,07,228,*41
$GPRMC,191922.003,A,1802.5106,S,07016.3765,W,0.43,306.96,290411,,,A*6E
$GPGGA,191922.997,1802.5111,S,07016.3769,W,1,06,3.5,427.2,M,34.6,M,,0000*52
$GPGSA,M,3,22,30,16,18,06,03,,,,,,,8.4,3.5,7.6*3D
$GPRMC,191922.997,A,1802.5111,S,07016.3769,W,0.85,232.31,290411,,,A*61
$GPGGA,191924.003,1802.5103,S,07016.3769,W,1,06,3.4,423.8,M,34.6,M,,0000*5C
$GPGSA,M,3,22,30,16,18,06,03,,,,,,,8.4,3.4,7.6*3C
$GPRMC,191924.003,A,1802.5103,S,07016.3769,W,0.48,278.62,290411,,,A*69
$GPGGA,191924.999,1802.5100,S,07016.3765,W,1,05,1.9,421.9,M,34.6,M,,0000*56
$GPGSA,M,3,22,30,16,18,06,,,,,,,,2.2,1.9,1.0*3C
$GPRMC,191924.999,A,1802.5100,S,07016.3765,W,0.85,223.79,290411,,,A*69
$GPGGA,191926.000,1802.5104,S,07016.3764,W,1,06,3.4,420.5,M,34.6,M,,0000*59
$GPGSA,M,3,22,30,16,18,06,03,,,,,,,8.4,3.4,7.6*3C
$GPRMC,191926.000,A,1802.5104,S,07016.3764,W,2.85,220.10,290411,,,A*69
$GPGGA,191927.000,1802.5111,S,07016.3769,W,1,07,2.2,416.4,M,34.6,M,,0000*53
$GPGSA,M,3,22,30,16,18,06,03,21,,,,,,4.2,2.2,3.6*36
$GPGSV,3,1,11,22,81,053,37,30,67,308,31,16,61,249,37,18,51,132,32*7C
$GPGSV,3,2,11,06,41,200,36,03,31,212,33,21,19,135,29,14,17,028,*72
$GPGSV,3,3,11,31,09,345,,29,08,070,,19,07,228,*43
$GPRMC,191927.000,A,1802.5111,S,07016.3769,W,5.13,217.20,290411,,,A*6E
$GPGGA,191927.998,1802.5116,S,07016.3779,W,1,06,3.4,411.5,M,34.6,M,,0000*5D
$GPGSA,M,3,22,30,16,18,06,03,,,,,,,8.4,3.4,7.6*3C
$GPRMC,191927.998,A,1802.5116,S,07016.3779,W,6.50,210.64,290411,,,A*63
$GPGGA,191929.001,1802.5127,S,07016.3794,W,1,06,3.4,409.7,M,34.6,M,,0000*50
$GPGSA,M,3,22,30,16,18,06,03,,,,,,,8.4,3.4,7.6*3C
$GPRMC,191929.001,A,1802.5127,S,07016.3794,W,6.76,211.59,290411,,,A*6E
$GPGGA,191930.001,1802.5156,S,07016.3805,W,1,06,3.4,411.9,M,34.6,M,,0000*5E
$GPGSA,M,3,22,30,16,18,06,03,,,,,,,8.4,3.4,7.6*3C
$GPRMC,191930.001,A,1802.5156,S,07016.3805,W,7.07,216.98,290411,,,A*6A
$GPGGA,191931.003,1802.5176,S,07016.3822,W,1,07,2.2,411.9,M,34.6,M,,0000*5C
$GPGSA,M,3,22,30,16,18,06,03,21,,,,,,4.2,2.2,3.6*36
$GPRMC,191931.003,A,1802.5176,S,07016.3822,W,8.41,214.96,290411,,,A*6F
$GPGGA,191932.000,1802.5208,S,07016.3839,W,1,06,2.4,417.4,M,34.6,M,,0000*50
$GPGSA,M,3,22,30,16,18,06,21,,,,,,,4.5,2.4,3.8*3A
$GPGSV,3,1,11,22,81,053,36,30,67,308,37,16,61,249,31,18,51,132,34*7B
$GPGSV,3,2,11,06,41,200,34,03,31,212,,21,19,135,25,14,17,028,26*78
$GPGSV,3,3,11,31,09,345,33,29,08,070,27,19,07,228,*46
$GPRMC,191932.000,A,1802.5208,S,07016.3839,W,9.67,215.87,290411,,,A*6B
$GPGGA,191932.998,1802.5239,S,07016.3856,W,1,06,3.4,418.2,M,34.6,M,,0000*5B
$GPGSA,M,3,22,30,16,18,06,03,,,,,,,8.3,3.4,7.6*3B
$GPRMC,191932.998,A,1802.5239,S,07016.3856,W,11.20,209.44,290411,,,A*50
$GPGGA,191934.000,1802.5266,S,07016.3868,W,1,06,3.4,417.7,M,34.6,M,,0000*58
$GPGSA,M,3,22,30,16,18,06,03,,,,,,,8.3,3.4,7.6*3B
$GPRMC,191934.000,A,1802.5266,S,07016.3868,W,11.22,207.25,290411,,,A*52
$GPGGA,191935.000,1802.5293,S,07016.3884,W,1,06,3.4,417.4,M,34.6,M,,0000*52
$GPGSA,M,3,22,30,16,18,06,03,,,,,,,8.3,3.4,7.6*3B
$GPRMC,191935.000,A,1802.5293,S,07016.3884,W,12.19,208.42,290411,,,A*5E
$GPGGA,191936.001,1802.5331,S,07016.3901,W,1,06,3.4,419.4,M,34.6,M,,0000*5B
$GPGSA,M,3,22,30,16,18,06,03,,,,,,,8.3,3.4,7.6*3B
$GPRMC,191936.001,A,1802.5331,S,07016.3901,W,12.23,202.97,290411,,,A*52
$GPGGA,191936.999,1802.5373,S,07016.3915,W,1,07,2.2,422.0,M,34.6,M,,0000*5A
$GPGSA,M,3,22,30,16,18,06,03,21,,,,,,4.2,2.2,3.6*36
$GPGSV,3,1,11,22,81,053,36,30,67,308,37,16,61,249,37,18,51,132,32*7B
$GPGSV,3,2,11,06,41,200,33,03,31,212,31,21,19,135,26,14,17,028,26*7E
$GPGSV,3,3,11,31,09,345,34,29,08,070,,19,07,228,28*4E
$GPRMC,191936.999,A,1802.5373,S,07016.3915,W,13.43,207.16,290411,,,A*52
$GPGGA,191938.001,1802.5402,S,07016.3929,W,1,06,3.4,419.1,M,34.6,M,,0000*5D
$GPGSA,M,3,22,30,16,18,06,03,,,,,,,8.3,3.4,7.6*3B
$GPRMC,191938.001,A,1802.5402,S,07016.3929,W,13.03,206.02,290411,,,A*5A
$GPGGA,191939.001,1802.5433,S,07016.3946,W,1,07,2.2,417.3,M,34.6,M,,0000*5D
$GPGSA,M,3,22,30,16,18,06,03,21,,,,,,4.2,2.2,3.6*36
$GPRMC,191939.001,A,1802.5433,S,07016.3946,W,12.58,206.56,290411,,,A*5E
$GPGGA,191939.999,1802.5470,S,07016.3960,W,1,06,3.4,417.7,M,34.6,M,,0000*54
$GPGSA,M,3,22,30,16,18,06,03,,,,,,,8.3,3.4,7.6*3B
$GPRMC,191939.999,A,1802.5470,S,07016.3960,W,11.15,212.05,290411,,,A*5C
$GPGGA,191941.002,1802.5493,S,07016.3979,W,1,05,4.2,415.0,M,34.6,M,,0000*52
$GPGSA,M,3,22,30,16,06,03,,,,,,,,9.1,4.2,8.0*39
$GPRMC,191941.002,A,1802.5493,S,07016.3979,W,9.03,213.60,290411,,,A*61
$GPGGA,191942.000,1802.5511,S,07016.3987,W,1,06,2.6,414.0,M,34.6,M,,0000*59
$GPGSA,M,3,22,30,16,18,03,21,,,,,,,4.7,2.6,3.9*3E
$GPGSV,3,1,11,22,81,053,37,30,67,308,38,16,61,249,35,18,51,132,31*74
$GPGSV,3,2,11,06,41,200,,03,31,212,25,21,19,135,25,14,17,028,29*77
$GPGSV,3,3,11,31,09,345,31,29,08,070,,19,07,228,31*43
$GPRMC,191942.000,A,1802.5511,S,07016.3987,W,7.74,197.18,290411,,,A*64
$GPGGA,191943.000,1802.5533,S,07016.3992,W,1,06,3.4,413.7,M,34.6,M,,0000*5F
$GPGSA,M,3,22,30,16,18,06,03,,,,,,,8.3,3.4,7.6*3B
$GPRMC,191943.000,A,1802.5533,S,07016.3992,W,8.26,185.80,290411,,,A*6B
$GPGGA,191944.000,1802.5553,S,07016.3995,W,1,06,3.4,411.7,M,34.6,M,,0000*5B
$GPGSA,M,3,22,30,16,18,06,03,,,,,,,8.3,3.4,7.6*3B
$GPRMC,191944.000,A,1802.5553,S,07016.3995,W,7.67,182.88,290411,,,A*68
$GPGGA,191945.001,1802.5562,S,07016.3975,W,1,06,2.4,411.7,M,34.6,M,,0000*56
$GPGSA,M,3,22,30,16,18,06,21,,,,,,,4.4,2.4,3.7*34
$GPRMC,191945.001,A,1802.5562,S,07016.3975,W,5.24,163.58,290411,,,A*63
$GPGGA,191945.999,1802.5555,S,07016.3957,W,1,06,3.4,409.8,M,34.6,M,,0000*5D
$GPGSA,M,3,22,30,16,18,06,03,,,,,,,8.3,3.4,7.6*3B
$GPRMC,191945.999,A,1802.5555,S,07016.3957,W,5.13,127.93,290411,,,A*6C
$GPGGA,191947.002,1802.5549,S,07016.3937,W,1,07,2.2,409.5,M,34.6,M,,0000*54
$GPGSA,M,3,22,30,16,18,06,03,21,,,,,,4.2,2.2,3.5*35
$GPGSV,3,1,11,22,81,053,37,30,67,308,30,16,61,249,38,18,51,132,32*72
$GPGSV,3,2,11,06,41,200,36,03,31,212,36,21,19,135,29,14,17,028,*77
$GPGSV,3,3,11,31,09,345,31,29,08,070,29,19,07,228,*4A
$GPRMC,191947.002,A,1802.5549,S,07016.3937,W,2.71,92.73,290411,,,A*5C
$GPGGA,191947.999,1802.5536,S,07016.3922,W,1,05,2.1,413.1,M,34.6,M,,0000*5D
$GPGSA,M,3,22,16,18,06,03,,,,,,,,2.3,2.1,1.0*36
$GPRMC,191947.999,A,1802.5536,S,07016.3922,W,3.59,51.85,290411,,,A*56
$GPGGA,191948.998,1802.5521,S,07016.3917,W,1,07,2.2,414.3,M,34.6,M,,0000*57
$GPGSA,M,3,22,30,16,18,06,03,21,,,,,,4.2,2.2,3.5*35
$GPRMC,191948.998,A,1802.5521,S,07016.3917,W,6.09,32.61,290411,,,A*57
$GPGGA,191950.003,1802.5501,S,07016.3911,W,1,07,2.2,419.8,M,34.6,M,,0000*57
$GPGSA,M,3,22,30,16,18,06,03,21,,,,,,4.2,2.2,3.5*35
$GPRMC,191950.003,A,1802.5501,S,07016.3911,W,8.86,33.63,290411,,,A*5B
$GPGGA,191951.000,1802.5468,S,07016.3889,W,1,07,2.2,420.8,M,34.6,M,,0000*51
$GPGSA,M,3,22,30,16,18,06,03,21,,,,,,4.2,2.2,3.5*35
$GPRMC,191951.000,A,1802.5468,S,07016.3889,W,11.53,31.24,290411,,,A*66
$GPGGA,191952.000,1802.5444,S,07016.3869,W,1,07,2.2,426.0,M,34.6,M,,0000*5C
$GPGSA,M,3,22,30,16,18,06,03,21,,,,,,4.2,2.2,3.5*35
$GPGSV,3,1,11,22,81,053,36,30,67,308,29,16,61,249,39,18,51,132,33*7B
$GPGSV,3,2,11,06,41,200,36,03,31,212,36,21,19,135,35,14,17,028,28*70
$GPGSV,3,3,11,31,09,345,,29,08,070,28,19,07,228,29*42
$GPRMC,191952.000,A,1802.5444,S,07016.3869,W,13.10,32.26,290411,,,A*61
$GPGGA,191953.000,1802.5411,S,07016.3845,W,1,07,2.2,427.6,M,34.6,M,,0000*54
$GPGSA,M,3,22,30,16,18,06,03,21,,,,,,4.2,2.2,3.5*35
$GPRMC,191953.000,A,1802.5411,S,07016.3845,W,14.77,33.30,290411,,,A*6E
$GPGGA,191954.000,1802.5376,S,07016.3818,W,1,07,2.2,426.2,M,34.6,M,,0000*58
$GPGSA,M,3,22,30,16,18,06,03,21,,,,,,4.2,2.2,3.5*35
$GPRMC,191954.000,A,1802.5376,S,07016.3818,W,16.50,32.77,290411,,,A*62
$GPGGA,191955.001,1802.5341,S,07016.3791,W,1,07,2.2,430.3,M,34.6,M,,0000*54
$GPGSA,M,3,22,30,16,18,06,03,21,,,,,,4.2,2.2,3.5*35
$GPRMC,191955.001,A,1802.5341,S,07016.3791,W,17.37,31.49,290411,,,A*66
$GPGGA,191956.000,1802.5293,S,07016.3761,W,1,07,2.2,429.7,M,34.6,M,,0000*5B
$GPGSA,M,3,22,30,16,18,06,03,21,,,,,,4.2,2.2,3.5*35
$GPRMC,191956.000,A,1802.5293,S,07016.3761,W,18.87,32.34,290411,,,A*68
$GPGGA,191956.999,1802.5250,S,07016.3731,W,1,06,2.4,430.7,M,34.6,M,,0000*57
$GPGSA,M,3,22,30,16,18,06,21,,,,,,,4.4,2.4,3.7*34
$GPGSV,3,1,11,22,81,053,35,30,67,308,28,16,61,249,40,18,51,132,35*71
$GPGSV,3,2,11,06,41,200,36,03,31,212,,21,19,135,31,14,17,028,28*71
$GPGSV,3,3,11,31,09,345,,29,08,070,29,19,07,228,31*4A
$GPRMC,191956.999,A,1802.5250,S,07016.3731,W,19.06,33.93,290411,,,A*6F
$GPGGA,191958.001,1802.5191,S,07016.3696,W,1,07,2.2,429.7,M,34.6,M,,0000*5C
$GPGSA,M,3,22,30,16,18,06,03,21,,,,,,4.2,2.2,3.5*35
$GPRMC,191958.001,A,1802.5191,S,07016.3696,W,20.73,31.82,290411,,,A*61
$GPGGA,191959.002,1802.5145,S,07016.3661,W,1,07,2.2,430.4,M,34.6,M,,0000*54
$GPGSA,M,3,22,30,16,18,06,03,21,,,,,,4.2,2.2,3.5*35
$GPRMC,191959.002,A,1802.5145,S,07016.3661,W,21.69,32.54,290411,,,A*60
$GPGGA,192000.000,1802.5095,S,07016.3625,W,1,07,2.2,432.8,M,34.6,M,,0000*52
$GPGSA,M,3,22,30,16,18,06,03,21,,,,,,4.2,2.2,3.5*35
$GPRMC,192000.000,A,1802.5095,S,07016.3625,W,22.24,31.59,290411,,,A*6C
$GPGGA,192000.999,1802.5044,S,07016.3585,W,1,07,2.2,435.1,M,34.6,M,,0000*50
$GPGSA,M,3,22,30,16,18,06,03,21,,,,,,4.2,2.2,3.5*35
$GPRMC,192000.999,A,1802.5044,S,07016.3585,W,22.79,32.34,290411,,,A*60
$GPGGA,192002.000,1802.4985,S,07016.3542,W,1,07,2.2,433.5,M,34.6,M,,0000*57
$GPGSA,M,3,22,30,16,18,06,03,21,,,,,,4.2,2.2,3.5*35
$GPGSV,3,1,11,22,81,053,35,30,67,308,27,16,61,249,37,18,51,132,35*7E
$GPGSV,3,2,11,06,41,200,35,03,31,212,36,21,19,135,34,14,17,028,29*73
$GPGSV,3,3,11,31,09,345,,29,08,070,30,19,07,228,31*42
$GPRMC,192002.000,A,1802.4985,S,07016.3542,W,24.43,33.11,290411,,,A*6C
$GPGGA,192002.996,1802.4929,S,07016.3505,W,1,07,2.2,434.5,M,34.6,M,,0000*53
$GPGSA,M,3,22,30,16,18,06,03,21,,,,,,4.2,2.2,3.5*35
$GPRMC,192002.996,A,1802.4929,S,07016.3505,W,24.22,32.68,290411,,,A*67
$GPGGA,192004.002,1802.4880,S,07016.3466,W,1,07,2.2,437.9,M,34.6,M,,0000*58
$GPGSA,M,3,22,30,16,18,06,03,21,,,,,,4.2,2.2,3.5*35
$GPRMC,192004.002,A,1802.4880,S,07016.3466,W,24.15,34.38,290411,,,A*64
$GPGGA,192004.999,1802.4827,S,07016.3422,W,1,07,2.2,439.4,M,34.6,M,,0000*5D
$GPGSA,M,3,22,30,16,18,06,03,21,,,,,,4.2,2.2,3.5*35
$GPRMC,192004.999,A,1802.4827,S,07016.3422,W,24.77,34.26,290411,,,A*69
$GPGGA,192006.002,1802.4771,S,07016.3378,W,1,06,3.3,441.4,M,34.6,M,,0000*5E
$GPGSA,M,3,22,16,18,06,03,21,,,,,,,5.5,3.3,4.4*36
$GPRMC,192006.002,A,1802.4771,S,07016.3378,W,25.13,32.79,290411,,,A*6B
$GPGGA,192006.997,1802.4709,S,07016.3337,W,1,07,2.2,441.1,M,34.6,M,,0000*5B
$GPGSA,M,3,22,30,16,18,06,03,21,,,,,,4.2,2.2,3.5*35
$GPGSV,3,1,11,22,81,053,35,30,67,308,25,16,61,249,38,18,51,132,31*77
$GPGSV,3,2,11,06,41,200,37,03,31,212,36,21,19,135,33,14,17,028,29*76
$GPGSV,3,3,11,31,09,345,,29,08,070,29,19,07,228,30*4B
$GPRMC,192006.997,A,1802.4709,S,07016.3337,W,25.85,31.94,290411,,,A*65
$GPGGA,192008.000,1802.4648,S,07016.3293,W,1,07,2.2,442.7,M,34.6,M,,0000*5C
$GPGSA,M,3,22,30,16,18,06,03,21,,,,,,4.2,2.2,3.5*35
$GPRMC,192008.000,A,1802.4648,S,07016.3293,W,26.10,33.98,290411,,,A*66
$GPGGA,192009.000,1802.4586,S,07016.3246,W,1,07,2.2,442.2,M,34.6,M,,0000*51
$GPGSA,M,3,22,30,16,18,06,03,21,,,,,,4.1,2.2,3.5*36
$GPRMC,192009.000,A,1802.4586,S,07016.3246,W,25.81,34.48,290411,,,A*6F
$GPGGA,192010.000,1802.4523,S,07016.3203,W,1,07,2.2,442.4,M,34.6,M,,0000*51
$GPGSA,M,3,22,30,16,18,06,03,21,,,,,,4.1,2.2,3.5*36
$GPRMC,192010.000,A,1802.4523,S,07016.3203,W,27.13,34.53,290411,,,A*6A
$GPGGA,192011.000,1802.4453,S,07016.3157,W,1,07,2.2,440.8,M,34.6,M,,0000*5A
$GPGSA,M,3,22,30,16,18,06,03,21,,,,,,4.1,2.2,3.5*36
$GPRMC,192011.000,A,1802.4453,S,07016.3157,W,27.98,33.03,290411,,,A*6E
$GPGGA,192012.000,1802.4389,S,07016.3112,W,1,07,2.2,442.6,M,34.6,M,,0000*54
$GPGSA,M,3,22,30,16,18,06,03,21,,,,,,4.1,2.2,3.5*36
$GPGSV,3,1,11,22,81,053,35,30,67,308,28,16,61,249,38,18,51,132,35*7E
$GPGSV,3,2,11,06,41,200,36,03,31,212,35,21,19,135,31,14,17,028,28*77
$GPGSV,3,3,11,31,09,345,,29,08,070,27,19,07,228,30*45
$GPRMC,192012.000,A,1802.4389,S,07016.3112,W,28.53,32.31,290411,,,A*64
$GPGGA,192013.000,1802.4321,S,07016.3066,W,1,07,2.2,443.2,M,34.6,M,,0000*50
$GPGSA,M,3,22,30,16,18,06,03,21,,,,,,4.1,2.2,3.5*36
$GPRMC,192013.000,A,1802.4321,S,07016.3066,W,28.67,33.22,290411,,,A*61
$GPGGA,192014.000,1802.4255,S,07016.3019,W,1,07,2.2,443.9,M,34.6,M,,0000*56
$GPGSA,M,3,22,30,16,18,06,03,21,,,,,,4.1,2.2,3.5*36
$GPRMC,192014.000,A,1802.4255,S,07016.3019,W,27.94,33.59,290411,,,A*63
$GPGGA,192015.003,1802.4191,S,07016.2974,W,1,07,2.2,445.3,M,34.6,M,,0000*50
$GPGSA,M,3,22,30,16,18,06,03,21,,,,,,4.1,2.2,3.5*36
$GPRMC,192015.003,A,1802.4191,S,07016.2974,W,27.65,32.06,290411,,,A*6C
$GPGGA,192015.997,1802.4125,S,07016.2931,W,1,07,2.2,446.4,M,34.6,M,,0000*5E
$GPGSA,M,3,22,30,16,18,06,03,21,,,,,,4.1,2.2,3.5*36
$GPRMC,192015.997,A,1802.4125,S,07016.2931,W,27.69,30.42,290411,,,A*68
$GPGGA,192017.000,1802.4062,S,07016.2887,W,1,07,2.2,447.6,M,34.6,M,,0000*56
$GPGSA,M,3,22,30,16,18,06,03,21,,,,,,4.1,2.2,3.5*36
$GPGSV,3,1,11,22,81,053,35,30,67,308,31,16,61,249,40,18,51,132,35*79
$GPGSV,3,2,11,06,41,200,36,03,31,212,35,21,19,135,35,14,17,028,29*72
$GPGSV,3,3,11,31,09,345,,29,08,070,31,19,07,228,30*42
$GPRMC,192017.000,A,1802.4062,S,07016.2887,W,28.31,32.93,290411,,,A*6F
$GPGGA,192018.000,1802.3999,S,07016.2843,W,1,07,2.2,449.2,M,34.6,M,,0000*51
$GPGSA,M,3,22,30,16,18,06,03,21,,,,,,4.1,2.2,3.5*36
$GPRMC,192018.000,A,1802.3999,S,07016.2843,W,26.76,33.15,290411,,,A*60
$GPGGA,192019.000,1802.3935,S,07016.2801,W,1,07,2.2,449.8,M,34.6,M,,0000*5A
$GPGSA,M,3,22,30,16,18,06,03,21,,,,,,4.1,2.2,3.5*36
$GPRMC,192019.000,A,1802.3935,S,07016.2801,W,26.28,32.95,290411,,,A*63
$GPGGA,192020.000,1802.3874,S,07016.2758,W,1,07,2.2,449.8,M,34.6,M,,0000*57
$GPGSA,M,3,22,30,16,18,06,03,21,,,,,,4.1,2.2,3.5*36
$GPRMC,192020.000,A,1802.3874,S,07016.2758,W,26.37,35.00,290411,,,A*6B
$GPGGA,192021.000,1802.3811,S,07016.2713,W,1,07,2.2,449.5,M,34.6,M,,0000*57
$GPGSA,M,3,22,30,16,18,06,03,21,,,,,,4.1,2.2,3.5*36
$GPRMC,192021.000,A,1802.3811,S,07016.2713,W,26.42,32.89,290411,,,A*62
$GPGGA,192022.003,1802.3741,S,07016.2671,W,1,07,2.2,447.2,M,34.6,M,,0000*51
$GPGSA,M,3,22,30,16,18,06,03,21,,,,,,4.1,2.2,3.5*36
$GPGSV,3,1,11,22,81,053,36,30,67,308,28,16,61,249,39,18,51,132,35*7C
$GPGSV,3,2,11,06,41,200,36,03,31,212,36,21,19,135,32,14,17,028,28*77
$GPGSV,3,3,11,31,09,345,,29,08,070,30,19,07,228,30*43
$GPRMC,192022.003,A,1802.3741,S,07016.2671,W,26.68,32.72,290411,,,A*61
$GPGGA,192023.000,1802.3688,S,07016.2624,W,1,07,2.2,450.4,M,34.6,M,,0000*57
$GPGSA,M,3,22,30,16,18,06,03,21,,,,,,4.1,2.2,3.5*36
$GPRMC,192023.000,A,1802.3688,S,07016.2624,W,26.89,32.70,290411,,,A*6A
$GPGGA,192024.001,1802.3630,S,07016.2585,W,1,07,2.2,453.7,M,34.6,M,,0000*5A
$GPGSA,M,3,22,30,16,18,06,03,21,,,,,,4.1,2.2,3.5*36
$GPRMC,192024.001,A,1802.3630,S,07016.2585,W,26.78,33.46,290411,,,A*6D
$GPGGA,192025.001,1802.3565,S,07016.2539,W,1,07,2.2,454.0,M,34.6,M,,0000*5F
$GPGSA,M,3,22,30,16,18,06,03,21,,,,,,4.1,2.2,3.5*36
$GPRMC,192025.001,A,1802.3565,S,07016.2539,W,27.99,33.62,290411,,,A*60
$GPGGA,192026.000,1802.3505,S,07016.2493,W,1,07,2.2,456.4,M,34.6,M,,0000*5C
$GPGSA,M,3,22,30,16,18,06,03,21,,,,,,4.1,2.2,3.5*36
$GPRMC,192026.000,A,1802.3505,S,07016.2493,W,27.58,32.83,290411,,,A*66
$GPGGA,192027.001,1802.3442,S,07016.2448,W,1,07,2.2,457.5,M,34.6,M,,0000*58
$GPGSA,M,3,22,30,16,18,06,03,21,,,,,,4.1,2.2,3.5*36
$GPGSV,3,1,11,22,81,053,37,30,67,308,29,16,61,249,39,18,51,132,36*7F
$GPGSV,3,2,11,06,41,200,36,03,31,212,36,21,19,135,35,14,17,028,27*7F
$GPGSV,3,3,11,31,09,345,,29,08,070,30,19,07,228,31*42
$GPRMC,192027.001,A,1802.3442,S,07016.2448,W,28.16,32.53,290411,,,A*6A
$GPGGA,192028.001,1802.3382,S,07016.2400,W,1,07,2.2,460.6,M,34.6,M,,0000*57
$GPGSA,M,3,22,30,16,18,06,03,21,,,,,,4.1,2.2,3.5*36
$GPRMC,192028.001,A,1802.3382,S,07016.2400,W,27.87,33.13,290411,,,A*60
$GPGGA,192029.000,1802.3314,S,07016.2354,W,1,07,2.2,461.6,M,34.6,M,,0000*5F
$GPGSA,M,3,22,30,16,18,06,03,21,,,,,,4.1,2.2,3.5*36
$GPRMC,192029.000,A,1802.3314,S,07016.2354,W,27.70,34.37,290411,,,A*60
$GPGGA,192030.000,1802.3250,S,07016.2312,W,1,07,2.2,461.8,M,34.6,M,,0000*5A
$GPGSA,M,3,22,30,16,18,06,03,21,,,,,,4.1,2.2,3.5*36
$GPRMC,192030.000,A,1802.3250,S,07016.2312,W,26.32,34.42,290411,,,A*6E
$GPGGA,192030.999,1802.3197,S,07016.2269,W,1,06,2.3,464.1,M,34.6,M,,0000*5A
$GPGSA,M,3,22,30,16,18,06,21,,,,,,,4.4,2.3,3.7*33
$GPRMC,192030.999,A,1802.3197,S,07016.2269,W,24.79,33.16,290411,,,A*69
$GPGGA,192032.001,1802.3138,S,07016.2230,W,1,07,2.2,463.6,M,34.6,M,,0000*59
$GPGSA,M,3,22,30,16,18,06,03,21,,,,,,4.1,2.2,3.5*36
$GPGSV,3,1,11,22,81,053,36,30,67,308,31,16,61,249,40,18,51,132,36*79
$GPGSV,3,2,11,06,41,200,37,03,31,212,36,21,19,135,31,14,17,028,26*7B
$GPGSV,3,3,11,31,09,345,,29,08,070,30,19,07,228,32*41
$GPRMC,192032.001,A,1802.3138,S,07016.2230,W,23.43,34.34,290411,,,A*63
$GPGGA,192033.001,1802.3094,S,07016.2191,W,1,07,2.2,466.1,M,34.6,M,,0000*55
$GPGSA,M,3,22,30,16,18,06,03,21,,,,,,4.1,2.2,3.5*36
$GPRMC,192033.001,A,1802.3094,S,07016.2191,W,21.37,35.11,290411,,,A*6A
$GPGGA,192034.001,1802.3054,S,07016.2152,W,1,07,2.2,468.7,M,34.6,M,,0000*59
$GPGSA,M,3,22,30,16,18,06,03,21,,,,,,4.1,2.2,3.5*36
$GPRMC,192034.001,A,1802.3054,S,07016.2152,W,20.64,35.34,290411,,,A*6E
$GPGGA,192035.000,1802.3007,S,07016.2115,W,1,07,2.2,468.7,M,34.6,M,,0000*5C
$GPGSA,M,3,22,30,16,18,06,03,21,,,,,,4.1,2.2,3.5*36
$GPRMC,192035.000,A,1802.3007,S,07016.2115,W,19.26,41.21,290411,,,A*60
$GPGGA,192036.001,1802.2973,S,07016.2077,W,1,07,2.2,469.1,M,34.6,M,,0000*57
$GPGSA,M,3,22,30,16,18,06,03,21,,,,,,4.1,2.2,3.5*36
$GPRMC,192036.001,A,1802.2973,S,07016.2077,W,18.66,45.57,290411,,,A*6C
$GPGGA,192037.001,1802.2949,S,07016.2040,W,1,07,2.2,470.1,M,34.6,M,,0000*53
$GPGSA,M,3,22,30,16,18,06,03,21,,,,,,4.1,2.2,3.5*36
$GPGSV,3,1,11,22,81,063,36,30,66,311,38,16,62,252,40,18,49,133,29*75
$GPGSV,3,2,11,06,43,199,36,03,32,211,37,21,19,134,35,14,17,029,25*7D
$GPGSV,3,3,11,31,08,346,,19,08,227,31,29,07,069,32*45
$GPRMC,192037.001,A,1802.2949,S,07016.2040,W,17.07,52.73,290411,,,A*68
$GPGGA,192038.000,1802.2915,S,07016.2001,W,1,07,2.2,469.2,M,34.6,M,,0000*5A
$GPGSA,M,3,22,30,16,18,06,03,21,,,,,,4.1,2.2,3.5*36
$GPRMC,192038.000,A,1802.2915,S,07016.2001,W,17.73,58.50,290411,,,A*62
$GPGGA,192039.001,1802.2893,S,07016.1955,W,1,07,2.2,469.4,M,34.6,M,,0000*58
$GPGSA,M,3,22,30,16,18,06,03,21,,,,,,4.1,2.2,3.5*36
$GPRMC,192039.001,A,1802.2893,S,07016.1955,W,17.61,61.92,290411,,,A*61
$GPGGA,192040.000,1802.2887,S,07016.1902,W,1,07,2.2,472.5,M,34.6,M,,0000*5B
$GPGSA,M,3,22,30,16,18,06,03,21,,,,,,4.1,2.2,3.5*36
$GPRMC,192040.000,A,1802.2887,S,07016.1902,W,17.56,71.00,290411,,,A*67
$GPGGA,192040.997,1802.2874,S,07016.1850,W,1,07,2.2,472.5,M,34.6,M,,0000*56
$GPGSA,M,3,22,30,16,18,06,03,21,,,,,,4.1,2.2,3.5*36
$GPRMC,192040.997,A,1802.2874,S,07016.1850,W,18.70,76.17,290411,,,A*60
$GPGGA,192042.002,1802.2864,S,07016.1793,W,1,07,2.2,472.1,M,34.6,M,,0000*54
$GPGSA,M,3,22,30,16,18,06,03,21,,,,,,4.1,2.2,3.5*36
$GPGSV,3,1,11,22,81,063,37,30,66,311,38,16,62,252,37,18,49,133,28*75
$GPGSV,3,2,11,06,43,199,36,03,32,211,30,21,19,134,29,14,17,029,28*7A
$GPGSV,3,3,11,31,08,346,27,19,08,227,36,29,07,069,29*4D
$GPRMC,192042.002,A,1802.2864,S,07016.1793,W,19.54,75.99,290411,,,A*64
$GPGGA,192043.003,1802.2851,S,07016.1742,W,1,06,2.7,472.2,M,34.6,M,,0000*59
$GPGSA,M,3,22,30,16,06,03,21,,,,,,,5.2,2.7,4.4*3E
$GPRMC,192043.003,A,1802.2851,S,07016.1742,W,19.69,70.38,290411,,,A*6E
$GPGGA,192043.996,1802.2829,S,07016.1696,W,1,07,2.2,472.4,M,34.6,M,,0000*59
$GPGSA,M,3,22,30,16,18,06,03,21,,,,,,4.1,2.2,3.5*36
$GPRMC,192043.996,A,1802.2829,S,07016.1696,W,17.55,63.59,290411,,,A*68
$GPGGA,192044.999,1802.2801,S,07016.1657,W,1,07,2.2,471.5,M,34.6,M,,0000*54
$GPGSA,M,3,22,30,16,18,06,03,21,,,,,,4.1,2.2,3.5*36
$GPRMC,192044.999,A,1802.2801,S,07016.1657,W,15.86,59.22,290411,,,A*6E
$GPGGA,192046.002,1802.2772,S,07016.1619,W,1,07,2.2,471.1,M,34.6,M,,0000*58
$GPGSA,M,3,22,30,16,18,06,03,21,,,,,,4.1,2.2,3.5*36
$GPRMC,192046.002,A,1802.2772,S,07016.1619,W,15.56,53.70,290411,,,A*66
$GPGGA,192046.998,1802.2738,S,07016.1588,W,1,07,2.2,470.7,M,34.6,M,,0000*50
$GPGSA,M,3,22,30,16,18,06,03,21,,,,,,4.1,2.2,3.5*36
$GPGSV,3,1,11,22,81,063,36,30,66,311,33,16,62,252,40,18,49,133,30*76
$GPGSV,3,2,11,06,43,199,36,03,32,211,36,21,19,134,22,14,17,029,24*7B
$GPGSV,3,3,11,31,08,346,,19,08,227,30,29,07,069,35*43
$GPRMC,192046.998,A,1802.2738,S,07016.1588,W,14.94,46.14,290411,,,A*60
$GPGGA,192048.001,1802.2679,S,07016.1566,W,1,07,2.2,466.6,M,34.6,M,,0000*55
$GPGSA,M,3,22,30,16,18,06,03,21,,,,,,4.1,2.2,3.5*36
$GPRMC,192048.001,A,1802.2679,S,07016.1566,W,16.39,30.97,290411,,,A*6C
$GPGGA,192049.001,1802.2637,S,07016.1546,W,1,07,2.2,466.6,M,34.6,M,,0000*5C
$GPGSA,M,3,22,30,16,18,06,03,21,,,,,,4.1,2.2,3.5*36
$GPRMC,192049.001,A,1802.2637,S,07016.1546,W,15.36,25.51,290411,,,A*67
$GPGGA,192050.000,1802.2591,S,07016.1533,W,1,07,2.2,467.5,M,34.6,M,,0000*5A
$GPGSA,M,3,22,30,16,18,06,03,21,,,,,,4.1,2.2,3.5*36
$GPRMC,192050.000,A,1802.2591,S,07016.1533,W,16.95,18.19,290411,,,A*6B
$GPGGA,192051.001,1802.2532,S,07016.1523,W,1,07,2.2,467.5,M,34.6,M,,0000*52
$GPGSA,M,3,22,30,16,18,06,03,21,,,,,,4.1,2.2,3.5*36
$GPRMC,192051.001,A,1802.2532,S,07016.1523,W,16.10,15.36,290411,,,A*6E
$GPGGA,192052.001,1802.2481,S,07016.1536,W,1,07,2.2,467.6,M,34.6,M,,0000*5F
$GPGSA,M,3,22,30,16,18,06,03,21,,,,,,4.1,2.2,3.5*36
$GPGSV,3,1,11,22,81,063,35,30,66,311,36,16,62,252,36,18,49,133,37*76
$GPGSV,3,2,11,06,43,199,36,03,32,211,36,21,19,134,33,14,17,029,31*7F
$GPGSV,3,3,11,31,08,346,28,19,08,227,32,29,07,069,37*49
$GPRMC,192052.001,A,1802.2481,S,07016.1536,W,15.46,358.51,290411,,,A*5B
$GPGGA,192053.001,1802.2434,S,07016.1539,W,1,07,2.2,468.8,M,34.6,M,,0000*5E
$GPGSA,M,3,22,30,16,18,06,03,21,,,,,,4.1,2.2,3.5*36
$GPRMC,192053.001,A,1802.2434,S,07016.1539,W,16.79,356.48,290411,,,A*52
$GPGGA,192054.000,1802.2383,S,07016.1551,W,1,07,2.2,471.4,M,34.6,M,,0000*59
$GPGSA,M,3,22,30,16,18,06,03,21,,,,,,4.1,2.2,3.5*36
$GPRMC,192054.000,A,1802.2383,S,07016.1551,W,17.56,356.70,290411,,,A*56
$GPGGA,192055.002,1802.2333,S,07016.1546,W,1,07,2.2,472.1,M,34.6,M,,0000*51
$GPGSA,M,3,22,30,16,18,06,03,21,,,,,,4.1,2.2,3.5*36
$GPRMC,192055.002,A,1802.2333,S,07016.1546,W,18.45,359.67,290411,,,A*5C
$GPGGA,192055.998,1802.2277,S,07016.1541,W,1,07,2.2,471.7,M,34.6,M,,0000*58
$GPGSA,M,3,22,30,16,18,06,03,21,,,,,,4.1,2.2,3.5*36
$GPRMC,192055.998,A,1802.2277,S,07016.1541,W,18.82,6.92,290411,,,A*58
$GPGGA,192057.000,1802.2222,S,07016.1533,W,1,07,2.2,471.5,M,34.6,M,,0000*55
$GPGSA,M,3,22,30,16,18,06,03,21,,,,,,4.1,2.2,3.5*36
$GPGSV,3,1,11,22,81,063,36,30,66,311,34,16,62,252,39,18,49,133,29*77
$GPGSV,3,2,11,06,43,199,38,03,32,211,37,21,19,134,30,14,17,029,*71
$GPGSV,3,3,11,31,08,346,,19,08,227,19,29,07,069,*4E
$GPRMC,192057.000,A,1802.2222,S,07016.1533,W,19.10,14.68,290411,,,A*6B
$GPGGA,192058.026,1802.2169,S,07016.1519,W,0,00,,472.0,M,34.6,M,,0000*74
$GPGSA,M,1,,,,,,,,,,,,,,,*12
$GPRMC,192058.026,V,1802.2169,S,07016.1519,W,,,290411,,,N*7E
$GPGGA,192058.725,1802.2133,S,07016.1509,W,0,00,,472.3,M,34.6,M,,0000*7D
$GPGSA,M,1,,,,,,,,,,,,,,,*12
$GPRMC,192058.725,V,1802.2133,S,07016.1509,W,,,290411,,,N*74
$GPGGA,192059.000,1802.2119,S,07016.1505,W,0,00,,472.4,M,34.6,M,,0000*7F
$GPGSA,M,1,,,,,,,,,,,,,,,*12
$GPRMC,192059.000,V,1802.2119,S,07016.1505,W,,,290411,,,N*71
$GPGGA,192100.000,1802.2067,S,07016.1491,W,0,00,,472.8,M,34.6,M,,0000*7A
$GPGSA,M,1,,,,,,,,,,,,,,,*12
$GPRMC,192100.000,V,1802.2067,S,07016.1491,W,,,290411,,,N*78
$GPGGA,192101.000,,,,,0,00,,,M,0.0,M,,0000*5C
$GPGSA,M,1,,,,,,,,,,,,,,,*12
$GPGSV,3,1,11,22,81,065,,30,66,312,35,16,62,252,44,18,49,133,*77
$GPGSV,3,2,11,06,43,199,38,03,32,211,,21,19,134,,31,08,346,18*7C
$GPGSV,3,3,11,29,07,069,,14,18,029,27,19,08,227,*4F
$GPRMC,192101.000,V,,,,,,,290411,,,N*48
$GPGGA,192102.000,1802.1961,S,07016.1431,W,1,05,4.2,474.7,M,34.6,M,,0000*5B
$GPGSA,M,3,30,16,06,03,22,,,,,,,,9.1,4.2,8.0*39
$GPRMC,192102.000,A,1802.1961,S,07016.1431,W,19.94,28.96,290411,,,A*64
$GPGGA,192103.000,1802.1917,S,07016.1386,W,1,06,2.7,480.9,M,34.6,M,,0000*55
$GPGSA,M,3,30,16,06,03,21,22,,,,,,,5.1,2.7,4.4*3D
$GPRMC,192103.000,A,1802.1917,S,07016.1386,W,23.31,36.44,290411,,,A*69
$GPGGA,192104.000,1802.1876,S,07016.1352,W,1,06,2.7,488.3,M,34.6,M,,0000*5F
$GPGSA,M,3,30,16,06,03,21,22,,,,,,,5.1,2.7,4.4*3D
$GPRMC,192104.000,A,1802.1876,S,07016.1352,W,24.06,36.92,290411,,,A*69
$GPGGA,192105.000,1802.1820,S,07016.1316,W,1,06,2.7,491.4,M,34.6,M,,0000*52
$GPGSA,M,3,30,16,06,03,21,22,,,,,,,5.1,2.7,4.4*3D
$GPRMC,192105.000,A,1802.1820,S,07016.1316,W,24.40,35.73,290411,,,A*65
$GPGGA,192106.000,1802.1763,S,07016.1281,W,1,06,2.7,492.8,M,34.6,M,,0000*59
$GPGSA,M,3,30,16,06,03,21,22,,,,,,,5.1,2.7,4.4*3D
$GPGSV,3,1,11,22,81,065,36,30,66,312,24,16,62,252,43,18,49,133,*75
$GPGSV,3,2,11,06,43,199,39,03,32,211,38,21,19,134,33,31,08,346,25*78
$GPGSV,3,3,11,29,07,069,,14,18,029,26,19,08,227,*4E
$GPRMC,192106.000,A,1802.1763,S,07016.1281,W,24.79,35.05,290411,,,A*6A
$GPGGA,192107.000,1802.1704,S,07016.1244,W,1,06,2.7,493.8,M,34.6,M,,0000*51
$GPGSA,M,3,30,16,06,03,21,22,,,,,,,5.1,2.7,4.4*3D
$GPRMC,192107.000,A,1802.1704,S,07016.1244,W,25.21,34.57,290411,,,A*69
$GPGGA,192108.000,1802.1646,S,07016.1202,W,1,07,2.2,495.0,M,34.6,M,,0000*51
$GPGSA,M,3,30,16,06,03,21,18,22,,,,,,4.1,2.2,3.4*37
$GPRMC,192108.000,A,1802.1646,S,07016.1202,W,25.40,34.31,290411,,,A*64
$GPGGA,192109.000,1802.1588,S,07016.1164,W,1,07,2.2,496.5,M,34.6,M,,0000*54
$GPGSA,M,3,30,16,06,03,21,18,22,,,,,,4.1,2.2,3.4*37
$GPRMC,192109.000,A,1802.1588,S,07016.1164,W,25.56,34.30,290411,,,A*61
$GPGGA,192110.000,1802.1529,S,07016.1119,W,1,07,2.2,497.9,M,34.6,M,,0000*50
$GPGSA,M,3,30,16,06,03,21,18,22,,,,,,4.1,2.2,3.4*37
$GPRMC,192110.000,A,1802.1529,S,07016.1119,W,25.73,34.01,290411,,,A*6D
$GPGGA,192111.000,1802.1469,S,07016.1078,W,1,07,2.2,498.9,M,34.6,M,,0000*5D
$GPGSA,M,3,30,16,06,03,21,18,22,,,,,,4.1,2.2,3.4*37
$GPGSV,3,1,11,22,81,065,37,30,66,312,26,16,62,252,43,18,49,133,34*71
$GPGSV,3,2,11,06,43,199,38,03,32,211,38,21,19,134,33,31,08,346,20*7C
$GPGSV,3,3,11,29,07,069,,14,18,029,28,19,08,227,*40
$GPRMC,192111.000,A,1802.1469,S,07016.1078,W,25.70,33.81,290411,,,A*63
$GPGGA,192112.000,1802.1409,S,07016.1037,W,1,07,2.2,499.5,M,34.6,M,,0000*5E
$GPGSA,M,3,30,16,06,03,21,18,22,,,,,,4.1,2.2,3.4*37
$GPRMC,192112.000,A,1802.1409,S,07016.1037,W,25.61,33.74,290411,,,A*67
$GPGGA,192113.016,1802.1348,S,07016.0995,W,1,07,2.2,499.8,M,34.6,M,,0000*57
$GPGSA,M,3,22,30,16,18,06,03,21,,,,,,4.1,2.2,3.4*37
$GPRMC,192113.016,A,1802.1348,S,07016.0995,W,25.44,32.03,290411,,,A*65
$GPGGA,192113.985,1802.1292,S,07016.0954,W,1,07,2.2,500.1,M,34.6,M,,0000*57
$GPGSA,M,3,22,30,16,18,06,03,21,,,,,,4.1,2.2,3.4*37
$GPRMC,192113.985,A,1802.1292,S,07016.0954,W,24.48,33.71,290411,,,A*64
$GPGGA,192114.999,1802.1236,S,07016.0913,W,1,07,2.2,500.9,M,34.6,M,,0000*58
$GPGSA,M,3,22,30,16,18,06,03,21,,,,,,4.1,2.2,3.4*37
$GPRMC,192114.999,A,1802.1236,S,07016.0913,W,24.54,32.41,290411,,,A*6C
$GPGGA,192116.000,1802.1178,S,07016.0873,W,1,07,2.2,501.3,M,34.6,M,,0000*56
$GPGSA,M,3,22,30,16,18,06,03,21,,,,,,4.0,2.2,3.4*36
$GPRMC,192116.000,A,1802.1178,S,07016.0873,W,24.96,33.35,290411,,,A*65
$GPGGA,192117.002,1802.1118,S,07016.0830,W,1,07,2.2,501.4,M,34.6,M,,0000*53
$GPGSA,M,3,22,30,16,18,06,03,21,,,,,,4.0,2.2,3.4*36
$GPGSV,3,1,11,22,81,065,35,30,66,312,27,16,62,252,39,18,49,133,32*79
$GPGSV,3,2,11,06,43,199,35,03,32,211,36,21,19,134,29,14,18,029,29*71
$GPGSV,3,3,11,31,08,346,,19,08,227,31,29,07,069,*44
$GPRMC,192117.002,A,1802.1118,S,07016.0830,W,24.90,32.67,290411,,,A*67
$GPGGA,192117.998,1802.1061,S,07016.0790,W,1,07,2.2,502.5,M,34.6,M,,0000*51
$GPGSA,M,3,22,30,16,18,06,03,21,,,,,,4.0,2.2,3.4*36
$GPRMC,192117.998,A,1802.1061,S,07016.0790,W,25.21,32.68,290411,,,A*63
$GPGGA,192119.000,1802.1001,S,07016.0748,W,1,07,2.2,502.5,M,34.6,M,,0000*54
$GPGSA,M,3,22,30,16,18,06,03,21,,,,,,4.0,2.2,3.4*36
$GPRMC,192119.000,A,1802.1001,S,07016.0748,W,25.53,34.24,290411,,,A*6D
$GPGGA,192120.000,1802.0944,S,07016.0706,W,1,07,2.2,502.8,M,34.6,M,,0000*50
$GPGSA,M,3,22,30,16,18,06,03,21,,,,,,4.0,2.2,3.4*36
$GPRMC,192120.000,A,1802.0944,S,07016.0706,W,24.58,32.10,290411,,,A*6F
$GPGGA,192121.000,1802.0885,S,07016.0665,W,1,07,2.2,503.5,M,34.6,M,,0000*55
$GPGSA,M,3,22,30,16,18,06,03,21,,,,,,4.0,2.2,3.4*36
$GPRMC,192121.000,A,1802.0885,S,07016.0665,W,24.79,32.19,290411,,,A*6C
$GPGGA,192122.000,1802.0827,S,07016.0625,W,1,07,2.2,504.0,M,34.6,M,,0000*58
$GPGSA,M,3,22,30,16,18,06,03,21,,,,,,4.0,2.2,3.4*36
$GPGSV,3,1,11,22,81,065,36,30,66,312,28,16,62,252,38,18,49,133,31*77
$GPGSV,3,2,11,06,43,199,36,03,32,211,36,21,19,134,32,14,18,029,28*79
$GPGSV,3,3,11,31,08,346,,19,08,227,32,29,07,069,26*43
$GPRMC,192122.000,A,1802.0827,S,07016.0625,W,25.10,31.99,290411,,,A*66
$GPGGA,192123.000,1802.0765,S,07016.0586,W,1,07,2.1,503.3,M,34.6,M,,0000*5D
$GPGSA,M,3,22,30,16,18,06,03,21,,,,,,4.0,2.1,3.4*35
$GPRMC,192123.000,A,1802.0765,S,07016.0586,W,25.88,32.88,290411,,,A*66
$GPGGA,192124.000,1802.0704,S,07016.0546,W,1,07,2.1,502.9,M,34.6,M,,0000*5A
$GPGSA,M,3,22,30,16,18,06,03,21,,,,,,4.0,2.1,3.4*35
$GPRMC,192124.000,A,1802.0704,S,07016.0546,W,25.53,34.05,290411,,,A*6F
$GPGGA,192125.002,1802.0640,S,07016.0504,W,1,07,2.1,502.7,M,34.6,M,,0000*50
$GPGSA,M,3,22,30,16,18,06,03,21,,,,,,4.0,2.1,3.4*35
$GPRMC,192125.002,A,1802.0640,S,07016.0504,W,26.11,34.34,290411,,,A*6C
$GPGGA,192126.000,1802.0580,S,07016.0459,W,1,07,2.1,503.5,M,34.6,M,,0000*54
$GPGSA,M,3,22,30,16,18,06,03,21,,,,,,4.0,2.1,3.4*35
$GPRMC,192126.000,A,1802.0580,S,07016.0459,W,25.59,33.51,290411,,,A*60
$GPGGA,192127.000,1802.0522,S,07016.0420,W,1,07,2.1,503.7,M,34.6,M,,0000*51
$GPGSA,M,3,22,30,16,18,06,03,21,,,,,,4.0,2.1,3.4*35
$GPGSV,3,1,11,22,81,065,36,30,66,312,28,16,62,252,38,18,49,133,35*73
$GPGSV,3,2,11,06,43,199,36,03,32,211,36,21,19,134,29,14,18,029,29*72
$GPGSV,3,3,11,31,08,346,,19,08,227,31,29,07,069,*44
$GPRMC,192127.000,A,1802.0522,S,07016.0420,W,25.06,32.72,290411,,,A*6D
$GPGGA,192128.001,1802.0462,S,07016.0376,W,1,07,2.1,504.7,M,34.6,M,,0000*59
$GPGSA,M,3,22,30,16,18,06,03,21,,,,,,4.0,2.1,3.4*35
$GPRMC,192128.001,A,1802.0462,S,07016.0376,W,25.97,32.85,290411,,,A*62
$GPGGA,192129.000,1802.0400,S,07016.0334,W,1,06,3.3,504.7,M,34.6,M,,0000*59
$GPGSA,M,3,22,30,16,18,06,03,,,,,,,8.1,3.3,7.4*3C
$GPRMC,192129.000,A,1802.0400,S,07016.0334,W,25.03,34.02,290411,,,A*64
$GPGGA,192130.001,1802.0338,S,07016.0292,W,1,07,2.1,504.4,M,34.6,M,,0000*50
$GPGSA,M,3,22,30,16,18,06,03,21,,,,,,4.0,2.1,3.4*35
$GPRMC,192130.001,A,1802.0338,S,07016.0292,W,25.34,32.95,290411,,,A*60
$GPGGA,192131.001,1802.0277,S,07016.0254,W,1,07,2.1,504.1,M,34.6,M,,0000*54
$GPGSA,M,3,22,30,16,18,06,03,21,,,,,,4.0,2.1,3.4*35
$GPRMC,192131.001,A,1802.0277,S,07016.0254,W,24.74,30.30,290411,,,A*69
$GPGGA,192131.999,1802.0214,S,07016.0212,W,1,07,2.1,503.8,M,34.6,M,,0000*55
$GPGSA,M,3,22,30,16,18,06,03,21,,,,,,4.0,2.1,3.4*35
$GPGSV,3,1,11,22,81,065,36,30,66,312,32,16,62,252,41,18,49,133,33*70
$GPGSV,3,2,11,06,43,199,36,03,32,211,36,21,19,134,33,14,18,029,27*77
$GPGSV,3,3,11,31,08,346,,19,08,227,,29,07,069,*46
$GPRMC,192131.999,A,1802.0214,S,07016.0212,W,25.14,31.68,290411,,,A*6D
$GPGGA,192133.002,1802.0156,S,07016.0171,W,1,07,2.1,504.0,M,34.6,M,,0000*50
$GPGSA,M,3,22,30,16,18,06,03,21,,,,,,4.0,2.1,3.4*35
$GPRMC,192133.002,A,1802.0156,S,07016.0171,W,24.06,34.22,290411,,,A*6E
$GPGGA,192133.999,1802.0102,S,07016.0135,W,1,06,3.3,504.6,M,34.6,M,,0000*5E
$GPGSA,M,3,22,30,16,18,06,03,,,,,,,8.1,3.3,7.4*3C
$GPRMC,192133.999,A,1802.0102,S,07016.0135,W,23.20,33.45,290411,,,A*61
$GPGGA,192135.001,1802.0051,S,07016.0098,W,1,07,2.1,505.0,M,34.6,M,,0000*54
$GPGSA,M,3,22,30,16,18,06,03,21,,,,,,4.0,2.1,3.4*35
$GPRMC,192135.001,A,1802.0051,S,07016.0098,W,21.58,35.29,290411,,,A*6F
$GPGGA,192136.000,1802.0006,S,07016.0059,W,1,07,2.1,506.2,M,34.6,M,,0000*58
$GPGSA,M,3,22,30,16,18,06,03,21,,,,,,4.0,2.1,3.4*35
$GPRMC,192136.000,A,1802.0006,S,07016.0059,W,21.03,37.85,290411,,,A*68
$GPGGA,192137.000,1801.9960,S,07016.0020,W,1,06,3.3,506.1,M,34.6,M,,0000*55
$GPGSA,M,3,22,30,16,18,06,03,,,,,,,8.0,3.3,7.4*3D
$GPGSV,3,1,11,22,81,065,36,30,66,312,34,16,62,252,40,18,49,133,37*73
$GPGSV,3,2,11,06,43,199,35,03,32,211,35,21,19,134,,14,18,029,*72
$GPGSV,3,3,11,31,08,346,29,19,08,227,29,29,07,069,29*4D
$GPRMC,192137.000,A,1801.9960,S,07016.0020,W,20.42,42.66,290411,,,A*6F
$GPGGA,192137.998,1801.9926,S,07015.9974,W,1,06,3.3,508.7,M,34.6,M,,0000*55
$GPGSA,M,3,22,30,16,18,06,03,,,,,,,8.0,3.3,7.4*3D
$GPRMC,192137.998,A,1801.9926,S,07015.9974,W,19.53,47.42,290411,,,A*6E
$GPGGA,192139.004,1801.9892,S,07015.9930,W,1,07,2.1,508.7,M,34.6,M,,0000*5B
$GPGSA,M,3,22,30,16,18,06,03,21,,,,,,4.0,2.1,3.4*35
$GPRMC,192139.004,A,1801.9892,S,07015.9930,W,19.65,50.85,290411,,,A*6A
$GPGGA,192140.000,1801.9865,S,07015.9883,W,1,07,2.1,509.3,M,34.6,M,,0000*55
$GPGSA,M,3,22,30,16,18,06,03,21,,,,,,4.0,2.1,3.4*35
$GPRMC,192140.000,A,1801.9865,S,07015.9883,W,19.61,56.71,290411,,,A*68
$GPGGA,192140.996,1801.9839,S,07015.9834,W,1,07,2.1,509.3,M,34.6,M,,0000*56
$GPGSA,M,3,22,30,16,18,06,03,21,,,,,,4.0,2.1,3.4*35
$GPRMC,192140.996,A,1801.9839,S,07015.9834,W,18.95,59.93,290411,,,A*62
$GPGGA,192142.002,1801.9817,S,07015.9784,W,1,07,2.1,508.4,M,34.6,M,,0000*5E
$GPGSA,M,3,22,30,16,18,06,03,21,,,,,,4.0,2.1,3.4*35
$GPGSV,3,1,11,22,81,065,37,30,66,312,38,16,62,252,38,18,49,133,26*71
$GPGSV,3,2,11,06,43,199,36,03,32,211,32,21,19,134,35,14,18,029,*70
$GPGSV,3,3,11,31,08,346,31,19,08,227,32,29,07,069,*45
$GPRMC,192142.002,A,1801.9817,S,07015.9784,W,19.47,65.93,290411,,,A*6D
$GPGGA,192142.999,1801.9798,S,07015.9735,W,1,07,2.1,508.4,M,34.6,M,,0000*57
$GPGSA,M,3,22,30,16,18,06,03,21,,,,,,4.0,2.1,3.4*35
$GPRMC,192142.999,A,1801.9798,S,07015.9735,W,18.65,62.73,290411,,,A*6C
$GPGGA,192144.002,1801.9778,S,07015.9692,W,1,07,2.1,509.6,M,34.6,M,,0000*5B
$GPGSA,M,3,22,30,16,18,06,03,21,,,,,,4.0,2.1,3.4*35
$GPRMC,192144.002,A,1801.9778,S,07015.9692,W,16.80,57.31,290411,,,A*66
$GPGGA,192145.000,1801.9750,S,07015.9654,W,1,07,2.1,509.2,M,34.6,M,,0000*5C
$GPGSA,M,3,22,30,16,18,06,03,21,,,,,,4.0,2.1,3.4*35
$GPRMC,192145.000,A,1801.9750,S,07015.9654,W,15.65,53.11,290411,,,A*6B
$GPGGA,192146.000,1801.9714,S,07015.9621,W,1,07,2.1,507.7,M,34.6,M,,0000*56
$GPGSA,M,3,22,30,16,18,06,03,21,,,,,,4.0,2.1,3.4*35
$GPRMC,192146.000,A,1801.9714,S,07015.9621,W,16.48,44.70,290411,,,A*67
$GPGGA,192146.997,1801.9669,S,07015.9590,W,1,07,2.1,507.0,M,34.6,M,,0000*54
$GPGSA,M,3,22,30,16,18,06,03,21,,,,,,4.0,2.1,3.4*35
$GPGSV,3,1,11,22,81,065,36,30,66,312,31,16,62,252,35,18,49,133,37*74
$GPGSV,3,2,11,06,43,199,37,03,32,211,38,21,19,134,28,14,18,029,*77
$GPGSV,3,3,11,31,08,346,,19,08,227,34,29,07,069,*41
$GPRMC,192146.997,A,1801.9669,S,07015.9590,W,16.77,36.49,290411,,,A*61
$GPGGA,192148.003,1801.9624,S,07015.9559,W,1,07,2.1,508.1,M,34.6,M,,0000*5C
$GPGSA,M,3,22,30,16,18,06,03,21,,,,,,4.0,2.1,3.4*35
$GPRMC,192148.003,A,1801.9624,S,07015.9559,W,18.33,32.18,290411,,,A*69
$GPGGA,192148.999,1801.9573,S,07015.9543,W,1,07,2.1,507.8,M,34.6,M,,0000*5A
$GPGSA,M,3,22,30,16,18,06,03,21,,,,,,4.0,2.1,3.4*35
$GPRMC,192148.999,A,1801.9573,S,07015.9543,W,19.06,24.64,290411,,,A*62
$GPGGA,192150.001,1801.9519,S,07015.9529,W,1,07,2.1,509.2,M,34.6,M,,0000*5F
$GPGSA,M,3,22,30,16,18,06,03,21,,,,,,4.0,2.1,3.4*35
$GPRMC,192150.001,A,1801.9519,S,07015.9529,W,19.21,17.00,290411,,,A*64
$GPGGA,192150.999,1801.9460,S,07015.9533,W,1,07,2.1,507.8,M,34.6,M,,0000*57
$GPGSA,M,3,22,30,16,18,06,03,21,,,,,,4.0,2.1,3.4*35
$GPRMC,192150.999,A,1801.9460,S,07015.9533,W,19.41,4.25,290411,,,A*5B
$GPGGA,192152.000,1801.9410,S,07015.9522,W,1,07,2.1,508.2,M,34.6,M,,0000*5E
$GPGSA,M,3,22,30,16,18,06,03,21,,,,,,4.0,2.1,3.4*35
$GPGSV,3,1,11,22,81,065,35,30,66,312,36,16,62,252,37,18,49,133,35*70
$GPGSV,3,2,11,06,43,199,37,03,32,211,37,21,19,134,35,14,18,029,*74
$GPGSV,3,3,11,31,08,346,24,19,08,227,26,29,07,069,*44
$GPRMC,192152.000,A,1801.9410,S,07015.9522,W,19.38,5.44,290411,,,A*5F
$GPGGA,192152.998,1801.9353,S,07015.9510,W,1,07,2.1,507.7,M,34.6,M,,0000*5D
$GPGSA,M,3,22,30,16,18,06,03,21,,,,,,4.0,2.1,3.4*35
$GPRMC,192152.998,A,1801.9353,S,07015.9510,W,20.12,12.42,290411,,,A*64
$GPGGA,192154.000,1801.9288,S,07015.9494,W,1,07,2.1,505.3,M,34.6,M,,0000*5F
$GPGSA,M,3,22,30,16,18,06,03,21,,,,,,4.0,2.1,3.4*35
$GPRMC,192154.000,A,1801.9288,S,07015.9494,W,20.72,18.18,290411,,,A*63
$GPGGA,192155.004,1801.9228,S,07015.9474,W,1,07,2.1,503.4,M,34.6,M,,0000*5F
$GPGSA,M,3,22,30,16,18,06,03,21,,,,,,4.0,2.1,3.4*35
$GPRMC,192155.004,A,1801.9228,S,07015.9474,W,21.39,26.57,290411,,,A*6A
$GPGGA,192155.998,1801.9167,S,07015.9448,W,1,07,2.1,500.9,M,34.6,M,,0000*5A
$GPGSA,M,3,22,30,16,18,06,03,21,,,,,,4.0,2.1,3.4*35
$GPRMC,192155.998,A,1801.9167,S,07015.9448,W,21.71,30.86,290411,,,A*66
$GPGGA,192157.002,1801.9114,S,07015.9408,W,1,07,2.1,500.9,M,34.6,M,,0000*52
$GPGSA,M,3,22,30,16,18,06,03,21,,,,,,4.0,2.1,3.4*35
$GPGSV,3,1,11,22,81,065,36,30,66,312,29,16,62,252,40,18,49,133,33*7B
$GPGSV,3,2,11,06,43,199,36,03,32,211,36,21,19,134,30,14,18,029,28*7B
$GPGSV,3,3,11,31,08,346,,19,08,227,,29,07,069,*46
$GPRMC,192157.002,A,1801.9114,S,07015.9408,W,22.06,32.59,290411,,,A*6D
$GPGGA,192157.999,1801.9065,S,07015.9377,W,1,07,2.1,501.9,M,34.6,M,,0000*50
$GPGSA,M,3,22,30,16,18,06,03,21,,,,,,4.0,2.1,3.4*35
$GPRMC,192157.999,A,1801.9065,S,07015.9377,W,22.51,31.52,290411,,,A*64
$GPGGA,192159.000,1801.9010,S,07015.9342,W,1,07,2.1,501.4,M,34.6,M,,0000*5E
$GPGSA,M,3,22,30,16,18,06,03,21,,,,,,4.0,2.1,3.4*35
$GPRMC,192159.000,A,1801.9010,S,07015.9342,W,22.33,31.45,290411,,,A*65
$GPGGA,192159.999,1801.8956,S,07015.9309,W,1,07,2.1,500.4,M,34.6,M,,0000*53
$GPGSA,M,3,22,30,16,18,06,03,21,,,,,,4.0,2.1,3.4*35
$GPRMC,192159.999,A,1801.8956,S,07015.9309,W,20.70,33.04,290411,,,A*6B
$GPGGA,192201.001,1801.8908,S,07015.9278,W,1,07,2.1,502.1,M,34.6,M,,0000*5E
$GPGSA,M,3,22,30,16,18,06,03,21,,,,,,4.0,2.1,3.4*35
$GPRMC,192201.001,A,1801.8908,S,07015.9278,W,20.69,31.88,290411,,,A*6F
$GPGGA,192202.002,1801.8865,S,07015.9244,W,1,07,2.1,502.9,M,34.6,M,,0000*53
$GPGSA,M,3,22,30,16,18,06,03,21,,,,,,4.0,2.1,3.4*35
$GPGSV,3,1,11,22,81,065,36,30,66,312,29,16,62,252,39,18,49,133,34*72
$GPGSV,3,2,11,06,43,199,37,03,32,211,34,21,19,134,32,14,18,029,29*7B
$GPGSV,3,3,11,31,08,346,25,19,08,227,29,29,07,069,*4A
$GPRMC,192202.002,A,1801.8865,S,07015.9244,W,19.15,33.35,290411,,,A*6F
$GPGGA,192202.999,1801.8822,S,07015.9218,W,1,07,2.1,503.1,M,34.6,M,,0000*5B
$GPGSA,M,3,22,30,16,18,06,03,21,,,,,,4.0,2.1,3.4*35
$GPRMC,192202.999,A,1801.8822,S,07015.9218,W,18.39,32.42,290411,,,A*60
$GPGGA,192204.000,1801.8785,S,07015.9188,W,1,07,2.1,504.1,M,34.6,M,,0000*5B
$GPGSA,M,3,22,30,16,18,06,03,21,,,,,,4.0,2.1,3.4*35
$GPRMC,192204.000,A,1801.8785,S,07015.9188,W,16.89,34.45,290411,,,A*63
$GPGGA,192205.000,1801.8745,S,07015.9158,W,1,07,2.1,503.0,M,34.6,M,,0000*5D
$GPGSA,M,3,22,30,16,18,06,03,21,,,,,,4.0,2.1,3.4*35
$GPRMC,192205.000,A,1801.8745,S,07015.9158,W,15.55,31.44,290411,,,A*65
$GPGGA,192205.999,1801.8713,S,07015.9139,W,1,07,2.1,503.2,M,34.6,M,,0000*52
$GPGSA,M,3,22,30,16,18,06,03,21,,,,,,4.0,2.1,3.4*35
$GPRMC,192205.999,A,1801.8713,S,07015.9139,W,13.07,29.46,290411,,,A*62
$GPGGA,192206.999,1801.8688,S,07015.9120,W,1,07,2.1,503.7,M,34.6,M,,0000*5F
$GPGSA,M,3,22,30,16,18,06,03,21,,,,,,4.0,2.1,3.4*35
$GPGSV,3,1,11,22,81,065,37,30,66,312,32,16,62,252,39,18,49,133,37*7A
$GPGSV,3,2,11,06,43,199,37,03,32,211,32,21,19,134,26,14,18,029,29*78
$GPGSV,3,3,11,31,08,346,,19,08,227,,29,07,069,*46
$GPRMC,192206.999,A,1801.8688,S,07015.9120,W,12.22,31.71,290411,,,A*61
$GPGGA,192208.000,1801.8660,S,07015.9109,W,1,07,2.1,503.4,M,34.6,M,,0000*56
$GPGSA,M,3,22,30,16,18,06,03,21,,,,,,4.0,2.1,3.4*35
$GPRMC,192208.000,A,1801.8660,S,07015.9109,W,10.29,32.35,290411,,,A*61
$GPGGA,192209.002,1801.8638,S,07015.9090,W,1,07,2.1,503.9,M,34.6,M,,0000*54
$GPGSA,M,3,22,30,16,18,06,03,21,,,,,,4.0,2.1,3.4*35
$GPRMC,192209.002,A,1801.8638,S,07015.9090,W,10.61,34.69,290411,,,A*6D
$GPGGA,192209.998,1801.8604,S,07015.9074,W,1,05,2.0,501.9,M,34.6,M,,0000*5A
$GPGSA,M,3,22,30,16,18,06,,,,,,,,2.2,2.0,1.0*36
$GPRMC,192209.998,A,1801.8604,S,07015.9074,W,11.49,36.01,290411,,,A*65
$GPGGA,192211.002,1801.8588,S,07015.9052,W,1,07,2.1,504.2,M,34.6,M,,0000*57
$GPGSA,M,3,22,30,16,18,06,03,21,,,,,,4.0,2.1,3.4*35
$GPRMC,192211.002,A,1801.8588,S,07015.9052,W,12.08,32.01,290411,,,A*67
$GPGGA,192212.000,1801.8558,S,07015.9027,W,1,07,2.1,503.9,M,34.6,M,,0000*55
$GPGSA,M,3,22,30,16,18,06,03,21,,,,,,4.0,2.1,3.4*35
$GPGSV,3,1,11,22,81,065,36,30,66,312,27,16,62,252,38,18,49,133,36*7F
$GPGSV,3,2,11,06,43,199,36,03,32,211,36,21,19,134,28,14,18,029,28*72
$GPGSV,3,3,11,31,08,346,,19,08,227,29,29,07,069,26*49
$GPRMC,192212.000,A,1801.8558,S,07015.9027,W,12.96,34.07,290411,,,A*6E
$GPGGA,192212.998,1801.8529,S,07015.9014,W,1,07,2.1,504.4,M,34.6,M,,0000*51
$GPGSA,M,3,22,30,16,18,06,03,21,,,,,,4.0,2.1,3.4*35
$GPRMC,192212.998,A,1801.8529,S,07015.9014,W,13.95,33.70,290411,,,A*65
$GPGGA,192214.002,1801.8491,S,07015.8989,W,1,07,2.1,502.6,M,34.6,M,,0000*57
$GPGSA,M,3,22,30,16,18,06,03,21,,,,,,4.0,2.1,3.4*35
$GPRMC,192214.002,A,1801.8491,S,07015.8989,W,14.56,32.87,290411,,,A*66
$GPGGA,192215.000,1801.8450,S,07015.8968,W,1,06,3.2,500.6,M,34.6,M,,0000*57
$GPGSA,M,3,22,30,16,18,06,03,,,,,,,7.9,3.2,7.3*3D
$GPRMC,192215.000,A,1801.8450,S,07015.8968,W,15.96,31.46,290411,,,A*64
$GPGGA,192215.998,1801.8413,S,07015.8942,W,1,07,2.1,500.7,M,34.6,M,,0000*52
$GPGSA,M,3,22,30,16,18,06,03,21,,,,,,4.0,2.1,3.4*35
$GPRMC,192215.998,A,1801.8413,S,07015.8942,W,16.17,31.38,290411,,,A*60
$GPGGA,192216.998,1801.8369,S,07015.8916,W,1,07,2.1,499.0,M,34.6,M,,0000*5C
$GPGSA,M,3,22,30,16,18,06,03,21,,,,,,4.0,2.1,3.4*35
$GPGSV,3,1,11,22,81,065,37,30,66,312,28,16,62,252,39,18,49,133,36*70
$GPGSV,3,2,11,06,43,199,36,03,32,211,36,21,19,134,34,14,18,029,29*7E
$GPGSV,3,3,11,31,08,346,,19,08,227,27,29,07,069,28*49
$GPRMC,192216.998,A,1801.8369,S,07015.8916,W,17.43,30.44,290411,,,A*62
$GPGGA,192218.002,1801.8321,S,07015.8885,W,1,06,3.2,497.4,M,34.6,M,,0000*56
$GPGSA,M,3,22,16,18,06,03,21,,,,,,,5.3,3.2,4.2*37
$GPRMC,192218.002,A,1801.8321,S,07015.8885,W,18.47,33.35,290411,,,A*6F
$GPGGA,192219.002,1801.8268,S,07015.8853,W,1,07,2.1,495.4,M,34.6,M,,0000*51
$GPGSA,M,3,22,30,16,18,06,03,21,,,,,,4.0,2.1,3.4*35
$GPRMC,192219.002,A,1801.8268,S,07015.8853,W,19.20,31.06,290411,,,A*6B
$GPGGA,192219.998,1801.8226,S,07015.8827,W,1,07,2.1,496.0,M,34.6,M,,0000*55
$GPGSA,M,3,22,30,16,18,06,03,21,,,,,,4.0,2.1,3.4*35
$GPRMC,192219.998,A,1801.8226,S,07015.8827,W,19.64,32.34,290411,,,A*6A
$GPGGA,192221.002,1801.8184,S,07015.8799,W,1,07,2.1,496.9,M,34.6,M,,0000*5C
$GPGSA,M,3,22,30,16,18,06,03,21,,,,,,4.0,2.1,3.3*32
$GPRMC,192221.002,A,1801.8184,S,07015.8799,W,18.93,32.65,290411,,,A*67
$GPGGA,192221.996,1801.8136,S,07015.8770,W,1,07,2.1,494.5,M,34.6,M,,0000*58
$GPGSA,M,3,22,30,16,18,06,03,21,,,,,,4.0,2.1,3.3*32
$GPGSV,3,1,11,22,81,065,36,30,66,312,32,16,62,252,39,18,49,133,32*7E
$GPGSV,3,2,11,06,43,199,36,03,32,211,35,21,19,134,31,14,18,029,28*79
$GPGSV,3,3,11,31,08,346,,19,08,227,28,29,07,069,23*4D
$GPRMC,192221.996,A,1801.8136,S,07015.8770,W,18.42,32.89,290411,,,A*63
$GPGGA,192223.000,1801.8092,S,07015.8741,W,1,07,2.1,493.6,M,34.6,M,,0000*55
$GPGSA,M,3,22,30,16,18,06,03,21,,,,,,4.0,2.1,3.3*32
$GPRMC,192223.000,A,1801.8092,S,07015.8741,W,18.35,31.50,290411,,,A*6D
$GPGGA,192224.002,1801.8051,S,07015.8710,W,1,07,2.1,493.8,M,34.6,M,,0000*55
$GPGSA,M,3,22,30,16,18,06,03,21,,,,,,4.0,2.1,3.3*32
$GPRMC,192224.002,A,1801.8051,S,07015.8710,W,17.31,32.64,290411,,,A*6C
$GPGGA,192224.998,1801.8009,S,07015.8685,W,1,06,3.2,493.6,M,34.6,M,,0000*52
$GPGSA,M,3,22,30,16,18,06,03,,,,,,,7.9,3.2,7.2*3C
$GPRMC,192224.998,A,1801.8009,S,07015.8685,W,17.16,33.53,290411,,,A*66
$GPGGA,192226.000,1801.7969,S,07015.8659,W,1,07,2.1,493.7,M,34.6,M,,0000*5B
$GPGSA,M,3,22,30,16,18,06,03,21,,,,,,4.0,2.1,3.3*32
$GPRMC,192226.000,A,1801.7969,S,07015.8659,W,16.81,33.64,290411,,,A*66
$GPGGA,192227.004,1801.7927,S,07015.8634,W,1,07,2.1,492.5,M,34.6,M,,0000*5C
$GPGSA,M,3,22,30,16,18,06,03,21,,,,,,3.9,2.1,3.3*3C
$GPGSV,3,1,11,22,81,065,36,30,66,312,30,16,62,252,40,18,49,133,35*75
$GPGSV,3,2,11,06,43,199,37,03,32,211,35,21,19,134,31,14,18,029,29*79
$GPGSV,3,3,11,31,08,346,,19,08,227,,29,07,069,*46
$GPRMC,192227.004,A,1801.7927,S,07015.8634,W,16.49,31.34,290411,,,A*61
$GPGGA,192227.997,1801.7888,S,07015.8607,W,1,06,3.2,492.0,M,34.6,M,,0000*5D
$GPGSA,M,3,22,30,16,18,06,03,,,,,,,7.9,3.2,7.2*3C
$GPRMC,192227.997,A,1801.7888,S,07015.8607,W,15.44,34.11,290411,,,A*6A
$GPGGA,192229.002,1801.7855,S,07015.8578,W,1,07,2.1,491.4,M,34.6,M,,0000*59
$GPGSA,M,3,22,30,16,18,06,03,21,,,,,,3.9,2.1,3.3*3C
$GPRMC,192229.002,A,1801.7855,S,07015.8578,W,15.16,35.84,290411,,,A*60
$GPGGA,192229.999,1801.7808,S,07015.8554,W,1,07,2.1,489.1,M,34.6,M,,0000*58
$GPGSA,M,3,22,30,16,18,06,03,21,,,,,,3.9,2.1,3.3*3C
$GPRMC,192229.999,A,1801.7808,S,07015.8554,W,15.31,30.43,290411,,,A*66
$GPGGA,192231.001,1801.7773,S,07015.8525,W,1,07,2.1,487.8,M,34.6,M,,0000*5B
$GPGSA,M,3,22,30,16,18,06,03,21,,,,,,3.9,2.1,3.3*3C
$GPRMC,192231.001,A,1801.7773,S,07015.8525,W,14.30,33.81,290411,,,A*6F
$GPGGA,192232.000,1801.7740,S,07015.8504,W,1,07,2.1,487.6,M,34.6,M,,0000*54
$GPGSA,M,3,22,30,16,18,06,03,21,,,,,,3.9,2.1,3.3*3C
$GPGSV,3,1,11,22,81,065,35,30,66,312,32,16,62,252,39,18,49,133,33*7C
$GPGSV,3,2,11,06,43,199,36,03,32,211,35,21,19,134,34,14,18,029,28*7C
$GPGSV,3,3,11,31,08,346,,19,08,227,29,29,07,069,*4D
$GPRMC,192232.000,A,1801.7740,S,07015.8504,W,13.73,30.91,290411,,,A*6C
$GPGGA,192233.001,1801.7714,S,07015.8478,W,1,06,3.2,488.6,M,34.6,M,,0000*53
$GPGSA,M,3,22,30,16,18,06,03,,,,,,,7.9,3.2,7.2*3C
$GPRMC,192233.001,A,1801.7714,S,07015.8478,W,12.58,32.48,290411,,,A*69
$GPGGA,192233.999,1801.7691,S,07015.8460,W,1,07,2.1,488.6,M,34.6,M,,0000*5D
$GPGSA,M,3,22,30,16,18,06,03,21,,,,,,3.9,2.1,3.3*3C
$GPRMC,192233.999,A,1801.7691,S,07015.8460,W,10.23,34.90,290411,,,A*69
$GPGGA,192234.998,1801.7664,S,07015.8449,W,1,07,2.1,486.8,M,34.6,M,,0000*5A
$GPGSA,M,3,22,30,16,18,06,03,21,,,,,,3.9,2.1,3.3*3C
$GPRMC,192234.998,A,1801.7664,S,07015.8449,W,8.97,34.56,290411,,,A*52
$GPGGA,192236.000,1801.7640,S,07015.8435,W,1,07,2.1,485.7,M,34.6,M,,0000*51
$GPGSA,M,3,22,30,16,18,06,03,21,,,,,,3.9,2.1,3.3*3C
$GPRMC,192236.000,A,1801.7640,S,07015.8435,W,8.70,33.88,290411,,,A*58
$GPGGA,192237.000,1801.7618,S,07015.8421,W,1,07,2.1,485.8,M,34.6,M,,0000*57
$GPGSA,M,3,22,30,16,18,06,03,21,,,,,,3.9,2.1,3.3*3C
$GPGSV,3,1,11,22,81,065,36,30,66,312,30,16,62,252,39,18,49,133,30*7E
$GPGSV,3,2,11,06,43,199,36,03,32,211,36,21,19,134,30,14,18,029,28*7B
$GPGSV,3,3,11,31,08,346,,19,08,227,,29,07,069,*46
$GPRMC,192237.000,A,1801.7618,S,07015.8421,W,9.53,30.49,290411,,,A*5F
$GPGGA,192238.001,1801.7602,S,07015.8405,W,1,07,2.1,488.2,M,34.6,M,,0000*53
$GPGSA,M,3,22,30,16,18,06,03,21,,,,,,3.9,2.1,3.3*3C
$GPRMC,192238.001,A,1801.7602,S,07015.8405,W,10.28,34.43,290411,,,A*66
$GPGGA,192239.000,1801.7579,S,07015.8386,W,1,07,2.1,488.5,M,34.6,M,,0000*57
$GPGSA,M,3,22,30,16,18,06,03,21,,,,,,3.9,2.1,3.3*3C
$GPRMC,192239.000,A,1801.7579,S,07015.8386,W,11.66,33.55,290411,,,A*6E
$GPGGA,192240.000,1801.7544,S,07015.8369,W,1,07,2.1,487.3,M,34.6,M,,0000*5F
$GPGSA,M,3,22,30,16,18,06,03,21,,,,,,3.9,2.1,3.3*3C
$GPRMC,192240.000,A,1801.7544,S,07015.8369,W,12.40,32.21,290411,,,A*6A
$GPGGA,192241.000,1801.7512,S,07015.8348,W,1,07,2.1,486.1,M,34.6,M,,0000*5D
$GPGSA,M,3,22,30,16,18,06,03,21,,,,,,3.9,2.1,3.3*3C
$GPRMC,192241.000,A,1801.7512,S,07015.8348,W,13.68,33.39,290411,,,A*68
$GPGGA,192242.000,1801.7472,S,07015.8325,W,1,06,3.2,485.0,M,34.6,M,,0000*53
$GPGSA,M,3,22,30,16,18,06,03,,,,,,,7.9,3.2,7.2*3C
$GPGSV,3,1,11,22,81,065,36,30,66,312,31,16,62,252,39,18,49,133,31*7E
$GPGSV,3,2,11,06,43,199,37,03,32,211,36,21,19,134,,14,18,029,*73
$GPGSV,3,3,11,31,08,346,,19,08,227,,29,07,069,*46
$GPRMC,192242.000,A,1801.7472,S,07015.8325,W,15.12,32.47,290411,,,A*64
$GPGGA,192243.002,1801.7441,S,07015.8300,W,1,07,2.1,486.8,M,34.6,M,,0000*5F
$GPGSA,M,3,22,30,16,18,06,03,21,,,,,,3.9,2.1,3.3*3C
$GPRMC,192243.002,A,1801.7441,S,07015.8300,W,15.76,34.57,290411,,,A*65
$GPGGA,192243.999,1801.7403,S,07015.8272,W,1,07,2.1,486.4,M,34.6,M,,0000*5A
$GPGSA,M,3,22,30,16,18,06,03,21,,,,,,3.9,2.1,3.3*3C
$GPRMC,192243.999,A,1801.7403,S,07015.8272,W,16.62,33.00,290411,,,A*6F
$GPGGA,192245.002,1801.7364,S,07015.8241,W,1,07,2.1,486.7,M,34.6,M,,0000*52
$GPGSA,M,3,22,30,16,18,06,03,21,,,,,,3.9,2.1,3.3*3C
$GPRMC,192245.002,A,1801.7364,S,07015.8241,W,17.58,34.63,290411,,,A*6E
$GPGGA,192245.998,1801.7326,S,07015.8211,W,1,07,2.1,488.3,M,34.6,M,,0000*51
$GPGSA,M,3,22,30,16,18,06,03,21,,,,,,3.9,2.1,3.3*3C
$GPRMC,192245.998,A,1801.7326,S,07015.8211,W,18.46,32.76,290411,,,A*65
$GPGGA,192246.998,1801.7289,S,07015.8180,W,1,07,2.1,489.5,M,34.6,M,,0000*5A
$GPGSA,M,3,22,30,16,18,06,03,21,,,,,,3.9,2.1,3.3*3C
$GPGSV,3,1,11,22,81,065,35,30,66,312,29,16,62,252,39,18,49,133,35*70
$GPGSV,3,2,11,06,43,199,37,03,32,211,35,21,19,134,32,14,18,029,26*75
$GPGSV,3,3,11,31,08,346,,19,08,227,,29,07,069,*46
$GPRMC,192246.998,A,1801.7289,S,07015.8180,W,18.42,33.42,290411,,,A*6B
$GPGGA,192248.002,1801.7242,S,07015.8149,W,1,07,2.1,488.3,M,34.6,M,,0000*5B
$GPGSA,M,3,22,30,16,18,06,03,21,,,,,,3.9,2.1,3.3*3C
$GPRMC,192248.002,A,1801.7242,S,07015.8149,W,19.01,32.90,290411,,,A*65
$GPGGA,192249.000,1801.7202,S,07015.8116,W,1,07,2.1,490.4,M,34.6,M,,0000*58
$GPGSA,M,3,22,30,16,18,06,03,21,,,,,,3.9,2.1,3.3*3C
$GPRMC,192249.000,A,1801.7202,S,07015.8116,W,18.39,33.02,290411,,,A*68
$GPGGA,192250.000,1801.7154,S,07015.8089,W,1,07,2.1,488.1,M,34.6,M,,0000*5B
$GPGSA,M,3,22,30,16,18,06,03,21,,,,,,3.9,2.1,3.3*3C
$GPRMC,192250.000,A,1801.7154,S,07015.8089,W,18.25,31.97,290411,,,A*64
$GPGGA,192251.000,1801.7118,S,07015.8060,W,1,07,2.1,490.4,M,34.6,M,,0000*59
$GPGSA,M,3,22,30,16,18,06,03,21,,,,,,3.9,2.1,3.3*3C
$GPRMC,192251.000,A,1801.7118,S,07015.8060,W,18.15,33.20,290411,,,A*67
$GPGGA,192251.998,1801.7076,S,07015.8027,W,1,07,2.1,490.2,M,34.6,M,,0000*5D
$GPGSA,M,3,22,30,16,18,06,03,21,,,,,,3.9,2.1,3.3*3C
$GPGSV,3,1,11,22,81,065,35,30,66,312,30,16,62,252,39,18,49,133,31*7C
$GPGSV,3,2,11,06,43,199,36,03,32,211,35,21,19,134,33,14,18,029,29*7A
$GPGSV,3,3,11,31,08,346,,19,08,227,27,29,07,069,28*49
$GPRMC,192251.998,A,1801.7076,S,07015.8027,W,18.05,32.57,290411,,,A*65
$GPGGA,192253.002,1801.7034,S,07015.7996,W,1,07,2.1,490.8,M,34.6,M,,0000*55
$GPGSA,M,3,22,30,16,18,06,03,21,,,,,,3.9,2.1,3.3*3C
$GPRMC,192253.002,A,1801.7034,S,07015.7996,W,19.30,33.65,290411,,,A*60
$GPGGA,192254.001,1801.6992,S,07015.7966,W,1,07,2.1,491.3,M,34.6,M,,0000*50
$GPGSA,M,3,22,30,16,18,06,03,21,,,,,,3.9,2.1,3.3*3C
$GPRMC,192254.001,A,1801.6992,S,07015.7966,W,18.74,34.94,290411,,,A*67
$GPGGA,192254.998,1801.6953,S,07015.7935,W,1,07,2.1,493.1,M,34.6,M,,0000*52
$GPGSA,M,3,22,30,16,18,06,03,21,,,,,,3.9,2.1,3.3*3C
$GPRMC,192254.998,A,1801.6953,S,07015.7935,W,19.66,33.56,290411,,,A*6E
$GPGGA,192256.002,1801.6904,S,07015.7901,W,1,07,2.1,493.3,M,34.6,M,,0000*5D
$GPGSA,M,3,22,30,16,18,06,03,21,,,,,,3.9,2.1,3.3*3C
$GPRMC,192256.002,A,1801.6904,S,07015.7901,W,20.20,32.41,290411,,,A*6C
$GPGGA,192257.001,1801.6860,S,07015.7871,W,1,07,2.1,494.2,M,34.6,M,,0000*5C
$GPGSA,M,3,22,30,16,18,06,03,21,,,,,,3.9,2.1,3.3*3C
$GPGSV,3,1,11,22,81,065,35,30,66,312,28,16,62,252,39,18,49,133,34*70
$GPGSV,3,2,11,06,43,199,37,03,32,211,35,21,19,134,33,14,18,029,27*75
$GPGSV,3,3,11,31,08,346,,19,08,227,29,29,07,069,29*46
$GPRMC,192257.001,A,1801.6860,S,07015.7871,W,19.63,33.50,290411,,,A*67
$GPGGA,192258.000,1801.6812,S,07015.7839,W,1,07,2.1,494.6,M,34.6,M,,0000*5F
$GPGSA,M,3,22,30,16,18,06,03,21,,,,,,3.9,2.1,3.3*3C
$GPRMC,192258.000,A,1801.6812,S,07015.7839,W,20.19,32.50,290411,,,A*66
$GPGGA,192259.001,1801.6761,S,07015.7808,W,1,07,2.1,493.5,M,34.6,M,,0000*52
$GPGSA,M,3,22,30,16,18,06,03,21,,,,,,3.9,2.1,3.3*3C
$GPRMC,192259.001,A,1801.6761,S,07015.7808,W,20.49,30.66,290411,,,A*6D
$GPGGA,192300.002,1801.6706,S,07015.7777,W,1,07,2.1,492.0,M,34.6,M,,0000*5E
$GPGSA,M,3,22,30,16,18,06,03,21,,,,,,3.9,2.1,3.3*3C
$GPRMC,192300.002,A,1801.6706,S,07015.7777,W,20.67,32.37,290411,,,A*6F
$GPGGA,192300.998,1801.6653,S,07015.7749,W,1,07,2.1,490.3,M,34.6,M,,0000*59
$GPGSA,M,3,22,30,16,18,06,03,21,,,,,,3.9,2.1,3.3*3C
$GPRMC,192300.998,A,1801.6653,S,07015.7749,W,20.72,30.97,290411,,,A*65
$GPGGA,192302.000,1801.6603,S,07015.7721,W,1,07,2.1,489.7,M,34.6,M,,0000*54
$GPGSA,M,3,22,30,16,18,06,03,21,,,,,,3.9,2.1,3.3*3C
$GPGSV,3,1,11,22,81,065,36,30,66,312,31,16,62,252,39,18,49,133,36*79
$GPGSV,3,2,11,06,43,199,37,03,32,211,36,21,19,134,29,14,18,029,28*72
$GPGSV,3,3,11,31,08,346,,19,08,227,25,29,07,069,*41
$GPRMC,192302.000,A,1801.6603,S,07015.7721,W,20.26,32.82,290411,,,A*63
$GPGGA,192303.000,1801.6551,S,07015.7690,W,1,07,2.1,489.0,M,34.6,M,,0000*5D
$GPGSA,M,3,22,30,16,18,06,03,21,,,,,,3.9,2.1,3.3*3C
$GPRMC,192303.000,A,1801.6551,S,07015.7690,W,20.04,32.72,290411,,,A*62
$GPGGA,192303.998,1801.6507,S,07015.7656,W,1,07,2.1,490.1,M,34.6,M,,0000*55
$GPGSA,M,3,22,30,16,18,06,03,21,,,,,,3.9,2.1,3.3*3C
$GPRMC,192303.998,A,1801.6507,S,07015.7656,W,20.30,31.80,290411,,,A*6A
$GPGGA,192305.002,1801.6453,S,07015.7622,W,1,07,2.1,488.6,M,34.6,M,,0000*54
$GPGSA,M,3,22,30,16,18,06,03,21,,,,,,3.9,2.1,3.3*3C
$GPRMC,192305.002,A,1801.6453,S,07015.7622,W,21.80,32.99,290411,,,A*64
$GPGGA,192306.000,1801.6403,S,07015.7591,W,1,07,2.1,488.1,M,34.6,M,,0000*5C
$GPGSA,M,3,22,30,16,18,06,03,21,,,,,,3.9,2.1,3.3*3C
$GPRMC,192306.000,A,1801.6403,S,07015.7591,W,21.36,33.29,290411,,,A*6C
$GPGGA,192306.998,1801.6356,S,07015.7556,W,1,07,2.1,489.2,M,34.6,M,,0000*5A
$GPGSA,M,3,22,30,16,18,06,03,21,,,,,,3.9,2.1,3.3*3C
$GPGSV,3,1,11,22,81,065,34,30,66,312,30,16,62,252,38,18,49,133,34*79
$GPGSV,3,2,11,06,43,199,37,03,32,211,35,21,19,134,33,14,18,029,28*7A
$GPGSV,3,3,11,31,08,346,,19,08,227,,29,07,069,*46
$GPRMC,192306.998,A,1801.6356,S,07015.7556,W,21.14,32.46,290411,,,A*60
$GPGGA,192308.002,1801.6306,S,07015.7525,W,1,07,2.1,488.9,M,34.6,M,,0000*55
$GPGSA,M,3,22,30,16,18,06,03,21,,,,,,3.9,2.1,3.3*3C
$GPRMC,192308.002,A,1801.6306,S,07015.7525,W,20.32,32.73,290411,,,A*66
$GPGGA,192308.999,1801.6262,S,07015.7496,W,1,07,2.1,489.5,M,34.6,M,,0000*59
$GPGSA,M,3,22,30,16,18,06,03,21,,,,,,3.9,2.1,3.3*3C
$GPRMC,192308.999,A,1801.6262,S,07015.7496,W,19.43,32.23,290411,,,A*6E
$GPGGA,192310.000,1801.6221,S,07015.7467,W,1,07,2.1,489.8,M,34.6,M,,0000*5D
$GPGSA,M,3,22,30,16,18,06,03,21,,,,,,3.9,2.1,3.3*3C
$GPRMC,192310.000,A,1801.6221,S,07015.7467,W,18.45,32.99,290411,,,A*61
$GPGGA,192311.002,1801.6179,S,07015.7441,W,1,07,2.1,490.2,M,34.6,M,,0000*56
$GPGSA,M,3,22,30,16,18,06,03,21,,,,,,3.9,2.1,3.3*3C
$GPRMC,192311.002,A,1801.6179,S,07015.7441,W,18.09,29.13,290411,,,A*68
$GPGGA,192311.998,1801.6137,S,07015.7413,W,1,07,2.1,490.3,M,34.6,M,,0000*50
$GPGSA,M,3,22,30,16,18,06,03,21,,,,,,3.9,2.1,3.3*3C
$GPGSV,3,1,11,22,81,065,35,30,66,312,30,16,62,252,38,18,49,133,34*78
$GPGSV,3,2,11,06,43,199,36,03,32,211,33,21,19,134,33,14,18,029,28*7D
$GPGSV,3,3,11,31,08,346,,19,08,227,,29,07,069,24*40
$GPRMC,192311.998,A,1801.6137,S,07015.7413,W,16.82,31.87,290411,,,A*66
$GPGGA,192313.002,1801.6094,S,07015.7389,W,1,07,2.1,490.6,M,34.6,M,,0000*51
$GPGSA,M,3,22,30,16,18,06,03,21,,,,,,3.9,2.1,3.3*3C
$GPRMC,192313.002,A,1801.6094,S,07015.7389,W,15.80,31.80,290411,,,A*64
$GPGGA,192314.000,1801.6057,S,07015.7363,W,1,07,2.1,490.4,M,34.6,M,,0000*5D
$GPGSA,M,3,22,30,16,18,06,03,21,,,,,,3.9,2.1,3.3*3C
$GPRMC,192314.000,A,1801.6057,S,07015.7363,W,15.48,34.41,290411,,,A*66
$GPGGA,192315.000,1801.6022,S,07015.7336,W,1,07,2.1,490.6,M,34.6,M,,0000*5C
$GPGSA,M,3,22,30,16,18,06,03,21,,,,,,3.9,2.1,3.3*3C
$GPRMC,192315.000,A,1801.6022,S,07015.7336,W,16.22,33.32,290411,,,A*69
$GPGGA,192315.999,1801.5979,S,07015.7308,W,1,06,3.1,489.5,M,34.6,M,,0000*57
$GPGSA,M,3,22,30,16,18,06,03,,,,,,,7.8,3.1,7.1*3D
$GPRMC,192315.999,A,1801.5979,S,07015.7308,W,16.29,33.51,290411,,,A*67
$GPGGA,192316.999,1801.5933,S,07015.7286,W,1,07,2.1,486.9,M,34.6,M,,0000*5E
$GPGSA,M,3,22,30,16,18,06,03,21,,,,,,3.9,2.1,3.3*3C
$GPGSV,3,1,11,22,81,065,35,30,66,312,27,16,62,252,37,18,49,133,34*71
$GPGSV,3,2,11,06,43,199,37,03,32,211,35,21,19,134,21,14,18,029,30*70
$GPGSV,3,3,11,31,08,346,,19,08,227,,29,07,069,31*44
$GPRMC,192316.999,A,1801.5933,S,07015.7286,W,16.16,31.63,290411,,,A*62
$GPGGA,192318.000,1801.5901,S,07015.7258,W,1,07,2.1,487.9,M,34.6,M,,0000*5A
$GPGSA,M,3,22,30,16,18,06,03,21,,,,,,3.9,2.1,3.3*3C
$GPRMC,192318.000,A,1801.5901,S,07015.7258,W,16.63,33.25,290411,,,A*65
$GPGGA,192319.000,1801.5859,S,07015.7234,W,1,07,2.1,486.3,M,34.6,M,,0000*56
$GPGSA,M,3,22,30,16,18,06,03,21,,,,,,3.9,2.1,3.3*3C
$GPRMC,192319.000,A,1801.5859,S,07015.7234,W,15.24,30.80,290411,,,A*6E
$GPGGA,192320.000,1801.5821,S,07015.7210,W,1,07,2.1,486.2,M,34.6,M,,0000*54
$GPGSA,M,3,22,30,16,18,06,03,21,,,,,,3.9,2.1,3.3*3C
$GPRMC,192320.000,A,1801.5821,S,07015.7210,W,15.60,29.83,290411,,,A*66
$GPGGA,192321.000,1801.5791,S,07015.7180,W,1,07,2.1,488.6,M,34.6,M,,0000*51
$GPGSA,M,3,22,30,16,18,06,03,21,,,,,,3.9,2.1,3.3*3C
$GPRMC,192321.000,A,1801.5791,S,07015.7180,W,16.82,29.92,290411,,,A*66
$GPGGA,192322.000,1801.5752,S,07015.7152,W,1,07,2.1,489.1,M,34.6,M,,0000*54
$GPGSA,M,3,22,30,16,18,06,03,21,,,,,,3.9,2.1,3.3*3C
$GPGSV,3,1,11,22,81,065,36,30,66,312,30,16,62,252,38,18,49,133,31*7E
$GPGSV,3,2,11,06,43,199,36,03,32,211,35,21,19,134,30,14,18,029,27*77
$GPGSV,3,3,11,31,08,346,,19,08,227,,29,07,069,30*45
$GPRMC,192322.000,A,1801.5752,S,07015.7152,W,16.62,32.98,290411,,,A*6B
$GPGGA,192323.000,1801.5715,S,07015.7129,W,1,07,2.1,490.5,M,34.6,M,,0000*56
$GPGSA,M,3,22,30,16,18,06,03,21,,,,,,3.9,2.1,3.3*3C
$GPRMC,192323.000,A,1801.5715,S,07015.7129,W,16.08,31.98,290411,,,A*6A
$GPGGA,192324.000,1801.5671,S,07015.7103,W,1,07,2.1,490.0,M,34.6,M,,0000*5F
$GPGSA,M,3,22,30,16,18,06,03,21,,,,,,3.9,2.1,3.3*3C
$GPRMC,192324.000,A,1801.5671,S,07015.7103,W,16.80,29.58,290411,,,A*63
$GPGGA,192325.000,1801.5616,S,07015.7079,W,1,07,2.1,486.5,M,34.6,M,,0000*51
$GPGSA,M,3,22,30,16,18,06,03,21,,,,,,3.9,2.1,3.3*3C
$GPRMC,192325.000,A,1801.5616,S,07015.7079,W,18.02,29.07,290411,,,A*61
$GPGGA,192326.002,1801.5578,S,07015.7052,W,1,07,2.1,489.3,M,34.6,M,,0000*5B
$GPGSA,M,3,22,30,16,18,06,03,21,,,,,,3.9,2.1,3.3*3C
$GPRMC,192326.002,A,1801.5578,S,07015.7052,W,18.71,29.95,290411,,,A*6D
$GPGGA,192326.999,1801.5525,S,07015.7025,W,1,07,2.1,486.7,M,34.6,M,,0000*53
$GPGSA,M,3,22,30,16,18,06,03,21,,,,,,3.9,2.1,3.3*3C
$GPGSV,3,1,11,22,81,065,36,30,66,312,35,16,62,252,40,18,49,133,31*74
$GPGSV,3,2,11,06,43,199,36,03,32,211,36,21,19,134,32,14,18,029,28*79
$GPGSV,3,3,11,31,08,346,29,19,08,227,24,29,07,069,*4B
$GPRMC,192326.999,A,1801.5525,S,07015.7025,W,19.31,30.76,290411,,,A*6E
$GPGGA,192327.997,1801.5465,S,07015.6996,W,1,07,2.1,483.6,M,34.6,M,,0000*5D
$GPGSA,M,3,22,30,16,18,06,03,21,,,,,,3.9,2.1,3.3*3C
$GPRMC,192327.997,A,1801.5465,S,07015.6996,W,20.03,33.78,290411,,,A*62
$GPGGA,192329.002,1801.5414,S,07015.6965,W,1,07,2.1,482.9,M,34.6,M,,0000*52
$GPGSA,M,3,22,30,16,18,06,03,21,,,,,,3.9,2.1,3.3*3C
$GPRMC,192329.002,A,1801.5414,S,07015.6965,W,20.52,32.65,290411,,,A*6A
$GPGGA,192330.000,1801.5363,S,07015.6934,W,1,07,2.1,483.0,M,34.6,M,,0000*53
$GPGSA,M,3,22,30,16,18,06,03,21,,,,,,3.9,2.1,3.3*3C
$GPRMC,192330.000,A,1801.5363,S,07015.6934,W,20.47,31.98,290411,,,A*66
$GPGGA,192331.001,1801.5318,S,07015.6899,W,1,07,2.1,484.0,M,34.6,M,,0000*5E
$GPGSA,M,3,22,30,16,18,06,03,21,,,,,,3.9,2.1,3.3*3C
$GPRMC,192331.001,A,1801.5318,S,07015.6899,W,21.37,32.59,290411,,,A*64
$GPGGA,192332.001,1801.5267,S,07015.6866,W,1,07,2.1,484.2,M,34.6,M,,0000*56
$GPGSA,M,3,22,30,16,18,06,03,21,,,,,,3.9,2.1,3.3*3C
$GPGSV,3,1,11,22,81,065,36,30,66,312,34,16,62,252,41,18,49,133,29*7D
$GPGSV,3,2,11,06,43,199,37,03,32,211,36,21,19,134,30,14,18,029,26*74
$GPGSV,3,3,11,31,08,346,,19,08,227,20,29,07,069,*44
$GPRMC,192332.001,A,1801.5267,S,07015.6866,W,21.04,30.09,290411,,,A*69
$GPGGA,192332.999,1801.5220,S,07015.6827,W,1,07,2.1,485.4,M,34.6,M,,0000*5F
