$GPGGA,223624.992,1518.8341,S,07013.2171,W,1,09,1.1,3850.5,M,33.6,M,,0000*65
$GPGSA,M,3,19,03,06,32,14,11,24,31,22,,,,1.8,1.1,1.4*3F
$GPRMC,223624.992,A,1518.8341,S,07013.2171,W,27.52,92.44,240411,,,A*68
$GPGGA,223625.998,1518.8347,S,07013.2092,W,1,10,0.9,3850.2,M,33.6,M,,0000*62
$GPGSA,M,3,19,03,06,32,14,11,24,16,31,22,,,1.5,0.9,1.2*3A
$GPRMC,223625.998,A,1518.8347,S,07013.2092,W,27.63,93.62,240411,,,A*6E
$GPGGA,223627.004,1518.8353,S,07013.2011,W,1,10,0.9,3850.4,M,33.6,M,,0000*64
$GPGSA,M,3,19,03,06,32,14,11,24,16,31,22,,,1.5,0.9,1.2*3A
$GPRMC,223627.004,A,1518.8353,S,07013.2011,W,27.68,94.44,240411,,,A*66
$GPGGA,223628.007,1518.8357,S,07013.1930,W,1,09,1.1,3850.1,M,33.6,M,,0000*61
$GPGSA,M,3,19,03,06,32,14,11,24,31,22,,,,1.8,1.1,1.4*3F
$GPRMC,223628.007,A,1518.8357,S,07013.1930,W,27.71,93.39,240411,,,A*62
$GPGGA,223629.003,1518.8363,S,07013.1850,W,1,09,1.1,3849.8,M,33.6,M,,0000*65
$GPGSA,M,3,19,03,06,32,14,11,24,31,22,,,,1.8,1.1,1.4*3F
$GPRMC,223629.003,A,1518.8363,S,07013.1850,W,27.87,92.62,240411,,,A*61
$GPGGA,223629.998,1518.8368,S,07013.1768,W,1,09,1.1,3849.6,M,33.6,M,,0000*6F
$GPGSA,M,3,19,03,06,32,14,11,24,31,22,,,,1.8,1.1,1.4*3F
$GPRMC,223629.998,A,1518.8368,S,07013.1768,W,28.38,92.43,240411,,,A*6D
$GPGGA,223631.000,1518.8373,S,07013.1687,W,1,09,1.1,3849.4,M,33.6,M,,0000*66
$GPGSA,M,3,19,03,06,32,14,11,24,31,22,,,,1.8,1.1,1.4*3F
$GPRMC,223631.000,A,1518.8373,S,07013.1687,W,27.40,92.59,240411,,,A*6D
$GPGGA,223631.990,1518.8373,S,07013.1611,W,1,09,1.1,3848.1,M,33.6,M,,0000*6D
$GPGSA,M,3,19,03,06,32,14,11,24,31,22,,,,1.8,1.1,1.4*3F
$GPGSV,3,1,12,19,75,206,37,03,69,007,37,06,53,028,31,32,46,265,37*73
$GPGSV,3,2,12,14,34,128,38,11,28,214,36,20,24,279,36,24,20,223,36*7E
$GPGSV,3,3,12,16,14,356,,31,12,051,35,23,11,335,37,22,11,138,38*7A
$GPRMC,223631.990,A,1518.8373,S,07013.1611,W,27.42,92.89,240411,,,A*6D
$GPGGA,223633.013,1518.8379,S,07013.1529,W,1,08,1.5,3847.9,M,33.6,M,,0000*6D
$GPGSA,M,3,19,03,06,32,14,11,24,22,,,,,2.8,1.5,2.4*39
$GPRMC,223633.013,A,1518.8379,S,07013.1529,W,27.40,92.41,240411,,,A*69
$GPGGA,223633.989,1518.8383,S,07013.1450,W,1,09,1.1,3847.7,M,33.6,M,,0000*66
$GPGSA,M,3,19,03,06,32,14,11,24,31,22,,,,1.8,1.1,1.4*3F
$GPRMC,223633.989,A,1518.8383,S,07013.1450,W,27.78,92.51,240411,,,A*63
$GPGGA,223635.009,1518.8390,S,07013.1372,W,1,09,1.1,3847.0,M,33.6,M,,0000*63
$GPGSA,M,3,19,03,06,32,14,11,24,31,22,,,,1.8,1.1,1.4*3F
$GPRMC,223635.009,A,1518.8390,S,07013.1372,W,27.43,92.51,240411,,,A*69
$GPGGA,223635.990,1518.8390,S,07013.1293,W,1,10,0.9,3847.2,M,33.6,M,,0000*67
$GPGSA,M,3,19,03,06,32,14,11,24,16,31,22,,,1.5,0.9,1.2*3A
$GPRMC,223635.990,A,1518.8390,S,07013.1293,W,27.99,92.19,240411,,,A*65
$GPGGA,223637.010,1518.8391,S,07013.1212,W,1,09,1.1,3846.8,M,33.6,M,,0000*66
$GPGSA,M,3,19,03,06,32,14,11,24,31,22,,,,1.8,1.1,1.4*3F
$GPGSV,3,1,12,19,75,206,30,03,69,007,31,06,53,028,27,32,46,265,29*7A
$GPGSV,3,2,12,14,34,128,30,11,28,214,27,20,24,279,31,24,20,223,30*77
$GPGSV,3,3,12,16,14,356,,31,12,051,27,23,11,335,28,22,11,138,32*7D
$GPRMC,223637.010,A,1518.8391,S,07013.1212,W,27.78,92.47,240411,,,A*6A
$GPGGA,223637.991,1518.8393,S,07013.1131,W,1,08,1.1,3846.5,M,33.6,M,,0000*6A
$GPGSA,M,3,19,03,06,32,14,24,31,22,,,,,1.8,1.1,1.4*3F
$GPRMC,223637.991,A,1518.8393,S,07013.1131,W,29.05,92.28,240411,,,A*67
$GPGGA,223639.010,1518.8395,S,07013.1045,W,1,10,0.9,3846.1,M,33.6,M,,0000*64
$GPGSA,M,3,19,03,06,32,14,11,24,16,31,22,,,1.5,0.9,1.2*3A
$GPRMC,223639.010,A,1518.8395,S,07013.1045,W,28.69,94.27,240411,,,A*6F
$GPGGA,223639.988,1518.8402,S,07013.0958,W,1,09,1.1,3847.1,M,33.6,M,,0000*61
$GPGSA,M,3,19,03,06,32,14,11,24,31,22,,,,1.8,1.1,1.4*3F
$GPRMC,223639.988,A,1518.8402,S,07013.0958,W,28.36,93.28,240411,,,A*68
$GPGGA,223641.009,1518.8408,S,07013.0875,W,1,09,1.1,3846.7,M,33.6,M,,0000*6D
$GPGSA,M,3,19,03,06,32,14,11,24,31,22,,,,1.8,1.1,1.4*3F
$GPRMC,223641.009,A,1518.8408,S,07013.0875,W,28.84,93.51,240411,,,A*64
$GPGGA,223642.000,1518.8411,S,07013.0795,W,1,09,1.1,3847.1,M,33.6,M,,0000*69
$GPGSA,M,3,19,03,06,32,14,11,24,31,22,,,,1.8,1.1,1.4*3F
$GPGSV,3,1,12,19,75,206,38,03,69,007,37,06,53,028,32,32,46,265,37*7F
$GPGSV,3,2,12,14,34,128,38,11,28,214,34,20,24,279,37,24,20,223,35*7E
$GPGSV,3,3,12,16,14,356,,31,12,051,35,23,11,335,36,22,11,138,40*74
$GPRMC,223642.000,A,1518.8411,S,07013.0795,W,28.50,94.50,240411,,,A*68
$GPGGA,223642.999,1518.8416,S,07013.0714,W,1,09,1.1,3846.8,M,33.6,M,,0000*66
$GPGSA,M,3,19,03,06,32,14,11,24,31,22,,,,1.8,1.1,1.4*3F
$GPRMC,223642.999,A,1518.8416,S,07013.0714,W,28.25,93.63,240411,,,A*6A
$GPGGA,223644.001,1518.8419,S,07013.0634,W,1,10,0.9,3846.2,M,33.6,M,,0000*6F
$GPGSA,M,3,19,03,06,32,14,11,24,16,31,22,,,1.5,0.9,1.2*3A
$GPRMC,223644.001,A,1518.8419,S,07013.0634,W,27.79,94.12,240411,,,A*6F
$GPGGA,223644.997,1518.8424,S,07013.0554,W,1,08,1.5,3846.0,M,33.6,M,,0000*64
$GPGSA,M,3,19,03,06,32,14,11,24,22,,,,,2.8,1.5,2.4*39
$GPRMC,223644.997,A,1518.8424,S,07013.0554,W,28.34,92.51,240411,,,A*65
$GPGGA,223646.001,1518.8426,S,07013.0474,W,1,09,1.1,3845.3,M,33.6,M,,0000*64
$GPGSA,M,3,19,03,06,32,14,11,24,31,22,,,,1.8,1.1,1.4*3F
$GPRMC,223646.001,A,1518.8426,S,07013.0474,W,27.76,92.55,240411,,,A*6D
$GPGGA,223647.000,1518.8430,S,07013.0393,W,1,08,1.1,3845.4,M,33.6,M,,0000*6B
$GPGSA,M,3,19,03,32,14,11,24,31,22,,,,,1.8,1.1,1.5*38
$GPGSV,3,1,12,19,75,206,30,03,69,007,29,06,53,028,,32,46,265,28*77
$GPGSV,3,2,12,14,34,128,31,11,28,214,26,20,24,279,29,24,20,223,28*77
$GPGSV,3,3,12,16,14,356,,31,12,051,25,23,11,335,29,22,11,138,33*7F
$GPRMC,223647.000,A,1518.8430,S,07013.0393,W,28.00,92.16,240411,,,A*6D
$GPGGA,223648.004,1518.8431,S,07013.0312,W,1,10,0.9,3845.3,M,33.6,M,,0000*6F
$GPGSA,M,3,19,03,06,32,14,11,24,16,31,22,,,1.5,0.9,1.2*3A
$GPRMC,223648.004,A,1518.8431,S,07013.0312,W,27.82,93.92,240411,,,A*66
$GPGGA,223648.998,1518.8435,S,07013.0233,W,1,06,2.2,3845.4,M,33.6,M,,0000*6C
$GPGSA,M,3,19,03,32,14,24,22,,,,,,,3.6,2.2,2.8*38
$GPRMC,223648.998,A,1518.8435,S,07013.0233,W,26.92,91.18,240411,,,A*6C
$GPGGA,223650.001,1518.8442,S,07013.0154,W,1,10,0.9,3845.6,M,33.6,M,,0000*62
$GPGSA,M,3,19,03,06,32,14,11,24,16,31,22,,,1.5,0.9,1.2*3A
$GPRMC,223650.001,A,1518.8442,S,07013.0154,W,27.99,92.53,240411,,,A*68
$GPGGA,223651.001,1518.8443,S,07013.0076,W,1,07,1.1,3845.4,M,33.6,M,,0000*6E
$GPGSA,M,3,19,03,32,14,24,31,22,,,,,,1.9,1.1,1.5*39
$GPRMC,223651.001,A,1518.8443,S,07013.0076,W,27.57,91.37,240411,,,A*6A
$GPGGA,223652.001,1518.8447,S,07012.9998,W,1,10,0.9,3845.2,M,33.6,M,,0000*61
$GPGSA,M,3,19,03,06,32,14,11,24,16,31,22,,,1.5,0.9,1.2*3A
$GPGSV,3,1,12,19,75,206,38,03,69,007,37,06,53,028,31,32,46,265,36*7D
$GPGSV,3,2,12,14,34,128,36,11,28,214,32,20,24,279,36,24,20,223,34*76
$GPGSV,3,3,12,16,14,356,26,31,12,051,35,23,11,335,36,22,11,138,38*7F
$GPRMC,223652.001,A,1518.8447,S,07012.9998,W,27.73,93.52,240411,,,A*6B
$GPGGA,223652.998,1518.8453,S,07012.9918,W,1,09,1.1,3845.5,M,33.6,M,,0000*63
$GPGSA,M,3,19,03,06,32,14,11,24,31,22,,,,1.8,1.1,1.4*3F
$GPRMC,223652.998,A,1518.8453,S,07012.9918,W,28.27,92.56,240411,,,A*64
$GPGGA,223654.000,1518.8456,S,07012.9835,W,1,09,0.9,3844.5,M,33.6,M,,0000*6E
$GPGSA,M,3,19,03,06,32,14,24,16,31,22,,,,1.5,0.9,1.2*3A
$GPRMC,223654.000,A,1518.8456,S,07012.9835,W,27.83,93.37,240411,,,A*66
$GPGGA,223654.999,1518.8462,S,07012.9756,W,1,06,2.2,3844.3,M,33.6,M,,0000*6A
$GPGSA,M,3,19,03,32,14,24,22,,,,,,,3.5,2.2,2.8*3B
$GPRMC,223654.999,A,1518.8462,S,07012.9756,W,27.53,94.62,240411,,,A*68
$GPGGA,223656.000,1518.8465,S,07012.9677,W,1,09,1.1,3843.4,M,33.6,M,,0000*6B
$GPGSA,M,3,19,03,06,32,14,11,24,31,22,,,,1.8,1.1,1.4*3F
$GPRMC,223656.000,A,1518.8465,S,07012.9677,W,27.66,92.95,240411,,,A*6E
$GPGGA,223656.989,1518.8467,S,07012.9605,W,1,09,1.1,3843.6,M,33.6,M,,0000*66
$GPGSA,M,3,19,03,06,32,14,11,24,31,22,,,,1.8,1.1,1.4*3F
$GPGSV,3,1,12,19,75,206,37,03,69,007,37,06,53,028,32,32,46,265,36*71
$GPGSV,3,2,12,14,34,128,37,11,28,214,36,20,24,279,36,24,20,223,35*72
$GPGSV,3,3,12,16,14,356,,31,12,051,36,23,11,335,35,22,11,138,39*7A
$GPRMC,223656.989,A,1518.8467,S,07012.9605,W,27.18,92.24,240411,,,A*62
$GPGGA,223658.011,1518.8473,S,07012.9525,W,1,09,1.1,3843.6,M,33.6,M,,0000*64
$GPGSA,M,3,19,03,06,32,14,11,24,31,22,,,,1.8,1.1,1.4*3F
$GPRMC,223658.011,A,1518.8473,S,07012.9525,W,27.68,93.74,240411,,,A*63
$GPGGA,223658.988,1518.8479,S,07012.9445,W,1,06,2.2,3844.0,M,33.6,M,,0000*6E
$GPGSA,M,3,19,03,32,14,24,22,,,,,,,3.5,2.2,2.8*3B
$GPRMC,223658.988,A,1518.8479,S,07012.9445,W,28.33,94.02,240411,,,A*60
$GPGGA,223700.011,1518.8484,S,07012.9361,W,1,09,1.1,3844.6,M,33.6,M,,0000*61
$GPGSA,M,3,19,03,06,32,14,11,24,31,22,,,,1.8,1.1,1.4*3F
$GPRMC,223700.011,A,1518.8484,S,07012.9361,W,27.45,93.48,240411,,,A*61
$GPGGA,223700.990,1518.8483,S,07012.9284,W,1,09,1.1,3843.7,M,33.6,M,,0000*6A
$GPGSA,M,3,19,03,06,32,14,11,24,31,22,,,,1.8,1.1,1.4*3F
$GPRMC,223700.990,A,1518.8483,S,07012.9284,W,27.38,92.79,240411,,,A*65
$GPGGA,223702.009,1518.8487,S,07012.9206,W,1,07,1.6,3843.6,M,33.6,M,,0000*67
$GPGSA,M,3,19,03,06,32,14,24,22,,,,,,2.8,1.6,2.4*3A
$GPGSV,3,1,12,19,75,206,31,03,69,007,30,06,53,028,27,32,46,265,29*7A
$GPGSV,3,2,12,14,34,128,31,11,28,214,,20,24,279,29,24,20,223,27*7C
$GPGSV,3,3,12,16,14,356,,31,12,051,,23,11,335,27,22,11,138,34*71
$GPRMC,223702.009,A,1518.8487,S,07012.9206,W,27.07,93.12,240411,,,A*60
$GPGGA,223702.990,1518.8489,S,07012.9128,W,1,06,2.2,3843.5,M,33.6,M,,0000*6A
$GPGSA,M,3,19,03,32,14,24,22,,,,,,,3.5,2.2,2.8*3B
$GPRMC,223702.990,A,1518.8489,S,07012.9128,W,27.58,91.42,240411,,,A*65
$GPGGA,223704.011,1518.8490,S,07012.9047,W,1,10,0.9,3843.7,M,33.6,M,,0000*60
$GPGSA,M,3,19,03,06,32,14,11,24,16,31,22,,,1.5,0.9,1.2*3A
$GPRMC,223704.011,A,1518.8490,S,07012.9047,W,27.33,93.27,240411,,,A*6F
$GPGGA,223704.990,1518.8491,S,07012.8968,W,1,09,1.1,3843.8,M,33.6,M,,0000*6A
$GPGSA,M,3,19,03,06,32,14,11,24,31,22,,,,1.8,1.1,1.4*3F
$GPRMC,223704.990,A,1518.8491,S,07012.8968,W,27.38,93.02,240411,,,A*67
$GPGGA,223706.009,1518.8497,S,07012.8887,W,1,07,1.1,3844.4,M,33.6,M,,0000*62
$GPGSA,M,3,19,03,32,14,24,31,22,,,,,,1.9,1.1,1.5*39
$GPRMC,223706.009,A,1518.8497,S,07012.8887,W,27.20,92.53,240411,,,A*66
$GPGGA,223707.001,1518.8502,S,07012.8811,W,1,09,1.1,3844.2,M,33.6,M,,0000*61
$GPGSA,M,3,19,03,06,32,14,11,24,31,22,,,,1.8,1.1,1.4*3F
$GPGSV,3,1,12,19,75,206,37,03,69,007,37,06,53,028,34,32,46,265,36*77
$GPGSV,3,2,12,14,34,128,37,11,28,214,35,20,24,279,35,24,20,223,36*71
$GPGSV,3,3,12,16,14,356,,31,12,051,32,23,11,335,35,22,11,138,39*7E
$GPRMC,223707.001,A,1518.8502,S,07012.8811,W,27.02,92.87,240411,,,A*64
$GPGGA,223708.000,1518.8506,S,07012.8732,W,1,07,2.0,3844.7,M,33.6,M,,0000*6C
$GPGSA,M,3,19,03,32,14,11,24,22,,,,,,3.4,2.0,2.7*37
$GPRMC,223708.000,A,1518.8506,S,07012.8732,W,27.47,93.02,240411,,,A*6D
$GPGGA,223709.000,1518.8507,S,07012.8654,W,1,09,1.1,3843.2,M,33.6,M,,0000*63
$GPGSA,M,3,19,03,06,32,14,11,24,31,22,,,,1.8,1.1,1.4*3F
$GPRMC,223709.000,A,1518.8507,S,07012.8654,W,27.46,92.69,240411,,,A*61
$GPGGA,223709.998,1518.8511,S,07012.8577,W,1,06,2.2,3843.0,M,33.6,M,,0000*63
$GPGSA,M,3,19,03,32,14,24,22,,,,,,,3.5,2.2,2.8*3B
$GPRMC,223709.998,A,1518.8511,S,07012.8577,W,26.85,94.63,240411,,,A*6E
$GPGGA,223711.002,1518.8525,S,07012.8495,W,1,09,1.1,3844.6,M,33.6,M,,0000*64
$GPGSA,M,3,19,03,06,32,14,11,24,31,22,,,,1.8,1.1,1.4*3F
$GPRMC,223711.002,A,1518.8525,S,07012.8495,W,27.55,93.81,240411,,,A*60
$GPGGA,223712.003,1518.8531,S,07012.8415,W,1,06,2.2,3844.6,M,33.6,M,,0000*64
$GPGSA,M,3,19,03,32,14,24,22,,,,,,,3.5,2.2,2.8*3B
$GPGSV,3,1,12,19,75,206,27,03,69,007,27,06,53,028,,32,46,265,28*7F
$GPGSV,3,2,12,14,34,128,30,11,28,214,,20,24,279,26,24,20,223,29*7C
$GPGSV,3,3,12,16,14,356,,31,12,051,,23,11,335,28,22,11,138,32*78
$GPRMC,223712.003,A,1518.8531,S,07012.8415,W,28.54,92.42,240411,,,A*6F
$GPGGA,223712.997,1518.8536,S,07012.8331,W,1,09,1.1,3845.6,M,33.6,M,,0000*68
$GPGSA,M,3,19,03,06,32,14,11,24,31,22,,,,1.8,1.1,1.4*3F
$GPRMC,223712.997,A,1518.8536,S,07012.8331,W,27.81,93.49,240411,,,A*60
$GPGGA,223714.003,1518.8540,S,07012.8251,W,1,06,2.2,3845.8,M,33.6,M,,0000*6D
$GPGSA,M,3,19,03,32,14,24,22,,,,,,,3.5,2.2,2.8*3B
$GPRMC,223714.003,A,1518.8540,S,07012.8251,W,27.72,92.12,240411,,,A*67
$GPGGA,223714.998,1518.8547,S,07012.8175,W,1,09,1.1,3845.6,M,33.6,M,,0000*65
$GPGSA,M,3,19,03,06,32,14,11,24,31,22,,,,1.8,1.1,1.4*3F
$GPRMC,223714.998,A,1518.8547,S,07012.8175,W,26.92,93.89,240411,,,A*62
$GPGGA,223716.001,1518.8552,S,07012.8101,W,1,07,2.0,3845.1,M,33.6,M,,0000*62
$GPGSA,M,3,19,03,32,14,11,24,22,,,,,,3.4,2.0,2.7*37
$GPRMC,223716.001,A,1518.8552,S,07012.8101,W,26.20,95.73,240411,,,A*64
$GPGGA,223717.000,1518.8555,S,07012.8028,W,1,09,1.1,3844.2,M,33.6,M,,0000*61
$GPGSA,M,3,19,03,06,32,14,11,24,31,22,,,,1.8,1.1,1.4*3F
$GPGSV,3,1,12,19,75,206,38,03,69,007,37,06,53,028,35,32,46,265,36*79
$GPGSV,3,2,12,14,34,128,37,11,28,214,33,20,24,279,35,24,20,223,36*77
$GPGSV,3,3,12,16,14,356,,31,12,051,33,23,11,335,36,22,11,138,39*7C
$GPRMC,223717.000,A,1518.8555,S,07012.8028,W,26.76,92.91,240411,,,A*61
$GPGGA,223718.000,1518.8560,S,07012.7953,W,1,07,1.6,3844.3,M,33.6,M,,0000*6A
$GPGSA,M,3,19,03,06,32,14,24,22,,,,,,2.8,1.6,2.4*3A
$GPRMC,223718.000,A,1518.8560,S,07012.7953,W,26.25,93.40,240411,,,A*69
$GPGGA,223718.997,1518.8567,S,07012.7876,W,1,09,1.1,3845.2,M,33.6,M,,0000*65
$GPGSA,M,3,19,03,06,32,14,11,24,31,22,,,,1.8,1.1,1.4*3F
$GPRMC,223718.997,A,1518.8567,S,07012.7876,W,26.65,93.19,240411,,,A*67
$GPGGA,223719.999,1518.8573,S,07012.7799,W,1,07,1.6,3844.9,M,33.6,M,,0000*62
$GPGSA,M,3,19,03,06,32,14,24,22,,,,,,2.8,1.6,2.4*3A
$GPRMC,223719.999,A,1518.8573,S,07012.7799,W,27.11,92.80,240411,,,A*60
$GPGGA,223721.000,1518.8578,S,07012.7726,W,1,09,1.1,3844.6,M,33.6,M,,0000*69
$GPGSA,M,3,19,03,06,32,14,11,24,31,22,,,,1.8,1.1,1.4*3F
$GPRMC,223721.000,A,1518.8578,S,07012.7726,W,26.77,94.88,240411,,,A*62
$GPGGA,223721.991,1518.8580,S,07012.7652,W,1,09,1.1,3845.1,M,33.6,M,,0000*6B
$GPGSA,M,3,19,03,06,32,14,11,24,31,22,,,,1.8,1.1,1.4*3F
$GPGSV,3,1,12,19,75,206,38,03,69,007,37,06,53,028,34,32,46,265,36*78
$GPGSV,3,2,12,14,34,128,38,11,28,214,35,20,24,279,36,24,20,223,35*7E
$GPGSV,3,3,12,16,14,356,,31,12,051,32,23,11,335,35,22,11,138,38*7F
$GPRMC,223721.991,A,1518.8580,S,07012.7652,W,26.85,92.88,240411,,,A*6D
$GPGGA,223723.008,1518.8586,S,07012.7574,W,1,08,1.5,3845.2,M,33.6,M,,0000*67
$GPGSA,M,3,19,03,06,32,14,11,24,22,,,,,2.8,1.5,2.3*3E
$GPRMC,223723.008,A,1518.8586,S,07012.7574,W,26.34,93.49,240411,,,A*61
$GPGGA,223723.991,1518.8587,S,07012.7501,W,1,07,1.6,3844.8,M,33.6,M,,0000*6A
$GPGSA,M,3,19,03,06,32,14,24,22,,,,,,2.8,1.6,2.4*3A
$GPRMC,223723.991,A,1518.8587,S,07012.7501,W,26.63,93.91,240411,,,A*6C
$GPGGA,223725.011,1518.8593,S,07012.7423,W,1,10,0.9,3844.9,M,33.6,M,,0000*60
$GPGSA,M,3,19,03,06,32,14,11,24,16,31,22,,,1.5,0.9,1.2*3A
$GPRMC,223725.011,A,1518.8593,S,07012.7423,W,26.89,94.20,240411,,,A*66
$GPGGA,223725.990,1518.8599,S,07012.7349,W,1,09,1.1,3844.8,M,33.6,M,,0000*61
$GPGSA,M,3,19,03,06,32,14,11,24,31,22,,,,1.8,1.1,1.4*3F
$GPRMC,223725.990,A,1518.8599,S,07012.7349,W,26.79,93.49,240411,,,A*60
$GPGGA,223727.011,1518.8604,S,07012.7272,W,1,08,1.5,3844.3,M,33.6,M,,0000*63
$GPGSA,M,3,19,03,06,32,14,11,24,22,,,,,2.8,1.5,2.3*3E
$GPGSV,3,1,12,19,75,206,31,03,69,007,29,06,53,028,26,32,46,265,29*73
$GPGSV,3,2,12,14,34,128,29,11,28,214,27,20,24,279,28,24,20,223,29*7F
$GPGSV,3,3,12,16,14,356,,31,12,051,,23,11,335,28,22,11,138,33*79
$GPRMC,223727.011,A,1518.8604,S,07012.7272,W,26.61,92.41,240411,,,A*6C
$GPGGA,223727.989,1518.8608,S,07012.7198,W,1,07,1.1,3844.2,M,33.6,M,,0000*6A
$GPGSA,M,3,19,03,32,14,24,31,22,,,,,,1.9,1.1,1.5*39
$GPRMC,223727.989,A,1518.8608,S,07012.7198,W,26.17,93.66,240411,,,A*6A
$GPGGA,223729.010,1518.8612,S,07012.7121,W,1,09,1.1,3844.6,M,33.6,M,,0000*6E
$GPGSA,M,3,19,03,06,32,14,11,24,31,22,,,,1.8,1.1,1.4*3F
$GPRMC,223729.010,A,1518.8612,S,07012.7121,W,26.66,93.19,240411,,,A*6A
$GPGGA,223729.990,1518.8623,S,07012.7043,W,1,09,1.1,3844.9,M,33.6,M,,0000*67
$GPGSA,M,3,19,03,06,32,14,11,24,31,22,,,,1.8,1.1,1.4*3F
$GPRMC,223729.990,A,1518.8623,S,07012.7043,W,26.96,93.45,240411,,,A*6A
$GPGGA,223731.010,1518.8626,S,07012.6963,W,1,07,2.0,3844.8,M,33.6,M,,0000*6D
$GPGSA,M,3,19,03,32,14,11,24,22,,,,,,3.4,2.0,2.7*37
$GPRMC,223731.010,A,1518.8626,S,07012.6963,W,27.00,91.37,240411,,,A*64
$GPGGA,223732.002,1518.8628,S,07012.6887,W,1,09,1.1,3844.6,M,33.6,M,,0000*6A
$GPGSA,M,3,19,03,06,32,14,11,24,31,22,,,,1.8,1.1,1.4*3F
$GPGSV,3,1,12,19,75,206,38,03,69,007,38,06,53,028,34,32,46,265,36*77
$GPGSV,3,2,12,14,34,128,35,11,28,214,35,20,24,279,35,24,20,223,36*73
$GPGSV,3,3,12,16,14,356,,31,12,051,33,23,11,335,35,22,11,138,40*71
$GPRMC,223732.002,A,1518.8628,S,07012.6887,W,27.25,92.51,240411,,,A*65
$GPGGA,223732.996,1518.8633,S,07012.6809,W,1,08,1.5,3845.2,M,33.6,M,,0000*62
$GPGSA,M,3,19,03,06,32,14,11,24,22,,,,,2.8,1.5,2.3*3E
$GPRMC,223732.996,A,1518.8633,S,07012.6809,W,26.97,92.27,240411,,,A*64
$GPGGA,223733.992,1518.8635,S,07012.6731,W,1,06,2.2,3845.7,M,33.6,M,,0000*6A
$GPGSA,M,3,19,03,32,14,24,22,,,,,,,3.5,2.2,2.8*3B
$GPRMC,223733.992,A,1518.8635,S,07012.6731,W,27.86,91.15,240411,,,A*60
$GPGGA,223735.012,1518.8639,S,07012.6653,W,1,09,1.1,3845.5,M,33.6,M,,0000*69
$GPGSA,M,3,19,03,06,32,14,11,24,31,22,,,,1.8,1.1,1.4*3F
$GPRMC,223735.012,A,1518.8639,S,07012.6653,W,27.22,93.40,240411,,,A*62
$GPGGA,223735.988,1518.8645,S,07012.6575,W,1,09,1.1,3846.9,M,33.6,M,,0000*60
$GPGSA,M,3,19,03,06,32,14,11,24,31,22,,,,1.8,1.1,1.4*3F
$GPRMC,223735.988,A,1518.8645,S,07012.6575,W,27.26,93.31,240411,,,A*66
$GPGGA,223737.010,1518.8651,S,07012.6495,W,1,09,1.1,3847.1,M,33.6,M,,0000*69
$GPGSA,M,3,19,03,06,32,14,11,24,31,22,,,,1.8,1.1,1.4*3F
$GPGSV,3,1,12,19,75,206,31,03,69,007,32,06,53,028,28,32,46,265,30*7F
$GPGSV,3,2,12,14,34,128,31,11,28,214,27,20,24,279,28,24,20,223,29*76
$GPGSV,3,3,12,16,14,356,,31,12,051,26,23,11,335,26,22,11,138,35*75
$GPRMC,223737.010,A,1518.8651,S,07012.6495,W,27.54,92.02,240411,,,A*62
$GPGGA,223737.990,1518.8655,S,07012.6421,W,1,08,1.5,3847.3,M,33.6,M,,0000*64
$GPGSA,M,3,19,03,06,32,14,11,24,22,,,,,2.8,1.5,2.3*3E
$GPRMC,223737.990,A,1518.8655,S,07012.6421,W,26.76,93.88,240411,,,A*6A
$GPGGA,223739.010,1518.8657,S,07012.6342,W,1,09,1.1,3846.6,M,33.6,M,,0000*6A
$GPGSA,M,3,19,03,06,32,14,11,24,31,22,,,,1.8,1.1,1.4*3F
$GPRMC,223739.010,A,1518.8657,S,07012.6342,W,27.45,94.02,240411,,,A*61
$GPGGA,223739.989,1518.8657,S,07012.6262,W,1,10,0.9,3844.9,M,33.6,M,,0000*6C
$GPGSA,M,3,19,03,06,32,14,11,24,16,31,22,,,1.5,0.9,1.2*3A
$GPRMC,223739.989,A,1518.8657,S,07012.6262,W,27.19,93.43,240411,,,A*60
$GPGGA,223741.010,1518.8664,S,07012.6181,W,1,07,1.6,3845.5,M,33.6,M,,0000*61
$GPGSA,M,3,19,03,06,32,14,24,22,,,,,,2.8,1.6,2.4*3A
$GPRMC,223741.010,A,1518.8664,S,07012.6181,W,27.40,93.74,240411,,,A*60
$GPGGA,223741.997,1518.8668,S,07012.6105,W,1,10,0.9,3845.5,M,33.6,M,,0000*6F
$GPGSA,M,3,19,03,06,32,14,11,24,16,31,22,,,1.5,0.9,1.2*3A
$GPGSV,3,1,12,19,75,206,38,03,69,007,38,06,53,028,34,32,46,265,36*77
$GPGSV,3,2,12,14,34,128,36,11,28,214,33,20,24,279,34,24,20,223,37*76
$GPGSV,3,3,12,16,14,356,27,31,12,051,34,23,11,335,35,22,11,138,39*7D
$GPRMC,223741.997,A,1518.8668,S,07012.6105,W,27.58,92.02,240411,,,A*6F
$GPGGA,223743.002,1518.8670,S,07012.6028,W,1,09,1.1,3845.3,M,33.6,M,,0000*68
$GPGSA,M,3,19,03,06,32,14,11,24,31,22,,,,1.8,1.1,1.4*3F
$GPRMC,223743.002,A,1518.8670,S,07012.6028,W,27.21,90.37,240411,,,A*65
$GPGGA,223744.000,1518.8669,S,07012.5952,W,1,09,0.9,3843.9,M,33.6,M,,0000*67
$GPGSA,M,3,19,03,06,32,14,24,16,31,22,,,,1.5,0.9,1.2*3A
$GPRMC,223744.000,A,1518.8669,S,07012.5952,W,27.40,92.64,240411,,,A*6C
$GPGGA,223745.002,1518.8673,S,07012.5873,W,1,08,1.1,3843.4,M,33.6,M,,0000*68
$GPGSA,M,3,19,03,06,32,14,24,31,22,,,,,1.8,1.1,1.5*3E
$GPRMC,223745.002,A,1518.8673,S,07012.5873,W,27.23,93.18,240411,,,A*69
$GPGGA,223745.998,1518.8682,S,07012.5796,W,1,09,1.1,3844.4,M,33.6,M,,0000*6E
$GPGSA,M,3,19,03,06,32,14,11,24,31,22,,,,1.8,1.1,1.5*3E
$GPRMC,223745.998,A,1518.8682,S,07012.5796,W,27.46,93.41,240411,,,A*66
$GPGGA,223747.002,1518.8687,S,07012.5719,W,1,08,1.5,3843.7,M,33.6,M,,0000*65
$GPGSA,M,3,19,03,06,32,14,11,24,22,,,,,2.8,1.5,2.3*3E
$GPGSV,3,1,12,19,75,206,32,03,69,007,32,06,53,028,25,32,46,265,29*79
$GPGSV,3,2,12,14,34,128,30,11,28,214,26,20,24,279,30,24,20,223,29*7F
$GPGSV,3,3,12,16,14,356,,31,12,051,,23,11,335,28,22,11,138,33*79
$GPRMC,223747.002,A,1518.8687,S,07012.5719,W,27.23,95.14,240411,,,A*69
$GPGGA,223747.999,1518.8695,S,07012.5642,W,1,09,1.1,3843.8,M,33.6,M,,0000*68
$GPGSA,M,3,19,03,06,32,14,11,24,31,22,,,,1.8,1.1,1.5*3E
$GPRMC,223747.999,A,1518.8695,S,07012.5642,W,27.44,93.99,240411,,,A*6C
$GPGGA,223748.998,1518.8699,S,07012.5560,W,1,06,2.2,3843.8,M,33.6,M,,0000*66
$GPGSA,M,3,19,03,32,14,24,22,,,,,,,3.5,2.2,2.8*3B
$GPRMC,223748.998,A,1518.8699,S,07012.5560,W,27.32,91.56,240411,,,A*6D
$GPGGA,223749.998,1518.8703,S,07012.5479,W,1,09,1.1,3843.3,M,33.6,M,,0000*68
$GPGSA,M,3,19,03,06,32,14,11,24,31,22,,,,1.8,1.1,1.5*3E
$GPRMC,223749.998,A,1518.8703,S,07012.5479,W,27.52,92.89,240411,,,A*60
$GPGGA,223751.005,1518.8706,S,07012.5400,W,1,07,1.2,3843.2,M,33.6,M,,0000*6B
$GPGSA,M,3,19,03,32,14,24,31,22,,,,,,1.9,1.2,1.5*3A
$GPRMC,223751.005,A,1518.8706,S,07012.5400,W,27.15,92.87,240411,,,A*62
$GPGGA,223751.997,1518.8705,S,07012.5321,W,1,10,0.9,3842.2,M,33.6,M,,0000*63
$GPGSA,M,3,19,03,06,32,14,11,24,16,31,22,,,1.5,0.9,1.2*3A
$GPGSV,3,1,12,19,75,206,38,03,69,007,37,06,53,028,35,32,46,265,37*78
$GPGSV,3,2,12,14,34,128,38,11,28,214,33,20,24,279,36,24,20,223,36*7B
$GPGSV,3,3,12,16,14,356,28,31,12,051,35,23,11,335,35,22,11,138,36*7C
$GPRMC,223751.997,A,1518.8705,S,07012.5321,W,27.73,92.41,240411,,,A*6D
$GPGGA,223753.002,1518.8708,S,07012.5239,W,1,09,1.1,3842.8,M,33.6,M,,0000*6A
$GPGSA,M,3,19,03,06,32,14,11,24,31,22,,,,1.8,1.1,1.5*3E
$GPRMC,223753.002,A,1518.8708,S,07012.5239,W,28.28,90.99,240411,,,A*69
$GPGGA,223754.002,1518.8707,S,07012.5156,W,1,08,1.1,3841.9,M,33.6,M,,0000*6B
$GPGSA,M,3,19,03,06,32,14,24,31,22,,,,,1.8,1.1,1.5*3E
$GPRMC,223754.002,A,1518.8707,S,07012.5156,W,28.01,92.16,240411,,,A*65
$GPGGA,223754.998,1518.8713,S,07012.5076,W,1,09,1.1,3842.5,M,33.6,M,,0000*69
$GPGSA,M,3,19,03,06,32,14,11,24,31,22,,,,1.8,1.1,1.5*3E
$GPRMC,223754.998,A,1518.8713,S,07012.5076,W,27.45,93.11,240411,,,A*60
$GPGGA,223756.000,1518.8715,S,07012.4996,W,1,09,1.1,3841.7,M,33.6,M,,0000*62
$GPGSA,M,3,19,03,06,32,14,11,24,31,22,,,,1.8,1.1,1.5*3E
$GPRMC,223756.000,A,1518.8715,S,07012.4996,W,27.33,93.81,240411,,,A*62
$GPGGA,223756.989,1518.8710,S,07012.4915,W,1,09,1.1,3841.3,M,33.6,M,,0000*60
$GPGSA,M,3,19,03,06,32,14,11,24,31,22,,,,1.8,1.1,1.5*3E
$GPGSV,3,1,12,19,75,206,38,03,69,007,37,06,53,028,35,32,46,265,36*79
$GPGSV,3,2,12,14,34,128,38,11,28,214,34,20,24,279,36,24,20,223,36*7C
$GPGSV,3,3,12,16,14,356,,31,12,051,35,23,11,335,36,22,11,138,39*7A
$GPRMC,223756.989,A,1518.8710,S,07012.4915,W,27.39,92.38,240411,,,A*6D
$GPGGA,223758.011,1518.8716,S,07012.4831,W,1,09,1.1,3842.1,M,33.6,M,,0000*66
$GPGSA,M,3,19,03,06,32,14,11,24,31,22,,,,1.8,1.1,1.5*3E
$GPRMC,223758.011,A,1518.8716,S,07012.4831,W,27.85,93.27,240411,,,A*62
$GPGGA,223758.988,1518.8719,S,07012.4754,W,1,07,1.2,3841.8,M,33.6,M,,0000*6B
$GPGSA,M,3,19,03,32,14,24,31,22,,,,,,1.9,1.2,1.5*3A
$GPRMC,223758.988,A,1518.8719,S,07012.4754,W,28.28,92.55,240411,,,A*64
$GPGGA,223800.012,1518.8722,S,07012.4669,W,1,10,0.9,3843.1,M,33.6,M,,0000*63
$GPGSA,M,3,19,03,06,32,14,11,24,16,31,22,,,1.5,0.9,1.2*3A
$GPRMC,223800.012,A,1518.8722,S,07012.4669,W,27.82,92.06,240411,,,A*62
$GPGGA,223800.990,1518.8716,S,07012.4595,W,1,10,0.9,3842.0,M,33.6,M,,0000*67
$GPGSA,M,3,19,03,06,32,14,11,24,16,31,22,,,1.5,0.9,1.2*3A
$GPRMC,223800.990,A,1518.8716,S,07012.4595,W,28.10,92.56,240411,,,A*67
$GPGGA,223802.009,1518.8721,S,07012.4514,W,1,09,1.1,3841.6,M,33.6,M,,0000*65
$GPGSA,M,3,19,03,06,32,14,11,24,31,22,,,,1.8,1.1,1.5*3E
$GPGSV,3,1,12,19,75,206,31,03,69,007,30,06,53,028,27,32,46,265,30*72
$GPGSV,3,2,12,14,34,128,32,11,28,214,26,20,24,279,29,24,20,223,30*7D
$GPGSV,3,3,12,16,14,356,,31,12,051,28,23,11,335,28,22,11,138,30*70
$GPRMC,223802.009,A,1518.8721,S,07012.4514,W,28.18,91.65,240411,,,A*6A
$GPGGA,223802.989,1518.8722,S,07012.4437,W,1,08,1.1,3841.2,M,33.6,M,,0000*62
$GPGSA,M,3,19,03,32,14,11,24,31,22,,,,,1.8,1.1,1.5*38
$GPRMC,223802.989,A,1518.8722,S,07012.4437,W,27.48,91.57,240411,,,A*63
$GPGGA,223804.011,1518.8725,S,07012.4354,W,1,10,0.9,3842.6,M,33.6,M,,0000*6E
$GPGSA,M,3,19,03,06,32,14,11,24,16,31,22,,,1.5,0.9,1.2*3A
$GPRMC,223804.011,A,1518.8725,S,07012.4354,W,28.30,92.14,240411,,,A*6C
$GPGGA,223804.991,1518.8723,S,07012.4275,W,1,10,0.9,3842.4,M,33.6,M,,0000*69
$GPGSA,M,3,19,03,06,32,14,11,24,16,31,22,,,1.5,0.9,1.2*3A
$GPRMC,223804.991,A,1518.8723,S,07012.4275,W,28.18,92.38,240411,,,A*6D
$GPGGA,223806.008,1518.8726,S,07012.4193,W,1,07,1.2,3842.4,M,33.6,M,,0000*60
$GPGSA,M,3,19,03,32,14,24,31,22,,,,,,1.9,1.2,1.5*3A
$GPRMC,223806.008,A,1518.8726,S,07012.4193,W,28.14,93.14,240411,,,A*6B
$GPGGA,223807.001,1518.8728,S,07012.4114,W,1,10,0.9,3842.8,M,33.6,M,,0000*69
$GPGSA,M,3,19,03,06,32,14,11,24,16,31,22,,,1.5,0.9,1.2*3A
$GPGSV,3,1,12,19,75,206,38,03,69,007,37,06,53,028,33,32,46,265,36*7F
$GPGSV,3,2,12,14,34,128,36,11,28,214,32,20,24,279,35,24,20,223,36*77
$GPGSV,3,3,12,16,14,356,28,31,12,051,36,23,11,335,35,22,11,138,39*70
$GPRMC,223807.001,A,1518.8728,S,07012.4114,W,28.26,92.19,240411,,,A*6F
$GPGGA,223807.999,1518.8732,S,07012.4034,W,1,08,1.1,3842.6,M,33.6,M,,0000*67
$GPGSA,M,3,19,03,06,32,14,24,31,22,,,,,1.8,1.1,1.5*3E
$GPRMC,223807.999,A,1518.8732,S,07012.4034,W,28.05,93.76,240411,,,A*66
$GPGGA,223809.001,1518.8732,S,07012.3954,W,1,10,0.9,3841.4,M,33.6,M,,0000*68
$GPGSA,M,3,19,03,06,32,14,11,24,16,31,22,,,1.5,0.9,1.2*3A
$GPRMC,223809.001,A,1518.8732,S,07012.3954,W,28.21,92.67,240411,,,A*6F
$GPGGA,223809.997,1518.8734,S,07012.3874,W,1,09,1.1,3840.9,M,33.6,M,,0000*66
$GPGSA,M,3,19,03,06,32,14,11,24,31,22,,,,1.8,1.1,1.5*3E
$GPRMC,223809.997,A,1518.8734,S,07012.3874,W,28.35,92.52,240411,,,A*6F
$GPGGA,223811.003,1518.8740,S,07012.3791,W,1,10,0.9,3841.8,M,33.6,M,,0000*6D
$GPGSA,M,3,19,03,06,32,14,11,24,16,31,22,,,1.5,0.9,1.2*3A
$GPRMC,223811.003,A,1518.8740,S,07012.3791,W,28.46,92.39,240411,,,A*6C
$GPGGA,223812.000,1518.8745,S,07012.3709,W,1,07,1.2,3841.4,M,33.6,M,,0000*69
$GPGSA,M,3,19,03,32,14,24,31,22,,,,,,1.9,1.2,1.5*3A
$GPGSV,3,1,12,19,75,206,30,03,69,007,27,06,53,028,,32,46,265,27*76
$GPGSV,3,2,12,14,34,128,28,11,28,214,,20,24,279,,24,20,223,26*7E
$GPGSV,3,3,12,16,14,356,,31,12,051,25,23,11,335,,22,11,138,28*7E
$GPRMC,223812.000,A,1518.8745,S,07012.3709,W,28.01,93.83,240411,,,A*6B
$GPGGA,223813.001,1518.8753,S,07012.3630,W,1,10,0.9,3842.3,M,33.6,M,,0000*6D
$GPGSA,M,3,19,03,06,32,14,11,24,16,31,22,,,1.5,0.9,1.2*3A
$GPRMC,223813.001,A,1518.8753,S,07012.3630,W,28.15,93.42,240411,,,A*6F
$GPGGA,223814.001,1518.8757,S,07012.3549,W,1,06,1.4,3841.8,M,33.6,M,,0000*60
$GPGSA,M,3,19,03,32,14,31,22,,,,,,,2.4,1.4,1.9*38
$GPRMC,223814.001,A,1518.8757,S,07012.3549,W,29.49,93.21,240411,,,A*6C
$GPGGA,223815.000,1518.8758,S,07012.3468,W,1,10,0.9,3840.6,M,33.6,M,,0000*69
$GPGSA,M,3,19,03,06,32,14,11,24,16,31,22,,,1.5,0.9,1.2*3A
$GPRMC,223815.000,A,1518.8758,S,07012.3468,W,28.29,93.18,240411,,,A*6C
$GPGGA,223815.998,1518.8761,S,07012.3386,W,1,09,1.1,3840.4,M,33.6,M,,0000*6F
$GPGSA,M,3,19,03,06,32,14,11,24,31,22,,,,1.8,1.1,1.5*3E
$GPRMC,223815.998,A,1518.8761,S,07012.3386,W,28.67,91.71,240411,,,A*6E
$GPGGA,223817.000,1518.8763,S,07012.3305,W,1,09,1.1,3839.3,M,33.6,M,,0000*65
$GPGSA,M,3,19,03,06,32,14,11,24,31,22,,,,1.8,1.1,1.5*3E
$GPGSV,3,1,12,19,75,206,37,03,69,007,37,06,53,028,35,32,46,265,37*77
$GPGSV,3,2,12,14,34,128,37,11,28,214,31,20,24,279,36,24,20,223,36*76
$GPGSV,3,3,12,16,14,356,,31,12,051,36,23,11,335,33,22,11,138,38*7D
$GPRMC,223817.000,A,1518.8763,S,07012.3305,W,28.73,93.09,240411,,,A*65
$GPGGA,223817.999,1518.8766,S,07012.3223,W,1,07,1.2,3838.3,M,33.6,M,,0000*60
$GPGSA,M,3,19,03,32,14,24,31,22,,,,,,1.9,1.2,1.5*3A
$GPRMC,223817.999,A,1518.8766,S,07012.3223,W,28.22,93.08,240411,,,A*69
$GPGGA,223818.998,1518.8765,S,07012.3143,W,1,10,0.9,3836.7,M,33.6,M,,0000*6E
$GPGSA,M,3,19,03,06,32,14,11,24,16,31,22,,,1.5,0.9,1.2*3A
$GPRMC,223818.998,A,1518.8765,S,07012.3143,W,28.96,93.04,240411,,,A*62
$GPGGA,223820.002,1518.8770,S,07012.3058,W,1,08,1.1,3836.7,M,33.6,M,,0000*60
$GPGSA,M,3,19,03,06,32,14,24,31,22,,,,,1.8,1.1,1.5*3E
$GPRMC,223820.002,A,1518.8770,S,07012.3058,W,29.25,93.54,240411,,,A*60
$GPGGA,223820.997,1518.8774,S,07012.2976,W,1,10,0.9,3836.5,M,33.6,M,,0000*67
$GPGSA,M,3,19,03,06,32,14,11,24,16,31,22,,,1.5,0.9,1.2*3A
$GPRMC,223820.997,A,1518.8774,S,07012.2976,W,29.09,92.84,240411,,,A*67
$GPGGA,223822.001,1518.8778,S,07012.2894,W,1,09,1.1,3835.8,M,33.6,M,,0000*6D
$GPGSA,M,3,19,03,06,32,14,11,24,31,22,,,,1.8,1.1,1.5*3E
$GPGSV,3,1,12,19,75,206,30,03,69,007,29,06,53,028,26,32,46,265,29*72
$GPGSV,3,2,12,14,34,128,29,11,28,214,26,20,24,279,28,24,20,223,29*7E
$GPGSV,3,3,12,16,14,356,,31,12,051,26,23,11,335,24,22,11,138,31*73
$GPRMC,223822.001,A,1518.8778,S,07012.2894,W,29.26,93.06,240411,,,A*64
$GPGGA,223823.000,1518.8782,S,07012.2808,W,1,09,1.1,3835.2,M,33.6,M,,0000*67
$GPGSA,M,3,19,03,06,32,14,11,24,31,22,,,,1.8,1.1,1.5*3E
$GPRMC,223823.000,A,1518.8782,S,07012.2808,W,29.77,93.73,240411,,,A*62
$GPGGA,223824.000,1518.8787,S,07012.2727,W,1,09,1.1,3834.5,M,33.6,M,,0000*61
$GPGSA,M,3,19,03,06,32,14,11,24,31,22,,,,1.8,1.1,1.5*3E
$GPRMC,223824.000,A,1518.8787,S,07012.2727,W,28.46,94.03,240411,,,A*61
$GPGGA,223825.000,1518.8793,S,07012.2646,W,1,09,1.1,3833.5,M,33.6,M,,0000*64
$GPGSA,M,3,19,03,06,32,14,11,24,31,22,,,,1.8,1.1,1.5*3E
$GPRMC,223825.000,A,1518.8793,S,07012.2646,W,29.08,93.98,240411,,,A*6D
$GPGGA,223825.999,1518.8798,S,07012.2562,W,1,05,2.4,3833.6,M,33.6,M,,0000*6A
$GPGSA,M,3,19,03,32,14,22,,,,,,,,3.8,2.4,2.9*37
$GPRMC,223825.999,A,1518.8798,S,07012.2562,W,28.94,91.83,240411,,,A*66
$GPGGA,223827.001,1518.8801,S,07012.2479,W,1,09,1.1,3833.2,M,33.6,M,,0000*6A
$GPGSA,M,3,19,03,06,32,14,11,24,31,22,,,,1.8,1.1,1.5*3E
$GPGSV,3,1,12,19,75,206,38,03,69,007,37,06,53,028,35,32,46,265,37*78
$GPGSV,3,2,12,14,34,128,37,11,28,214,33,20,24,279,36,24,20,223,36*74
$GPGSV,3,3,12,16,14,356,,31,12,051,32,23,11,335,35,22,11,138,37*70
$GPRMC,223827.001,A,1518.8801,S,07012.2479,W,28.47,93.92,240411,,,A*64
$GPGGA,223828.001,1518.8806,S,07012.2401,W,1,06,2.2,3833.1,M,33.6,M,,0000*61
$GPGSA,M,3,19,03,32,14,24,22,,,,,,,3.5,2.2,2.8*3B
$GPRMC,223828.001,A,1518.8806,S,07012.2401,W,27.76,94.48,240411,,,A*6E
$GPGGA,223829.000,1518.8818,S,07012.2324,W,1,10,0.9,3832.0,M,33.6,M,,0000*60
$GPGSA,M,3,19,03,06,32,14,11,24,16,31,22,,,1.5,0.9,1.2*3A
$GPRMC,223829.000,A,1518.8818,S,07012.2324,W,28.25,96.71,240411,,,A*60
$GPGGA,223829.998,1518.8829,S,07012.2244,W,1,07,1.6,3832.0,M,33.6,M,,0000*65
$GPGSA,M,3,19,03,06,32,14,24,22,,,,,,2.8,1.6,2.3*3D
$GPRMC,223829.998,A,1518.8829,S,07012.2244,W,28.25,98.76,240411,,,A*64
$GPGGA,223831.002,1518.8845,S,07012.2162,W,1,10,0.9,3832.8,M,33.6,M,,0000*6B
$GPGSA,M,3,19,03,06,32,14,11,24,16,31,22,,,1.5,0.9,1.2*3A
$GPRMC,223831.002,A,1518.8845,S,07012.2162,W,28.33,104.96,240411,,,A*57
$GPGGA,223831.989,1518.8867,S,07012.2084,W,1,09,0.9,3832.5,M,33.6,M,,0000*6D
$GPGSA,M,3,19,03,06,32,14,24,16,31,22,,,,1.5,0.9,1.2*3A
$GPGSV,3,1,12,19,75,206,38,03,69,007,36,06,53,028,39,32,46,265,40*75
$GPGSV,3,2,12,14,34,128,38,11,28,214,27,20,24,279,35,24,20,223,36*7D
$GPGSV,3,3,12,16,14,356,30,31,12,051,31,23,11,335,,22,11,138,31*70
$GPRMC,223831.989,A,1518.8867,S,07012.2084,W,28.43,107.48,240411,,,A*53
$GPGGA,223833.012,1518.8890,S,07012.2005,W,1,09,1.0,3832.3,M,33.6,M,,0000*6B
$GPGSA,M,3,19,03,06,32,14,11,24,16,31,,,,1.6,1.0,1.3*30
$GPRMC,223833.012,A,1518.8890,S,07012.2005,W,27.28,112.68,240411,,,A*5F
$GPGGA,223833.987,1518.8921,S,07012.1937,W,1,05,3.1,3832.1,M,33.6,M,,0000*63
$GPGSA,M,3,19,03,32,11,24,,,,,,,,5.1,3.1,4.0*30
$GPRMC,223833.987,A,1518.8921,S,07012.1937,W,26.65,114.25,240411,,,A*5D
$GPGGA,223835.011,1518.8955,S,07012.1867,W,1,09,0.9,3830.9,M,33.6,M,,0000*69
$GPGSA,M,3,19,03,06,32,14,11,24,16,22,,,,1.6,0.9,1.3*3A
$GPRMC,223835.011,A,1518.8955,S,07012.1867,W,26.62,116.28,240411,,,A*52
$GPGGA,223835.991,1518.8992,S,07012.1801,W,1,10,0.9,3830.4,M,33.6,M,,0000*66
$GPGSA,M,3,19,03,06,32,14,11,24,16,31,22,,,1.5,0.9,1.2*3A
$GPRMC,223835.991,A,1518.8992,S,07012.1801,W,27.21,121.11,240411,,,A*50
$GPGGA,223837.011,1518.9041,S,07012.1740,W,1,05,3.1,3829.9,M,33.6,M,,0000*63
$GPGSA,M,3,19,03,32,11,24,,,,,,,,5.1,3.1,4.0*30
$GPGSV,3,1,12,19,75,206,34,03,69,007,28,06,53,028,,32,46,265,31*7A
$GPGSV,3,2,12,14,34,128,,11,28,214,30,20,24,279,29,24,20,223,29*73
$GPGSV,3,3,12,16,14,356,,31,12,051,,23,11,335,31,22,11,138,*71
$GPRMC,223837.011,A,1518.9041,S,07012.1740,W,27.09,127.98,240411,,,A*52
$GPGGA,223837.988,1518.9087,S,07012.1678,W,1,05,3.1,3830.4,M,33.6,M,,0000*6F
$GPGSA,M,3,19,03,32,11,24,,,,,,,,5.1,3.1,4.0*30
$GPRMC,223837.988,A,1518.9087,S,07012.1678,W,27.54,131.50,240411,,,A*50
$GPGGA,223839.010,1518.9136,S,07012.1615,W,1,06,2.5,3828.9,M,33.6,M,,0000*6B
$GPGSA,M,3,19,03,06,32,11,24,,,,,,,3.8,2.5,2.8*32
$GPRMC,223839.010,A,1518.9136,S,07012.1615,W,28.38,133.21,240411,,,A*57
$GPGGA,223839.988,1518.9196,S,07012.1564,W,1,08,1.4,3829.3,M,33.6,M,,0000*6B
$GPGSA,M,3,19,03,06,32,11,24,16,31,,,,,1.9,1.4,1.3*3E
$GPRMC,223839.988,A,1518.9196,S,07012.1564,W,27.43,138.52,240411,,,A*5C
$GPGGA,223841.012,1518.9262,S,07012.1513,W,1,06,2.5,3829.4,M,33.6,M,,0000*6D
$GPGSA,M,3,19,03,06,32,11,24,,,,,,,3.8,2.5,2.8*32
$GPRMC,223841.012,A,1518.9262,S,07012.1513,W,28.62,140.40,240411,,,A*51
$GPGGA,223841.997,1518.9316,S,07012.1461,W,1,09,1.0,3826.5,M,33.6,M,,0000*68
$GPGSA,M,3,19,03,06,32,11,24,16,31,22,,,,1.6,1.0,1.2*34
$GPGSV,3,1,12,19,75,206,38,03,69,007,34,06,53,028,36,32,46,265,36*79
$GPGSV,3,2,12,14,34,128,,11,28,214,39,20,24,279,36,24,20,223,38*74
$GPGSV,3,3,12,16,14,356,36,31,12,051,33,23,11,335,36,22,11,138,29*78
$GPRMC,223841.997,A,1518.9316,S,07012.1461,W,28.14,141.31,240411,,,A*55
$GPGGA,223843.002,1518.9376,S,07012.1411,W,1,07,2.2,3826.1,M,33.6,M,,0000*65
$GPGSA,M,3,19,03,06,32,11,24,16,,,,,,2.7,2.2,1.7*30
$GPRMC,223843.002,A,1518.9376,S,07012.1411,W,27.55,141.82,240411,,,A*51
$GPGGA,223843.999,1518.9438,S,07012.1360,W,1,09,1.0,3825.1,M,33.6,M,,0000*6E
$GPGSA,M,3,19,03,06,32,11,24,16,31,22,,,,1.6,1.0,1.2*34
$GPRMC,223843.999,A,1518.9438,S,07012.1360,W,28.52,142.51,240411,,,A*53
$GPGGA,223844.999,1518.9501,S,07012.1310,W,1,05,3.1,3824.5,M,33.6,M,,0000*6F
$GPGSA,M,3,19,03,32,11,24,,,,,,,,5.1,3.1,4.0*30
$GPRMC,223844.999,A,1518.9501,S,07012.1310,W,28.72,141.65,240411,,,A*5E
$GPGGA,223845.999,1518.9561,S,07012.1259,W,1,09,1.0,3823.6,M,33.6,M,,0000*6F
$GPGSA,M,3,19,03,06,32,11,24,16,31,22,,,,1.6,1.0,1.2*34
$GPRMC,223845.999,A,1518.9561,S,07012.1259,W,28.83,141.32,240411,,,A*59
$GPGGA,223846.998,1518.9624,S,07012.1208,W,1,06,2.5,3822.8,M,33.6,M,,0000*6D
$GPGSA,M,3,19,03,06,32,11,24,,,,,,,3.8,2.5,2.8*32
$GPGSV,3,1,12,19,75,206,32,03,69,007,27,06,53,028,26,32,46,265,29*7E
$GPGSV,3,2,12,14,34,128,,11,28,214,33,20,24,279,27,24,20,223,31*77
$GPGSV,3,3,12,16,14,356,,31,12,051,,23,11,335,30,22,11,138,*70
$GPRMC,223846.998,A,1518.9624,S,07012.1208,W,29.56,140.16,240411,,,A*53
$GPGGA,223848.002,1518.9684,S,07012.1152,W,1,09,1.0,3822.6,M,33.6,M,,0000*68
$GPGSA,M,3,19,03,06,32,11,24,16,31,22,,,,1.6,1.0,1.2*34
$GPRMC,223848.002,A,1518.9684,S,07012.1152,W,28.63,140.90,240411,,,A*58
$GPGGA,223849.001,1518.9747,S,07012.1102,W,1,05,2.5,3821.8,M,33.6,M,,0000*66
$GPGSA,M,3,19,03,06,32,11,,,,,,,,4.3,2.5,3.4*35
$GPRMC,223849.001,A,1518.9747,S,07012.1102,W,28.48,138.56,240411,,,A*5D
$GPGGA,223849.998,1518.9808,S,07012.1049,W,1,08,1.1,3820.8,M,33.6,M,,0000*6E
$GPGSA,M,3,19,03,06,32,11,24,16,22,,,,,1.7,1.1,1.3*37
$GPRMC,223849.998,A,1518.9808,S,07012.1049,W,28.48,141.19,240411,,,A*5B
$GPGGA,223851.003,1518.9868,S,07012.0996,W,1,07,2.2,3820.2,M,33.6,M,,0000*65
$GPGSA,M,3,19,03,06,32,11,24,16,,,,,,2.7,2.2,1.7*30
$GPRMC,223851.003,A,1518.9868,S,07012.0996,W,28.00,139.79,240411,,,A*50
$GPGGA,223851.999,1518.9930,S,07012.0944,W,1,09,1.0,3819.8,M,33.6,M,,0000*63
$GPGSA,M,3,19,03,06,32,11,24,16,31,22,,,,1.6,1.0,1.2*34
$GPGSV,3,1,12,19,75,206,38,03,69,007,36,06,53,028,35,32,46,265,36*78
$GPGSV,3,2,12,14,34,128,,11,28,214,38,20,24,279,36,24,20,223,38*75
$GPGSV,3,3,12,16,14,356,33,31,12,051,28,23,11,335,36,22,11,138,26*78
$GPRMC,223851.999,A,1518.9930,S,07012.0944,W,28.08,141.06,240411,,,A*56
$GPGGA,223852.998,1518.9992,S,07012.0896,W,1,06,2.5,3819.2,M,33.6,M,,0000*64
$GPGSA,M,3,19,03,06,32,11,24,,,,,,,3.8,2.5,2.8*32
$GPRMC,223852.998,A,1518.9992,S,07012.0896,W,27.30,140.95,240411,,,A*5D
$GPGGA,223854.001,1519.0053,S,07012.0843,W,1,09,1.0,3819.0,M,33.6,M,,0000*64
$GPGSA,M,3,19,03,06,32,11,24,16,31,22,,,,1.6,1.0,1.2*34
$GPRMC,223854.001,A,1519.0053,S,07012.0843,W,28.73,141.15,240411,,,A*57
$GPGGA,223855.001,1519.0112,S,07012.0789,W,1,05,2.5,3818.2,M,33.6,M,,0000*61
$GPGSA,M,3,19,06,32,11,24,,,,,,,,3.8,2.5,2.8*31
$GPRMC,223855.001,A,1519.0112,S,07012.0789,W,28.06,141.79,240411,,,A*53
$GPGGA,223855.999,1519.0174,S,07012.0734,W,1,09,1.0,3817.1,M,33.6,M,,0000*69
$GPGSA,M,3,19,03,06,32,11,24,16,31,22,,,,1.6,1.0,1.2*34
$GPRMC,223855.999,A,1519.0174,S,07012.0734,W,29.63,140.14,240411,,,A*55
$GPGGA,223856.989,1519.0240,S,07012.0681,W,1,10,0.9,3818.3,M,33.6,M,,0000*6D
$GPGSA,M,3,19,03,06,32,14,11,24,16,31,22,,,1.5,0.9,1.2*3A
$GPGSV,3,1,12,19,75,206,37,03,69,007,30,06,53,028,34,32,46,265,36*70
$GPGSV,3,2,12,14,34,128,30,11,28,214,38,20,24,279,36,24,20,223,39*77
$GPGSV,3,3,12,16,14,356,36,31,12,051,29,23,11,335,37,22,11,138,27*7C
$GPRMC,223856.989,A,1519.0240,S,07012.0681,W,29.20,140.86,240411,,,A*50
$GPGGA,223858.011,1519.0304,S,07012.0629,W,1,07,2.2,3817.8,M,33.6,M,,0000*63
$GPGSA,M,3,19,03,06,32,11,24,16,,,,,,2.7,2.2,1.7*30
$GPRMC,223858.011,A,1519.0304,S,07012.0629,W,28.63,141.38,240411,,,A*57
$GPGGA,223858.987,1519.0365,S,07012.0580,W,1,04,3.0,3817.7,M,33.6,M,,0000*6D
$GPGSA,M,3,19,32,11,24,,,,,,,,,3.2,3.0,1.0*32
$GPRMC,223858.987,A,1519.0365,S,07012.0580,W,28.02,142.84,240411,,,A*55
$GPGGA,223900.010,1519.0426,S,07012.0527,W,1,09,1.0,3818.7,M,33.6,M,,0000*6B
$GPGSA,M,3,19,03,06,32,11,24,16,31,22,,,,1.6,1.0,1.2*34
$GPRMC,223900.010,A,1519.0426,S,07012.0527,W,27.49,141.63,240411,,,A*59
$GPGGA,223900.991,1519.0491,S,07012.0474,W,1,09,1.0,3820.2,M,33.6,M,,0000*6E
$GPGSA,M,3,19,03,06,32,11,24,16,31,22,,,,1.6,1.0,1.2*34
$GPRMC,223900.991,A,1519.0491,S,07012.0474,W,28.70,140.40,240411,,,A*57
$GPGGA,223902.009,1519.0553,S,07012.0420,W,1,07,2.2,3820.7,M,33.6,M,,0000*60
$GPGSA,M,3,19,03,06,32,11,24,16,,,,,,2.7,2.2,1.7*30
$GPGSV,3,1,12,19,75,206,31,03,69,007,28,06,53,028,27,32,46,265,26*7C
$GPGSV,3,2,12,14,34,128,,11,28,214,32,20,24,279,28,24,20,223,34*7C
$GPGSV,3,3,12,16,14,356,28,31,12,051,,23,11,335,30,22,11,138,*7A
$GPRMC,223902.009,A,1519.0553,S,07012.0420,W,28.71,139.71,240411,,,A*5E
$GPGGA,223902.990,1519.0613,S,07012.0369,W,1,04,6.7,3820.7,M,33.6,M,,0000*66
$GPGSA,M,3,19,03,11,24,,,,,,,,,6.7,6.7,1.0*32
$GPRMC,223902.990,A,1519.0613,S,07012.0369,W,28.16,139.88,240411,,,A*5D
$GPGGA,223904.009,1519.0673,S,07012.0318,W,1,09,1.0,3820.5,M,33.6,M,,0000*66
$GPGSA,M,3,19,03,06,32,11,24,16,31,22,,,,1.6,1.0,1.2*34
$GPRMC,223904.009,A,1519.0673,S,07012.0318,W,28.04,140.19,240411,,,A*57
$GPGGA,223904.992,1519.0735,S,07012.0267,W,1,09,1.0,3820.1,M,33.6,M,,0000*63
$GPGSA,M,3,19,03,06,32,11,24,16,31,22,,,,1.6,1.0,1.2*34
$GPRMC,223904.992,A,1519.0735,S,07012.0267,W,27.93,140.12,240411,,,A*5C
$GPGGA,223906.009,1519.0792,S,07012.0216,W,1,07,2.2,3818.8,M,33.6,M,,0000*6C
$GPGSA,M,3,19,03,06,32,11,24,16,,,,,,2.7,2.2,1.7*30
$GPRMC,223906.009,A,1519.0792,S,07012.0216,W,28.10,140.91,240411,,,A*51
$GPGGA,223907.000,1519.0849,S,07012.0164,W,1,09,1.0,3817.4,M,33.6,M,,0000*67
$GPGSA,M,3,19,03,06,32,11,24,16,31,22,,,,1.6,1.0,1.2*34
$GPGSV,3,1,12,19,75,206,37,03,69,007,36,06,53,028,35,32,46,265,34*75
$GPGSV,3,2,12,14,34,128,,11,28,214,39,20,24,279,35,24,20,223,39*76
$GPGSV,3,3,12,16,14,356,35,31,12,051,31,23,11,335,35,22,11,138,29*7A
$GPRMC,223907.000,A,1519.0849,S,07012.0164,W,28.03,140.93,240411,,,A*56
$GPGGA,223908.001,1519.0909,S,07012.0114,W,1,07,2.2,3816.3,M,33.6,M,,0000*62
$GPGSA,M,3,19,03,06,32,11,24,16,,,,,,2.7,2.2,1.7*30
$GPRMC,223908.001,A,1519.0909,S,07012.0114,W,27.61,141.19,240411,,,A*52
$GPGGA,223908.998,1519.0969,S,07012.0064,W,1,08,1.1,3816.7,M,33.6,M,,0000*60
$GPGSA,M,3,19,03,06,32,11,24,16,22,,,,,1.7,1.1,1.3*37
$GPRMC,223908.998,A,1519.0969,S,07012.0064,W,27.89,141.76,240411,,,A*54
$GPGGA,223910.004,1519.1030,S,07012.0013,W,1,07,2.2,3817.5,M,33.6,M,,0000*6D
$GPGSA,M,3,19,03,06,32,11,24,16,,,,,,2.8,2.2,1.7*3F
$GPRMC,223910.004,A,1519.1030,S,07012.0013,W,28.11,141.22,240411,,,A*5A
$GPGGA,223911.000,1519.1092,S,07011.9961,W,1,07,2.2,3818.6,M,33.6,M,,0000*6A
$GPGSA,M,3,19,03,06,32,11,24,16,,,,,,2.8,2.2,1.7*3F
$GPGSV,3,1,12,19,76,208,41,03,67,007,36,06,52,027,37,32,47,263,37*7F
$GPGSV,3,2,12,14,33,130,,11,29,213,41,24,20,221,41,16,14,357,36*74
$GPGSV,3,3,12,31,12,052,,22,10,137,,30,02,014,,20,24,278,37*71
$GPRMC,223911.000,A,1519.1092,S,07011.9961,W,28.61,139.58,240411,,,A*54
$GPGGA,223912.000,1519.1160,S,07011.9916,W,1,07,2.2,3823.2,M,33.6,M,,0000*69
$GPGSA,M,3,19,03,06,32,11,24,16,,,,,,2.8,2.2,1.7*3F
$GPRMC,223912.000,A,1519.1160,S,07011.9916,W,28.17,140.21,240411,,,A*5A
$GPGGA,223913.000,1519.1229,S,07011.9866,W,1,09,1.0,3826.3,M,33.6,M,,0000*6B
$GPGSA,M,3,19,03,06,32,11,24,16,31,22,,,,1.6,1.0,1.2*34
$GPRMC,223913.000,A,1519.1229,S,07011.9866,W,28.38,139.77,240411,,,A*53
$GPGGA,223914.000,1519.1291,S,07011.9818,W,1,09,1.0,3828.3,M,33.6,M,,0000*68
$GPGSA,M,3,19,03,06,32,11,24,16,31,22,,,,1.6,1.0,1.2*34
$GPRMC,223914.000,A,1519.1291,S,07011.9818,W,28.13,139.92,240411,,,A*5C
$GPGGA,223915.000,1519.1355,S,07011.9768,W,1,09,1.0,3830.5,M,33.6,M,,0000*67
$GPGSA,M,3,19,03,06,32,11,24,16,31,22,,,,1.6,1.0,1.2*34
$GPRMC,223915.000,A,1519.1355,S,07011.9768,W,28.01,140.03,240411,,,A*59
$GPGGA,223916.000,1519.1417,S,07011.9721,W,1,09,1.0,3832.3,M,33.6,M,,0000*6C
$GPGSA,M,3,19,03,06,32,11,24,16,31,22,,,,1.6,1.0,1.2*34
$GPGSV,3,1,12,19,76,208,38,03,67,007,33,06,52,027,34,32,47,263,34*74
$GPGSV,3,2,12,14,33,130,,11,29,213,39,24,20,221,39,16,14,357,32*70
$GPGSV,3,3,12,31,12,052,25,22,10,137,27,30,02,014,,20,24,278,34*70
$GPRMC,223916.000,A,1519.1417,S,07011.9721,W,28.41,139.55,240411,,,A*5F
$GPGGA,223917.000,1519.1481,S,07011.9669,W,1,09,1.0,3833.7,M,33.6,M,,0000*6A
$GPGSA,M,3,19,03,06,32,11,24,16,31,22,,,,1.6,1.0,1.2*34
$GPRMC,223917.000,A,1519.1481,S,07011.9669,W,28.19,139.98,240411,,,A*50
$GPGGA,223918.000,1519.1545,S,07011.9619,W,1,09,1.0,3835.4,M,33.6,M,,0000*6E
$GPGSA,M,3,19,03,06,32,11,24,16,31,22,,,,1.6,1.0,1.2*34
$GPRMC,223918.000,A,1519.1545,S,07011.9619,W,28.20,140.34,240411,,,A*53
$GPGGA,223919.000,1519.1608,S,07011.9567,W,1,09,1.0,3836.1,M,33.6,M,,0000*69
$GPGSA,M,3,19,03,06,32,11,24,16,31,22,,,,1.6,1.0,1.2*34
$GPRMC,223919.000,A,1519.1608,S,07011.9567,W,28.04,140.79,240411,,,A*5D
$GPGGA,223920.000,1519.1670,S,07011.9517,W,1,08,1.3,3837.5,M,33.6,M,,0000*6C
$GPGSA,M,3,19,03,06,32,11,24,31,22,,,,,2.1,1.3,1.6*30
$GPRMC,223920.000,A,1519.1670,S,07011.9517,W,28.11,140.36,240411,,,A*50
$GPGGA,223921.000,1519.1733,S,07011.9465,W,1,09,1.0,3838.6,M,33.6,M,,0000*61
$GPGSA,M,3,19,03,06,32,11,24,16,31,22,,,,1.6,1.0,1.2*34
$GPGSV,3,1,12,19,76,208,38,03,67,007,33,06,52,027,34,32,47,263,34*74
$GPGSV,3,2,12,14,33,130,,11,29,213,40,24,20,221,39,16,14,357,30*7C
$GPGSV,3,3,12,31,12,052,26,22,10,137,27,30,02,014,,20,24,278,34*73
$GPRMC,223921.000,A,1519.1733,S,07011.9465,W,28.47,139.83,240411,,,A*50
$GPGGA,223922.000,1519.1795,S,07011.9413,W,1,09,1.0,3839.4,M,33.6,M,,0000*6C
$GPGSA,M,3,19,03,06,32,11,24,16,31,22,,,,1.6,1.0,1.2*34
$GPRMC,223922.000,A,1519.1795,S,07011.9413,W,28.01,139.76,240411,,,A*56
$GPGGA,223923.000,1519.1856,S,07011.9361,W,1,10,0.9,3840.0,M,33.6,M,,0000*65
$GPGSA,M,3,19,03,06,32,11,24,16,31,22,14,,,1.5,0.9,1.2*3A
$GPRMC,223923.000,A,1519.1856,S,07011.9361,W,27.89,140.09,240411,,,A*5C
$GPGGA,223924.000,1519.1917,S,07011.9310,W,1,10,0.9,3840.7,M,33.6,M,,0000*67
$GPGSA,M,3,19,03,06,32,11,24,16,31,22,14,,,1.5,0.9,1.2*3A
$GPRMC,223924.000,A,1519.1917,S,07011.9310,W,28.08,140.58,240411,,,A*5B
$GPGGA,223925.000,1519.1979,S,07011.9258,W,1,10,0.9,3841.3,M,33.6,M,,0000*66
$GPGSA,M,3,19,03,06,32,11,24,16,31,22,14,,,1.5,0.9,1.2*3A
$GPRMC,223925.000,A,1519.1979,S,07011.9258,W,28.24,140.69,240411,,,A*53
$GPGGA,223926.000,1519.2042,S,07011.9207,W,1,10,0.9,3842.1,M,33.6,M,,0000*6C
$GPGSA,M,3,19,03,06,32,11,24,16,31,22,14,,,1.5,0.9,1.2*3A
$GPGSV,3,1,12,19,76,208,39,03,67,007,34,06,52,027,34,32,47,263,34*72
$GPGSV,3,2,12,14,33,130,17,11,29,213,41,24,20,221,40,16,14,357,35*70
$GPGSV,3,3,12,31,12,052,29,22,10,137,28,30,02,014,24,20,24,278,34*75
$GPRMC,223926.000,A,1519.2042,S,07011.9207,W,27.98,140.94,240411,,,A*52
$GPGGA,223927.000,1519.2104,S,07011.9157,W,1,09,1.0,3842.8,M,33.6,M,,0000*61
$GPGSA,M,3,19,03,06,32,11,24,16,31,22,,,,1.6,1.0,1.2*34
$GPRMC,223927.000,A,1519.2104,S,07011.9157,W,28.07,140.80,240411,,,A*5A
$GPGGA,223928.000,1519.2165,S,07011.9107,W,1,09,1.0,3843.3,M,33.6,M,,0000*66
$GPGSA,M,3,19,03,06,32,11,24,16,31,22,,,,1.6,1.0,1.2*34
$GPRMC,223928.000,A,1519.2165,S,07011.9107,W,28.12,140.64,240411,,,A*59
$GPGGA,223929.000,1519.2225,S,07011.9057,W,1,09,1.0,3843.7,M,33.6,M,,0000*60
$GPGSA,M,3,19,03,06,32,11,24,16,31,22,,,,1.6,1.0,1.2*34
$GPRMC,223929.000,A,1519.2225,S,07011.9057,W,28.00,140.31,240411,,,A*58
$GPGGA,223930.000,1519.2285,S,07011.9007,W,1,09,1.0,3844.1,M,33.6,M,,0000*66
$GPGSA,M,3,19,03,06,32,11,24,16,31,22,,,,1.6,1.0,1.2*34
$GPRMC,223930.000,A,1519.2285,S,07011.9007,W,27.98,140.56,240411,,,A*50
$GPGGA,223931.000,1519.2346,S,07011.8957,W,1,09,1.0,3844.4,M,33.6,M,,0000*61
$GPGSA,M,3,19,03,06,32,11,24,16,31,22,,,,1.6,1.0,1.2*34
$GPGSV,3,1,12,19,76,208,42,03,67,007,35,06,52,027,35,32,47,263,34*7E
$GPGSV,3,2,12,14,33,130,,11,29,213,44,24,20,221,40,16,14,357,33*75
$GPGSV,3,3,12,31,12,052,28,22,10,137,27,30,02,014,22,20,24,278,35*7C
$GPRMC,223931.000,A,1519.2346,S,07011.8957,W,28.05,140.66,240411,,,A*5A
$GPGGA,223932.000,1519.2407,S,07011.8907,W,1,09,1.0,3844.8,M,33.6,M,,0000*69
$GPGSA,M,3,19,03,06,32,11,24,16,31,22,,,,1.6,1.0,1.2*34
$GPRMC,223932.000,A,1519.2407,S,07011.8907,W,28.21,140.67,240411,,,A*59
$GPGGA,223933.000,1519.2469,S,07011.8856,W,1,09,1.0,3845.2,M,33.6,M,,0000*6E
$GPGSA,M,3,19,03,06,32,11,24,16,31,22,,,,1.6,1.0,1.2*34
$GPRMC,223933.000,A,1519.2469,S,07011.8856,W,28.36,140.57,240411,,,A*50
$GPGGA,223934.000,1519.2530,S,07011.8805,W,1,09,1.0,3845.6,M,33.6,M,,0000*66
$GPGSA,M,3,19,03,06,32,11,24,16,31,22,,,,1.6,1.0,1.2*34
$GPRMC,223934.000,A,1519.2530,S,07011.8805,W,28.01,140.70,240411,,,A*5D
$GPGGA,223935.000,1519.2592,S,07011.8755,W,1,09,1.0,3845.9,M,33.6,M,,0000*6A
$GPGSA,M,3,19,03,06,32,11,24,16,31,22,,,,1.6,1.0,1.2*34
$GPRMC,223935.000,A,1519.2592,S,07011.8755,W,28.18,141.02,240411,,,A*52
$GPGGA,223936.000,1519.2654,S,07011.8705,W,1,08,1.0,3846.1,M,33.6,M,,0000*6F
$GPGSA,M,3,19,06,32,11,24,16,31,22,,,,,1.7,1.0,1.4*30
$GPGSV,3,1,12,19,76,208,38,03,67,007,,06,52,027,36,32,47,263,34*76
$GPGSV,3,2,12,14,33,130,,11,29,213,42,24,20,221,40,16,14,357,33*73
$GPGSV,3,3,12,31,12,052,27,22,10,137,28,30,02,014,22,20,24,278,*7A
$GPRMC,223936.000,A,1519.2654,S,07011.8705,W,28.20,141.13,240411,,,A*56
$GPGGA,223937.000,1519.2715,S,07011.8654,W,1,09,1.0,3846.3,M,33.6,M,,0000*6C
$GPGSA,M,3,19,03,06,32,11,24,16,31,22,,,,1.6,1.0,1.2*34
$GPRMC,223937.000,A,1519.2715,S,07011.8654,W,28.12,141.15,240411,,,A*51
$GPGGA,223937.990,1519.2776,S,07011.8604,W,1,04,8.6,3846.4,M,33.6,M,,0000*69
$GPGSA,M,3,19,06,11,24,,,,,,,,,8.7,8.6,1.0*36
$GPRMC,223937.990,A,1519.2776,S,07011.8604,W,28.43,141.44,240411,,,A*51
$GPGGA,223939.013,1519.2838,S,07011.8553,W,1,09,1.0,3846.6,M,33.6,M,,0000*61
$GPGSA,M,3,19,03,06,32,11,24,16,31,22,,,,1.6,1.0,1.2*34
$GPRMC,223939.013,A,1519.2838,S,07011.8553,W,28.17,140.92,240411,,,A*52
$GPGGA,223939.989,1519.2897,S,07011.8503,W,1,09,1.0,3846.8,M,33.6,M,,0000*65
$GPGSA,M,3,19,03,06,32,11,24,16,31,22,,,,1.6,1.0,1.2*34
$GPRMC,223939.989,A,1519.2897,S,07011.8503,W,27.40,140.58,240411,,,A*53
$GPGGA,223941.011,1519.2957,S,07011.8452,W,1,07,2.2,3846.8,M,33.6,M,,0000*65
$GPGSA,M,3,19,03,06,32,11,24,16,,,,,,2.8,2.2,1.7*3F
$GPRMC,223941.011,A,1519.2957,S,07011.8452,W,26.89,140.95,240411,,,A*59
$GPGGA,223942.000,1519.3015,S,07011.8403,W,1,09,1.0,3846.6,M,33.6,M,,0000*6D
$GPGSA,M,3,19,03,06,32,11,24,16,31,22,,,,1.6,1.0,1.2*34
$GPGSV,3,1,12,19,76,208,38,03,67,007,34,06,52,027,35,32,47,263,36*70
$GPGSV,3,2,12,14,33,130,,11,29,213,39,20,24,278,35,24,20,221,38*7C
$GPGSV,3,3,12,16,14,357,35,23,13,335,36,31,12,052,29,22,10,137,29*7E
$GPRMC,223942.000,A,1519.3015,S,07011.8403,W,27.60,140.25,240411,,,A*5D
$GPGGA,223943.001,1519.3075,S,07011.8351,W,1,05,2.5,3846.7,M,33.6,M,,0000*60
$GPGSA,M,3,19,06,32,11,24,,,,,,,,3.8,2.5,2.8*31
$GPRMC,223943.001,A,1519.3075,S,07011.8351,W,28.47,140.04,240411,,,A*52
$GPGGA,223943.998,1519.3135,S,07011.8302,W,1,09,1.0,3846.7,M,33.6,M,,0000*60
$GPGSA,M,3,19,03,06,32,11,24,16,31,22,,,,1.6,1.0,1.2*34
$GPRMC,223943.998,A,1519.3135,S,07011.8302,W,27.32,142.05,240411,,,A*56
$GPGGA,223945.000,1519.3195,S,07011.8252,W,1,07,2.2,3846.6,M,33.6,M,,0000*6E
$GPGSA,M,3,19,03,06,32,11,24,16,,,,,,2.8,2.2,1.7*3F
$GPRMC,223945.000,A,1519.3195,S,07011.8252,W,27.91,140.86,240411,,,A*56
$GPGGA,223945.999,1519.3254,S,07011.8202,W,1,09,1.0,3846.6,M,33.6,M,,0000*63
$GPGSA,M,3,19,03,06,32,11,24,16,31,22,,,,1.6,1.0,1.2*34
$GPRMC,223945.999,A,1519.3254,S,07011.8202,W,27.68,140.01,240411,,,A*5D
$GPGGA,223947.001,1519.3314,S,07011.8150,W,1,07,2.2,3846.6,M,33.6,M,,0000*67
$GPGSA,M,3,19,03,06,32,11,24,16,,,,,,2.8,2.2,1.7*3F
$GPGSV,3,1,12,19,76,208,31,03,67,007,28,06,52,027,27,32,47,263,27*77
$GPGSV,3,2,12,14,33,130,,11,29,213,33,20,24,278,28,24,20,221,32*70
$GPGSV,3,3,12,16,14,357,25,23,13,335,27,31,12,052,,22,10,137,*7F
$GPRMC,223947.001,A,1519.3314,S,07011.8150,W,27.81,140.68,240411,,,A*5E
$GPGGA,223947.999,1519.3374,S,07011.8099,W,1,09,1.0,3846.6,M,33.6,M,,0000*62
$GPGSA,M,3,19,03,06,32,11,24,16,31,22,,,,1.6,1.0,1.2*34
$GPRMC,223947.999,A,1519.3374,S,07011.8099,W,27.96,140.45,240411,,,A*5D
$GPGGA,223948.998,1519.3434,S,07011.8047,W,1,06,5.6,3846.6,M,33.6,M,,0000*61
$GPGSA,M,3,19,03,06,11,24,16,,,,,,,6.5,5.6,3.2*33
$GPRMC,223948.998,A,1519.3434,S,07011.8047,W,28.08,139.69,240411,,,A*5B
$GPGGA,223950.001,1519.3492,S,07011.7997,W,1,09,1.0,3846.4,M,33.6,M,,0000*69
$GPGSA,M,3,19,03,06,32,11,24,16,31,22,,,,1.6,1.0,1.2*34
$GPRMC,223950.001,A,1519.3492,S,07011.7997,W,27.61,141.48,240411,,,A*50
$GPGGA,223951.001,1519.3552,S,07011.7948,W,1,05,7.4,3846.3,M,33.6,M,,0000*6E
$GPGSA,M,3,19,03,06,11,24,,,,,,,,8.1,7.4,3.3*3F
$GPRMC,223951.001,A,1519.3552,S,07011.7948,W,27.37,141.13,240411,,,A*53
$GPGGA,223951.998,1519.3609,S,07011.7900,W,1,09,1.0,3846.0,M,33.6,M,,0000*6B
$GPGSA,M,3,19,03,06,32,11,24,16,31,22,,,,1.6,1.0,1.2*34
$GPGSV,3,1,12,19,76,208,37,03,67,007,36,06,52,027,36,32,47,263,34*7C
$GPGSV,3,2,12,14,33,130,,11,29,213,37,20,24,278,35,24,20,221,39*73
$GPGSV,3,3,12,16,14,357,34,23,13,335,36,31,12,052,29,22,10,137,30*77
$GPRMC,223951.998,A,1519.3609,S,07011.7900,W,28.02,140.90,240411,,,A*58
$GPGGA,223952.999,1519.3669,S,07011.7850,W,1,06,2.5,3845.8,M,33.6,M,,0000*69
$GPGSA,M,3,19,03,06,32,11,24,,,,,,,3.8,2.5,2.8*32
$GPRMC,223952.999,A,1519.3669,S,07011.7850,W,27.68,142.55,240411,,,A*50
$GPGGA,223954.000,1519.3729,S,07011.7798,W,1,09,1.0,3845.0,M,33.6,M,,0000*69
$GPGSA,M,3,19,03,06,32,11,24,16,31,22,,,,1.6,1.0,1.2*34
$GPRMC,223954.000,A,1519.3729,S,07011.7798,W,27.81,141.36,240411,,,A*50
$GPGGA,223954.998,1519.3789,S,07011.7748,W,1,06,2.5,3844.8,M,33.6,M,,0000*66
$GPGSA,M,3,19,03,06,32,11,24,,,,,,,3.8,2.5,2.8*32
$GPRMC,223954.998,A,1519.3789,S,07011.7748,W,27.16,140.76,240411,,,A*54
$GPGGA,223956.003,1519.3848,S,07011.7699,W,1,09,1.0,3844.9,M,33.6,M,,0000*68
$GPGSA,M,3,19,03,06,32,11,24,16,31,22,,,,1.6,1.0,1.2*34
$GPRMC,223956.003,A,1519.3848,S,07011.7699,W,27.87,140.65,240411,,,A*58
$GPGGA,223956.989,1519.3907,S,07011.7647,W,1,09,1.0,3844.7,M,33.6,M,,0000*64
$GPGSA,M,3,19,03,06,32,11,24,16,31,22,,,,1.6,1.0,1.2*34
$GPGSV,3,1,12,19,76,208,38,03,67,007,35,06,52,027,36,32,47,263,35*71
$GPGSV,3,2,12,14,33,130,,11,29,213,39,20,24,278,35,24,20,221,39*7D
$GPGSV,3,3,12,16,14,357,33,23,13,335,36,31,12,052,27,22,10,137,28*77
$GPRMC,223956.989,A,1519.3907,S,07011.7647,W,27.72,140.46,240411,,,A*51
$GPGGA,223958.010,1519.3966,S,07011.7596,W,1,07,2.2,3844.2,M,33.6,M,,0000*61
$GPGSA,M,3,19,03,06,32,11,24,16,,,,,,2.8,2.2,1.7*3F
$GPRMC,223958.010,A,1519.3966,S,07011.7596,W,27.73,140.81,240411,,,A*54
$GPGGA,223958.989,1519.4024,S,07011.7550,W,1,06,2.5,3844.1,M,33.6,M,,0000*6F
$GPGSA,M,3,19,03,06,32,11,24,,,,,,,3.8,2.5,2.8*32
$GPRMC,223958.989,A,1519.4024,S,07011.7550,W,28.18,141.21,240411,,,A*56
$GPGGA,224000.011,1519.4083,S,07011.7498,W,1,09,1.0,3844.0,M,33.6,M,,0000*64
$GPGSA,M,3,19,03,06,32,11,24,16,31,22,,,,1.6,1.0,1.2*34
$GPRMC,224000.011,A,1519.4083,S,07011.7498,W,27.93,139.36,240411,,,A*50
$GPGGA,224000.990,1519.4141,S,07011.7447,W,1,09,1.0,3844.4,M,33.6,M,,0000*6D
$GPGSA,M,3,19,03,06,32,11,24,16,31,22,,,,1.6,1.0,1.2*34
$GPRMC,224000.990,A,1519.4141,S,07011.7447,W,28.04,139.20,240411,,,A*5B
$GPGGA,224002.013,1519.4202,S,07011.7396,W,1,07,2.2,3844.4,M,33.6,M,,0000*6D
$GPGSA,M,3,19,03,06,32,11,24,16,,,,,,2.8,2.2,1.7*3F
$GPGSV,3,1,12,19,76,208,33,03,67,007,28,06,52,027,31,32,47,263,28*7D
$GPGSV,3,2,12,14,33,130,,11,29,213,33,20,24,278,29,24,20,221,36*75
$GPGSV,3,3,12,16,14,357,27,23,13,335,31,31,12,052,,22,10,137,*7A
$GPRMC,224002.013,A,1519.4202,S,07011.7396,W,27.63,140.99,240411,,,A*56
$GPGGA,224002.989,1519.4259,S,07011.7347,W,1,05,2.5,3844.4,M,33.6,M,,0000*60
$GPGSA,M,3,19,06,32,11,24,,,,,,,,3.8,2.5,2.8*31
$GPRMC,224002.989,A,1519.4259,S,07011.7347,W,26.92,139.48,240411,,,A*53
$GPGGA,224004.000,1519.4318,S,07011.7296,W,1,05,2.6,3844.4,M,33.6,M,,0000*64
$GPGSA,M,3,19,06,32,11,24,,,,,,,,3.8,2.6,2.8*32
$GPRMC,224004.000,A,1519.4318,S,07011.7296,W,26.96,140.82,240411,,,A*58
$GPGGA,224005.000,1519.4382,S,07011.7247,W,1,05,2.6,3844.9,M,33.6,M,,0000*67
$GPGSA,M,3,19,06,32,11,24,,,,,,,,3.8,2.6,2.8*32
$GPRMC,224005.000,A,1519.4382,S,07011.7247,W,27.45,140.33,240411,,,A*53
$GPGGA,224006.000,1519.4443,S,07011.7196,W,1,09,1.0,3845.1,M,33.6,M,,0000*61
$GPGSA,M,3,19,06,32,11,24,03,16,31,22,,,,1.6,1.0,1.2*34
$GPGSV,3,1,12,19,77,209,42,03,67,007,33,06,52,027,38,32,47,262,35*75
$GPGSV,3,2,12,14,33,130,,11,29,213,43,24,21,221,44,16,13,357,32*71
$GPGSV,3,3,12,31,12,053,26,22,10,137,27,30,02,015,,20,24,278,34*73
$GPRMC,224006.000,A,1519.4443,S,07011.7196,W,27.80,140.21,240411,,,A*5F
$GPGGA,224007.000,1519.4503,S,07011.7148,W,1,09,1.0,3845.3,M,33.6,M,,0000*64
$GPGSA,M,3,19,06,32,11,24,03,16,31,22,,,,1.6,1.0,1.2*34
$GPRMC,224007.000,A,1519.4503,S,07011.7148,W,27.17,140.85,240411,,,A*58
$GPGGA,224008.000,1519.4563,S,07011.7097,W,1,08,1.3,3845.7,M,33.6,M,,0000*68
$GPGSA,M,3,19,06,32,11,24,03,31,22,,,,,2.1,1.3,1.6*30
$GPRMC,224008.000,A,1519.4563,S,07011.7097,W,27.16,140.73,240411,,,A*5A
$GPGGA,224009.000,1519.4624,S,07011.7044,W,1,09,1.0,3845.9,M,33.6,M,,0000*6B
$GPGSA,M,3,19,06,32,11,24,03,16,31,22,,,,1.6,1.0,1.2*34
$GPRMC,224009.000,A,1519.4624,S,07011.7044,W,27.30,140.34,240411,,,A*52
$GPGGA,224010.000,1519.4682,S,07011.6992,W,1,09,1.0,3846.2,M,33.6,M,,0000*64
$GPGSA,M,3,19,06,32,11,24,03,16,31,22,,,,1.6,1.0,1.2*34
$GPRMC,224010.000,A,1519.4682,S,07011.6992,W,27.37,140.09,240411,,,A*5C
$GPGGA,224011.000,1519.4742,S,07011.6941,W,1,09,1.0,3846.2,M,33.6,M,,0000*66
$GPGSA,M,3,19,06,32,11,24,03,16,31,22,,,,1.6,1.0,1.2*34
$GPGSV,3,1,12,19,77,209,40,03,67,007,34,06,52,027,37,32,47,262,33*79
$GPGSV,3,2,12,14,33,130,,11,29,213,40,24,21,221,41,16,13,357,33*76
$GPGSV,3,3,12,31,12,053,25,22,10,137,28,30,02,015,14,20,24,278,36*78
$GPRMC,224011.000,A,1519.4742,S,07011.6941,W,27.11,140.42,240411,,,A*55
$GPGGA,224012.000,1519.4801,S,07011.6893,W,1,09,1.0,3846.4,M,33.6,M,,0000*65
$GPGSA,M,3,19,06,32,11,24,03,16,31,22,,,,1.6,1.0,1.2*34
$GPRMC,224012.000,A,1519.4801,S,07011.6893,W,26.90,140.85,240411,,,A*53
$GPGGA,224013.000,1519.4860,S,07011.6844,W,1,08,1.4,3846.8,M,33.6,M,,0000*60
$GPGSA,M,3,19,06,32,11,24,03,16,31,,,,,1.9,1.4,1.3*3E
$GPRMC,224013.000,A,1519.4860,S,07011.6844,W,26.69,141.01,240411,,,A*54
$GPGGA,224014.000,1519.4920,S,07011.6797,W,1,08,1.4,3847.2,M,33.6,M,,0000*68
$GPGSA,M,3,19,06,32,11,24,03,16,31,,,,,1.9,1.4,1.3*3E
$GPRMC,224014.000,A,1519.4920,S,07011.6797,W,26.66,140.89,240411,,,A*59
$GPGGA,224014.997,1519.4977,S,07011.6749,W,1,07,2.2,3847.2,M,33.6,M,,0000*64
$GPGSA,M,3,19,03,06,32,11,24,16,,,,,,2.8,2.2,1.7*3F
$GPRMC,224014.997,A,1519.4977,S,07011.6749,W,27.04,140.54,240411,,,A*5A
$GPGGA,224016.001,1519.5033,S,07011.6702,W,1,06,5.7,3847.2,M,33.6,M,,0000*64
$GPGSA,M,3,19,03,06,11,24,16,,,,,,,6.5,5.7,3.2*32
$GPRMC,224016.001,A,1519.5033,S,07011.6702,W,26.00,141.11,240411,,,A*5C
$GPGGA,224016.997,1519.5091,S,07011.6653,W,1,09,1.0,3847.3,M,33.6,M,,0000*62
$GPGSA,M,3,19,03,06,32,11,24,16,31,22,,,,1.6,1.0,1.2*34
$GPGSV,3,1,12,19,77,209,38,03,67,007,35,06,52,027,36,32,47,262,34*71
$GPGSV,3,2,12,14,33,130,,11,29,213,38,20,24,278,36,24,21,221,39*7E
$GPGSV,3,3,12,16,13,357,33,23,13,335,35,31,12,053,28,22,10,137,30*74
$GPRMC,224016.997,A,1519.5091,S,07011.6653,W,27.03,140.87,240411,,,A*5B
$GPGGA,224018.001,1519.5149,S,07011.6605,W,1,07,2.2,3847.4,M,33.6,M,,0000*65
$GPGSA,M,3,19,03,06,32,11,24,16,,,,,,2.8,2.2,1.7*3F
$GPRMC,224018.001,A,1519.5149,S,07011.6605,W,26.23,141.94,240411,,,A*54
$GPGGA,224018.999,1519.5207,S,07011.6557,W,1,08,1.1,3847.7,M,33.6,M,,0000*6C
$GPGSA,M,3,19,03,06,32,11,24,16,22,,,,,1.7,1.1,1.3*37
$GPRMC,224018.999,A,1519.5207,S,07011.6557,W,26.62,141.44,240411,,,A*59
$GPGGA,224020.000,1519.5268,S,07011.6505,W,1,07,2.2,3847.8,M,33.6,M,,0000*60
$GPGSA,M,3,19,03,06,32,11,24,16,,,,,,2.8,2.2,1.7*3F
$GPRMC,224020.000,A,1519.5268,S,07011.6505,W,27.62,141.41,240411,,,A*51
$GPGGA,224021.000,1519.5327,S,07011.6457,W,1,09,1.0,3847.8,M,33.6,M,,0000*62
$GPGSA,M,3,19,03,06,32,11,24,16,31,22,,,,1.6,1.0,1.2*34
$GPRMC,224021.000,A,1519.5327,S,07011.6457,W,26.87,141.34,240411,,,A*54
$GPGGA,224021.990,1519.5383,S,07011.6409,W,1,09,1.0,3847.9,M,33.6,M,,0000*66
$GPGSA,M,3,19,03,06,32,11,24,16,31,22,,,,1.6,1.0,1.2*34
$GPGSV,3,1,12,19,77,209,38,03,67,007,35,06,52,027,35,32,47,262,35*73
$GPGSV,3,2,12,14,33,130,,11,29,213,40,20,24,278,34,24,21,221,39*73
$GPGSV,3,3,12,16,13,357,33,23,13,335,35,31,12,053,26,22,10,137,29*72
$GPRMC,224021.990,A,1519.5383,S,07011.6409,W,26.36,140.84,240411,,,A*51
$GPGGA,224023.010,1519.5441,S,07011.6361,W,1,06,2.2,3847.8,M,33.6,M,,0000*6A
$GPGSA,M,3,19,06,32,11,24,16,,,,,,,2.8,2.2,1.8*33
$GPRMC,224023.010,A,1519.5441,S,07011.6361,W,26.26,140.03,240411,,,A*5C
$GPGGA,224023.990,1519.5496,S,07011.6315,W,1,04,8.8,3847.8,M,33.6,M,,0000*60
$GPGSA,M,3,19,06,11,24,,,,,,,,,8.8,8.8,1.0*37
$GPRMC,224023.990,A,1519.5496,S,07011.6315,W,26.02,141.78,240411,,,A*5F
$GPGGA,224025.009,1519.5553,S,07011.6265,W,1,09,1.0,3847.9,M,33.6,M,,0000*6C
$GPGSA,M,3,19,03,06,32,11,24,16,31,22,,,,1.6,1.0,1.2*34
$GPRMC,224025.009,A,1519.5553,S,07011.6265,W,26.70,139.38,240411,,,A*50
$GPGGA,224025.992,1519.5612,S,07011.6215,W,1,09,1.0,3848.6,M,33.6,M,,0000*66
$GPGSA,M,3,19,03,06,32,11,24,16,31,22,,,,1.6,1.0,1.2*34
$GPRMC,224025.992,A,1519.5612,S,07011.6215,W,27.63,138.72,240411,,,A*56
$GPGGA,224027.011,1519.5670,S,07011.6164,W,1,05,6.9,3848.6,M,33.6,M,,0000*65
$GPGSA,M,3,19,06,11,24,16,,,,,,,,8.2,6.9,4.3*33
$GPGSV,3,1,12,19,77,209,31,03,67,007,,06,52,027,27,32,47,262,*79
$GPGSV,3,2,12,14,33,130,,11,29,213,32,20,24,278,27,24,21,221,32*7F
$GPGSV,3,3,12,16,13,357,26,23,13,335,26,31,12,053,,22,10,137,*7B
$GPRMC,224027.011,A,1519.5670,S,07011.6164,W,26.88,140.81,240411,,,A*50
$GPGGA,224027.990,1519.5726,S,07011.6117,W,1,04,6.9,3848.7,M,33.6,M,,0000*63
$GPGSA,M,3,19,03,11,24,,,,,,,,,6.9,6.9,1.0*32
$GPRMC,224027.990,A,1519.5726,S,07011.6117,W,26.83,141.20,240411,,,A*57
$GPGGA,224029.000,1519.5780,S,07011.6074,W,1,04,6.9,3848.8,M,33.6,M,,0000*6A
$GPGSA,M,3,19,03,11,24,,,,,,,,,6.9,6.9,1.0*32
$GPRMC,224029.000,A,1519.5780,S,07011.6074,W,24.92,141.38,240411,,,A*5A
$GPGGA,224030.000,1519.5836,S,07011.6025,W,1,04,6.9,3848.7,M,33.6,M,,0000*6B
$GPGSA,M,3,19,03,11,24,,,,,,,,,6.9,6.9,1.0*32
$GPRMC,224030.000,A,1519.5836,S,07011.6025,W,26.89,140.71,240411,,,A*50
$GPGGA,224031.000,1519.5894,S,07011.5977,W,1,07,1.7,3848.9,M,33.6,M,,0000*6B
$GPGSA,M,3,19,03,11,24,22,06,32,,,,,,3.0,1.7,2.5*36
$GPGSV,3,1,12,19,77,209,41,03,66,007,35,06,51,027,33,32,47,262,30*7C
$GPGSV,3,2,12,14,33,130,,11,29,213,41,24,21,221,42,16,13,357,*74
$GPGSV,3,3,12,31,12,053,,22,10,137,24,30,02,015,,20,24,277,36*79
