$GPGGA,155713.996,1445.1568,S,07403.8546,W,1,07,1.0,3641.5,M,23.0,M,,0000*62
$GPGSA,M,3,21,25,29,12,09,31,14,,,,,,2.6,1.0,2.4*3F
$GPRMC,155713.996,A,1445.1568,S,07403.8546,W,0.18,310.19,180411,,,A*6C
$GPGGA,155714.996,1445.1567,S,07403.8547,W,1,06,1.0,3642.6,M,23.0,M,,0000*6A
$GPGSA,M,3,21,29,12,09,31,14,,,,,,,2.7,1.0,2.5*38
$GPGSV,3,1,10,21,54,342,39,25,48,155,,29,45,184,30,12,33,102,30*7A
$GPGSV,3,2,10,09,25,025,39,31,25,219,29,14,21,295,27,18,08,352,36*73
$GPGSV,3,3,10,27,07,028,,05,06,104,*76
$GPRMC,155714.996,A,1445.1567,S,07403.8547,W,0.35,178.08,180411,,,A*66
$GPGGA,155716.006,1445.1568,S,07403.8550,W,1,04,1.7,3639.9,M,23.0,M,,0000*67
$GPGSA,M,3,21,12,09,14,,,,,,,,,3.3,1.7,2.8*3E
$GPRMC,155716.006,A,1445.1568,S,07403.8550,W,0.61,271.26,180411,,,A*6A
$GPGGA,155717.001,1445.1568,S,07403.8548,W,1,05,1.3,3640.7,M,23.0,M,,0000*6D
$GPGSA,M,3,21,25,12,09,14,,,,,,,,3.0,1.3,2.7*31
$GPRMC,155717.001,A,1445.1568,S,07403.8548,W,0.57,65.92,180411,,,A*58
$GPGGA,155717.995,1445.1572,S,07403.8550,W,1,07,1.0,3640.2,M,23.0,M,,0000*6F
$GPGSA,M,3,21,25,29,12,09,31,14,,,,,,2.6,1.0,2.4*3F
$GPRMC,155717.995,A,1445.1572,S,07403.8550,W,1.03,175.17,180411,,,A*63
$GPGGA,155719.005,1445.1579,S,07403.8547,W,1,06,1.2,3638.1,M,23.0,M,,0000*63
$GPGSA,M,3,21,25,29,12,09,31,,,,,,,2.9,1.2,2.6*35
$GPRMC,155719.005,A,1445.1579,S,07403.8547,W,1.96,146.76,180411,,,A*6B
$GPGGA,155720.001,1445.1585,S,07403.8541,W,1,07,1.0,3638.5,M,23.0,M,,0000*6F
$GPGSA,M,3,21,25,29,12,09,31,14,,,,,,2.6,1.0,2.4*3F
$GPGSV,3,1,10,21,54,342,38,25,48,155,36,29,45,184,35,12,33,102,33*78
$GPGSV,3,2,10,09,25,025,38,31,25,219,37,14,21,295,34,18,08,352,37*7E
$GPGSV,3,3,10,27,07,028,,05,06,104,*76
$GPRMC,155720.001,A,1445.1585,S,07403.8541,W,3.82,134.12,180411,,,A*60
$GPGGA,155720.995,1445.1597,S,07403.8532,W,1,07,1.0,3637.1,M,23.0,M,,0000*67
$GPGSA,M,3,21,25,29,12,09,31,14,,,,,,2.6,1.0,2.4*3F
$GPRMC,155720.995,A,1445.1597,S,07403.8532,W,4.73,130.23,180411,,,A*6C
$GPGGA,155722.000,1445.1603,S,07403.8519,W,1,07,1.0,3639.2,M,23.0,M,,0000*6A
$GPGSA,M,3,21,25,29,12,09,31,14,,,,,,2.6,1.0,2.4*3F
$GPRMC,155722.000,A,1445.1603,S,07403.8519,W,4.80,129.95,180411,,,A*65
$GPGGA,155723.000,1445.1612,S,07403.8511,W,1,06,1.3,3639.2,M,23.0,M,,0000*61
$GPGSA,M,3,21,25,29,09,31,14,,,,,,,2.9,1.3,2.6*32
$GPRMC,155723.000,A,1445.1612,S,07403.8511,W,5.29,142.29,180411,,,A*64
$GPGGA,155724.001,1445.1625,S,07403.8499,W,1,07,1.0,3639.0,M,23.0,M,,0000*62
$GPGSA,M,3,21,25,29,12,09,31,14,,,,,,2.6,1.0,2.4*3F
$GPRMC,155724.001,A,1445.1625,S,07403.8499,W,6.51,139.34,180411,,,A*6B
$GPGGA,155725.001,1445.1637,S,07403.8485,W,1,06,1.3,3640.3,M,23.0,M,,0000*62
$GPGSA,M,3,21,25,29,09,31,14,,,,,,,2.9,1.3,2.6*32
$GPGSV,3,1,10,21,54,342,37,25,48,155,35,29,45,184,37,12,33,102,*76
$GPGSV,3,2,10,09,25,025,36,31,25,219,35,14,21,295,30,18,08,352,26*76
$GPGSV,3,3,10,27,07,028,,05,06,104,*76
$GPRMC,155725.001,A,1445.1637,S,07403.8485,W,5.85,141.14,180411,,,A*63
$GPGGA,155726.001,1445.1651,S,07403.8473,W,1,07,1.0,3639.5,M,23.0,M,,0000*62
$GPGSA,M,3,21,25,29,12,09,31,14,,,,,,2.6,1.0,2.4*3F
$GPRMC,155726.001,A,1445.1651,S,07403.8473,W,6.35,140.06,180411,,,A*63
$GPGGA,155726.999,1445.1667,S,07403.8462,W,1,07,1.0,3640.9,M,23.0,M,,0000*6D
$GPGSA,M,3,21,25,29,12,09,31,14,,,,,,2.6,1.0,2.4*3F
$GPRMC,155726.999,A,1445.1667,S,07403.8462,W,6.49,144.75,180411,,,A*65
$GPGGA,155727.997,1445.1683,S,07403.8451,W,1,07,1.0,3640.9,M,23.0,M,,0000*68
$GPGSA,M,3,21,25,29,12,09,31,14,,,,,,2.6,1.0,2.4*3F
$GPRMC,155727.997,A,1445.1683,S,07403.8451,W,7.60,146.91,180411,,,A*62
$GPGGA,155728.998,1445.1698,S,07403.8441,W,1,07,1.0,3641.5,M,23.0,M,,0000*6E
$GPGSA,M,3,21,25,29,12,09,31,14,,,,,,2.6,1.0,2.4*3F
$GPRMC,155728.998,A,1445.1698,S,07403.8441,W,7.39,148.25,180411,,,A*64
$GPGGA,155730.007,1445.1719,S,07403.8426,W,1,07,1.0,3642.0,M,23.0,M,,0000*67
$GPGSA,M,3,21,25,29,12,09,31,14,,,,,,2.6,1.0,2.4*3F
$GPGSV,3,1,10,21,54,342,37,25,48,155,31,29,45,184,33,12,33,102,29*7D
$GPGSV,3,2,10,09,25,025,36,31,25,219,36,14,21,295,31,18,08,352,27*75
$GPGSV,3,3,10,27,07,028,,05,06,104,*76
$GPRMC,155730.007,A,1445.1719,S,07403.8426,W,8.13,147.36,180411,,,A*61
$GPGGA,155730.997,1445.1739,S,07403.8417,W,1,07,1.0,3642.1,M,23.0,M,,0000*66
$GPGSA,M,3,21,25,29,12,09,31,14,,,,,,2.6,1.0,2.4*3F
$GPRMC,155730.997,A,1445.1739,S,07403.8417,W,8.17,151.99,180411,,,A*67
$GPGGA,155731.999,1445.1760,S,07403.8407,W,1,07,1.0,3642.3,M,23.0,M,,0000*66
$GPGSA,M,3,21,25,29,12,09,31,14,,,,,,2.6,1.0,2.4*3F
$GPRMC,155731.999,A,1445.1760,S,07403.8407,W,8.04,150.23,180411,,,A*67
$GPGGA,155733.000,1445.1780,S,07403.8397,W,1,07,1.0,3642.1,M,23.0,M,,0000*6F
$GPGSA,M,3,21,25,29,12,09,31,14,,,,,,2.6,1.0,2.4*3F
$GPRMC,155733.000,A,1445.1780,S,07403.8397,W,8.83,153.20,180411,,,A*63
$GPGGA,155733.999,1445.1803,S,07403.8385,W,1,06,1.3,3643.4,M,23.0,M,,0000*67
$GPGSA,M,3,21,25,29,09,31,14,,,,,,,2.9,1.3,2.6*32
$GPRMC,155733.999,A,1445.1803,S,07403.8385,W,9.14,155.62,180411,,,A*62
$GPGGA,155735.005,1445.1824,S,07403.8376,W,1,05,1.3,3643.7,M,23.0,M,,0000*64
$GPGSA,M,3,21,25,09,31,14,,,,,,,,3.0,1.3,2.7*30
$GPGSV,3,1,10,21,54,342,39,25,48,155,34,29,45,184,,12,33,102,*7D
$GPGSV,3,2,10,09,25,025,39,31,25,219,32,14,21,295,37,18,08,352,36*78
$GPGSV,3,3,10,27,07,028,,05,06,104,*76
$GPRMC,155735.005,A,1445.1824,S,07403.8376,W,7.91,158.27,180411,,,A*6E
$GPGGA,155735.994,1445.1847,S,07403.8369,W,1,05,1.1,3643.9,M,23.0,M,,0000*62
$GPGSA,M,3,21,12,09,31,14,,,,,,,,3.0,1.1,2.8*39
$GPRMC,155735.994,A,1445.1847,S,07403.8369,W,8.63,163.89,180411,,,A*6A
$GPGGA,155737.002,1445.1872,S,07403.8361,W,1,07,1.0,3644.6,M,23.0,M,,0000*63
$GPGSA,M,3,21,25,29,12,09,31,14,,,,,,2.6,1.0,2.4*3F
$GPRMC,155737.002,A,1445.1872,S,07403.8361,W,8.40,167.40,180411,,,A*60
$GPGGA,155737.998,1445.1898,S,07403.8351,W,1,06,1.2,3643.9,M,23.0,M,,0000*65
$GPGSA,M,3,21,25,29,12,09,31,,,,,,,2.9,1.2,2.6*35
$GPRMC,155737.998,A,1445.1898,S,07403.8351,W,8.84,162.36,180411,,,A*61
$GPGGA,155739.001,1445.1924,S,07403.8340,W,1,07,1.0,3644.4,M,23.0,M,,0000*6D
$GPGSA,M,3,21,25,29,12,09,31,14,,,,,,2.6,1.0,2.4*3F
$GPRMC,155739.001,A,1445.1924,S,07403.8340,W,9.20,161.29,180411,,,A*62
$GPGGA,155739.996,1445.1951,S,07403.8327,W,1,07,1.0,3644.2,M,23.0,M,,0000*6F
$GPGSA,M,3,21,25,29,12,09,31,14,,,,,,2.6,1.0,2.4*3F
$GPGSV,3,1,10,21,54,342,39,25,48,155,35,29,45,184,31,12,33,102,37*7A
$GPGSV,3,2,10,09,25,025,39,31,25,219,32,14,21,295,30,18,08,352,36*7F
$GPGSV,3,3,10,27,07,028,,05,06,104,*76
$GPRMC,155739.996,A,1445.1951,S,07403.8327,W,10.47,163.41,180411,,,A*53
$GPGGA,155741.005,1445.1980,S,07403.8317,W,1,07,1.0,3644.6,M,23.0,M,,0000*68
$GPGSA,M,3,21,25,29,12,09,31,14,,,,,,2.6,1.0,2.4*3F
$GPRMC,155741.005,A,1445.1980,S,07403.8317,W,10.30,156.96,180411,,,A*5C
$GPGGA,155741.994,1445.2005,S,07403.8298,W,1,06,1.3,3646.3,M,23.0,M,,0000*6D
$GPGSA,M,3,21,25,29,09,31,14,,,,,,,2.9,1.3,2.6*32
$GPRMC,155741.994,A,1445.2005,S,07403.8298,W,10.37,148.71,180411,,,A*5D
$GPGGA,155743.003,1445.2029,S,07403.8283,W,1,07,1.0,3645.6,M,23.0,M,,0000*68
$GPGSA,M,3,21,25,29,12,09,31,14,,,,,,2.6,1.0,2.4*3F
$GPRMC,155743.003,A,1445.2029,S,07403.8283,W,10.19,145.81,180411,,,A*52
$GPGGA,155744.003,1445.2053,S,07403.8259,W,1,07,1.0,3647.0,M,23.0,M,,0000*61
$GPGSA,M,3,21,25,29,12,09,31,14,,,,,,2.6,1.0,2.4*3F
$GPRMC,155744.003,A,1445.2053,S,07403.8259,W,10.38,136.21,180411,,,A*52
$GPGGA,155745.000,1445.2074,S,07403.8241,W,1,06,1.2,3646.3,M,23.0,M,,0000*6E
$GPGSA,M,3,21,25,29,12,31,14,,,,,,,3.0,1.2,2.7*30
$GPGSV,3,1,10,21,54,342,37,25,48,155,34,29,45,184,36,12,33,102,31*74
$GPGSV,3,2,10,09,25,025,,31,25,219,34,14,21,295,33,18,08,352,*75
$GPGSV,3,3,10,27,07,028,,05,06,104,*76
$GPRMC,155745.000,A,1445.2074,S,07403.8241,W,9.51,132.42,180411,,,A*6A
$GPGGA,155745.994,1445.2093,S,07403.8221,W,1,07,1.0,3647.3,M,23.0,M,,0000*67
$GPGSA,M,3,21,25,29,12,09,31,14,,,,,,2.6,1.0,2.4*3F
$GPRMC,155745.994,A,1445.2093,S,07403.8221,W,9.88,132.59,180411,,,A*6F
$GPGGA,155747.003,1445.2112,S,07403.8201,W,1,07,1.0,3646.9,M,23.0,M,,0000*63
$GPGSA,M,3,21,25,29,12,09,31,14,,,,,,2.6,1.0,2.4*3F
$GPRMC,155747.003,A,1445.2112,S,07403.8201,W,10.64,134.88,180411,,,A*50
$GPGGA,155747.998,1445.2139,S,07403.8179,W,1,07,1.0,3647.8,M,23.0,M,,0000*6D
$GPGSA,M,3,21,25,29,12,09,31,14,,,,,,2.6,1.0,2.4*3F
$GPRMC,155747.998,A,1445.2139,S,07403.8179,W,11.82,144.72,180411,,,A*55
$GPGGA,155749.007,1445.2170,S,07403.8165,W,1,06,1.2,3648.3,M,23.0,M,,0000*6B
$GPGSA,M,3,21,25,29,12,09,31,,,,,,,2.9,1.2,2.6*35
$GPRMC,155749.007,A,1445.2170,S,07403.8165,W,12.00,154.43,180411,,,A*5E
$GPGGA,155750.000,1445.2199,S,07403.8160,W,1,07,1.0,3648.0,M,23.0,M,,0000*66
$GPGSA,M,3,21,25,29,12,09,31,14,,,,,,2.6,1.0,2.4*3F
$GPGSV,3,1,10,21,54,342,39,25,48,155,37,29,45,184,30,12,33,102,37*79
$GPGSV,3,2,10,09,25,025,40,31,25,219,32,14,21,295,33,18,08,352,32*76
$GPGSV,3,3,10,27,07,028,,05,06,104,*76
$GPRMC,155750.000,A,1445.2199,S,07403.8160,W,11.14,167.42,180411,,,A*54
$GPGGA,155751.000,1445.2231,S,07403.8155,W,1,06,1.0,3647.4,M,23.0,M,,0000*6A
$GPGSA,M,3,21,25,12,31,09,14,,,,,,,2.7,1.0,2.5*34
$GPRMC,155751.000,A,1445.2231,S,07403.8155,W,10.37,174.11,180411,,,A*56
$GPGGA,155752.000,1445.2265,S,07403.8153,W,1,06,1.0,3646.8,M,23.0,M,,0000*63
$GPGSA,M,3,21,25,12,31,09,14,,,,,,,2.7,1.0,2.5*34
$GPRMC,155752.000,A,1445.2265,S,07403.8153,W,11.22,180.76,180411,,,A*5D
$GPGGA,155752.994,1445.2298,S,07403.8155,W,1,06,1.2,3647.8,M,23.0,M,,0000*60
$GPGSA,M,3,21,25,29,12,09,14,,,,,,,2.9,1.2,2.7*33
$GPRMC,155752.994,A,1445.2298,S,07403.8155,W,11.24,179.75,180411,,,A*5E
$GPGGA,155754.002,1445.2331,S,07403.8152,W,1,07,1.0,3648.3,M,23.0,M,,0000*62
$GPGSA,M,3,21,25,29,12,31,09,14,,,,,,2.6,1.0,2.4*3F
$GPRMC,155754.002,A,1445.2331,S,07403.8152,W,11.67,173.83,180411,,,A*5F
$GPGGA,155754.993,1445.2366,S,07403.8147,W,1,07,1.0,3647.9,M,23.0,M,,0000*60
$GPGSA,M,3,21,25,29,12,31,09,14,,,,,,2.6,1.0,2.4*3F
$GPGSV,3,1,10,21,56,341,39,25,48,153,28,29,44,182,32,12,33,100,36*76
$GPGSV,3,2,10,31,26,219,33,09,24,024,37,14,21,297,27,18,09,353,36*77
$GPGSV,3,3,10,05,06,105,,27,06,028,*76
$GPRMC,155754.993,A,1445.2366,S,07403.8147,W,11.39,169.85,180411,,,A*5E
$GPGGA,155756.007,1445.2394,S,07403.8138,W,1,05,1.2,3649.3,M,23.0,M,,0000*67
$GPGSA,M,3,21,25,12,31,09,,,,,,,,3.0,1.2,2.7*37
$GPRMC,155756.007,A,1445.2394,S,07403.8138,W,10.11,163.34,180411,,,A*56
$GPGGA,155756.999,1445.2422,S,07403.8135,W,1,06,1.0,3649.7,M,23.0,M,,0000*6B
$GPGSA,M,3,21,29,12,31,09,14,,,,,,,2.7,1.0,2.5*38
$GPRMC,155756.999,A,1445.2422,S,07403.8135,W,10.43,165.05,180411,,,A*5C
$GPGGA,155758.002,1445.2451,S,07403.8126,W,1,06,1.2,3649.3,M,23.0,M,,0000*6E
$GPGSA,M,3,21,25,29,12,31,09,,,,,,,2.9,1.2,2.6*35
$GPRMC,155758.002,A,1445.2451,S,07403.8126,W,10.36,168.09,180411,,,A*5C
$GPGGA,155758.994,1445.2481,S,07403.8122,W,1,07,1.0,3650.7,M,23.0,M,,0000*6E
$GPGSA,M,3,21,25,29,12,31,09,14,,,,,,2.6,1.0,2.4*3F
$GPRMC,155758.994,A,1445.2481,S,07403.8122,W,9.65,170.98,180411,,,A*6C
$GPGGA,155800.002,1445.2507,S,07403.8122,W,1,06,1.2,3650.9,M,23.0,M,,0000*68
$GPGSA,M,3,21,25,29,12,09,14,,,,,,,2.9,1.2,2.7*33
$GPGSV,3,1,10,21,56,341,37,25,48,153,36,29,44,182,30,12,33,100,37*74
$GPGSV,3,2,10,31,26,219,,09,24,024,35,14,21,297,27,18,09,353,35*76
$GPGSV,3,3,10,05,06,105,,27,06,028,*76
$GPRMC,155800.002,A,1445.2507,S,07403.8122,W,9.37,172.77,180411,,,A*63
$GPGGA,155800.998,1445.2536,S,07403.8119,W,1,07,1.0,3650.4,M,23.0,M,,0000*66
$GPGSA,M,3,21,25,29,12,31,09,14,,,,,,2.6,1.0,2.4*3F
$GPRMC,155800.998,A,1445.2536,S,07403.8119,W,9.42,177.51,180411,,,A*60
$GPGGA,155802.004,1445.2565,S,07403.8118,W,1,07,1.0,3650.2,M,23.0,M,,0000*69
$GPGSA,M,3,21,25,29,12,31,09,14,,,,,,2.6,1.0,2.4*3F
$GPRMC,155802.004,A,1445.2565,S,07403.8118,W,9.86,184.93,180411,,,A*63
$GPGGA,155802.996,1445.2593,S,07403.8120,W,1,07,1.0,3650.5,M,23.0,M,,0000*6E
$GPGSA,M,3,21,25,29,12,31,09,14,,,,,,2.6,1.0,2.4*3F
$GPRMC,155802.996,A,1445.2593,S,07403.8120,W,9.97,181.65,180411,,,A*6F
$GPGGA,155804.007,1445.2621,S,07403.8123,W,1,04,1.5,3652.7,M,23.0,M,,0000*66
$GPGSA,M,3,21,25,09,14,,,,,,,,,3.3,1.5,2.9*39
$GPRMC,155804.007,A,1445.2621,S,07403.8123,W,10.37,176.50,180411,,,A*5D
$GPGGA,155804.997,1445.2648,S,07403.8122,W,1,06,1.3,3653.5,M,23.0,M,,0000*6F
$GPGSA,M,3,21,25,29,31,09,14,,,,,,,2.9,1.3,2.6*32
$GPGSV,3,1,10,21,56,341,37,25,48,153,34,29,44,182,35,12,33,100,*77
$GPGSV,3,2,10,31,26,219,31,09,24,024,38,14,21,297,35,18,09,353,39*76
$GPGSV,3,3,10,05,06,105,,27,06,028,*76
$GPRMC,155804.997,A,1445.2648,S,07403.8122,W,9.88,176.60,180411,,,A*6C
$GPGGA,155805.999,1445.2676,S,07403.8122,W,1,05,1.3,3654.8,M,23.0,M,,0000*64
$GPGSA,M,3,21,25,12,09,14,,,,,,,,3.0,1.3,2.7*31
$GPRMC,155805.999,A,1445.2676,S,07403.8122,W,9.92,176.31,180411,,,A*61
$GPGGA,155806.999,1445.2707,S,07403.8123,W,1,07,1.0,3655.1,M,23.0,M,,0000*68
$GPGSA,M,3,21,25,29,12,31,09,14,,,,,,2.6,1.0,2.4*3F
$GPRMC,155806.999,A,1445.2707,S,07403.8123,W,10.50,176.04,180411,,,A*54
$GPGGA,155808.000,1445.2735,S,07403.8119,W,1,06,1.2,3655.5,M,23.0,M,,0000*60
$GPGSA,M,3,21,25,29,12,31,09,,,,,,,2.9,1.2,2.6*35
$GPRMC,155808.000,A,1445.2735,S,07403.8119,W,10.53,177.92,180411,,,A*56
$GPGGA,155809.001,1445.2763,S,07403.8117,W,1,04,1.7,3655.7,M,23.0,M,,0000*68
$GPGSA,M,3,21,25,31,09,,,,,,,,,3.2,1.7,2.7*33
$GPRMC,155809.001,A,1445.2763,S,07403.8117,W,10.14,173.38,180411,,,A*5C
$GPGGA,155809.995,1445.2791,S,07403.8113,W,1,07,1.0,3657.4,M,23.0,M,,0000*60
$GPGSA,M,3,21,25,29,12,31,09,14,,,,,,2.6,1.0,2.4*3F
$GPGSV,3,1,10,21,56,341,39,25,48,153,33,29,44,182,32,12,33,100,28*73
$GPGSV,3,2,10,31,26,219,34,09,24,024,35,14,21,297,32,18,09,353,35*75
$GPGSV,3,3,10,05,06,105,,27,06,028,*76
$GPRMC,155809.995,A,1445.2791,S,07403.8113,W,10.34,166.02,180411,,,A*5E
$GPGGA,155811.006,1445.2819,S,07403.8106,W,0,00,,3657.8,M,23.0,M,,0000*44
$GPGSA,M,1,,,,,,,,,,,,,,,*12
$GPRMC,155811.006,V,1445.2819,S,07403.8106,W,,,180411,,,N*72
$GPGGA,155812.000,1445.2847,S,07403.8099,W,0,00,,3658.2,M,23.0,M,,0000*48
$GPGSA,M,1,,,,,,,,,,,,,,,*12
$GPRMC,155812.000,V,1445.2847,S,07403.8099,W,,,180411,,,N*7B
$GPGGA,155813.000,1445.2875,S,07403.8091,W,0,00,,3658.6,M,23.0,M,,0000*44
$GPGSA,M,1,,,,,,,,,,,,,,,*12
$GPRMC,155813.000,V,1445.2875,S,07403.8091,W,,,180411,,,N*73
$GPGGA,155814.000,1445.2894,S,07403.8085,W,1,07,1.0,3662.2,M,23.0,M,,0000*6D
$GPGSA,M,3,21,12,09,25,29,14,31,,,,,,2.6,1.0,2.4*3F
$GPRMC,155814.000,A,1445.2894,S,07403.8085,W,9.65,158.93,180411,,,A*6A
$GPGGA,155815.000,1445.2913,S,07403.8072,W,1,07,1.0,3664.6,M,23.0,M,,0000*68
$GPGSA,M,3,21,12,09,25,29,14,31,,,,,,2.6,1.0,2.4*3F
$GPGSV,3,1,10,21,56,341,41,25,48,153,37,29,44,182,29,12,33,100,29*73
$GPGSV,3,2,10,31,26,219,36,09,24,024,40,14,21,297,34,18,09,353,43*72
$GPGSV,3,3,10,27,05,028,,05,06,105,*75
$GPRMC,155815.000,A,1445.2913,S,07403.8072,W,9.92,158.51,180411,,,A*6B
$GPGGA,155816.000,1445.2938,S,07403.8062,W,1,07,1.0,3666.4,M,23.0,M,,0000*63
$GPGSA,M,3,21,12,09,25,29,14,31,,,,,,2.6,1.0,2.4*3F
$GPRMC,155816.000,A,1445.2938,S,07403.8062,W,9.80,159.43,180411,,,A*61
$GPGGA,155817.000,1445.2958,S,07403.8052,W,1,07,1.0,3668.9,M,23.0,M,,0000*64
$GPGSA,M,3,21,12,09,25,29,14,31,,,,,,2.6,1.0,2.4*3F
$GPRMC,155817.000,A,1445.2958,S,07403.8052,W,9.41,159.76,180411,,,A*6E
$GPGGA,155818.000,1445.2983,S,07403.8046,W,1,07,1.0,3670.3,M,23.0,M,,0000*6B
$GPGSA,M,3,21,12,09,25,29,14,31,,,,,,2.6,1.0,2.4*3F
$GPRMC,155818.000,A,1445.2983,S,07403.8046,W,9.39,162.81,180411,,,A*6D
$GPGGA,155819.000,1445.3008,S,07403.8041,W,1,07,1.0,3671.5,M,23.0,M,,0000*61
$GPGSA,M,3,21,12,09,25,29,14,31,,,,,,2.6,1.0,2.4*3F
$GPRMC,155819.000,A,1445.3008,S,07403.8041,W,9.37,166.17,180411,,,A*65
$GPGGA,155820.000,1445.3035,S,07403.8036,W,1,07,1.0,3672.8,M,23.0,M,,0000*6B
$GPGSA,M,3,21,12,09,25,29,14,31,,,,,,2.6,1.0,2.4*3F
$GPGSV,3,1,10,21,56,341,41,25,48,153,37,29,44,182,29,12,33,100,39*72
$GPGSV,3,2,10,31,26,219,37,09,24,024,39,14,21,297,24,18,09,353,36*7E
$GPGSV,3,3,10,27,05,028,,05,06,105,*75
$GPRMC,155820.000,A,1445.3035,S,07403.8036,W,9.58,169.43,180411,,,A*66
$GPGGA,155821.000,1445.3064,S,07403.8032,W,1,07,1.0,3674.1,M,23.0,M,,0000*65
$GPGSA,M,3,21,12,09,25,29,14,31,,,,,,2.6,1.0,2.4*3F
$GPRMC,155821.000,A,1445.3064,S,07403.8032,W,9.68,172.65,180411,,,A*6A
$GPGGA,155822.000,1445.3092,S,07403.8032,W,1,07,1.0,3674.4,M,23.0,M,,0000*6A
$GPGSA,M,3,21,12,09,25,29,14,31,,,,,,2.6,1.0,2.4*3F
$GPRMC,155822.000,A,1445.3092,S,07403.8032,W,9.64,179.36,180411,,,A*61
$GPGGA,155823.007,1445.3117,S,07403.8033,W,1,06,1.0,3674.3,M,23.0,M,,0000*67
$GPGSA,M,3,21,25,12,31,09,14,,,,,,,2.7,1.0,2.5*34
$GPRMC,155823.007,A,1445.3117,S,07403.8033,W,8.70,184.55,180411,,,A*69
$GPGGA,155823.994,1445.3139,S,07403.8035,W,1,05,1.3,3674.4,M,23.0,M,,0000*69
$GPGSA,M,3,21,25,12,09,14,,,,,,,,3.0,1.3,2.7*31
$GPRMC,155823.994,A,1445.3139,S,07403.8035,W,7.83,184.95,180411,,,A*6F
$GPGGA,155825.000,1445.3161,S,07403.8037,W,1,05,1.3,3674.3,M,23.0,M,,0000*63
$GPGSA,M,3,21,25,12,09,14,,,,,,,,3.0,1.3,2.7*31
$GPGSV,3,1,10,21,56,341,28,25,48,153,36,29,44,182,,12,33,100,37*79
$GPGSV,3,2,10,31,26,219,,09,24,024,39,14,21,297,35,18,09,353,33*7F
$GPGSV,3,3,10,05,06,105,,27,05,028,*75
$GPRMC,155825.000,A,1445.3161,S,07403.8037,W,7.57,187.37,180411,,,A*60
$GPGGA,155826.001,1445.3184,S,07403.8037,W,1,07,1.0,3673.7,M,23.0,M,,0000*68
$GPGSA,M,3,21,25,29,12,31,09,14,,,,,,2.6,1.0,2.4*3F
$GPRMC,155826.001,A,1445.3184,S,07403.8037,W,8.23,177.40,180411,,,A*6A
$GPGGA,155827.000,1445.3206,S,07403.8032,W,1,07,1.0,3673.4,M,23.0,M,,0000*67
$GPGSA,M,3,21,25,29,12,31,09,14,,,,,,2.6,1.0,2.4*3F
$GPRMC,155827.000,A,1445.3206,S,07403.8032,W,7.20,163.01,180411,,,A*6A
$GPGGA,155828.001,1445.3225,S,07403.8025,W,1,06,1.2,3673.9,M,23.0,M,,0000*60
$GPGSA,M,3,21,25,29,12,09,14,,,,,,,2.9,1.2,2.7*33
$GPRMC,155828.001,A,1445.3225,S,07403.8025,W,6.05,150.87,180411,,,A*6B
$GPGGA,155828.999,1445.3237,S,07403.8007,W,1,06,1.2,3673.6,M,23.0,M,,0000*64
$GPGSA,M,3,21,25,29,12,09,14,,,,,,,2.9,1.2,2.7*33
$GPRMC,155828.999,A,1445.3237,S,07403.8007,W,6.73,121.68,180411,,,A*66
$GPGGA,155829.997,1445.3243,S,07403.7988,W,1,05,1.4,3673.3,M,23.0,M,,0000*69
$GPGSA,M,3,21,25,29,12,14,,,,,,,,3.2,1.4,2.9*38
$GPGSV,3,1,10,21,56,341,37,25,48,153,35,29,44,182,32,12,33,100,32*70
$GPGSV,3,2,10,31,26,219,,09,24,024,,14,21,297,37,18,09,353,32*76
$GPGSV,3,3,10,05,06,105,,27,05,028,*75
$GPRMC,155829.997,A,1445.3243,S,07403.7988,W,6.72,100.70,180411,,,A*60
$GPGGA,155831.004,1445.3243,S,07403.7964,W,1,07,1.0,3674.5,M,23.0,M,,0000*66
$GPGSA,M,3,21,25,29,12,31,09,14,,,,,,2.6,1.0,2.4*3F
$GPRMC,155831.004,A,1445.3243,S,07403.7964,W,7.15,83.52,180411,,,A*52
$GPGGA,155832.000,1445.3236,S,07403.7945,W,1,07,1.0,3675.6,M,23.0,M,,0000*62
$GPGSA,M,3,21,25,29,12,31,09,14,,,,,,2.6,1.0,2.4*3F
$GPRMC,155832.000,A,1445.3236,S,07403.7945,W,7.25,63.46,180411,,,A*5C
$GPGGA,155833.004,1445.3226,S,07403.7925,W,1,07,1.0,3674.9,M,23.0,M,,0000*6E
$GPGSA,M,3,21,25,29,12,31,09,14,,,,,,2.6,1.0,2.4*3F
$GPRMC,155833.004,A,1445.3226,S,07403.7925,W,7.68,51.80,180411,,,A*5C
$GPGGA,155833.991,1445.3209,S,07403.7909,W,1,07,1.0,3673.9,M,23.0,M,,0000*6F
$GPGSA,M,3,21,25,29,12,31,09,14,,,,,,2.6,1.0,2.4*3F
$GPRMC,155833.991,A,1445.3209,S,07403.7909,W,8.18,34.35,180411,,,A*5F
$GPGGA,155835.005,1445.3189,S,07403.7899,W,1,06,1.5,3674.7,M,23.0,M,,0000*63
$GPGSA,M,3,25,29,12,31,09,14,,,,,,,5.3,1.5,5.1*39
$GPGSV,3,1,10,21,56,341,,25,48,153,34,29,44,182,37,12,33,100,35*77
$GPGSV,3,2,10,31,26,219,37,09,24,024,31,14,21,297,31,18,09,353,*77
$GPGSV,3,3,10,05,06,105,,27,05,028,*75
$GPRMC,155835.005,A,1445.3189,S,07403.7899,W,8.30,22.41,180411,,,A*50
$GPGGA,155836.000,1445.3165,S,07403.7896,W,1,06,1.2,3674.4,M,23.0,M,,0000*6C
$GPGSA,M,3,21,25,29,12,31,09,,,,,,,2.9,1.2,2.6*35
$GPRMC,155836.000,A,1445.3165,S,07403.7896,W,9.19,3.73,180411,,,A*63
$GPGGA,155836.996,1445.3139,S,07403.7900,W,1,06,1.2,3673.8,M,23.0,M,,0000*66
$GPGSA,M,3,21,25,29,12,31,14,,,,,,,3.0,1.2,2.7*30
$GPRMC,155836.996,A,1445.3139,S,07403.7900,W,8.98,348.84,180411,,,A*6E
$GPGGA,155837.998,1445.3114,S,07403.7908,W,1,06,1.2,3673.1,M,23.0,M,,0000*67
$GPGSA,M,3,21,25,29,12,31,14,,,,,,,3.0,1.2,2.7*30
$GPRMC,155837.998,A,1445.3114,S,07403.7908,W,8.92,341.45,180411,,,A*68
$GPGGA,155839.009,1445.3090,S,07403.7915,W,1,05,1.7,3672.3,M,23.0,M,,0000*6C
$GPGSA,M,3,25,29,12,31,14,,,,,,,,5.4,1.7,5.1*35
$GPRMC,155839.009,A,1445.3090,S,07403.7915,W,8.79,344.19,180411,,,A*6F
$GPGGA,155839.996,1445.3067,S,07403.7927,W,1,06,1.2,3672.4,M,23.0,M,,0000*6B
$GPGSA,M,3,21,25,29,12,31,14,,,,,,,3.0,1.2,2.7*30
$GPGSV,3,1,10,21,56,341,32,25,48,153,39,29,44,182,39,12,33,100,36*76
$GPGSV,3,2,10,31,26,219,39,09,24,024,,14,21,297,30,18,09,353,35*7C
$GPGSV,3,3,10,05,06,105,,27,05,028,*75
$GPRMC,155839.996,A,1445.3067,S,07403.7927,W,8.05,340.79,180411,,,A*60
$GPGGA,155841.001,1445.3047,S,07403.7936,W,1,05,1.7,3672.6,M,23.0,M,,0000*65
$GPGSA,M,3,25,29,12,31,14,,,,,,,,5.4,1.7,5.1*35
$GPRMC,155841.001,A,1445.3047,S,07403.7936,W,8.17,338.38,180411,,,A*63
$GPGGA,155842.000,1445.3027,S,07403.7937,W,1,07,1.0,3672.5,M,23.0,M,,0000*66
$GPGSA,M,3,21,25,29,12,31,09,14,,,,,,2.6,1.0,2.4*3F
$GPRMC,155842.000,A,1445.3027,S,07403.7937,W,9.04,337.72,180411,,,A*64
$GPGGA,155842.998,1445.3001,S,07403.7947,W,1,07,1.0,3672.6,M,23.0,M,,0000*6E
$GPGSA,M,3,21,25,29,12,31,09,14,,,,,,2.6,1.0,2.4*3F
$GPRMC,155842.998,A,1445.3001,S,07403.7947,W,9.35,339.21,180411,,,A*65
$GPGGA,155843.998,1445.2976,S,07403.7954,W,1,06,1.2,3673.1,M,23.0,M,,0000*60
$GPGSA,M,3,21,25,29,12,31,14,,,,,,,3.0,1.2,2.7*30
$GPRMC,155843.998,A,1445.2976,S,07403.7954,W,8.88,342.88,180411,,,A*66
$GPGGA,155844.998,1445.2952,S,07403.7965,W,1,06,1.2,3673.2,M,23.0,M,,0000*60
$GPGSA,M,3,21,25,29,12,31,14,,,,,,,3.0,1.2,2.7*30
$GPGSV,3,1,10,21,56,341,32,25,48,153,39,29,44,182,38,12,33,100,39*78
$GPGSV,3,2,10,31,26,219,39,09,24,024,,14,21,297,26,18,09,353,33*7D
$GPGSV,3,3,10,05,06,105,,27,05,028,*75
$GPRMC,155844.998,A,1445.2952,S,07403.7965,W,8.96,346.04,180411,,,A*6A
$GPGGA,155846.007,1445.2929,S,07403.7971,W,1,05,1.5,3673.2,M,23.0,M,,0000*60
$GPGSA,M,3,21,25,29,12,31,,,,,,,,3.9,1.5,3.7*3A
$GPRMC,155846.007,A,1445.2929,S,07403.7971,W,8.25,342.46,180411,,,A*64
$GPGGA,155846.997,1445.2906,S,07403.7980,W,1,05,1.2,3673.8,M,23.0,M,,0000*6E
$GPGSA,M,3,21,29,12,31,14,,,,,,,,3.1,1.2,2.9*38
$GPRMC,155846.997,A,1445.2906,S,07403.7980,W,9.37,339.53,180411,,,A*6D
$GPGGA,155847.998,1445.2880,S,07403.7987,W,1,06,1.2,3673.2,M,23.0,M,,0000*61
$GPGSA,M,3,21,25,29,12,31,14,,,,,,,3.0,1.2,2.7*30
$GPRMC,155847.998,A,1445.2880,S,07403.7987,W,8.75,340.30,180411,,,A*67
$GPGGA,155848.998,1445.2855,S,07403.7992,W,1,06,1.2,3673.3,M,23.0,M,,0000*63
$GPGSA,M,3,21,25,29,12,31,14,,,,,,,3.0,1.2,2.7*30
$GPRMC,155848.998,A,1445.2855,S,07403.7992,W,9.56,342.89,180411,,,A*64
$GPGGA,155850.003,1445.2829,S,07403.7997,W,1,05,1.5,3673.6,M,23.0,M,,0000*6E
$GPGSA,M,3,21,25,29,12,31,,,,,,,,3.9,1.5,3.7*3A
$GPGSV,3,1,10,21,56,341,24,25,48,153,40,29,44,182,37,12,33,100,27*71
$GPGSV,3,2,10,31,26,219,36,09,24,024,,14,21,297,,18,09,353,30*75
$GPGSV,3,3,10,05,06,105,,27,05,028,*75
$GPRMC,155850.003,A,1445.2829,S,07403.7997,W,9.43,350.16,180411,,,A*69
$GPGGA,155851.003,1445.2802,S,07403.8000,W,1,06,1.2,3674.1,M,23.0,M,,0000*6A
$GPGSA,M,3,21,25,29,12,31,14,,,,,,,3.0,1.2,2.7*30
$GPRMC,155851.003,A,1445.2802,S,07403.8000,W,8.28,352.86,180411,,,A*6E
$GPGGA,155852.000,1445.2780,S,07403.8005,W,1,05,1.5,3674.8,M,23.0,M,,0000*67
$GPGSA,M,3,21,25,29,12,31,,,,,,,,3.9,1.5,3.7*3A
$GPRMC,155852.000,A,1445.2780,S,07403.8005,W,9.02,356.63,180411,,,A*68
$GPGGA,155853.000,1445.2754,S,07403.8005,W,1,06,1.2,3674.0,M,23.0,M,,0000*63
$GPGSA,M,3,21,25,29,12,31,09,,,,,,,2.9,1.2,2.6*35
$GPRMC,155853.000,A,1445.2754,S,07403.8005,W,8.70,359.14,180411,,,A*6B
$GPGGA,155854.009,1445.2727,S,07403.8003,W,1,06,1.5,3673.2,M,23.0,M,,0000*6D
$GPGSA,M,3,25,29,12,31,09,14,,,,,,,5.3,1.5,5.1*39
$GPRMC,155854.009,A,1445.2727,S,07403.8003,W,8.82,2.62,180411,,,A*66
$GPGGA,155854.991,1445.2703,S,07403.7999,W,1,07,1.0,3673.9,M,23.0,M,,0000*69
$GPGSA,M,3,21,25,29,12,31,09,14,,,,,,2.6,1.0,2.4*3F
$GPGSV,3,1,10,21,56,341,27,25,48,153,29,29,44,182,38,12,33,100,39*7D
$GPGSV,3,2,10,31,26,219,38,09,24,024,31,14,21,297,32,18,09,353,*7B
$GPGSV,3,3,10,05,06,105,,27,05,028,*75
$GPRMC,155854.991,A,1445.2703,S,07403.7999,W,9.06,15.18,180411,,,A*5B
$GPGGA,155855.998,1445.2677,S,07403.7991,W,1,06,1.2,3674.7,M,23.0,M,,0000*61
$GPGSA,M,3,21,25,29,12,31,14,,,,,,,3.0,1.2,2.7*30
$GPRMC,155855.998,A,1445.2677,S,07403.7991,W,9.91,21.14,180411,,,A*5C
$GPGGA,155857.000,1445.2649,S,07403.7979,W,1,07,1.0,3676.9,M,23.0,M,,0000*6F
$GPGSA,M,3,21,25,29,12,31,09,14,,,,,,2.6,1.0,2.4*3F
$GPRMC,155857.000,A,1445.2649,S,07403.7979,W,9.69,24.40,180411,,,A*5E
$GPGGA,155857.999,1445.2625,S,07403.7968,W,1,06,1.2,3678.4,M,23.0,M,,0000*6C
$GPGSA,M,3,21,25,29,12,31,14,,,,,,,3.0,1.2,2.7*30
$GPRMC,155857.999,A,1445.2625,S,07403.7968,W,9.68,27.38,180411,,,A*50
$GPGGA,155859.001,1445.2599,S,07403.7952,W,1,07,1.0,3678.0,M,23.0,M,,0000*60
$GPGSA,M,3,21,25,29,12,31,09,14,,,,,,2.6,1.0,2.4*3F
$GPRMC,155859.001,A,1445.2599,S,07403.7952,W,10.38,28.17,180411,,,A*64
$GPGGA,155859.995,1445.2573,S,07403.7941,W,1,07,1.0,3678.4,M,23.0,M,,0000*66
$GPGSA,M,3,21,25,29,12,31,09,14,,,,,,2.6,1.0,2.4*3F
$GPGSV,3,1,10,21,56,341,36,25,48,153,40,29,44,182,39,12,33,100,39*73
$GPGSV,3,2,10,31,26,219,38,09,24,024,32,14,21,297,27,18,09,353,29*77
$GPGSV,3,3,10,05,06,105,,27,05,028,*75
$GPRMC,155859.995,A,1445.2573,S,07403.7941,W,10.16,27.97,180411,,,A*6D
$GPGGA,155901.004,1445.2546,S,07403.7926,W,1,07,1.0,3679.7,M,23.0,M,,0000*6E
$GPGSA,M,3,21,25,29,12,31,09,14,,,,,,2.6,1.0,2.4*3F
$GPRMC,155901.004,A,1445.2546,S,07403.7926,W,10.24,32.70,180411,,,A*6B
$GPGGA,155901.998,1445.2516,S,07403.7912,W,1,06,1.3,3680.3,M,23.0,M,,0000*60
$GPGSA,M,3,21,25,29,31,09,14,,,,,,,2.9,1.3,2.6*32
$GPRMC,155901.998,A,1445.2516,S,07403.7912,W,10.47,30.01,180411,,,A*64
$GPGGA,155903.003,1445.2489,S,07403.7898,W,1,07,1.0,3679.2,M,23.0,M,,0000*68
$GPGSA,M,3,21,25,29,12,31,09,14,,,,,,2.6,1.0,2.4*3F
$GPRMC,155903.003,A,1445.2489,S,07403.7898,W,10.76,24.88,180411,,,A*6F
$GPGGA,155903.992,1445.2460,S,07403.7885,W,1,07,1.0,3681.0,M,23.0,M,,0000*67
$GPGSA,M,3,21,25,29,12,31,09,14,,,,,,2.6,1.0,2.4*3F
$GPRMC,155903.992,A,1445.2460,S,07403.7885,W,10.91,24.63,180411,,,A*69
$GPGGA,155905.009,1445.2436,S,07403.7869,W,1,05,1.5,3680.0,M,23.0,M,,0000*6D
$GPGSA,M,3,21,25,29,12,31,,,,,,,,3.9,1.5,3.7*3A
$GPGSV,3,1,10,21,56,341,27,25,48,153,33,29,44,182,38,12,33,100,35*7A
$GPGSV,3,2,10,31,26,219,37,09,24,024,,14,21,297,,18,09,353,*77
$GPGSV,3,3,10,05,06,105,,27,05,028,*75
$GPRMC,155905.009,A,1445.2436,S,07403.7869,W,10.01,27.65,180411,,,A*69
$GPGGA,155906.000,1445.2407,S,07403.7853,W,1,07,1.0,3681.2,M,23.0,M,,0000*68
$GPGSA,M,3,21,25,29,12,31,09,14,,,,,,2.6,1.0,2.4*3F
$GPRMC,155906.000,A,1445.2407,S,07403.7853,W,10.50,26.66,180411,,,A*6E
$GPGGA,155906.996,1445.2382,S,07403.7840,W,1,06,1.2,3682.0,M,23.0,M,,0000*64
$GPGSA,M,3,21,25,29,12,31,14,,,,,,,3.0,1.2,2.7*30
$GPRMC,155906.996,A,1445.2382,S,07403.7840,W,9.46,21.50,180411,,,A*5D
$GPGGA,155908.000,1445.2354,S,07403.7830,W,1,07,1.0,3683.0,M,23.0,M,,0000*62
$GPGSA,M,3,21,25,29,12,31,09,14,,,,,,2.6,1.0,2.4*3F
$GPRMC,155908.000,A,1445.2354,S,07403.7830,W,9.87,25.99,180411,,,A*55
$GPGGA,155909.000,1445.2326,S,07403.7817,W,1,07,1.0,3682.7,M,23.0,M,,0000*65
$GPGSA,M,3,21,25,29,12,31,09,14,,,,,,2.6,1.0,2.4*3F
$GPRMC,155909.000,A,1445.2326,S,07403.7817,W,9.97,24.38,180411,,,A*5F
$GPGGA,155910.004,1445.2299,S,07403.7805,W,1,06,1.5,3683.2,M,23.0,M,,0000*6F
$GPGSA,M,3,25,29,12,31,09,14,,,,,,,5.4,1.5,5.1*3E
$GPGSV,3,1,10,21,56,341,,25,48,153,36,29,44,182,39,12,33,100,36*78
$GPGSV,3,2,10,31,26,219,40,09,24,024,34,14,21,297,28,18,09,353,28*70
$GPGSV,3,3,10,05,06,105,,27,05,028,*75
$GPRMC,155910.004,A,1445.2299,S,07403.7805,W,10.67,29.15,180411,,,A*60
$GPGGA,155910.999,1445.2274,S,07403.7791,W,1,06,1.2,3684.4,M,23.0,M,,0000*65
$GPGSA,M,3,21,25,29,12,31,09,,,,,,,2.9,1.2,2.6*35
$GPRMC,155910.999,A,1445.2274,S,07403.7791,W,10.04,31.39,180411,,,A*6E
$GPGGA,155911.998,1445.2253,S,07403.7778,W,1,07,1.0,3683.6,M,23.0,M,,0000*61
$GPGSA,M,3,21,25,29,12,31,09,14,,,,,,2.6,1.0,2.4*3F
$GPRMC,155911.998,A,1445.2253,S,07403.7778,W,9.69,35.23,180411,,,A*50
$GPGGA,155912.999,1445.2230,S,07403.7761,W,1,06,1.2,3684.8,M,23.0,M,,0000*64
$GPGSA,M,3,21,25,29,12,31,14,,,,,,,3.0,1.2,2.7*30
$GPRMC,155912.999,A,1445.2230,S,07403.7761,W,9.84,44.36,180411,,,A*5E
$GPGGA,155913.999,1445.2213,S,07403.7740,W,1,06,1.2,3685.5,M,23.0,M,,0000*6B
$GPGSA,M,3,21,25,29,12,31,14,,,,,,,2.9,1.2,2.7*38
$GPRMC,155913.999,A,1445.2213,S,07403.7740,W,9.95,46.40,180411,,,A*5E
$GPGGA,155914.996,1445.2196,S,07403.7722,W,1,06,1.0,3684.0,M,23.0,M,,0000*6F
$GPGSA,M,3,21,25,12,31,09,14,,,,,,,2.6,1.0,2.4*34
$GPGSV,3,1,10,21,56,341,38,25,48,153,37,29,44,182,,12,33,100,34*7A
$GPGSV,3,2,10,31,26,219,38,09,24,024,25,14,21,297,38,18,09,353,*74
$GPGSV,3,3,10,05,06,105,,27,05,028,*75
$GPRMC,155914.996,A,1445.2196,S,07403.7722,W,9.89,50.09,180411,,,A*5B
$GPGGA,155916.004,1445.2176,S,07403.7702,W,1,07,1.0,3684.1,M,23.0,M,,0000*63
$GPGSA,M,3,21,25,29,12,31,09,14,,,,,,2.6,1.0,2.4*3F
$GPRMC,155916.004,A,1445.2176,S,07403.7702,W,9.51,40.25,180411,,,A*5D
$GPGGA,155917.002,1445.2155,S,07403.7686,W,1,06,1.2,3684.2,M,23.0,M,,0000*68
$GPGSA,M,3,21,25,29,12,31,09,,,,,,,2.9,1.2,2.6*35
$GPRMC,155917.002,A,1445.2155,S,07403.7686,W,9.55,33.69,180411,,,A*5E
$GPGGA,155917.999,1445.2130,S,07403.7675,W,1,07,1.0,3684.7,M,23.0,M,,0000*6A
$GPGSA,M,3,21,25,29,12,31,09,14,,,,,,2.6,1.0,2.4*3F
$GPRMC,155917.999,A,1445.2130,S,07403.7675,W,9.96,19.04,180411,,,A*56
$GPGGA,155919.000,1445.2104,S,07403.7663,W,1,05,1.5,3683.6,M,23.0,M,,0000*6C
$GPGSA,M,3,21,25,29,12,31,,,,,,,,3.9,1.5,3.7*3A
$GPRMC,155919.000,A,1445.2104,S,07403.7663,W,9.94,16.76,180411,,,A*59
$GPGGA,155919.998,1445.2083,S,07403.7661,W,1,05,1.5,3680.9,M,23.0,M,,0000*64
$GPGSA,M,3,21,25,29,12,31,,,,,,,,3.9,1.5,3.7*3A
$GPGSV,3,1,10,21,56,341,24,25,48,153,40,29,44,182,39,12,33,100,34*7D
$GPGSV,3,2,10,31,26,219,34,09,24,024,,14,21,297,,18,09,353,*74
$GPGSV,3,3,10,05,06,105,,27,05,028,*75
$GPRMC,155919.998,A,1445.2083,S,07403.7661,W,9.52,7.30,180411,,,A*65
$GPGGA,155921.001,1445.2056,S,07403.7658,W,1,06,1.2,3681.8,M,23.0,M,,0000*60
$GPGSA,M,3,21,25,29,12,31,14,,,,,,,2.9,1.2,2.7*38
$GPRMC,155921.001,A,1445.2056,S,07403.7658,W,8.85,5.92,180411,,,A*64
$GPGGA,155921.997,1445.2038,S,07403.7677,W,1,04,4.8,3682.0,M,23.0,M,,0000*65
$GPGSA,M,3,25,29,12,31,,,,,,,,,4.9,4.8,1.0*33
$GPRMC,155921.997,A,1445.2038,S,07403.7677,W,7.83,346.51,180411,,,A*65
$GPGGA,155923.001,1445.2023,S,07403.7704,W,1,07,1.0,3679.6,M,23.0,M,,0000*62
$GPGSA,M,3,21,25,29,12,31,09,14,,,,,,2.6,1.0,2.4*3F
$GPRMC,155923.001,A,1445.2023,S,07403.7704,W,6.84,312.93,180411,,,A*67
$GPGGA,155924.000,1445.2008,S,07403.7724,W,1,06,1.2,3679.9,M,23.0,M,,0000*63
$GPGSA,M,3,21,25,29,12,31,09,,,,,,,2.9,1.2,2.6*35
$GPRMC,155924.000,A,1445.2008,S,07403.7724,W,7.17,323.22,180411,,,A*69
$GPGGA,155924.996,1445.1989,S,07403.7736,W,1,07,1.0,3681.4,M,23.0,M,,0000*6C
$GPGSA,M,3,21,25,29,12,31,09,14,,,,,,2.6,1.0,2.4*3F
$GPGSV,3,1,10,21,56,341,33,25,48,153,39,29,44,182,38,12,33,100,38*78
$GPGSV,3,2,10,31,26,219,39,09,24,024,35,14,21,297,32,18,09,353,35*78
$GPGSV,3,3,10,05,06,105,,27,05,028,*75
$GPRMC,155924.996,A,1445.1989,S,07403.7736,W,8.18,333.25,180411,,,A*69
$GPGGA,155926.003,1445.1975,S,07403.7747,W,1,07,1.0,3681.6,M,23.0,M,,0000*6C
$GPGSA,M,3,21,25,29,12,31,09,14,,,,,,2.6,1.0,2.4*3F
$GPRMC,155926.003,A,1445.1975,S,07403.7747,W,8.04,348.27,180411,,,A*68
$GPGGA,155927.004,1445.1950,S,07403.7747,W,1,06,1.5,3681.4,M,23.0,M,,0000*6B
$GPGSA,M,3,25,29,12,31,09,14,,,,,,,5.4,1.5,5.2*3D
$GPRMC,155927.004,A,1445.1950,S,07403.7747,W,8.51,0.99,180411,,,A*63
$GPGGA,155927.990,1445.1916,S,07403.7743,W,1,07,1.0,3682.6,M,23.0,M,,0000*6C
$GPGSA,M,3,21,25,29,12,31,09,14,,,,,,2.6,1.0,2.4*3F
$GPRMC,155927.990,A,1445.1916,S,07403.7743,W,9.04,10.62,180411,,,A*55
$GPGGA,155929.008,1445.1890,S,07403.7733,W,1,06,1.2,3682.5,M,23.0,M,,0000*62
$GPGSA,M,3,21,25,29,12,31,14,,,,,,,2.9,1.2,2.7*38
$GPRMC,155929.008,A,1445.1890,S,07403.7733,W,9.90,20.76,180411,,,A*50
$GPGGA,155930.001,1445.1866,S,07403.7729,W,1,07,1.0,3681.3,M,23.0,M,,0000*67
$GPGSA,M,3,21,25,29,12,31,09,14,,,,,,2.6,1.0,2.4*3F
$GPGSV,3,1,10,21,56,341,36,25,48,153,32,29,44,182,39,12,33,100,35*7A
$GPGSV,3,2,10,31,26,219,38,09,24,024,26,14,21,297,30,18,09,353,*7F
$GPGSV,3,3,10,05,06,105,,27,05,028,*75
$GPRMC,155930.001,A,1445.1866,S,07403.7729,W,10.49,23.83,180411,,,A*66
$GPGGA,155930.999,1445.1847,S,07403.7716,W,1,07,1.0,3679.3,M,23.0,M,,0000*67
$GPGSA,M,3,21,25,29,12,31,09,14,,,,,,2.6,1.0,2.4*3F
$GPRMC,155930.999,A,1445.1847,S,07403.7716,W,9.33,22.46,180411,,,A*5C
$GPGGA,155931.999,1445.1820,S,07403.7701,W,1,07,1.0,3679.4,M,23.0,M,,0000*66
$GPGSA,M,3,21,25,29,12,31,09,14,,,,,,2.6,1.0,2.4*3F
$GPRMC,155931.999,A,1445.1820,S,07403.7701,W,9.66,20.41,180411,,,A*5F
$GPGGA,155932.997,1445.1795,S,07403.7694,W,1,06,1.2,3678.9,M,23.0,M,,0000*68
$GPGSA,M,3,21,25,29,12,31,14,,,,,,,2.9,1.2,2.7*38
$GPRMC,155932.997,A,1445.1795,S,07403.7694,W,9.72,19.97,180411,,,A*5A
$GPGGA,155934.000,1445.1764,S,07403.7679,W,1,06,1.2,3680.0,M,23.0,M,,0000*6A
$GPGSA,M,3,21,25,29,12,31,14,,,,,,,2.9,1.2,2.7*38
$GPRMC,155934.000,A,1445.1764,S,07403.7679,W,9.65,23.48,180411,,,A*5B
$GPGGA,155935.002,1445.1739,S,07403.7666,W,1,07,1.0,3680.4,M,23.0,M,,0000*68
$GPGSA,M,3,21,25,29,12,31,09,14,,,,,,2.6,1.0,2.4*3F
$GPGSV,3,1,10,21,56,341,29,25,48,153,36,29,44,182,37,12,33,100,34*7F
$GPGSV,3,2,10,31,26,219,40,09,24,024,28,14,21,297,25,18,09,353,*7A
$GPGSV,3,3,10,05,06,105,,27,05,028,*75
$GPRMC,155935.002,A,1445.1739,S,07403.7666,W,10.09,29.54,180411,,,A*6B
$GPGGA,155935.999,1445.1715,S,07403.7648,W,1,07,1.0,3679.8,M,23.0,M,,0000*6B
$GPGSA,M,3,21,25,29,12,31,09,14,,,,,,2.6,1.0,2.4*3F
$GPRMC,155935.999,A,1445.1715,S,07403.7648,W,10.26,34.61,180411,,,A*65
$GPGGA,155936.994,1445.1689,S,07403.7636,W,1,06,1.2,3682.4,M,23.0,M,,0000*63
$GPGSA,M,3,21,25,29,12,31,14,,,,,,,2.9,1.2,2.7*38
$GPRMC,155936.994,A,1445.1689,S,07403.7636,W,9.64,40.19,180411,,,A*54
$GPGGA,155938.000,1445.1668,S,07403.7617,W,1,07,1.0,3681.6,M,23.0,M,,0000*67
$GPGSA,M,3,21,25,29,12,31,09,14,,,,,,2.6,1.0,2.4*3F
$GPRMC,155938.000,A,1445.1668,S,07403.7617,W,9.65,41.20,180411,,,A*58
$GPGGA,155939.000,1445.1651,S,07403.7594,W,1,07,1.0,3681.2,M,23.0,M,,0000*60
$GPGSA,M,3,21,25,29,12,31,09,14,,,,,,2.6,1.0,2.4*3F
$GPRMC,155939.000,A,1445.1651,S,07403.7594,W,10.23,49.37,180411,,,A*6F
$GPGGA,155940.003,1445.1633,S,07403.7575,W,1,06,1.2,3679.6,M,23.0,M,,0000*66
$GPGSA,M,3,21,25,29,31,09,14,,,,,,,2.8,1.2,2.6*32
$GPGSV,3,1,10,21,57,341,34,25,49,152,38,29,44,181,36,12,32,099,*79
$GPGSV,3,2,10,31,27,220,38,09,23,024,30,14,20,298,37,18,09,354,*7A
$GPGSV,3,3,10,27,05,028,,05,06,106,*76
$GPRMC,155940.003,A,1445.1633,S,07403.7575,W,9.59,57.08,180411,,,A*5F
$GPGGA,155941.000,1445.1617,S,07403.7555,W,1,06,1.2,3677.6,M,23.0,M,,0000*6E
$GPGSA,M,3,21,25,29,31,09,14,,,,,,,2.8,1.2,2.6*32
$GPRMC,155941.000,A,1445.1617,S,07403.7555,W,9.51,67.57,180411,,,A*58
$GPGGA,155942.000,1445.1595,S,07403.7548,W,1,06,1.2,3679.0,M,23.0,M,,0000*60
$GPGSA,M,3,21,25,29,31,09,14,,,,,,,2.8,1.2,2.6*32
$GPRMC,155942.000,A,1445.1595,S,07403.7548,W,9.43,74.50,180411,,,A*58
$GPGGA,155943.000,1445.1598,S,07403.7528,W,1,07,1.0,3683.3,M,23.0,M,,0000*6F
$GPGSA,M,3,21,25,29,31,09,14,12,,,,,,2.6,1.0,2.4*3F
$GPRMC,155943.000,A,1445.1598,S,07403.7528,W,8.52,87.75,180411,,,A*58
$GPGGA,155944.000,1445.1603,S,07403.7505,W,1,07,1.0,3683.7,M,23.0,M,,0000*62
$GPGSA,M,3,21,25,29,31,09,14,12,,,,,,2.6,1.0,2.4*3F
$GPRMC,155944.000,A,1445.1603,S,07403.7505,W,9.12,98.89,180411,,,A*59
$GPGGA,155945.000,1445.1616,S,07403.7484,W,1,07,1.0,3684.5,M,23.0,M,,0000*6A
$GPGSA,M,3,21,25,29,31,09,14,12,,,,,,2.6,1.0,2.4*3F
$GPGSV,3,1,10,21,57,341,40,25,49,152,39,29,44,181,40,12,32,099,30*79
$GPGSV,3,2,10,31,27,220,39,09,23,024,33,14,20,298,39,18,09,354,40*72
$GPGSV,3,3,10,27,05,028,,05,06,106,*76
$GPRMC,155945.000,A,1445.1616,S,07403.7484,W,8.05,117.28,180411,,,A*6E
$GPGGA,155946.000,1445.1629,S,07403.7469,W,1,07,1.0,3685.8,M,23.0,M,,0000*6A
$GPGSA,M,3,21,25,29,31,09,14,12,,,,,,2.6,1.0,2.4*3F
$GPRMC,155946.000,A,1445.1629,S,07403.7469,W,6.86,124.45,180411,,,A*6C
$GPGGA,155947.000,1445.1643,S,07403.7463,W,1,07,1.0,3687.0,M,23.0,M,,0000*67
$GPGSA,M,3,21,25,29,31,09,14,12,,,,,,2.6,1.0,2.4*3F
$GPRMC,155947.000,A,1445.1643,S,07403.7463,W,5.07,133.35,180411,,,A*60
$GPGGA,155948.000,1445.1651,S,07403.7456,W,1,07,1.0,3687.7,M,23.0,M,,0000*6A
$GPGSA,M,3,21,25,29,31,09,14,12,,,,,,2.6,1.0,2.4*3F
$GPRMC,155948.000,A,1445.1651,S,07403.7456,W,3.08,136.13,180411,,,A*62
$GPGGA,155949.000,1445.1659,S,07403.7451,W,1,07,1.0,3688.7,M,23.0,M,,0000*6B
$GPGSA,M,3,21,25,29,31,09,14,12,,,,,,2.6,1.0,2.4*3F
$GPRMC,155949.000,A,1445.1659,S,07403.7451,W,3.60,145.66,180411,,,A*64
$GPGGA,155950.000,1445.1669,S,07403.7446,W,1,07,1.0,3688.7,M,23.0,M,,0000*66
$GPGSA,M,3,21,25,29,31,09,14,12,,,,,,2.6,1.0,2.4*3F
$GPGSV,3,1,10,21,57,341,42,25,49,152,33,29,44,181,34,12,32,099,29*7A
$GPGSV,3,2,10,31,27,220,36,09,23,024,44,14,20,298,40,18,09,354,36*72
$GPGSV,3,3,10,27,05,028,,05,06,106,*76
$GPRMC,155950.000,A,1445.1669,S,07403.7446,W,4.21,147.42,180411,,,A*6F
$GPGGA,155951.001,1445.1680,S,07403.7438,W,1,06,1.2,3688.9,M,23.0,M,,0000*65
$GPGSA,M,3,21,25,29,12,31,09,,,,,,,2.8,1.2,2.6*34
$GPRMC,155951.001,A,1445.1680,S,07403.7438,W,4.60,144.71,180411,,,A*67
$GPGGA,155952.005,1445.1691,S,07403.7430,W,1,06,1.2,3689.0,M,23.0,M,,0000*62
$GPGSA,M,3,21,25,29,12,31,09,,,,,,,2.8,1.2,2.6*34
$GPRMC,155952.005,A,1445.1691,S,07403.7430,W,4.98,148.14,180411,,,A*60
$GPGGA,155952.997,1445.1704,S,07403.7423,W,1,06,1.2,3688.7,M,23.0,M,,0000*69
$GPGSA,M,3,21,25,29,12,31,09,,,,,,,2.8,1.2,2.6*34
$GPRMC,155952.997,A,1445.1704,S,07403.7423,W,5.09,156.92,180411,,,A*65
$GPGGA,155953.996,1445.1716,S,07403.7418,W,1,06,1.2,3689.1,M,23.0,M,,0000*65
$GPGSA,M,3,21,25,29,12,31,09,,,,,,,2.8,1.2,2.6*34
$GPRMC,155953.996,A,1445.1716,S,07403.7418,W,4.79,159.83,180411,,,A*67
$GPGGA,155955.006,1445.1729,S,07403.7415,W,1,06,1.2,3689.1,M,23.0,M,,0000*62
$GPGSA,M,3,21,25,29,12,31,09,,,,,,,2.8,1.2,2.6*34
$GPGSV,3,1,10,21,57,341,34,25,49,152,27,29,44,181,29,12,32,099,26*7D
$GPGSV,3,2,10,31,27,220,31,09,23,024,38,14,20,298,31,18,09,354,36*78
$GPGSV,3,3,10,05,06,106,,27,05,028,*76
$GPRMC,155955.006,A,1445.1729,S,07403.7415,W,4.97,164.18,180411,,,A*6C
$GPGGA,155955.999,1445.1744,S,07403.7410,W,1,05,1.6,3688.6,M,23.0,M,,0000*62
$GPGSA,M,3,21,25,29,31,09,,,,,,,,3.1,1.6,2.7*3A
$GPRMC,155955.999,A,1445.1744,S,07403.7410,W,5.49,159.94,180411,,,A*65
$GPGGA,155957.001,1445.1759,S,07403.7404,W,1,06,1.2,3689.6,M,23.0,M,,0000*67
$GPGSA,M,3,21,25,29,12,31,09,,,,,,,2.8,1.2,2.6*34
$GPRMC,155957.001,A,1445.1759,S,07403.7404,W,5.72,158.96,180411,,,A*6D
$GPGGA,155957.993,1445.1773,S,07403.7398,W,1,06,1.2,3689.3,M,23.0,M,,0000*6A
$GPGSA,M,3,21,25,29,12,31,09,,,,,,,2.8,1.2,2.6*34
$GPRMC,155957.993,A,1445.1773,S,07403.7398,W,5.83,150.78,180411,,,A*63
$GPGGA,155959.009,1445.1788,S,07403.7389,W,1,06,1.2,3689.1,M,23.0,M,,0000*68
$GPGSA,M,3,21,25,29,12,31,09,,,,,,,2.8,1.2,2.6*34
$GPRMC,155959.009,A,1445.1788,S,07403.7389,W,5.77,151.42,180411,,,A*60
$GPGGA,155959.998,1445.1803,S,07403.7381,W,1,06,1.2,3688.9,M,23.0,M,,0000*64
$GPGSA,M,3,21,25,29,12,31,09,,,,,,,2.8,1.2,2.6*34
$GPGSV,3,1,10,21,57,341,36,25,49,152,35,29,44,181,30,12,32,099,36*75
$GPGSV,3,2,10,31,27,220,36,09,23,024,40,14,20,298,30,18,09,354,36*71
$GPGSV,3,3,10,05,06,106,,27,05,028,*76
$GPRMC,155959.998,A,1445.1803,S,07403.7381,W,5.80,153.57,180411,,,A*6B
$GPGGA,160001.000,1445.1818,S,07403.7374,W,1,06,1.2,3689.8,M,23.0,M,,0000*6E
$GPGSA,M,3,21,25,29,12,31,09,,,,,,,2.8,1.2,2.6*34
$GPRMC,160001.000,A,1445.1818,S,07403.7374,W,6.40,153.04,180411,,,A*68
$GPGGA,160002.007,1445.1834,S,07403.7363,W,1,06,1.2,3690.4,M,23.0,M,,0000*66
$GPGSA,M,3,21,25,29,12,31,09,,,,,,,2.8,1.2,2.6*34
$GPRMC,160002.007,A,1445.1834,S,07403.7363,W,7.13,148.11,180411,,,A*6D
$GPGGA,160002.993,1445.1854,S,07403.7355,W,1,06,1.2,3690.7,M,23.0,M,,0000*62
$GPGSA,M,3,21,25,29,12,31,09,,,,,,,2.8,1.2,2.6*34
$GPRMC,160002.993,A,1445.1854,S,07403.7355,W,6.76,155.35,180411,,,A*62
$GPGGA,160004.001,1445.1872,S,07403.7344,W,1,06,1.2,3690.4,M,23.0,M,,0000*61
$GPGSA,M,3,21,25,29,12,31,09,,,,,,,2.8,1.2,2.6*34
$GPRMC,160004.001,A,1445.1872,S,07403.7344,W,7.61,147.97,180411,,,A*6E
$GPGGA,160004.995,1445.1890,S,07403.7332,W,1,06,1.2,3690.6,M,23.0,M,,0000*6A
$GPGSA,M,3,21,25,29,12,31,09,,,,,,,2.8,1.2,2.6*34
$GPGSV,3,1,10,21,57,341,37,25,49,152,31,29,44,181,36,12,32,099,33*73
$GPGSV,3,2,10,31,27,220,34,09,23,024,39,14,20,298,36,18,09,354,34*79
$GPGSV,3,3,10,05,06,106,,27,05,028,*76
$GPRMC,160004.995,A,1445.1890,S,07403.7332,W,6.83,143.11,180411,,,A*60
$GPGGA,160006.003,1445.1907,S,07403.7320,W,1,06,1.2,3690.9,M,23.0,M,,0000*6D
$GPGSA,M,3,21,25,29,12,31,09,,,,,,,2.8,1.2,2.6*34
$GPRMC,160006.003,A,1445.1907,S,07403.7320,W,7.13,144.88,180411,,,A*67
$GPGGA,160006.998,1445.1924,S,07403.7308,W,1,06,1.2,3692.1,M,23.0,M,,0000*67
$GPGSA,M,3,21,25,29,12,31,09,,,,,,,2.8,1.2,2.6*34
$GPRMC,160006.998,A,1445.1924,S,07403.7308,W,7.65,137.10,180411,,,A*63
$GPGGA,160008.004,1445.1942,S,07403.7290,W,1,06,1.2,3691.9,M,23.0,M,,0000*6E
$GPGSA,M,3,21,25,29,12,31,09,,,,,,,2.8,1.2,2.6*34
$GPRMC,160008.004,A,1445.1942,S,07403.7290,W,8.53,136.75,180411,,,A*69
$GPGGA,160008.995,1445.1957,S,07403.7277,W,1,06,1.2,3693.7,M,23.0,M,,0000*6E
$GPGSA,M,3,21,25,29,12,31,09,,,,,,,2.8,1.2,2.6*34
$GPRMC,160008.995,A,1445.1957,S,07403.7277,W,8.23,137.50,180411,,,A*64
$GPGGA,160010.005,1445.1976,S,07403.7259,W,1,06,1.2,3694.2,M,23.0,M,,0000*6A
$GPGSA,M,3,21,25,29,12,31,09,,,,,,,2.8,1.2,2.6*34
$GPGSV,3,1,10,21,57,341,36,25,49,152,30,29,44,181,30,12,32,099,30*76
$GPGSV,3,2,10,31,27,220,36,09,23,024,37,14,20,298,33,18,09,354,28*7D
$GPGSV,3,3,10,05,06,106,,27,05,028,*76
$GPRMC,160010.005,A,1445.1976,S,07403.7259,W,8.14,141.40,180411,,,A*66
$GPGGA,160010.998,1445.1993,S,07403.7247,W,1,05,2.1,3694.8,M,23.0,M,,0000*6A
$GPGSA,M,3,21,25,29,12,09,,,,,,,,5.1,2.1,4.6*3E
$GPRMC,160010.998,A,1445.1993,S,07403.7247,W,8.02,141.48,180411,,,A*60
$GPGGA,160012.004,1445.2009,S,07403.7232,W,1,06,1.2,3695.3,M,23.0,M,,0000*66
$GPGSA,M,3,21,25,29,12,31,09,,,,,,,2.8,1.2,2.6*34
$GPRMC,160012.004,A,1445.2009,S,07403.7232,W,7.84,136.00,180411,,,A*68
$GPGGA,160012.999,1445.2026,S,07403.7216,W,1,06,1.2,3695.4,M,23.0,M,,0000*67
$GPGSA,M,3,21,25,29,12,31,09,,,,,,,2.8,1.2,2.6*34
$GPRMC,160012.999,A,1445.2026,S,07403.7216,W,8.44,136.11,180411,,,A*6D
$GPGGA,160013.993,1445.2045,S,07403.7200,W,1,06,1.2,3694.3,M,23.0,M,,0000*68
$GPGSA,M,3,21,25,29,12,31,09,,,,,,,2.8,1.2,2.6*34
$GPRMC,160013.993,A,1445.2045,S,07403.7200,W,8.36,134.69,180411,,,A*6C
$GPGGA,160015.006,1445.2064,S,07403.7181,W,1,06,1.2,3694.2,M,23.0,M,,0000*63
$GPGSA,M,3,21,25,29,12,31,09,,,,,,,2.8,1.2,2.6*34
$GPGSV,3,1,10,21,57,341,38,25,49,152,36,29,44,181,30,12,32,099,35*7B
$GPGSV,3,2,10,31,27,220,35,09,23,024,38,14,20,298,37,18,09,354,37*7B
$GPGSV,3,3,10,05,06,106,,27,05,028,*76
$GPRMC,160015.006,A,1445.2064,S,07403.7181,W,7.77,135.28,180411,,,A*68
$GPGGA,160015.996,1445.2081,S,07403.7166,W,1,06,1.2,3692.2,M,23.0,M,,0000*67
$GPGSA,M,3,21,25,29,12,31,09,,,,,,,2.8,1.2,2.6*34
$GPRMC,160015.996,A,1445.2081,S,07403.7166,W,7.78,136.89,180411,,,A*6D
$GPGGA,160017.001,1445.2098,S,07403.7149,W,1,06,1.2,3692.3,M,23.0,M,,0000*66
$GPGSA,M,3,21,25,29,12,31,09,,,,,,,2.8,1.2,2.6*34
$GPRMC,160017.001,A,1445.2098,S,07403.7149,W,8.25,135.95,180411,,,A*64
$GPGGA,160018.000,1445.2117,S,07403.7131,W,1,05,2.1,3692.2,M,23.0,M,,0000*63
$GPGSA,M,3,21,25,29,12,09,,,,,,,,5.1,2.1,4.6*3E
$GPRMC,160018.000,A,1445.2117,S,07403.7131,W,8.45,140.03,180411,,,A*68
$GPGGA,160019.005,1445.2137,S,07403.7111,W,1,06,1.2,3691.1,M,23.0,M,,0000*64
$GPGSA,M,3,21,25,29,12,31,09,,,,,,,2.8,1.2,2.6*34
$GPRMC,160019.005,A,1445.2137,S,07403.7111,W,9.93,134.79,180411,,,A*68
$GPGGA,160019.988,1445.2158,S,07403.7096,W,1,06,1.2,3691.8,M,23.0,M,,0000*66
$GPGSA,M,3,21,25,29,12,31,09,,,,,,,2.8,1.2,2.6*34
$GPGSV,3,1,10,21,57,341,38,25,49,152,37,29,44,181,34,12,32,099,35*7E
$GPGSV,3,2,10,31,27,220,37,09,23,024,39,14,20,298,36,18,09,354,35*7B
$GPGSV,3,3,10,05,06,106,,27,05,028,*76
$GPRMC,160019.988,A,1445.2158,S,07403.7096,W,8.81,144.14,180411,,,A*6D
$GPGGA,160021.006,1445.2178,S,07403.7078,W,1,06,1.2,3691.6,M,23.0,M,,0000*6E
$GPGSA,M,3,21,25,29,12,31,09,,,,,,,2.8,1.2,2.6*34
$GPRMC,160021.006,A,1445.2178,S,07403.7078,W,8.94,143.63,180411,,,A*68
$GPGGA,160021.995,1445.2198,S,07403.7065,W,1,06,1.2,3692.0,M,23.0,M,,0000*6A
$GPGSA,M,3,21,25,29,12,31,09,,,,,,,2.8,1.2,2.6*34
$GPRMC,160021.995,A,1445.2198,S,07403.7065,W,8.39,150.89,180411,,,A*68
$GPGGA,160023.003,1445.2220,S,07403.7049,W,1,06,1.2,3692.8,M,23.0,M,,0000*68
$GPGSA,M,3,21,25,29,12,31,09,,,,,,,2.8,1.2,2.6*34
$GPRMC,160023.003,A,1445.2220,S,07403.7049,W,8.74,147.84,180411,,,A*60
$GPGGA,160023.996,1445.2244,S,07403.7033,W,1,06,1.2,3692.3,M,23.0,M,,0000*69
$GPGSA,M,3,21,25,29,12,31,09,,,,,,,2.8,1.2,2.6*34
$GPRMC,160023.996,A,1445.2244,S,07403.7033,W,9.37,150.98,180411,,,A*67
$GPGGA,160025.009,1445.2269,S,07403.7020,W,1,05,1.6,3692.8,M,23.0,M,,0000*61
$GPGSA,M,3,21,25,29,31,09,,,,,,,,3.1,1.6,2.6*3B
$GPGSV,3,1,10,21,57,341,36,25,49,152,37,29,44,181,27,12,32,099,*74
$GPGSV,3,2,10,31,27,220,30,09,23,024,36,14,20,298,,18,09,354,33*70
$GPGSV,3,3,10,05,06,106,,27,05,028,*76
$GPRMC,160025.009,A,1445.2269,S,07403.7020,W,9.42,149.50,180411,,,A*6D
$GPGGA,160025.996,1445.2292,S,07403.7013,W,1,06,1.2,3692.9,M,23.0,M,,0000*6C
$GPGSA,M,3,21,25,29,12,31,09,,,,,,,2.8,1.2,2.6*34
$GPRMC,160025.996,A,1445.2292,S,07403.7013,W,9.22,156.56,180411,,,A*68
$GPGGA,160027.002,1445.2316,S,07403.7002,W,1,05,1.6,3693.3,M,23.0,M,,0000*6B
$GPGSA,M,3,21,25,29,31,09,,,,,,,,3.1,1.6,2.6*3B
$GPRMC,160027.002,A,1445.2316,S,07403.7002,W,9.16,157.36,180411,,,A*63
$GPGGA,160027.997,1445.2343,S,07403.6988,W,1,06,1.2,3692.5,M,23.0,M,,0000*64
$GPGSA,M,3,21,25,29,12,31,09,,,,,,,2.8,1.2,2.6*34
$GPRMC,160027.997,A,1445.2343,S,07403.6988,W,9.74,156.26,180411,,,A*68
$GPGGA,160029.006,1445.2370,S,07403.6982,W,1,06,1.2,3692.9,M,23.0,M,,0000*6D
$GPGSA,M,3,21,25,29,12,31,09,,,,,,,2.8,1.2,2.6*34
$GPRMC,160029.006,A,1445.2370,S,07403.6982,W,10.17,163.96,180411,,,A*5D
$GPGGA,160029.999,1445.2400,S,07403.6977,W,1,06,1.2,3693.0,M,23.0,M,,0000*60
$GPGSA,M,3,21,25,29,12,31,09,,,,,,,2.8,1.2,2.6*34
$GPGSV,3,1,10,21,57,341,37,25,49,152,30,29,44,181,34,12,32,099,36*75
$GPGSV,3,2,10,31,27,220,36,09,23,024,39,14,20,298,32,18,09,354,38*73
$GPGSV,3,3,10,05,06,106,,27,05,028,*76
$GPRMC,160029.999,A,1445.2400,S,07403.6977,W,10.12,176.42,180411,,,A*50
$GPGGA,160030.999,1445.2432,S,07403.6976,W,1,06,1.2,3692.3,M,23.0,M,,0000*6A
$GPGSA,M,3,21,25,29,12,31,09,,,,,,,2.8,1.2,2.6*34
$GPRMC,160030.999,A,1445.2432,S,07403.6976,W,9.89,184.59,180411,,,A*65
$GPGGA,160031.998,1445.2460,S,07403.6980,W,1,06,1.2,3692.7,M,23.0,M,,0000*60
$GPGSA,M,3,21,25,29,12,31,09,,,,,,,2.8,1.2,2.6*34
$GPRMC,160031.998,A,1445.2460,S,07403.6980,W,10.01,178.02,180411,,,A*5E
$GPGGA,160033.004,1445.2488,S,07403.6978,W,1,05,1.2,3692.4,M,23.0,M,,0000*6F
$GPGSA,M,3,21,25,12,31,09,,,,,,,,2.9,1.2,2.6*3E
$GPRMC,160033.004,A,1445.2488,S,07403.6978,W,9.00,176.92,180411,,,A*6F
$GPGGA,160033.997,1445.2515,S,07403.6979,W,1,06,1.2,3693.1,M,23.0,M,,0000*6F
$GPGSA,M,3,21,25,29,12,31,09,,,,,,,2.8,1.2,2.6*34
$GPRMC,160033.997,A,1445.2515,S,07403.6979,W,10.24,179.20,180411,,,A*50
$GPGGA,160034.998,1445.2545,S,07403.6981,W,1,06,1.2,3693.9,M,23.0,M,,0000*6D
$GPGSA,M,3,21,25,29,12,31,09,,,,,,,2.8,1.2,2.6*34
$GPGSV,3,1,10,21,57,341,31,25,49,152,36,29,44,181,33,12,32,099,34*70
$GPGSV,3,2,10,31,27,220,35,09,23,024,39,14,20,298,38,18,09,354,39*7B
$GPGSV,3,3,10,05,06,106,,27,05,028,*76
$GPRMC,160034.998,A,1445.2545,S,07403.6981,W,10.94,187.26,180411,,,A*56
$GPGGA,160036.001,1445.2575,S,07403.6989,W,1,04,2.2,3693.9,M,23.0,M,,0000*6C
$GPGSA,M,3,29,12,31,09,,,,,,,,,7.7,2.2,7.3*39
$GPRMC,160036.001,A,1445.2575,S,07403.6989,W,11.10,192.16,180411,,,A*5C
$GPGGA,160037.000,1445.2606,S,07403.6999,W,1,04,2.2,3693.8,M,23.0,M,,0000*6B
$GPGSA,M,3,29,12,31,09,,,,,,,,,7.7,2.2,7.4*3E
$GPRMC,160037.000,A,1445.2606,S,07403.6999,W,11.12,193.94,180411,,,A*53
$GPGGA,160038.000,1445.2636,S,07403.7006,W,0,00,,3693.9,M,23.0,M,,0000*43
$GPGSA,M,1,,,,,,,,,,,,,,,*12
$GPRMC,160038.000,V,1445.2636,S,07403.7006,W,,,180411,,,N*7C
$GPGGA,160039.000,1445.2667,S,07403.7027,W,1,06,1.2,3692.9,M,23.0,M,,0000*6E
$GPGSA,M,3,29,12,31,09,21,25,,,,,,,2.8,1.2,2.6*34
$GPRMC,160039.000,A,1445.2667,S,07403.7027,W,11.02,192.49,180411,,,A*57
$GPGGA,160040.000,1445.2696,S,07403.7038,W,1,06,1.2,3693.3,M,23.0,M,,0000*6B
$GPGSA,M,3,29,12,31,09,21,25,,,,,,,2.8,1.2,2.6*34
$GPGSV,3,1,10,21,57,341,28,25,49,151,36,29,44,181,33,12,32,099,36*79
$GPGSV,3,2,10,31,27,220,38,09,23,024,40,27,04,028,,14,20,298,33*70
$GPGSV,3,3,10,18,10,354,39,05,06,106,*7C
$GPRMC,160040.000,A,1445.2696,S,07403.7038,W,11.03,192.86,180411,,,A*5B
$GPGGA,160041.000,1445.2727,S,07403.7049,W,1,05,2.1,3694.3,M,23.0,M,,0000*63
$GPGSA,M,3,29,12,31,09,25,,,,,,,,5.9,2.1,5.6*36
$GPRMC,160041.000,A,1445.2727,S,07403.7049,W,11.07,193.30,180411,,,A*5F
$GPGGA,160042.000,1445.2758,S,07403.7058,W,1,05,1.2,3694.9,M,23.0,M,,0000*62
$GPGSA,M,3,12,31,09,25,21,,,,,,,,2.9,1.2,2.6*3E
$GPRMC,160042.000,A,1445.2758,S,07403.7058,W,11.05,191.31,180411,,,A*55
$GPGGA,160043.000,1445.2789,S,07403.7063,W,1,06,1.2,3695.5,M,23.0,M,,0000*69
$GPGSA,M,3,29,12,31,09,25,21,,,,,,,2.8,1.2,2.6*34
$GPRMC,160043.000,A,1445.2789,S,07403.7063,W,10.97,184.80,180411,,,A*54
$GPGGA,160044.000,1445.2820,S,07403.7066,W,1,06,1.2,3697.0,M,23.0,M,,0000*60
$GPGSA,M,3,29,12,31,09,25,21,,,,,,,2.8,1.2,2.6*34
$GPRMC,160044.000,A,1445.2820,S,07403.7066,W,10.77,181.45,180411,,,A*58
$GPGGA,160045.000,1445.2850,S,07403.7067,W,1,06,1.2,3698.7,M,23.0,M,,0000*6F
$GPGSA,M,3,29,12,31,09,25,21,,,,,,,2.8,1.2,2.6*34
$GPGSV,3,1,10,21,57,341,34,25,49,151,35,29,44,181,32,12,32,099,36*76
$GPGSV,3,2,10,31,27,220,29,09,23,024,43,27,04,028,,14,20,298,34*74
$GPGSV,3,3,10,18,10,354,39,05,06,106,*7C
$GPRMC,160045.000,A,1445.2850,S,07403.7067,W,10.55,175.94,180411,,,A*58
$GPGGA,160046.000,1445.2879,S,07403.7064,W,1,06,1.2,3699.1,M,23.0,M,,0000*63
$GPGSA,M,3,29,12,31,09,25,21,,,,,,,2.8,1.2,2.6*34
$GPRMC,160046.000,A,1445.2879,S,07403.7064,W,10.29,170.18,180411,,,A*59
$GPGGA,160047.000,1445.2904,S,07403.7056,W,1,06,1.2,3701.3,M,23.0,M,,0000*6A
$GPGSA,M,3,29,12,31,09,25,21,,,,,,,2.8,1.2,2.6*34
$GPRMC,160047.000,A,1445.2904,S,07403.7056,W,10.06,160.69,180411,,,A*58
$GPGGA,160048.000,1445.2929,S,07403.7045,W,1,06,1.2,3702.4,M,23.0,M,,0000*6C
$GPGSA,M,3,29,12,31,09,25,21,,,,,,,2.8,1.2,2.6*34
$GPRMC,160048.000,A,1445.2929,S,07403.7045,W,9.94,154.65,180411,,,A*62
$GPGGA,160049.000,1445.2951,S,07403.7032,W,1,06,1.2,3703.9,M,23.0,M,,0000*6E
$GPGSA,M,3,29,12,31,09,25,21,,,,,,,2.8,1.2,2.6*34
$GPRMC,160049.000,A,1445.2951,S,07403.7032,W,9.30,148.91,180411,,,A*64
$GPGGA,160050.004,1445.2972,S,07403.7018,W,1,06,1.2,3703.8,M,23.0,M,,0000*6A
$GPGSA,M,3,21,25,29,12,31,09,,,,,,,2.8,1.2,2.6*34
$GPGSV,3,1,10,21,57,341,37,25,49,151,38,29,44,181,32,12,32,099,33*7D
$GPGSV,3,2,10,31,27,220,38,09,23,024,39,14,20,298,35,18,10,354,29*72
$GPGSV,3,3,10,05,06,106,,27,04,028,*77
$GPRMC,160050.004,A,1445.2972,S,07403.7018,W,8.78,146.82,180411,,,A*60
$GPGGA,160050.999,1445.2993,S,07403.7004,W,1,06,1.2,3703.6,M,23.0,M,,0000*6B
$GPGSA,M,3,21,25,29,12,31,09,,,,,,,2.8,1.2,2.6*34
$GPRMC,160050.999,A,1445.2993,S,07403.7004,W,8.86,145.04,180411,,,A*63
$GPGGA,160052.002,1445.3014,S,07403.6988,W,1,06,1.2,3703.2,M,23.0,M,,0000*6D
$GPGSA,M,3,21,25,29,12,31,09,,,,,,,2.8,1.2,2.6*34
$GPRMC,160052.002,A,1445.3014,S,07403.6988,W,9.62,141.71,180411,,,A*6C
$GPGGA,160052.991,1445.3037,S,07403.6969,W,1,06,1.2,3702.8,M,23.0,M,,0000*6B
$GPGSA,M,3,21,25,29,12,31,09,,,,,,,2.8,1.2,2.6*34
$GPRMC,160052.991,A,1445.3037,S,07403.6969,W,10.13,137.28,180411,,,A*52
$GPGGA,160054.002,1445.3058,S,07403.6949,W,1,06,1.2,3702.1,M,23.0,M,,0000*6C
$GPGSA,M,3,21,25,29,12,31,09,,,,,,,2.8,1.2,2.6*34
$GPRMC,160054.002,A,1445.3058,S,07403.6949,W,10.56,136.99,180411,,,A*56
$GPGGA,160054.996,1445.3079,S,07403.6928,W,1,06,1.2,3702.2,M,23.0,M,,0000*6F
$GPGSA,M,3,21,25,29,12,31,09,,,,,,,2.8,1.2,2.6*34
$GPGSV,3,1,10,21,58,341,38,25,49,151,36,29,44,181,36,12,32,099,36*72
$GPGSV,3,2,10,31,27,220,39,09,22,024,37,14,20,298,36,18,10,354,39*7E
$GPGSV,3,3,10,05,06,106,,27,04,028,14*72
$GPRMC,160054.996,A,1445.3079,S,07403.6928,W,11.48,133.77,180411,,,A*5D
$GPGGA,160056.005,1445.3100,S,07403.6905,W,1,06,1.2,3702.5,M,23.0,M,,0000*69
$GPGSA,M,3,21,25,29,12,31,09,,,,,,,2.8,1.2,2.6*34
$GPRMC,160056.005,A,1445.3100,S,07403.6905,W,10.50,131.39,180411,,,A*5C
$GPGGA,160056.996,1445.3119,S,07403.6879,W,1,06,1.2,3702.3,M,23.0,M,,0000*6E
$GPGSA,M,3,21,25,29,12,31,09,,,,,,,2.8,1.2,2.6*34
$GPRMC,160056.996,A,1445.3119,S,07403.6879,W,11.82,127.12,180411,,,A*5D
$GPGGA,160058.001,1445.3138,S,07403.6850,W,1,05,1.6,3701.9,M,23.0,M,,0000*61
$GPGSA,M,3,21,25,29,31,09,,,,,,,,3.1,1.6,2.6*3B
$GPRMC,160058.001,A,1445.3138,S,07403.6850,W,12.24,121.05,180411,,,A*53
$GPGGA,160059.002,1445.3156,S,07403.6817,W,1,05,1.5,3701.9,M,23.0,M,,0000*6B
$GPGSA,M,3,21,25,29,12,31,,,,,,,,4.0,1.5,3.7*34
$GPRMC,160059.002,A,1445.3156,S,07403.6817,W,12.80,119.62,180411,,,A*5E
$GPGGA,160100.001,1445.3175,S,07403.6785,W,1,05,1.5,3701.7,M,23.0,M,,0000*6E
$GPGSA,M,3,21,25,29,12,31,,,,,,,,4.0,1.5,3.7*34
$GPGSV,3,1,10,21,58,341,38,25,49,151,37,29,44,181,34,12,32,099,30*77
$GPGSV,3,2,10,31,27,220,37,09,22,024,,14,20,298,,18,10,354,*7B
$GPGSV,3,3,10,05,06,106,,27,04,028,*77
$GPRMC,160100.001,A,1445.3175,S,07403.6785,W,12.45,120.85,180411,,,A*5F
$GPGGA,160101.006,1445.3193,S,07403.6751,W,1,05,1.5,3702.5,M,23.0,M,,0000*68
$GPGSA,M,3,21,25,29,12,31,,,,,,,,4.0,1.5,3.7*34
$GPRMC,160101.006,A,1445.3193,S,07403.6751,W,13.01,122.12,180411,,,A*55
$GPGGA,160101.993,1445.3212,S,07403.6719,W,1,04,1.9,3702.2,M,23.0,M,,0000*61
$GPGSA,M,3,21,25,29,31,,,,,,,,,2.2,1.9,1.0*3A
$GPRMC,160101.993,A,1445.3212,S,07403.6719,W,13.31,119.19,180411,,,A*56
$GPGGA,160102.994,1445.3231,S,07403.6687,W,1,05,1.5,3702.3,M,23.0,M,,0000*6E
$GPGSA,M,3,21,25,29,12,31,,,,,,,,4.0,1.5,3.7*34
$GPRMC,160102.994,A,1445.3231,S,07403.6687,W,12.94,120.45,180411,,,A*58
$GPGGA,160104.005,1445.3251,S,07403.6657,W,1,05,1.5,3701.6,M,23.0,M,,0000*64
$GPGSA,M,3,21,25,29,12,31,,,,,,,,4.0,1.5,3.7*34
$GPRMC,160104.005,A,1445.3251,S,07403.6657,W,11.80,127.26,180411,,,A*50
$GPGGA,160105.000,1445.3269,S,07403.6628,W,1,05,1.5,3702.3,M,23.0,M,,0000*65
$GPGSA,M,3,21,25,29,12,31,,,,,,,,4.0,1.5,3.7*34
$GPGSV,3,1,10,21,58,341,39,25,49,151,36,29,44,181,36,12,32,099,30*75
$GPGSV,3,2,10,31,27,220,38,09,22,024,,14,20,298,35,18,10,354,*72
$GPGSV,3,3,10,05,06,106,,27,04,028,*77
$GPRMC,160105.000,A,1445.3269,S,07403.6628,W,11.49,121.69,180411,,,A*5F
$GPGGA,160106.007,1445.3287,S,07403.6592,W,1,05,1.5,3701.1,M,23.0,M,,0000*62
$GPGSA,M,3,21,25,29,12,31,,,,,,,,4.0,1.5,3.7*34
$GPRMC,160106.007,A,1445.3287,S,07403.6592,W,13.21,115.04,180411,,,A*59
$GPGGA,160106.996,1445.3300,S,07403.6557,W,1,06,1.2,3700.2,M,23.0,M,,0000*62
$GPGSA,M,3,21,25,29,12,31,09,,,,,,,2.8,1.2,2.6*34
$GPRMC,160106.996,A,1445.3300,S,07403.6557,W,12.09,106.50,180411,,,A*57
$GPGGA,160107.997,1445.3306,S,07403.6526,W,1,05,1.5,3701.0,M,23.0,M,,0000*65
$GPGSA,M,3,21,25,29,12,31,,,,,,,,4.0,1.5,3.7*34
$GPRMC,160107.997,A,1445.3306,S,07403.6526,W,11.30,96.84,180411,,,A*6F
$GPGGA,160109.001,1445.3307,S,07403.6497,W,1,05,2.1,3700.8,M,23.0,M,,0000*69
$GPGSA,M,3,21,25,29,12,09,,,,,,,,5.0,2.1,4.5*3C
$GPRMC,160109.001,A,1445.3307,S,07403.6497,W,9.19,90.05,180411,,,A*50
$GPGGA,160109.994,1445.3305,S,07403.6472,W,1,05,1.5,3701.6,M,23.0,M,,0000*6D
$GPGSA,M,3,21,25,29,12,31,,,,,,,,4.0,1.5,3.7*34
$GPGSV,3,1,10,21,58,341,38,25,49,151,38,29,44,181,37,12,32,099,35*7E
$GPGSV,3,2,10,31,27,220,38,09,22,024,,14,20,298,38,18,10,354,*7F
$GPGSV,3,3,10,05,06,106,,27,04,028,*77
$GPRMC,160109.994,A,1445.3305,S,07403.6472,W,10.33,79.53,180411,,,A*68
$GPGGA,160111.009,1445.3298,S,07403.6442,W,1,05,1.5,3702.6,M,23.0,M,,0000*6C
$GPGSA,M,3,21,25,29,12,31,,,,,,,,4.0,1.5,3.7*34
$GPRMC,160111.009,A,1445.3298,S,07403.6442,W,11.22,71.64,180411,,,A*67
$GPGGA,160111.997,1445.3289,S,07403.6409,W,1,06,1.2,3701.9,M,23.0,M,,0000*65
$GPGSA,M,3,21,25,29,12,31,09,,,,,,,2.8,1.2,2.6*34
$GPRMC,160111.997,A,1445.3289,S,07403.6409,W,11.36,69.46,180411,,,A*6A
$GPGGA,160113.002,1445.3278,S,07403.6374,W,1,06,1.2,3701.3,M,23.0,M,,0000*6B
$GPGSA,M,3,21,25,29,12,31,09,,,,,,,2.8,1.2,2.6*34
$GPRMC,160113.002,A,1445.3278,S,07403.6374,W,11.87,74.33,180411,,,A*6A
$GPGGA,160113.993,1445.3267,S,07403.6341,W,1,06,1.2,3703.3,M,23.0,M,,0000*60
$GPGSA,M,3,21,25,29,12,31,09,,,,,,,2.8,1.2,2.6*34
$GPRMC,160113.993,A,1445.3267,S,07403.6341,W,13.03,75.13,180411,,,A*6E
$GPGGA,160115.009,1445.3256,S,07403.6308,W,1,04,1.7,3703.8,M,23.0,M,,0000*6F
$GPGSA,M,3,21,25,12,31,,,,,,,,,4.4,1.7,4.1*38
$GPGSV,3,1,10,21,58,341,36,25,49,151,36,29,44,181,,12,32,099,27*79
$GPGSV,3,2,10,31,27,220,37,09,22,024,,14,20,298,36,18,10,354,*7E
$GPGSV,3,3,10,05,06,106,,27,04,028,*77
$GPRMC,160115.009,A,1445.3256,S,07403.6308,W,11.49,71.25,180411,,,A*60
$GPGGA,160116.000,1445.3243,S,07403.6278,W,1,05,2.1,3702.2,M,23.0,M,,0000*68
$GPGSA,M,3,21,25,29,12,09,,,,,,,,4.9,2.1,4.5*34
$GPRMC,160116.000,A,1445.3243,S,07403.6278,W,10.68,70.05,180411,,,A*69
$GPGGA,160116.993,1445.3226,S,07403.6252,W,1,05,1.6,3702.1,M,23.0,M,,0000*67
$GPGSA,M,3,21,25,29,31,09,,,,,,,,3.1,1.6,2.6*3B
$GPRMC,160116.993,A,1445.3226,S,07403.6252,W,11.14,62.06,180411,,,A*6B
$GPGGA,160118.002,1445.3207,S,07403.6220,W,1,06,1.2,3699.8,M,23.0,M,,0000*63
$GPGSA,M,3,21,25,29,12,31,09,,,,,,,2.8,1.2,2.6*34
$GPRMC,160118.002,A,1445.3207,S,07403.6220,W,11.42,53.00,180411,,,A*65
$GPGGA,160119.001,1445.3185,S,07403.6194,W,1,05,1.5,3699.9,M,23.0,M,,0000*61
$GPGSA,M,3,21,25,29,12,31,,,,,,,,4.0,1.5,3.7*34
$GPRMC,160119.001,A,1445.3185,S,07403.6194,W,11.51,44.27,180411,,,A*63
$GPGGA,160120.002,1445.3160,S,07403.6171,W,1,05,1.5,3699.8,M,23.0,M,,0000*69
$GPGSA,M,3,21,25,29,12,31,,,,,,,,4.0,1.5,3.7*34
$GPGSV,3,1,10,21,58,341,38,25,49,151,38,29,44,181,39,12,32,099,33*76
$GPGSV,3,2,10,31,27,220,38,09,22,024,,14,20,298,,18,10,354,*74
$GPGSV,3,3,10,05,06,106,,27,04,028,*77
$GPRMC,160120.002,A,1445.3160,S,07403.6171,W,11.84,34.31,180411,,,A*62
$GPGGA,160121.001,1445.3130,S,07403.6151,W,1,05,1.5,3701.2,M,23.0,M,,0000*66
$GPGSA,M,3,21,25,29,12,31,,,,,,,,4.0,1.5,3.7*34
$GPRMC,160121.001,A,1445.3130,S,07403.6151,W,10.71,34.26,180411,,,A*6A
$GPGGA,160122.000,1445.3106,S,07403.6134,W,1,06,1.2,3701.4,M,23.0,M,,0000*60
$GPGSA,M,3,21,25,29,12,31,09,,,,,,,2.8,1.2,2.6*34
$GPRMC,160122.000,A,1445.3106,S,07403.6134,W,10.82,38.63,180411,,,A*6F
$GPGGA,160123.001,1445.3081,S,07403.6110,W,1,06,1.2,3700.6,M,23.0,M,,0000*6B
$GPGSA,M,3,21,25,29,12,31,09,,,,,,,2.8,1.2,2.6*34
$GPRMC,160123.001,A,1445.3081,S,07403.6110,W,10.79,42.72,180411,,,A*6E
$GPGGA,160124.003,1445.3060,S,07403.6087,W,1,06,1.2,3700.7,M,23.0,M,,0000*6F
$GPGSA,M,3,21,25,29,12,31,09,,,,,,,2.8,1.2,2.6*34
$GPRMC,160124.003,A,1445.3060,S,07403.6087,W,9.74,51.63,180411,,,A*5C
$GPGGA,160124.997,1445.3046,S,07403.6063,W,1,05,1.6,3700.9,M,23.0,M,,0000*6C
$GPGSA,M,3,21,25,29,31,09,,,,,,,,3.1,1.6,2.6*3B
$GPGSV,3,1,10,21,58,341,30,25,49,151,39,29,44,181,39,12,32,099,*7F
$GPGSV,3,2,10,31,27,220,36,09,22,024,36,14,20,298,35,18,10,354,*79
$GPGSV,3,3,10,05,06,106,,27,04,028,*77
$GPRMC,160124.997,A,1445.3046,S,07403.6063,W,10.89,61.56,180411,,,A*69
$GPGGA,160126.005,1445.3043,S,07403.6031,W,1,06,1.2,3700.3,M,23.0,M,,0000*63
$GPGSA,M,3,21,25,29,12,31,09,,,,,,,2.8,1.2,2.6*34
$GPRMC,160126.005,A,1445.3043,S,07403.6031,W,9.99,74.37,180411,,,A*51
$GPGGA,160126.995,1445.3037,S,07403.6002,W,1,06,1.2,3699.4,M,23.0,M,,0000*66
$GPGSA,M,3,21,25,29,12,31,09,,,,,,,2.8,1.2,2.6*34
$GPRMC,160126.995,A,1445.3037,S,07403.6002,W,10.00,79.95,180411,,,A*6F
$GPGGA,160127.999,1445.3053,S,07403.5968,W,1,06,1.2,3698.6,M,23.0,M,,0000*6C
$GPGSA,M,3,21,25,29,12,31,09,,,,,,,2.8,1.2,2.6*34
$GPRMC,160127.999,A,1445.3053,S,07403.5968,W,10.50,104.39,180411,,,A*5E
$GPGGA,160129.000,1445.3062,S,07403.5939,W,1,04,1.9,3698.1,M,23.0,M,,0000*63
$GPGSA,M,3,21,25,29,31,,,,,,,,,2.1,1.9,1.0*39
$GPRMC,160129.000,A,1445.3062,S,07403.5939,W,10.46,105.58,180411,,,A*5E
$GPGGA,160130.001,1445.3074,S,07403.5908,W,1,04,1.9,3697.3,M,23.0,M,,0000*62
$GPGSA,M,3,21,25,29,31,,,,,,,,,2.1,1.9,1.0*39
$GPGSV,3,1,10,21,58,341,37,25,49,151,37,29,44,181,35,12,32,099,*7A
$GPGSV,3,2,10,31,27,220,34,09,22,024,,14,20,298,31,18,10,354,*7A
$GPGSV,3,3,10,05,06,106,,27,04,028,*77
$GPRMC,160130.001,A,1445.3074,S,07403.5908,W,11.04,100.97,180411,,,A*53
$GPGGA,160130.998,1445.3077,S,07403.5870,W,1,06,1.2,3695.5,M,23.0,M,,0000*6B
