$GPGGA,150944.642,,,,,0,00,,,M,0.0,M,,0000*5B
$GPGSA,M,1,,,,,,,,,,,,,,,*12
$GPRMC,150944.642,V,,,,,,,090511,,,N*4C
$GPGGA,150945.642,,,,,0,00,,,M,0.0,M,,0000*5A
$GPGSA,M,1,,,,,,,,,,,,,,,*12
$GPRMC,150945.642,V,,,,,,,090511,,,N*4D
$GPGGA,150946.642,,,,,0,00,,,M,0.0,M,,0000*59
$GPGSA,M,1,,,,,,,,,,,,,,,*12
$GPGSV,3,1,09,25,66,083,43,29,59,162,39,21,51,336,41,31,44,254,30*77
$GPGSV,3,2,09,12,27,062,39,05,17,112,38,30,16,226,,02,00,139,*78
$GPGSV,3,3,09,18,00,001,*48
$GPRMC,150946.642,V,,,,,,,090511,,,N*4E
$GPGGA,150947.702,,,,,0,00,,,M,0.0,M,,0000*5D
$GPGSA,M,1,,,,,,,,,,,,,,,*12
$GPRMC,150947.702,V,,,,,,,090511,,,N*4A
$GPGGA,150948.702,,,,,0,00,,,M,0.0,M,,0000*52
$GPGSA,M,1,,,,,,,,,,,,,,,*12
$GPRMC,150948.702,V,,,,,,,090511,,,N*45
$GPGGA,150949.702,,,,,0,00,,,M,0.0,M,,0000*53
$GPGSA,M,1,,,,,,,,,,,,,,,*12
$GPRMC,150949.702,V,,,,,,,090511,,,N*44
$GPGGA,150950.702,,,,,0,00,,,M,0.0,M,,0000*5B
$GPGSA,M,1,,,,,,,,,,,,,,,*12
$GPRMC,150950.702,V,,,,,,,090511,,,N*4C
$GPGGA,150951.702,,,,,0,00,,,M,0.0,M,,0000*5A
$GPGSA,M,1,,,,,,,,,,,,,,,*12
$GPGSV,3,1,09,25,66,083,45,29,59,162,38,21,51,336,43,31,44,255,43*77
$GPGSV,3,2,09,12,27,062,35,05,17,112,34,30,17,226,,02,00,139,*79
$GPGSV,3,3,09,18,00,001,*48
$GPRMC,150951.702,V,,,,,,,090511,,,N*4D
$GPGGA,150952.702,,,,,0,00,,,M,0.0,M,,0000*59
$GPGSA,M,1,,,,,,,,,,,,,,,*12
$GPRMC,150952.702,V,,,,,,,090511,,,N*4E
$GPGGA,150953.702,,,,,0,00,,,M,0.0,M,,0000*58
$GPGSA,M,1,,,,,,,,,,,,,,,*12
$GPRMC,150953.702,V,,,,,,,090511,,,N*4F
$GPGGA,150954.702,,,,,0,00,,,M,0.0,M,,0000*5F
$GPGSA,M,1,,,,,,,,,,,,,,,*12
$GPRMC,150954.702,V,,,,,,,090511,,,N*48
$GPGGA,150955.702,,,,,0,00,,,M,0.0,M,,0000*5E
$GPGSA,M,1,,,,,,,,,,,,,,,*12
$GPRMC,150955.702,V,,,,,,,090511,,,N*49
$GPGGA,150956.702,,,,,0,00,,,M,0.0,M,,0000*5D
$GPGSA,M,1,,,,,,,,,,,,,,,*12
$GPGSV,3,1,09,25,66,083,37,29,59,162,30,21,51,336,39,31,44,255,40*74
$GPGSV,3,2,09,12,27,062,35,05,17,112,35,30,17,226,,02,00,139,*78
$GPGSV,3,3,09,18,00,001,*48
$GPRMC,150956.702,V,,,,,,,090511,,,N*4A
$GPGGA,150957.702,,,,,0,00,,,M,0.0,M,,0000*5C
$GPGSA,M,1,,,,,,,,,,,,,,,*12
$GPRMC,150957.702,V,,,,,,,090511,,,N*4B
$GPGGA,150958.702,,,,,0,00,,,M,0.0,M,,0000*53
$GPGSA,M,1,,,,,,,,,,,,,,,*12
$GPRMC,150958.702,V,,,,,,,090511,,,N*44
$GPGGA,150959.702,,,,,0,00,,,M,0.0,M,,0000*52
$GPGSA,M,1,,,,,,,,,,,,,,,*12
$GPRMC,150959.702,V,,,,,,,090511,,,N*45
$GPGGA,151000.702,,,,,0,00,,,M,0.0,M,,0000*56
$GPGSA,M,1,,,,,,,,,,,,,,,*12
$GPRMC,151000.702,V,,,,,,,090511,,,N*41
$GPGGA,151001.702,,,,,0,00,,,M,0.0,M,,0000*57
$GPGSA,M,1,,,,,,,,,,,,,,,*12
$GPGSV,3,1,09,25,66,083,48,29,59,162,40,21,51,336,47,31,44,255,45*77
$GPGSV,3,2,09,12,27,062,45,05,17,112,41,30,17,226,,02,00,139,*7C
$GPGSV,3,3,09,18,00,001,*48
$GPRMC,151001.702,V,,,,,,,090511,,,N*40
$GPGGA,151002.702,,,,,0,00,,,M,0.0,M,,0000*54
$GPGSA,M,1,,,,,,,,,,,,,,,*12
$GPRMC,151002.702,V,,,,,,,090511,,,N*43
$GPGGA,151003.702,,,,,0,00,,,M,0.0,M,,0000*55
$GPGSA,M,1,,,,,,,,,,,,,,,*12
$GPRMC,151003.702,V,,,,,,,090511,,,N*42
$GPGGA,151004.702,,,,,0,00,,,M,0.0,M,,0000*52
$GPGSA,M,1,,,,,,,,,,,,,,,*12
$GPRMC,151004.702,V,,,,,,,090511,,,N*45
$GPGGA,151005.702,,,,,0,00,,,M,0.0,M,,0000*53
$GPGSA,M,1,,,,,,,,,,,,,,,*12
$GPRMC,151005.702,V,,,,,,,090511,,,N*44
$GPGGA,151006.702,,,,,0,00,,,M,0.0,M,,0000*50
$GPGSA,M,1,,,,,,,,,,,,,,,*12
$GPGSV,3,1,09,25,66,083,42,29,59,162,41,21,51,336,41,31,44,255,38*70
$GPGSV,3,2,09,12,27,062,37,05,17,112,33,30,17,226,,02,00,139,*7C
$GPGSV,3,3,09,18,00,001,*48
$GPRMC,151006.702,V,,,,,,,090511,,,N*47
$GPGGA,151007.702,,,,,0,00,,,M,0.0,M,,0000*51
$GPGSA,M,1,,,,,,,,,,,,,,,*12
$GPRMC,151007.702,V,,,,,,,090511,,,N*46
$GPGGA,151008.702,,,,,0,00,,,M,0.0,M,,0000*5E
$GPGSA,M,1,,,,,,,,,,,,,,,*12
$GPRMC,151008.702,V,,,,,,,090511,,,N*49
$GPGGA,151009.702,,,,,0,00,,,M,0.0,M,,0000*5F
$GPGSA,M,1,,,,,,,,,,,,,,,*12
$GPRMC,151009.702,V,,,,,,,090511,,,N*48
$GPGGA,151010.702,,,,,0,00,,,M,0.0,M,,0000*57
$GPGSA,M,1,,,,,,,,,,,,,,,*12
$GPRMC,151010.702,V,,,,,,,090511,,,N*40
$GPGGA,151011.702,,,,,0,00,,,M,0.0,M,,0000*56
$GPGSA,M,1,,,,,,,,,,,,,,,*12
$GPGSV,3,1,09,25,66,083,46,29,59,162,42,21,51,336,,31,44,255,38*72
$GPGSV,3,2,09,12,27,062,46,05,17,112,41,30,17,226,,02,00,139,*7F
$GPGSV,3,3,09,18,00,001,*48
$GPRMC,151011.702,V,,,,,,,090511,,,N*41
$GPGGA,151012.702,,,,,0,00,,,M,0.0,M,,0000*55
$GPGSA,M,1,,,,,,,,,,,,,,,*12
$GPRMC,151012.702,V,,,,,,,090511,,,N*42
$GPGGA,151013.703,,,,,0,00,,,M,0.0,M,,0000*55
$GPGSA,M,1,,,,,,,,,,,,,,,*12
$GPRMC,151013.703,V,,,,,,,090511,,,N*42
$GPGGA,151014.703,,,,,0,00,,,M,0.0,M,,0000*52
$GPGSA,M,1,,,,,,,,,,,,,,,*12
$GPRMC,151014.703,V,,,,,,,090511,,,N*45
$GPGGA,151015.702,,,,,0,00,,,M,0.0,M,,0000*52
$GPGSA,M,1,,,,,,,,,,,,,,,*12
$GPRMC,151015.702,V,,,,,,,090511,,,N*45
$GPGGA,151016.702,,,,,0,00,,,M,0.0,M,,0000*51
$GPGSA,M,1,,,,,,,,,,,,,,,*12
$GPGSV,3,1,09,25,66,083,48,29,59,162,45,21,51,336,32,31,44,255,43*76
$GPGSV,3,2,09,12,27,062,45,05,17,112,41,30,17,226,32,02,00,139,*7D
$GPGSV,3,3,09,18,00,001,*48
$GPRMC,151016.702,V,,,,,,,090511,,,N*46
$GPGGA,151017.702,,,,,0,00,,,M,0.0,M,,0000*50
$GPGSA,M,1,,,,,,,,,,,,,,,*12
$GPRMC,151017.702,V,,,,,,,090511,,,N*47
$GPGGA,151018.702,,,,,0,00,,,M,0.0,M,,0000*5F
$GPGSA,M,1,,,,,,,,,,,,,,,*12
$GPRMC,151018.702,V,,,,,,,090511,,,N*48
$GPGGA,151019.702,,,,,0,00,,,M,0.0,M,,0000*5E
$GPGSA,M,1,,,,,,,,,,,,,,,*12
$GPRMC,151019.702,V,,,,,,,090511,,,N*49
$GPGGA,151020.702,,,,,0,00,,,M,0.0,M,,0000*54
$GPGSA,M,1,,,,,,,,,,,,,,,*12
$GPRMC,151020.702,V,,,,,,,090511,,,N*43
$GPGGA,151021.702,,,,,0,00,,,M,0.0,M,,0000*55
$GPGSA,M,1,,,,,,,,,,,,,,,*12
$GPGSV,3,1,09,25,66,083,42,29,59,162,42,21,51,336,34,31,44,255,41*7F
$GPGSV,3,2,09,12,27,062,38,05,17,112,37,30,17,226,32,02,00,139,*76
$GPGSV,3,3,09,18,00,001,*48
$GPRMC,151021.702,V,,,,,,,090511,,,N*42
$GPGGA,151022.703,,,,,0,00,,,M,0.0,M,,0000*57
$GPGSA,M,1,,,,,,,,,,,,,,,*12
$GPRMC,151022.703,V,,,,,,,090511,,,N*40
$GPGGA,151023.702,,,,,0,00,,,M,0.0,M,,0000*57
$GPGSA,M,1,,,,,,,,,,,,,,,*12
$GPRMC,151023.702,V,,,,,,,090511,,,N*40
$GPGGA,151024.702,,,,,0,00,,,M,0.0,M,,0000*50
$GPGSA,M,1,,,,,,,,,,,,,,,*12
$GPRMC,151024.702,V,,,,,,,090511,,,N*47
$GPGGA,151025.702,,,,,0,00,,,M,0.0,M,,0000*51
$GPGSA,M,1,,,,,,,,,,,,,,,*12
$GPRMC,151025.702,V,,,,,,,090511,,,N*46
$GPGGA,151026.702,,,,,0,00,,,M,0.0,M,,0000*52
$GPGSA,M,1,,,,,,,,,,,,,,,*12
$GPGSV,3,1,09,25,66,083,41,29,59,162,43,21,51,336,36,31,44,255,43*7D
$GPGSV,3,2,09,12,27,062,35,05,17,112,38,30,17,226,32,02,00,139,*74
$GPGSV,3,3,09,18,00,001,*48
$GPRMC,151026.702,V,,,,,,,090511,,,N*45
$GPGGA,151027.702,,,,,0,00,,,M,0.0,M,,0000*53
$GPGSA,M,1,,,,,,,,,,,,,,,*12
$GPRMC,151027.702,V,,,,,,,090511,,,N*44
$GPGGA,151028.702,,,,,0,00,,,M,0.0,M,,0000*5C
$GPGSA,M,1,,,,,,,,,,,,,,,*12
$GPRMC,151028.702,V,,,,,,,090511,,,N*4B
$GPGGA,151029.703,,,,,0,00,,,M,0.0,M,,0000*5C
$GPGSA,M,1,,,,,,,,,,,,,,,*12
$GPRMC,151029.703,V,,,,,,,090511,,,N*4B
$GPGGA,151030.703,,,,,0,00,,,M,0.0,M,,0000*54
$GPGSA,M,1,,,,,,,,,,,,,,,*12
$GPRMC,151030.703,V,,,,,,,090511,,,N*43
$GPGGA,151031.702,,,,,0,00,,,M,0.0,M,,0000*54
$GPGSA,M,1,,,,,,,,,,,,,,,*12
$GPGSV,3,1,09,25,66,083,46,29,59,162,48,21,51,336,46,31,44,255,46*73
$GPGSV,3,2,09,12,27,062,40,05,17,112,44,30,17,226,32,02,00,139,*7D
$GPGSV,3,3,09,18,00,001,*48
$GPRMC,151031.702,V,,,,,,,090511,,,N*43
$GPGGA,151032.702,,,,,0,00,,,M,0.0,M,,0000*57
$GPGSA,M,1,,,,,,,,,,,,,,,*12
$GPRMC,151032.702,V,,,,,,,090511,,,N*40
$GPGGA,151033.703,,,,,0,00,,,M,0.0,M,,0000*57
$GPGSA,M,1,,,,,,,,,,,,,,,*12
$GPRMC,151033.703,V,,,,,,,090511,,,N*40
$GPGGA,151034.702,,,,,0,00,,,M,0.0,M,,0000*51
$GPGSA,M,1,,,,,,,,,,,,,,,*12
$GPRMC,151034.702,V,,,,,,,090511,,,N*46
$GPGGA,151035.702,,,,,0,00,,,M,0.0,M,,0000*50
$GPGSA,M,1,,,,,,,,,,,,,,,*12
$GPRMC,151035.702,V,,,,,,,090511,,,N*47
$GPGGA,151036.702,,,,,0,00,,,M,0.0,M,,0000*53
$GPGSA,M,1,,,,,,,,,,,,,,,*12
$GPGSV,3,1,09,29,59,162,47,31,44,255,42,05,17,113,44,25,66,082,46*7A
$GPGSV,3,2,09,21,51,336,31,12,27,062,41,30,17,226,30,18,00,001,*7D
$GPGSV,3,3,09,02,00,139,*49
$GPRMC,151036.702,V,,,,,,,090511,,,N*44
$GPGGA,151037.702,,,,,0,00,,,M,0.0,M,,0000*52
$GPGSA,M,1,,,,,,,,,,,,,,,*12
$GPRMC,151037.702,V,,,,,,,090511,,,N*45
$GPGGA,151038.702,,,,,0,00,,,M,0.0,M,,0000*5D
$GPGSA,M,1,,,,,,,,,,,,,,,*12
$GPRMC,151038.702,V,,,,,,,090511,,,N*4A
$GPGGA,151039.702,,,,,0,00,,,M,0.0,M,,0000*5C
$GPGSA,M,1,,,,,,,,,,,,,,,*12
$GPRMC,151039.702,V,,,,,,,090511,,,N*4B
$GPGGA,151040.702,,,,,0,00,,,M,0.0,M,,0000*52
$GPGSA,M,1,,,,,,,,,,,,,,,*12
$GPRMC,151040.702,V,,,,,,,090511,,,N*45
$GPGGA,151041.703,,,,,0,00,,,M,0.0,M,,0000*52
$GPGSA,M,1,,,,,,,,,,,,,,,*12
$GPGSV,3,1,09,29,59,162,47,31,44,255,37,05,17,113,44,25,66,082,47*79
$GPGSV,3,2,09,21,52,336,38,12,27,062,42,30,17,226,26,18,00,001,*73
$GPGSV,3,3,09,02,00,139,*49
$GPRMC,151041.703,V,,,,,,,090511,,,N*45
$GPGGA,151042.703,,,,,0,00,,,M,0.0,M,,0000*51
$GPGSA,M,1,,,,,,,,,,,,,,,*12
$GPRMC,151042.703,V,,,,,,,090511,,,N*46
$GPGGA,151043.702,,,,,0,00,,,M,0.0,M,,0000*51
$GPGSA,M,1,,,,,,,,,,,,,,,*12
$GPRMC,151043.702,V,,,,,,,090511,,,N*46
$GPGGA,151044.702,,,,,0,00,,,M,0.0,M,,0000*56
$GPGSA,M,1,,,,,,,,,,,,,,,*12
$GPRMC,151044.702,V,,,,,,,090511,,,N*41
$GPGGA,151045.702,,,,,0,00,,,M,0.0,M,,0000*57
$GPGSA,M,1,,,,,,,,,,,,,,,*12
$GPRMC,151045.702,V,,,,,,,090511,,,N*40
$GPGGA,151046.703,,,,,0,00,,,M,0.0,M,,0000*55
$GPGSA,M,1,,,,,,,,,,,,,,,*12
$GPGSV,3,1,09,29,59,162,48,31,44,255,40,05,17,113,44,25,66,082,47*76
$GPGSV,3,2,09,21,52,336,38,12,27,062,42,30,17,226,33,18,00,001,*77
$GPGSV,3,3,09,02,00,139,*49
$GPRMC,151046.703,V,,,,,,,090511,,,N*42
$GPGGA,151047.702,,,,,0,00,,,M,0.0,M,,0000*55
$GPGSA,M,1,,,,,,,,,,,,,,,*12
$GPRMC,151047.702,V,,,,,,,090511,,,N*42
$GPGGA,151048.702,,,,,0,00,,,M,0.0,M,,0000*5A
$GPGSA,M,1,,,,,,,,,,,,,,,*12
$GPRMC,151048.702,V,,,,,,,090511,,,N*4D
$GPGGA,151049.702,,,,,0,00,,,M,0.0,M,,0000*5B
$GPGSA,M,1,,,,,,,,,,,,,,,*12
$GPRMC,151049.702,V,,,,,,,090511,,,N*4C
$GPGGA,151050.702,,,,,0,00,,,M,0.0,M,,0000*53
$GPGSA,M,1,,,,,,,,,,,,,,,*12
$GPRMC,151050.702,V,,,,,,,090511,,,N*44
$GPGGA,151051.702,,,,,0,00,,,M,0.0,M,,0000*52
$GPGSA,M,1,,,,,,,,,,,,,,,*12
$GPGSV,3,1,09,29,59,161,30,31,44,255,26,05,17,113,26,25,66,082,25*7A
$GPGSV,3,2,09,21,52,336,19,12,27,062,26,30,17,226,21,18,00,001,*75
$GPGSV,3,3,09,02,00,139,*49
$GPRMC,151051.702,V,,,,,,,090511,,,N*45
$GPGGA,151052.702,,,,,0,00,,,M,0.0,M,,0000*51
$GPGSA,M,1,,,,,,,,,,,,,,,*12
$GPRMC,151052.702,V,,,,,,,090511,,,N*46
$GPGGA,151053.703,,,,,0,00,,,M,0.0,M,,0000*51
$GPGSA,M,1,,,,,,,,,,,,,,,*12
$GPRMC,151053.703,V,,,,,,,090511,,,N*46
$GPGGA,151054.702,,,,,0,00,,,M,0.0,M,,0000*57
$GPGSA,M,1,,,,,,,,,,,,,,,*12
$GPRMC,151054.702,V,,,,,,,090511,,,N*40
$GPGGA,151055.702,,,,,0,00,,,M,0.0,M,,0000*56
$GPGSA,M,1,,,,,,,,,,,,,,,*12
$GPRMC,151055.702,V,,,,,,,090511,,,N*41
$GPGGA,151056.702,,,,,0,00,,,M,0.0,M,,0000*55
$GPGSA,M,1,,,,,,,,,,,,,,,*12
$GPGSV,3,1,09,29,59,161,47,31,44,255,32,05,17,113,42,25,66,082,44*7A
$GPGSV,3,2,09,21,52,336,31,12,27,062,39,30,17,226,37,18,00,001,*76
$GPGSV,3,3,09,02,00,139,*49
$GPRMC,151056.702,V,,,,,,,090511,,,N*42
$GPGGA,151057.702,,,,,0,00,,,M,0.0,M,,0000*54
$GPGSA,M,1,,,,,,,,,,,,,,,*12
$GPRMC,151057.702,V,,,,,,,090511,,,N*43
$GPGGA,151058.703,3254.3645,S,06849.1292,W,1,04,3.2,754.4,M,29.6,M,,0000*5A
$GPGSA,M,3,29,31,05,30,,,,,,,,,3.9,3.2,2.2*3A
$GPRMC,151058.703,A,3254.3645,S,06849.1292,W,0.50,2.56,090511,,,A*6A
$GPGGA,151059.702,3254.3640,S,06849.1292,W,1,04,3.2,753.8,M,29.6,M,,0000*54
$GPGSA,M,3,29,31,05,30,,,,,,,,,3.9,3.2,2.2*3A
$GPRMC,151059.702,A,3254.3640,S,06849.1292,W,0.42,6.13,090511,,,A*69
$GPGGA,151100.000,3254.3640,S,06849.1292,W,1,04,3.2,753.8,M,29.6,M,,0000*5C
$GPGSA,M,3,29,31,05,30,,,,,,,,,3.9,3.2,2.2*3A
$GPRMC,151100.000,A,3254.3640,S,06849.1292,W,0.35,8.42,090511,,,A*6B
$GPGGA,151101.000,3254.3638,S,06849.1292,W,1,04,3.2,753.5,M,29.6,M,,0000*5F
$GPGSA,M,3,29,31,05,30,,,,,,,,,3.9,3.2,2.2*3A
$GPRMC,151101.000,A,3254.3638,S,06849.1292,W,0.37,6.12,090511,,,A*6C
$GPGGA,151102.000,3254.3635,S,06849.1293,W,1,04,3.2,753.1,M,29.6,M,,0000*54
$GPGSA,M,3,29,31,05,30,,,,,,,,,3.9,3.2,2.2*3A
$GPGSV,3,1,09,29,58,161,46,31,44,255,34,05,17,113,32,30,17,226,37*71
$GPGSV,3,2,09,25,66,082,44,21,52,336,37,12,27,062,40,18,00,001,*74
$GPGSV,3,3,09,02,00,139,*49
$GPRMC,151102.000,A,3254.3635,S,06849.1293,W,0.35,6.50,090511,,,A*67
$GPGGA,151103.000,3254.3632,S,06849.1294,W,1,04,3.2,752.9,M,29.6,M,,0000*5C
$GPGSA,M,3,29,31,05,30,,,,,,,,,3.9,3.2,2.2*3A
$GPRMC,151103.000,A,3254.3632,S,06849.1294,W,0.35,3.42,090511,,,A*60
$GPGGA,151104.000,3254.3689,S,06849.1309,W,1,05,1.6,755.3,M,29.6,M,,0000*54
$GPGSA,M,3,29,31,05,12,30,,,,,,,,2.6,1.6,2.1*32
$GPRMC,151104.000,A,3254.3689,S,06849.1309,W,0.08,40.44,090511,,,A*5D
$GPGGA,151105.000,3254.3691,S,06849.1320,W,1,05,1.6,756.2,M,29.6,M,,0000*55
$GPGSA,M,3,29,31,05,12,30,,,,,,,,2.6,1.6,2.1*32
$GPRMC,151105.000,A,3254.3691,S,06849.1320,W,0.13,357.22,090511,,,A*61
$GPGGA,151106.000,3254.3695,S,06849.1320,W,1,05,1.6,756.2,M,29.6,M,,0000*52
$GPGSA,M,3,29,31,05,12,30,,,,,,,,2.6,1.6,2.1*32
$GPRMC,151106.000,A,3254.3695,S,06849.1320,W,0.12,8.68,090511,,,A*60
$GPGGA,151107.000,3254.3697,S,06849.1320,W,1,05,1.6,756.2,M,29.6,M,,0000*51
$GPGSA,M,3,29,31,05,12,30,,,,,,,,2.6,1.6,2.1*32
$GPGSV,3,1,09,25,66,082,44,29,58,161,46,21,52,336,38,31,44,256,38*7C
$GPGSV,3,2,09,12,27,062,40,05,17,113,37,30,17,226,36,18,00,001,*7D
$GPGSV,3,3,09,02,00,139,*49
$GPRMC,151107.000,A,3254.3697,S,06849.1320,W,0.06,29.59,090511,,,A*57
$GPGGA,151108.000,3254.3699,S,06849.1319,W,1,05,1.6,756.2,M,29.6,M,,0000*5A
$GPGSA,M,3,29,31,05,12,30,,,,,,,,2.6,1.6,2.1*32
$GPRMC,151108.000,A,3254.3699,S,06849.1319,W,0.15,20.83,090511,,,A*50
$GPGGA,151109.000,3254.3700,S,06849.1318,W,1,05,1.6,756.2,M,29.6,M,,0000*5B
$GPGSA,M,3,29,31,05,12,30,,,,,,,,2.6,1.6,2.1*32
$GPRMC,151109.000,A,3254.3700,S,06849.1318,W,0.07,25.32,090511,,,A*5D
$GPGGA,151110.000,3254.3702,S,06849.1318,W,1,05,1.6,756.2,M,29.6,M,,0000*51
$GPGSA,M,3,29,31,05,12,30,,,,,,,,2.6,1.6,2.1*32
$GPRMC,151110.000,A,3254.3702,S,06849.1318,W,0.08,20.52,090511,,,A*5B
$GPGGA,151111.000,3254.3703,S,06849.1317,W,1,05,1.6,756.2,M,29.6,M,,0000*5E
$GPGSA,M,3,29,31,05,12,30,,,,,,,,2.6,1.6,2.1*32
$GPRMC,151111.000,A,3254.3703,S,06849.1317,W,0.10,25.46,090511,,,A*5D
$GPGGA,151112.000,3254.3704,S,06849.1316,W,1,05,1.6,756.3,M,29.6,M,,0000*5A
$GPGSA,M,3,29,31,05,12,30,,,,,,,,2.6,1.6,2.1*32
$GPGSV,3,1,09,25,66,082,45,29,58,161,47,21,52,336,30,31,44,256,39*75
$GPGSV,3,2,09,12,26,062,41,05,17,113,39,30,17,226,38,18,00,001,*7D
$GPGSV,3,3,09,02,00,139,*49
$GPRMC,151112.000,A,3254.3704,S,06849.1316,W,0.07,357.40,090511,,,A*6E
$GPGGA,151113.000,3254.3705,S,06849.1315,W,1,05,1.6,756.3,M,29.6,M,,0000*59
$GPGSA,M,3,29,31,05,12,30,,,,,,,,2.6,1.6,2.1*32
$GPRMC,151113.000,A,3254.3705,S,06849.1315,W,0.12,13.03,090511,,,A*5D
$GPGGA,151114.000,3254.3705,S,06849.1315,W,1,05,1.6,756.3,M,29.6,M,,0000*5E
$GPGSA,M,3,29,31,05,12,30,,,,,,,,2.6,1.6,2.1*32
$GPRMC,151114.000,A,3254.3705,S,06849.1315,W,0.10,37.88,090511,,,A*5D
$GPGGA,151115.000,3254.3706,S,06849.1314,W,1,05,1.6,756.3,M,29.6,M,,0000*5D
$GPGSA,M,3,29,31,05,12,30,,,,,,,,2.6,1.6,2.1*32
$GPRMC,151115.000,A,3254.3706,S,06849.1314,W,0.04,35.33,090511,,,A*59
$GPGGA,151116.165,3254.3705,S,06849.1313,W,1,05,1.6,756.3,M,29.6,M,,0000*58
$GPGSA,M,3,29,31,12,05,30,,,,,,,,2.6,1.6,2.1*32
$GPRMC,151116.165,A,3254.3705,S,06849.1313,W,1.18,0.81,090511,,,A*6F
$GPGGA,151117.002,3254.3702,S,06849.1313,W,1,05,1.6,756.0,M,29.6,M,,0000*5D
$GPGSA,M,3,29,31,12,05,30,,,,,,,,2.6,1.6,2.1*32
$GPGSV,3,1,09,25,66,082,39,29,58,161,39,21,52,336,38,31,44,256,39*7F
$GPGSV,3,2,09,12,26,062,36,05,17,113,39,30,17,226,36,18,00,001,*73
$GPGSV,3,3,09,02,00,139,*49
$GPRMC,151117.002,A,3254.3702,S,06849.1313,W,0.62,16.19,090511,,,A*53
$GPGGA,151118.015,3254.3701,S,06849.1313,W,1,05,1.6,754.8,M,29.6,M,,0000*5D
$GPGSA,M,3,29,31,12,05,30,,,,,,,,2.6,1.6,2.1*32
$GPRMC,151118.015,A,3254.3701,S,06849.1313,W,0.11,81.01,090511,,,A*5A
$GPGGA,151118.986,3254.3700,S,06849.1315,W,1,05,1.6,754.1,M,29.6,M,,0000*50
$GPGSA,M,3,29,31,12,05,30,,,,,,,,2.6,1.6,2.1*32
$GPRMC,151118.986,A,3254.3700,S,06849.1315,W,0.44,328.16,090511,,,A*68
$GPGGA,151120.000,3254.3700,S,06849.1315,W,1,05,1.6,753.3,M,29.6,M,,0000*59
$GPGSA,M,3,29,31,12,05,30,,,,,,,,2.6,1.6,2.1*32
$GPRMC,151120.000,A,3254.3700,S,06849.1315,W,0.21,149.64,090511,,,A*67
$GPGGA,151121.001,3254.3698,S,06849.1315,W,1,05,1.6,752.9,M,29.6,M,,0000*52
$GPGSA,M,3,29,31,12,05,30,,,,,,,,2.6,1.6,2.1*32
$GPRMC,151121.001,A,3254.3698,S,06849.1315,W,0.36,353.27,090511,,,A*6F
$GPGGA,151121.999,3254.3695,S,06849.1316,W,1,05,1.6,752.0,M,29.6,M,,0000*5D
$GPGSA,M,3,29,31,12,05,30,,,,,,,,2.6,1.6,2.1*32
$GPGSV,3,1,09,25,66,082,39,29,58,161,39,21,52,336,39,31,44,256,39*7E
$GPGSV,3,2,09,12,26,062,36,05,17,113,38,30,17,226,35,18,00,001,*71
$GPGSV,3,3,09,02,00,139,*49
$GPRMC,151121.999,A,3254.3695,S,06849.1316,W,0.42,135.53,090511,,,A*6B
$GPGGA,151123.003,3254.3696,S,06849.1316,W,1,05,1.6,752.0,M,29.6,M,,0000*56
$GPGSA,M,3,29,31,12,05,30,,,,,,,,2.6,1.6,2.1*32
$GPRMC,151123.003,A,3254.3696,S,06849.1316,W,0.38,184.75,090511,,,A*63
$GPGGA,151123.997,3254.3694,S,06849.1319,W,1,05,1.6,751.6,M,29.6,M,,0000*5A
$GPGSA,M,3,29,31,12,05,30,,,,,,,,2.6,1.6,2.1*32
$GPRMC,151123.997,A,3254.3694,S,06849.1319,W,1.16,323.76,090511,,,A*6B
$GPGGA,151125.000,3254.3693,S,06849.1319,W,1,05,1.6,751.7,M,29.6,M,,0000*5D
$GPGSA,M,3,29,31,12,05,30,,,,,,,,2.6,1.6,2.1*32
$GPRMC,151125.000,A,3254.3693,S,06849.1319,W,0.82,4.18,090511,,,A*6F
$GPGGA,151126.000,3254.3692,S,06849.1320,W,1,05,1.6,751.1,M,29.6,M,,0000*53
$GPGSA,M,3,29,31,12,05,30,,,,,,,,2.6,1.6,2.1*32
$GPRMC,151126.000,A,3254.3692,S,06849.1320,W,0.08,288.25,090511,,,A*6D
$GPGGA,151127.000,3254.3692,S,06849.1321,W,1,05,1.6,749.9,M,29.6,M,,0000*52
$GPGSA,M,3,29,31,12,05,30,,,,,,,,2.6,1.6,2.1*32
$GPGSV,3,1,09,25,66,082,40,29,58,161,39,21,52,336,38,31,44,256,39*71
$GPGSV,3,2,09,12,26,062,36,05,17,113,39,30,17,226,34,18,00,001,*71
$GPGSV,3,3,09,02,00,139,*49
$GPRMC,151127.000,A,3254.3692,S,06849.1321,W,0.29,333.17,090511,,,A*6E
$GPGGA,151128.000,3254.3694,S,06849.1320,W,1,05,1.6,749.6,M,29.6,M,,0000*55
$GPGSA,M,3,29,31,12,05,30,,,,,,,,2.6,1.6,2.1*32
$GPRMC,151128.000,A,3254.3694,S,06849.1320,W,0.63,140.05,090511,,,A*6D
$GPGGA,151129.000,3254.3696,S,06849.1319,W,1,05,1.6,749.9,M,29.6,M,,0000*53
$GPGSA,M,3,29,31,12,05,30,,,,,,,,2.6,1.6,2.1*32
$GPRMC,151129.000,A,3254.3696,S,06849.1319,W,0.28,337.17,090511,,,A*6A
$GPGGA,151130.003,3254.3693,S,06849.1320,W,1,05,1.6,749.8,M,29.6,M,,0000*56
$GPGSA,M,3,29,31,12,05,30,,,,,,,,2.6,1.6,2.1*32
$GPRMC,151130.003,A,3254.3693,S,06849.1320,W,0.61,335.78,090511,,,A*68
$GPGGA,151130.997,3254.3696,S,06849.1318,W,1,05,1.6,751.8,M,29.6,M,,0000*55
$GPGSA,M,3,29,31,12,05,30,,,,,,,,2.6,1.6,2.1*32
$GPRMC,151130.997,A,3254.3696,S,06849.1318,W,0.50,328.16,090511,,,A*64
$GPGGA,151132.000,3254.3695,S,06849.1318,W,1,05,1.6,751.0,M,29.6,M,,0000*5B
$GPGSA,M,3,29,31,12,05,30,,,,,,,,2.6,1.6,2.1*32
$GPGSV,3,1,09,25,66,082,39,29,58,161,40,21,52,336,39,31,44,256,38*71
$GPGSV,3,2,09,12,26,062,36,05,17,113,39,30,17,226,35,18,00,001,*70
$GPGSV,3,3,09,02,00,139,*49
$GPRMC,151132.000,A,3254.3695,S,06849.1318,W,0.44,336.80,090511,,,A*67
$GPGGA,151133.000,3254.3693,S,06849.1319,W,1,05,1.6,750.4,M,29.6,M,,0000*58
$GPGSA,M,3,29,31,12,05,30,,,,,,,,2.6,1.6,2.1*32
$GPRMC,151133.000,A,3254.3693,S,06849.1319,W,0.50,358.35,090511,,,A*62
$GPGGA,151134.000,3254.3691,S,06849.1319,W,1,05,1.6,749.5,M,29.6,M,,0000*54
$GPGSA,M,3,29,31,12,05,30,,,,,,,,2.6,1.6,2.1*32
$GPRMC,151134.000,A,3254.3691,S,06849.1319,W,0.67,350.59,090511,,,A*61
$GPGGA,151135.000,3254.3690,S,06849.1319,W,1,05,1.6,749.5,M,29.6,M,,0000*54
$GPGSA,M,3,29,31,12,05,30,,,,,,,,2.6,1.6,2.1*32
$GPRMC,151135.000,A,3254.3690,S,06849.1319,W,0.91,11.89,090511,,,A*53
$GPGGA,151136.000,3254.3688,S,06849.1318,W,1,05,1.6,748.7,M,29.6,M,,0000*5C
$GPGSA,M,3,29,31,12,05,30,,,,,,,,2.6,1.6,2.1*32
$GPRMC,151136.000,A,3254.3688,S,06849.1318,W,0.49,359.76,090511,,,A*62
$GPGGA,151137.000,3254.3686,S,06849.1317,W,1,05,1.6,747.7,M,29.6,M,,0000*53
$GPGSA,M,3,29,31,12,05,30,,,,,,,,2.6,1.6,2.1*32
$GPGSV,3,1,09,25,66,082,39,29,58,161,39,21,52,336,39,31,44,256,37*70
$GPGSV,3,2,09,12,26,062,35,05,17,113,39,30,17,226,35,18,00,001,*73
$GPGSV,3,3,09,02,00,139,*49
$GPRMC,151137.000,A,3254.3686,S,06849.1317,W,0.51,47.67,090511,,,A*57
$GPGGA,151138.000,3254.3685,S,06849.1317,W,1,05,1.6,747.1,M,29.6,M,,0000*59
$GPGSA,M,3,29,31,12,05,30,,,,,,,,2.6,1.6,2.1*32
$GPRMC,151138.000,A,3254.3685,S,06849.1317,W,0.33,349.14,090511,,,A*66
$GPGGA,151139.000,3254.3683,S,06849.1316,W,1,05,1.6,746.3,M,29.6,M,,0000*5C
$GPGSA,M,3,29,31,12,05,30,,,,,,,,2.6,1.6,2.1*32
$GPRMC,151139.000,A,3254.3683,S,06849.1316,W,0.20,18.08,090511,,,A*58
$GPGGA,151140.000,3254.3682,S,06849.1315,W,1,05,1.6,746.0,M,29.6,M,,0000*53
$GPGSA,M,3,29,31,12,05,30,,,,,,,,2.6,1.6,2.1*32
$GPRMC,151140.000,A,3254.3682,S,06849.1315,W,0.67,2.13,090511,,,A*66
$GPGGA,151141.000,3254.3681,S,06849.1315,W,1,05,1.6,745.2,M,29.6,M,,0000*50
$GPGSA,M,3,29,31,12,05,30,,,,,,,,2.6,1.6,2.1*32
$GPRMC,151141.000,A,3254.3681,S,06849.1315,W,0.34,313.22,090511,,,A*63
$GPGGA,151142.000,3254.3680,S,06849.1317,W,1,05,1.6,743.9,M,29.6,M,,0000*5D
$GPGSA,M,3,29,31,12,05,30,,,,,,,,2.6,1.6,2.1*32
$GPGSV,3,1,09,25,66,082,39,29,58,161,40,21,52,336,39,31,44,256,37*7E
$GPGSV,3,2,09,12,26,062,35,05,17,113,38,30,17,226,35,18,00,001,*72
$GPGSV,3,3,09,02,00,139,*49
$GPRMC,151142.000,A,3254.3680,S,06849.1317,W,0.50,320.73,090511,,,A*65
$GPGGA,151143.000,3254.3681,S,06849.1317,W,1,05,1.6,743.5,M,29.6,M,,0000*51
$GPGSA,M,3,29,31,12,05,30,,,,,,,,2.6,1.6,2.1*32
$GPRMC,151143.000,A,3254.3681,S,06849.1317,W,0.51,318.86,090511,,,A*65
$GPGGA,151144.000,3254.3680,S,06849.1319,W,1,05,1.6,742.7,M,29.6,M,,0000*5A
$GPGSA,M,3,29,31,12,05,30,,,,,,,,2.6,1.6,2.1*32
$GPRMC,151144.000,A,3254.3680,S,06849.1319,W,0.69,319.94,090511,,,A*64
$GPGGA,151145.000,3254.3680,S,06849.1319,W,1,05,1.6,741.8,M,29.6,M,,0000*57
$GPGSA,M,3,29,31,12,05,30,,,,,,,,2.6,1.6,2.1*32
$GPRMC,151145.000,A,3254.3680,S,06849.1319,W,0.35,141.48,090511,,,A*62
$GPGGA,151146.001,3254.3676,S,06849.1320,W,1,05,1.6,740.1,M,29.6,M,,0000*5E
$GPGSA,M,3,29,31,12,05,30,,,,,,,,2.6,1.6,2.1*32
$GPRMC,151146.001,A,3254.3676,S,06849.1320,W,0.28,303.47,090511,,,A*64
$GPGGA,151147.000,3254.3673,S,06849.1322,W,1,05,1.6,739.2,M,29.6,M,,0000*54
$GPGSA,M,3,29,31,12,05,30,,,,,,,,2.6,1.6,2.1*32
$GPGSV,3,1,09,25,66,082,39,29,58,161,39,21,52,336,39,31,44,256,39*7E
$GPGSV,3,2,09,12,26,062,35,05,17,113,38,30,17,226,35,18,00,001,*72
$GPGSV,3,3,09,02,00,139,*49
$GPRMC,151147.000,A,3254.3673,S,06849.1322,W,0.32,297.26,090511,,,A*63
$GPGGA,151148.000,3254.3676,S,06849.1322,W,1,05,1.6,738.4,M,29.6,M,,0000*59
$GPGSA,M,3,29,31,12,05,30,,,,,,,,2.6,1.6,2.1*32
$GPRMC,151148.000,A,3254.3676,S,06849.1322,W,0.46,282.41,090511,,,A*6F
$GPGGA,151149.000,3254.3673,S,06849.1324,W,1,05,1.6,737.2,M,29.6,M,,0000*52
$GPGSA,M,3,29,31,12,05,30,,,,,,,,2.6,1.6,2.1*32
$GPRMC,151149.000,A,3254.3673,S,06849.1324,W,0.76,341.73,090511,,,A*61
$GPGGA,151150.000,3254.3673,S,06849.1324,W,1,05,1.6,736.9,M,29.6,M,,0000*50
$GPGSA,M,3,29,31,12,05,30,,,,,,,,2.6,1.6,2.1*32
$GPRMC,151150.000,A,3254.3673,S,06849.1324,W,0.55,321.04,090511,,,A*6E
$GPGGA,151150.999,3254.3668,S,06849.1325,W,1,05,1.6,736.1,M,29.6,M,,0000*5A
$GPGSA,M,3,29,31,12,05,30,,,,,,,,2.6,1.6,2.1*32
$GPRMC,151150.999,A,3254.3668,S,06849.1325,W,0.14,268.15,090511,,,A*65
$GPGGA,151152.000,3254.3663,S,06849.1328,W,1,05,1.6,733.7,M,29.6,M,,0000*54
$GPGSA,M,3,29,31,12,05,30,,,,,,,,2.6,1.6,2.1*32
$GPGSV,3,1,09,25,66,082,39,29,58,161,39,21,52,336,39,31,44,256,38*7F
$GPGSV,3,2,09,12,26,062,38,05,17,113,39,30,17,226,35,18,00,001,*7E
$GPGSV,3,3,09,02,00,139,*49
$GPRMC,151152.000,A,3254.3663,S,06849.1328,W,0.35,305.09,090511,,,A*6C
$GPGGA,151153.000,3254.3662,S,06849.1329,W,1,05,1.6,732.4,M,29.6,M,,0000*57
$GPGSA,M,3,29,31,12,05,30,,,,,,,,2.6,1.6,2.1*32
$GPRMC,151153.000,A,3254.3662,S,06849.1329,W,0.16,314.97,090511,,,A*6B
$GPGGA,151154.000,3254.3662,S,06849.1329,W,1,05,1.6,731.7,M,29.6,M,,0000*50
$GPGSA,M,3,29,31,12,05,30,,,,,,,,2.6,1.6,2.1*32
$GPRMC,151154.000,A,3254.3662,S,06849.1329,W,0.62,339.74,090511,,,A*6D
$GPGGA,151155.000,3254.3662,S,06849.1328,W,1,05,1.6,731.1,M,29.6,M,,0000*56
$GPGSA,M,3,29,31,12,05,30,,,,,,,,2.6,1.6,2.1*32
$GPRMC,151155.000,A,3254.3662,S,06849.1328,W,0.29,266.85,090511,,,A*67
$GPGGA,151156.000,3254.3662,S,06849.1329,W,1,05,1.6,730.9,M,29.6,M,,0000*5D
$GPGSA,M,3,29,31,12,05,30,,,,,,,,2.6,1.6,2.1*32
$GPRMC,151156.000,A,3254.3662,S,06849.1329,W,0.45,7.96,090511,,,A*68
$GPGGA,151157.001,3254.3660,S,06849.1329,W,1,05,1.6,730.5,M,29.6,M,,0000*53
$GPGSA,M,3,29,31,12,05,30,,,,,,,,2.6,1.6,2.1*32
$GPGSV,3,1,09,25,66,082,40,29,58,161,39,21,52,336,39,31,44,256,39*70
$GPGSV,3,2,09,12,26,062,35,05,17,113,39,30,17,226,35,18,00,001,*73
$GPGSV,3,3,09,02,00,139,*49
$GPRMC,151157.001,A,3254.3660,S,06849.1329,W,0.18,313.50,090511,,,A*6E
$GPGGA,151158.000,3254.3655,S,06849.1328,W,1,05,1.6,730.7,M,29.6,M,,0000*58
$GPGSA,M,3,29,31,12,05,30,,,,,,,,2.6,1.6,2.1*32
$GPRMC,151158.000,A,3254.3655,S,06849.1328,W,0.26,345.07,090511,,,A*6B
$GPGGA,151159.000,3254.3654,S,06849.1329,W,1,05,1.6,730.3,M,29.6,M,,0000*5D
$GPGSA,M,3,29,31,12,05,30,,,,,,,,2.6,1.6,2.1*32
$GPRMC,151159.000,A,3254.3654,S,06849.1329,W,1.11,344.20,090511,,,A*6B
$GPGGA,151200.000,3254.3652,S,06849.1329,W,1,05,1.6,730.0,M,29.6,M,,0000*57
$GPGSA,M,3,29,31,12,05,30,,,,,,,,2.6,1.6,2.1*32
$GPRMC,151200.000,A,3254.3652,S,06849.1329,W,0.34,298.60,090511,,,A*60
$GPGGA,151201.000,3254.3652,S,06849.1327,W,1,05,1.6,732.3,M,29.6,M,,0000*59
$GPGSA,M,3,29,31,12,05,30,,,,,,,,2.6,1.6,2.1*32
$GPRMC,151201.000,A,3254.3652,S,06849.1327,W,0.30,248.92,090511,,,A*6B
$GPGGA,151202.000,3254.3653,S,06849.1329,W,1,05,1.6,731.3,M,29.6,M,,0000*56
$GPGSA,M,3,29,31,12,05,30,,,,,,,,2.6,1.6,2.1*32
$GPGSV,3,1,09,25,66,082,39,29,58,161,39,21,52,336,39,31,44,256,39*7E
$GPGSV,3,2,09,12,26,062,36,05,17,113,39,30,17,226,35,18,00,001,*70
$GPGSV,3,3,09,02,00,139,*49
$GPRMC,151202.000,A,3254.3653,S,06849.1329,W,0.30,17.36,090511,,,A*51
$GPGGA,151203.001,3254.3651,S,06849.1328,W,1,05,1.6,731.4,M,29.6,M,,0000*52
$GPGSA,M,3,29,31,12,05,30,,,,,,,,2.6,1.6,2.1*32
$GPRMC,151203.001,A,3254.3651,S,06849.1328,W,0.70,5.69,090511,,,A*6F
$GPGGA,151204.002,3254.3650,S,06849.1328,W,1,05,1.6,730.7,M,29.6,M,,0000*55
$GPGSA,M,3,29,31,12,05,30,,,,,,,,2.6,1.6,2.1*32
$GPRMC,151204.002,A,3254.3650,S,06849.1328,W,0.48,352.41,090511,,,A*6A
$GPGGA,151204.997,3254.3649,S,06849.1329,W,1,04,3.2,730.4,M,29.6,M,,0000*5D
$GPGSA,M,3,29,31,05,30,,,,,,,,,3.9,3.2,2.2*3A
$GPRMC,151204.997,A,3254.3649,S,06849.1329,W,0.81,333.22,090511,,,A*61
$GPGGA,151206.001,3254.3649,S,06849.1331,W,1,05,1.6,729.0,M,29.6,M,,0000*5B
$GPGSA,M,3,29,31,12,05,30,,,,,,,,2.6,1.6,2.1*32
$GPRMC,151206.001,A,3254.3649,S,06849.1331,W,0.42,231.64,090511,,,A*62
$GPGGA,151207.001,3254.3644,S,06849.1333,W,1,05,1.6,728.0,M,29.6,M,,0000*54
$GPGSA,M,3,29,31,12,05,30,,,,,,,,2.6,1.6,2.1*32
$GPGSV,3,1,09,25,66,082,39,29,58,161,39,21,52,336,39,31,44,256,39*7E
$GPGSV,3,2,09,12,26,062,36,05,17,113,39,30,17,226,35,18,00,001,*70
$GPGSV,3,3,09,02,00,139,*49
$GPRMC,151207.001,A,3254.3644,S,06849.1333,W,1.06,357.93,090511,,,A*64
$GPGGA,151208.001,3254.3643,S,06849.1333,W,1,05,1.6,727.6,M,29.6,M,,0000*55
$GPGSA,M,3,29,31,12,05,30,,,,,,,,2.6,1.6,2.1*32
$GPRMC,151208.001,A,3254.3643,S,06849.1333,W,0.18,273.82,090511,,,A*65
$GPGGA,151209.001,3254.3644,S,06849.1333,W,1,05,1.6,728.0,M,29.6,M,,0000*5A
$GPGSA,M,3,29,31,12,05,30,,,,,,,,2.6,1.6,2.1*32
$GPRMC,151209.001,A,3254.3644,S,06849.1333,W,0.68,347.28,090511,,,A*62
$GPGGA,151210.001,3254.3649,S,06849.1332,W,1,05,1.6,728.6,M,29.6,M,,0000*58
$GPGSA,M,3,29,31,12,05,30,,,,,,,,2.6,1.6,2.1*32
$GPRMC,151210.001,A,3254.3649,S,06849.1332,W,0.32,336.00,090511,,,A*65
$GPGGA,151211.001,3254.3651,S,06849.1332,W,1,05,1.6,729.3,M,29.6,M,,0000*54
$GPGSA,M,3,29,31,12,05,30,,,,,,,,2.6,1.6,2.1*32
$GPRMC,151211.001,A,3254.3651,S,06849.1332,W,1.18,353.30,090511,,,A*64
$GPGGA,151212.003,3254.3649,S,06849.1331,W,1,05,1.6,728.6,M,29.6,M,,0000*5B
$GPGSA,M,3,29,31,12,05,30,,,,,,,,2.6,1.6,2.1*32
$GPGSV,3,1,09,25,66,082,40,29,58,161,39,21,52,336,40,31,44,256,39*7E
$GPGSV,3,2,09,12,26,062,35,05,17,113,39,30,17,226,35,18,00,001,24*75
$GPGSV,3,3,09,02,00,139,*49
$GPRMC,151212.003,A,3254.3649,S,06849.1331,W,0.23,337.57,090511,,,A*65
$GPGGA,151212.998,3254.3647,S,06849.1331,W,1,05,1.6,727.1,M,29.6,M,,0000*56
$GPGSA,M,3,29,31,12,05,30,,,,,,,,2.6,1.6,2.1*32
$GPRMC,151212.998,A,3254.3647,S,06849.1331,W,0.17,27.63,090511,,,A*52
$GPGGA,151214.000,3254.3647,S,06849.1330,W,1,05,1.6,727.1,M,29.6,M,,0000*59
$GPGSA,M,3,29,31,12,05,30,,,,,,,,2.6,1.6,2.1*32
$GPRMC,151214.000,A,3254.3647,S,06849.1330,W,0.49,196.26,090511,,,A*6C
$GPGGA,151215.000,3254.3650,S,06849.1328,W,1,05,1.6,727.2,M,29.6,M,,0000*54
$GPGSA,M,3,29,31,12,05,30,,,,,,,,2.6,1.6,2.1*32
$GPRMC,151215.000,A,3254.3650,S,06849.1328,W,0.63,352.63,090511,,,A*61
$GPGGA,151216.000,3254.3648,S,06849.1331,W,1,05,1.6,726.3,M,29.6,M,,0000*56
$GPGSA,M,3,29,31,12,05,30,,,,,,,,2.6,1.6,2.1*32
$GPRMC,151216.000,A,3254.3648,S,06849.1331,W,0.26,1.38,090511,,,A*69
$GPGGA,151217.000,3254.3641,S,06849.1332,W,1,05,1.6,725.3,M,29.6,M,,0000*5E
$GPGSA,M,3,29,31,12,05,30,,,,,,,,2.6,1.6,2.1*32
$GPGSV,3,1,09,25,66,082,40,29,58,161,39,21,52,336,39,31,44,256,39*70
$GPGSV,3,2,09,12,26,062,35,05,17,113,38,30,17,226,35,18,00,001,*72
$GPGSV,3,3,09,02,00,139,*49
$GPRMC,151217.000,A,3254.3641,S,06849.1332,W,0.14,43.12,090511,,,A*5D
$GPGGA,151218.001,3254.3645,S,06849.1329,W,1,05,1.6,726.9,M,29.6,M,,0000*57
$GPGSA,M,3,29,31,12,05,30,,,,,,,,2.6,1.6,2.1*32
$GPRMC,151218.001,A,3254.3645,S,06849.1329,W,0.43,5.04,090511,,,A*6A
$GPGGA,151219.000,3254.3645,S,06849.1327,W,1,05,1.6,727.1,M,29.6,M,,0000*50
$GPGSA,M,3,29,31,12,05,30,,,,,,,,2.6,1.6,2.1*32
$GPRMC,151219.000,A,3254.3645,S,06849.1327,W,0.52,354.36,090511,,,A*62
$GPGGA,151220.001,3254.3645,S,06849.1327,W,1,05,1.6,726.6,M,29.6,M,,0000*5D
$GPGSA,M,3,29,31,12,05,30,,,,,,,,2.6,1.6,2.1*32
$GPRMC,151220.001,A,3254.3645,S,06849.1327,W,0.53,17.76,090511,,,A*58
$GPGGA,151221.000,3254.3646,S,06849.1325,W,1,05,1.6,725.9,M,29.6,M,,0000*50
$GPGSA,M,3,29,31,12,05,30,,,,,,,,2.6,1.6,2.1*32
$GPRMC,151221.000,A,3254.3646,S,06849.1325,W,0.28,120.66,090511,,,A*61
$GPGGA,151222.000,3254.3647,S,06849.1325,W,1,05,1.6,726.3,M,29.6,M,,0000*5B
$GPGSA,M,3,29,31,12,05,30,,,,,,,,2.6,1.6,2.1*32
$GPGSV,3,1,09,25,66,082,39,29,58,161,39,21,52,336,39,31,44,256,39*7E
$GPGSV,3,2,09,12,26,062,31,05,17,113,38,30,17,226,35,18,00,001,*76
$GPGSV,3,3,09,02,00,139,*49
$GPRMC,151222.000,A,3254.3647,S,06849.1325,W,0.38,334.42,090511,,,A*63
$GPGGA,151223.000,3254.3646,S,06849.1322,W,1,05,1.6,726.2,M,29.6,M,,0000*5D
$GPGSA,M,3,29,31,12,05,30,,,,,,,,2.6,1.6,2.1*32
$GPRMC,151223.000,A,3254.3646,S,06849.1322,W,0.50,349.96,090511,,,A*69
$GPGGA,151224.002,3254.3643,S,06849.1323,W,1,04,3.2,725.4,M,29.6,M,,0000*5E
$GPGSA,M,3,29,31,05,30,,,,,,,,,3.9,3.2,2.3*3B
$GPRMC,151224.002,A,3254.3643,S,06849.1323,W,1.31,353.56,090511,,,A*69
$GPGGA,151224.997,3254.3639,S,06849.1322,W,1,05,1.6,726.0,M,29.6,M,,0000*57
$GPGSA,M,3,29,31,12,05,30,,,,,,,,2.6,1.6,2.1*32
$GPRMC,151224.997,A,3254.3639,S,06849.1322,W,1.28,6.17,090511,,,A*6E
$GPGGA,151226.003,3254.3639,S,06849.1319,W,1,04,3.2,726.1,M,29.6,M,,0000*5F
$GPGSA,M,3,29,31,05,30,,,,,,,,,3.9,3.2,2.3*3B
$GPRMC,151226.003,A,3254.3639,S,06849.1319,W,1.71,350.32,090511,,,A*6B
$GPGGA,151226.997,3254.3638,S,06849.1319,W,1,05,1.6,726.5,M,29.6,M,,0000*59
$GPGSA,M,3,29,31,12,05,30,,,,,,,,2.6,1.6,2.1*32
$GPGSV,3,1,09,25,66,082,39,29,58,161,40,21,52,336,39,31,44,256,39*70
$GPGSV,3,2,09,12,26,062,27,05,17,113,38,30,17,226,34,18,00,001,*70
$GPGSV,3,3,09,02,00,139,*49
$GPRMC,151226.997,A,3254.3638,S,06849.1319,W,1.18,10.23,090511,,,A*56
$GPGGA,151228.000,3254.3641,S,06849.1317,W,1,05,1.6,726.8,M,29.6,M,,0000*5D
$GPGSA,M,3,29,31,12,05,30,,,,,,,,2.6,1.6,2.1*32
$GPRMC,151228.000,A,3254.3641,S,06849.1317,W,0.14,308.57,090511,,,A*6B
$GPGGA,151229.000,3254.3637,S,06849.1319,W,1,05,1.6,726.4,M,29.6,M,,0000*5F
$GPGSA,M,3,29,31,12,05,30,,,,,,,,2.6,1.6,2.1*32
$GPRMC,151229.000,A,3254.3637,S,06849.1319,W,0.06,328.96,090511,,,A*69
$GPGGA,151230.000,3254.3640,S,06849.1320,W,1,05,1.6,726.7,M,29.6,M,,0000*5E
$GPGSA,M,3,29,31,12,05,30,,,,,,,,2.6,1.6,2.1*32
$GPRMC,151230.000,A,3254.3640,S,06849.1320,W,0.62,343.06,090511,,,A*6D
$GPGGA,151231.000,3254.3653,S,06849.1319,W,1,05,1.6,727.5,M,29.6,M,,0000*54
$GPGSA,M,3,29,31,12,05,30,,,,,,,,2.6,1.6,2.1*32
$GPRMC,151231.000,A,3254.3653,S,06849.1319,W,0.50,240.56,090511,,,A*62
$GPGGA,151232.000,3254.3645,S,06849.1323,W,1,05,1.6,725.8,M,29.6,M,,0000*56
$GPGSA,M,3,29,31,12,05,30,,,,,,,,2.6,1.6,2.1*32
$GPGSV,3,1,09,25,66,082,39,29,58,161,39,21,52,336,38,31,44,256,38*7E
$GPGSV,3,2,09,12,26,062,36,05,17,113,39,30,17,226,34,18,00,001,*71
$GPGSV,3,3,09,02,00,139,*49
$GPRMC,151232.000,A,3254.3645,S,06849.1323,W,0.73,354.79,090511,,,A*67
$GPGGA,151233.000,3254.3643,S,06849.1323,W,1,05,1.6,725.8,M,29.6,M,,0000*51
$GPGSA,M,3,29,31,12,05,30,,,,,,,,2.6,1.6,2.1*32
$GPRMC,151233.000,A,3254.3643,S,06849.1323,W,0.80,6.86,090511,,,A*68
$GPGGA,151234.001,3254.3655,S,06849.1320,W,1,05,1.6,727.3,M,29.6,M,,0000*5A
$GPGSA,M,3,29,31,12,05,30,,,,,,,,2.6,1.6,2.1*32
$GPRMC,151234.001,A,3254.3655,S,06849.1320,W,0.33,282.23,090511,,,A*63
$GPGGA,151235.000,3254.3653,S,06849.1321,W,1,05,1.6,727.1,M,29.6,M,,0000*5F
$GPGSA,M,3,29,31,12,05,30,,,,,,,,2.6,1.6,2.1*32
$GPRMC,151235.000,A,3254.3653,S,06849.1321,W,0.24,4.31,090511,,,A*6D
$GPGGA,151236.000,3254.3658,S,06849.1320,W,1,05,1.6,727.2,M,29.6,M,,0000*55
$GPGSA,M,3,29,31,12,05,30,,,,,,,,2.6,1.6,2.1*32
$GPRMC,151236.000,A,3254.3658,S,06849.1320,W,0.21,346.37,090511,,,A*62
$GPGGA,151237.000,3254.3655,S,06849.1323,W,1,05,1.6,727.6,M,29.6,M,,0000*5E
$GPGSA,M,3,29,31,12,05,30,,,,,,,,2.6,1.6,2.1*32
$GPGSV,3,1,09,25,66,082,39,29,58,161,40,21,52,336,39,31,44,256,38*71
$GPGSV,3,2,09,12,26,062,34,05,17,113,38,30,17,226,34,18,00,001,*72
$GPGSV,3,3,09,02,00,139,*49
$GPRMC,151237.000,A,3254.3655,S,06849.1323,W,0.46,255.57,090511,,,A*69
$GPGGA,151238.000,3254.3653,S,06849.1325,W,1,05,1.6,726.9,M,29.6,M,,0000*5F
$GPGSA,M,3,29,31,12,05,30,,,,,,,,2.6,1.6,2.1*32
$GPRMC,151238.000,A,3254.3653,S,06849.1325,W,0.41,307.48,090511,,,A*69
$GPGGA,151239.000,3254.3653,S,06849.1326,W,1,05,1.6,726.2,M,29.6,M,,0000*56
$GPGSA,M,3,29,31,12,05,30,,,,,,,,2.6,1.6,2.1*32
$GPRMC,151239.000,A,3254.3653,S,06849.1326,W,0.59,5.33,090511,,,A*6F
$GPGGA,151240.000,3254.3650,S,06849.1324,W,1,05,1.6,725.4,M,29.6,M,,0000*5C
$GPGSA,M,3,29,31,12,05,30,,,,,,,,2.6,1.6,2.1*32
$GPRMC,151240.000,A,3254.3650,S,06849.1324,W,0.59,11.76,090511,,,A*54
$GPGGA,151241.000,3254.3652,S,06849.1323,W,1,05,1.6,726.5,M,29.6,M,,0000*5A
$GPGSA,M,3,29,31,12,05,30,,,,,,,,2.6,1.6,2.1*32
$GPRMC,151241.000,A,3254.3652,S,06849.1323,W,0.73,200.45,090511,,,A*6A
$GPGGA,151242.000,3254.3650,S,06849.1323,W,1,05,1.6,725.7,M,29.6,M,,0000*5A
$GPGSA,M,3,29,31,12,05,30,,,,,,,,2.6,1.6,2.1*32
$GPGSV,3,1,09,25,66,082,39,29,58,161,39,21,52,336,39,31,44,256,39*7E
$GPGSV,3,2,09,12,26,062,35,05,17,113,38,30,17,226,34,18,00,001,*73
$GPGSV,3,3,09,02,00,139,*49
$GPRMC,151242.000,A,3254.3650,S,06849.1323,W,0.37,334.24,090511,,,A*6A
$GPGGA,151243.000,3254.3644,S,06849.1319,W,1,05,1.6,725.5,M,29.6,M,,0000*55
$GPGSA,M,3,29,31,12,05,30,,,,,,,,2.6,1.6,2.1*32
$GPRMC,151243.000,A,3254.3644,S,06849.1319,W,0.37,0.20,090511,,,A*67
$GPGGA,151244.000,3254.3646,S,06849.1321,W,1,05,1.6,724.6,M,29.6,M,,0000*59
$GPGSA,M,3,29,31,12,05,30,,,,,,,,2.6,1.6,2.1*32
$GPRMC,151244.000,A,3254.3646,S,06849.1321,W,0.35,209.80,090511,,,A*6A
$GPGGA,151245.000,3254.3643,S,06849.1321,W,1,05,1.6,723.6,M,29.6,M,,0000*5A
$GPGSA,M,3,29,31,12,05,30,,,,,,,,2.6,1.6,2.1*32
$GPRMC,151245.000,A,3254.3643,S,06849.1321,W,0.56,6.13,090511,,,A*6C
$GPGGA,151246.000,3254.3639,S,06849.1321,W,1,05,1.6,722.7,M,29.6,M,,0000*54
$GPGSA,M,3,29,31,12,05,30,,,,,,,,2.6,1.6,2.1*32
$GPRMC,151246.000,A,3254.3639,S,06849.1321,W,0.41,334.65,090511,,,A*67
$GPGGA,151247.000,3254.3636,S,06849.1325,W,1,05,1.6,721.2,M,29.6,M,,0000*58
$GPGSA,M,3,29,31,12,05,30,,,,,,,,2.6,1.6,2.1*32
$GPGSV,3,1,09,25,66,082,40,29,58,161,39,21,52,336,38,31,44,256,38*70
$GPGSV,3,2,09,12,26,062,37,05,17,113,39,30,17,226,34,18,00,001,*70
$GPGSV,3,3,09,02,00,139,*49
$GPRMC,151247.000,A,3254.3636,S,06849.1325,W,0.31,343.84,090511,,,A*65
$GPGGA,151248.002,3254.3635,S,06849.1327,W,1,05,1.6,720.3,M,29.6,M,,0000*54
$GPGSA,M,3,29,31,12,05,30,,,,,,,,2.6,1.6,2.1*32
$GPRMC,151248.002,A,3254.3635,S,06849.1327,W,0.28,259.47,090511,,,A*64
$GPGGA,151248.998,3254.3634,S,06849.1327,W,1,05,1.6,720.3,M,29.6,M,,0000*5F
$GPGSA,M,3,29,31,12,05,30,,,,,,,,2.6,1.6,2.1*32
$GPRMC,151248.998,A,3254.3634,S,06849.1327,W,0.29,342.77,090511,,,A*66
$GPGGA,151250.002,3254.3632,S,06849.1329,W,1,05,1.6,719.5,M,29.6,M,,0000*58
$GPGSA,M,3,29,31,12,05,30,,,,,,,,2.6,1.6,2.1*32
$GPRMC,151250.002,A,3254.3632,S,06849.1329,W,0.51,336.08,090511,,,A*69
$GPGGA,151250.998,3254.3633,S,06849.1331,W,1,05,1.6,718.9,M,29.6,M,,0000*57
$GPGSA,M,3,29,31,12,05,30,,,,,,,,2.6,1.6,2.1*32
$GPRMC,151250.998,A,3254.3633,S,06849.1331,W,0.53,348.72,090511,,,A*6D
$GPGGA,151252.000,3254.3628,S,06849.1333,W,1,05,1.6,718.7,M,29.6,M,,0000*5B
$GPGSA,M,3,29,31,12,05,30,,,,,,,,2.6,1.6,2.1*32
$GPGSV,3,1,09,25,66,082,39,29,58,161,39,21,52,336,38,31,44,256,39*7F
$GPGSV,3,2,09,12,26,062,36,05,17,113,38,30,17,226,34,18,00,001,*70
$GPGSV,3,3,09,02,00,139,*49
$GPRMC,151252.000,A,3254.3628,S,06849.1333,W,0.15,8.64,090511,,,A*6D
$GPGGA,151253.001,3254.3633,S,06849.1333,W,1,05,1.6,719.1,M,29.6,M,,0000*56
$GPGSA,M,3,29,31,12,05,30,,,,,,,,2.6,1.6,2.1*32
$GPRMC,151253.001,A,3254.3633,S,06849.1333,W,0.25,14.95,090511,,,A*57
$GPGGA,151254.000,3254.3631,S,06849.1334,W,1,05,1.6,719.1,M,29.6,M,,0000*55
$GPGSA,M,3,29,31,12,05,30,,,,,,,,2.6,1.6,2.1*32
$GPRMC,151254.000,A,3254.3631,S,06849.1334,W,0.40,310.63,090511,,,A*69
$GPGGA,151255.000,3254.3634,S,06849.1331,W,1,05,1.6,720.9,M,29.6,M,,0000*56
$GPGSA,M,3,29,31,12,05,30,,,,,,,,2.6,1.6,2.1*32
$GPRMC,151255.000,A,3254.3634,S,06849.1331,W,0.76,317.27,090511,,,A*6A
$GPGGA,151256.000,3254.3636,S,06849.1330,W,1,05,1.6,721.5,M,29.6,M,,0000*5B
$GPGSA,M,3,29,31,12,05,30,,,,,,,,2.6,1.6,2.1*32
$GPRMC,151256.000,A,3254.3636,S,06849.1330,W,0.03,270.06,090511,,,A*6B
$GPGGA,151257.003,3254.3637,S,06849.1331,W,1,05,1.6,721.8,M,29.6,M,,0000*54
$GPGSA,M,3,29,31,12,05,30,,,,,,,,2.6,1.6,2.1*32
$GPGSV,3,1,09,25,66,082,39,29,58,161,40,21,52,336,39,31,44,256,39*70
$GPGSV,3,2,09,12,26,062,35,05,17,113,38,30,17,226,34,18,00,001,25*74
$GPGSV,3,3,09,02,00,139,*49
$GPRMC,151257.003,A,3254.3637,S,06849.1331,W,0.41,314.96,090511,,,A*65
$GPGGA,151257.997,3254.3645,S,06849.1330,W,1,05,1.6,723.6,M,29.6,M,,0000*58
$GPGSA,M,3,29,31,12,05,30,,,,,,,,2.6,1.6,2.1*32
$GPRMC,151257.997,A,3254.3645,S,06849.1330,W,0.46,351.42,090511,,,A*6A
$GPGGA,151259.001,3254.3643,S,06849.1330,W,1,05,1.6,723.5,M,29.6,M,,0000*55
$GPGSA,M,3,29,31,12,05,30,,,,,,,,2.6,1.6,2.1*32
$GPRMC,151259.001,A,3254.3643,S,06849.1330,W,0.47,359.18,090511,,,A*62
$GPGGA,151300.000,3254.3643,S,06849.1330,W,1,05,1.6,723.7,M,29.6,M,,0000*5B
$GPGSA,M,3,29,31,12,05,30,,,,,,,,2.6,1.6,2.1*32
$GPRMC,151300.000,A,3254.3643,S,06849.1330,W,0.70,358.06,090511,,,A*64
$GPGGA,151301.001,3254.3643,S,06849.1330,W,1,05,1.6,723.3,M,29.6,M,,0000*5F
$GPGSA,M,3,29,31,12,05,30,,,,,,,,2.6,1.6,2.1*32
$GPRMC,151301.001,A,3254.3643,S,06849.1330,W,0.82,336.12,090511,,,A*64
$GPGGA,151301.999,3254.3648,S,06849.1325,W,1,05,1.6,725.7,M,29.6,M,,0000*5A
$GPGSA,M,3,29,31,12,05,30,,,,,,,,2.6,1.6,2.1*32
$GPGSV,3,1,09,25,66,082,39,29,58,161,39,21,52,336,38,31,44,256,39*7F
$GPGSV,3,2,09,12,26,062,37,05,17,113,38,30,17,226,34,18,00,001,*71
$GPGSV,3,3,09,02,00,139,*49
$GPRMC,151301.999,A,3254.3648,S,06849.1325,W,0.21,324.26,090511,,,A*6E
$GPGGA,151303.002,3254.3645,S,06849.1330,W,1,05,1.6,724.2,M,29.6,M,,0000*5E
$GPGSA,M,3,29,31,12,05,30,,,,,,,,2.6,1.6,2.1*32
$GPRMC,151303.002,A,3254.3645,S,06849.1330,W,0.52,358.71,090511,,,A*63
$GPGGA,151304.000,3254.3641,S,06849.1331,W,1,05,1.6,723.7,M,29.6,M,,0000*5C
$GPGSA,M,3,29,31,12,05,30,,,,,,,,2.6,1.6,2.1*32
$GPRMC,151304.000,A,3254.3641,S,06849.1331,W,0.64,341.15,090511,,,A*6C
$GPGGA,151304.999,3254.3641,S,06849.1331,W,1,05,1.6,723.1,M,29.6,M,,0000*53
$GPGSA,M,3,29,31,12,05,30,,,,,,,,2.6,1.6,2.1*32
$GPRMC,151304.999,A,3254.3641,S,06849.1331,W,0.44,327.90,090511,,,A*6A
$GPGGA,151305.999,3254.3640,S,06849.1330,W,1,05,1.6,723.4,M,29.6,M,,0000*57
$GPGSA,M,3,29,31,12,05,30,,,,,,,,2.6,1.6,2.1*32
$GPRMC,151305.999,A,3254.3640,S,06849.1330,W,0.40,225.77,090511,,,A*65
$GPGGA,151307.003,3254.3644,S,06849.1329,W,1,04,1.9,724.0,M,29.6,M,,0000*5E
$GPGSA,M,3,29,31,12,05,,,,,,,,,3.9,1.9,3.4*34
$GPGSV,3,1,09,25,66,082,40,29,58,161,40,21,52,336,37,31,44,256,28*70
$GPGSV,3,2,09,12,26,062,36,05,17,113,39,30,17,226,,18,00,001,*76
$GPGSV,3,3,09,02,00,139,*49
$GPRMC,151307.003,A,3254.3644,S,06849.1329,W,0.50,159.60,090511,,,A*6E
$GPGGA,151307.998,3254.3648,S,06849.1330,W,1,04,1.9,724.1,M,29.6,M,,0000*50
$GPGSA,M,3,29,31,12,05,,,,,,,,,3.9,1.9,3.4*34
$GPRMC,151307.998,A,3254.3648,S,06849.1330,W,0.56,240.95,090511,,,A*66
$GPGGA,151308.999,3254.3651,S,06849.1328,W,1,05,1.6,724.7,M,29.6,M,,0000*57
$GPGSA,M,3,29,31,12,05,30,,,,,,,,2.6,1.6,2.1*32
$GPRMC,151308.999,A,3254.3651,S,06849.1328,W,0.93,150.31,090511,,,A*6C
$GPGGA,151310.000,3254.3653,S,06849.1327,W,1,05,1.6,724.9,M,29.6,M,,0000*54
$GPGSA,M,3,29,31,12,05,30,,,,,,,,2.6,1.6,2.1*32
$GPRMC,151310.000,A,3254.3653,S,06849.1327,W,0.57,122.61,090511,,,A*69
$GPGGA,151311.005,3254.3654,S,06849.1325,W,0,00,,724.8,M,29.6,M,,0000*79
$GPGSA,M,1,,,,,,,,,,,,,,,*12
$GPRMC,151311.005,V,3254.3654,S,06849.1325,W,,,090511,,,N*74
$GPGGA,151312.000,3254.3655,S,06849.1324,W,0,00,,724.8,M,29.6,M,,0000*7F
$GPGSA,M,1,,,,,,,,,,,,,,,*12
$GPGSV,2,1,08,29,58,160,37,31,44,257,,12,26,061,,30,18,226,29*72
$GPGSV,2,2,08,05,17,114,,25,65,080,41,21,53,335,36,18,01,002,*70
$GPRMC,151312.000,V,3254.3655,S,06849.1324,W,,,090511,,,N*72
$GPGGA,151313.000,3254.3655,S,06849.1322,W,0,00,,724.8,M,29.6,M,,0000*78
$GPGSA,M,1,,,,,,,,,,,,,,,*12
$GPRMC,151313.000,V,3254.3655,S,06849.1322,W,,,090511,,,N*75
$GPGGA,151314.000,3254.3668,S,06849.1322,W,1,05,1.6,727.1,M,29.6,M,,0000*56
$GPGSA,M,3,29,30,31,12,05,,,,,,,,2.6,1.6,2.1*32
$GPRMC,151314.000,A,3254.3668,S,06849.1322,W,0.13,123.05,090511,,,A*63
$GPGGA,151315.000,3254.3686,S,06849.1330,W,1,05,1.6,729.7,M,29.6,M,,0000*5C
$GPGSA,M,3,29,30,31,12,05,,,,,,,,2.6,1.6,2.1*32
$GPRMC,151315.000,A,3254.3686,S,06849.1330,W,0.19,297.10,090511,,,A*63
$GPGGA,151316.000,3254.3697,S,06849.1330,W,1,05,1.6,731.7,M,29.6,M,,0000*56
$GPGSA,M,3,29,30,31,12,05,,,,,,,,2.6,1.6,2.1*32
$GPRMC,151316.000,A,3254.3697,S,06849.1330,W,0.03,275.79,090511,,,A*68
$GPGGA,151317.000,3254.3706,S,06849.1332,W,1,05,1.6,733.5,M,29.6,M,,0000*5C
$GPGSA,M,3,29,30,31,12,05,,,,,,,,2.6,1.6,2.1*32
$GPGSV,2,1,08,29,58,160,51,31,44,257,39,12,26,061,41,30,18,226,24*70
$GPGSV,2,2,08,05,17,114,43,25,65,080,52,21,53,335,46,18,01,002,*72
$GPRMC,151317.000,A,3254.3706,S,06849.1332,W,0.04,319.24,090511,,,A*66
$GPGGA,151318.000,3254.3710,S,06849.1331,W,1,05,1.6,734.6,M,29.6,M,,0000*53
$GPGSA,M,3,29,30,31,12,05,,,,,,,,2.6,1.6,2.1*32
$GPRMC,151318.000,A,3254.3710,S,06849.1331,W,0.04,344.61,090511,,,A*64
$GPGGA,151319.000,3254.3715,S,06849.1330,W,1,05,1.6,735.6,M,29.6,M,,0000*57
$GPGSA,M,3,29,30,31,12,05,,,,,,,,2.6,1.6,2.1*32
$GPRMC,151319.000,A,3254.3715,S,06849.1330,W,0.05,336.32,090511,,,A*63
$GPGGA,151320.000,3254.3718,S,06849.1329,W,1,05,1.6,736.8,M,29.6,M,,0000*55
$GPGSA,M,3,29,30,31,12,05,,,,,,,,2.6,1.6,2.1*32
$GPRMC,151320.000,A,3254.3718,S,06849.1329,W,0.03,312.57,090511,,,A*6F
$GPGGA,151321.000,3254.3721,S,06849.1327,W,1,05,1.6,737.7,M,29.6,M,,0000*5E
$GPGSA,M,3,29,30,31,12,05,,,,,,,,2.6,1.6,2.1*32
$GPRMC,151321.000,A,3254.3721,S,06849.1327,W,0.06,344.33,090511,,,A*6E
$GPGGA,151322.000,3254.3723,S,06849.1326,W,1,05,1.6,738.3,M,29.6,M,,0000*55
$GPGSA,M,3,29,30,31,12,05,,,,,,,,2.6,1.6,2.1*32
$GPGSV,2,1,08,29,58,160,51,31,44,257,40,12,26,061,41,30,18,226,24*7E
$GPGSV,2,2,08,05,17,114,43,25,65,080,51,21,53,335,46,18,01,002,*71
$GPRMC,151322.000,A,3254.3723,S,06849.1326,W,0.04,313.91,090511,,,A*66
$GPGGA,151323.000,3254.3724,S,06849.1325,W,1,05,1.6,738.9,M,29.6,M,,0000*5A
$GPGSA,M,3,29,30,31,12,05,,,,,,,,2.6,1.6,2.1*32
$GPRMC,151323.000,A,3254.3724,S,06849.1325,W,0.06,359.75,090511,,,A*65
$GPGGA,151324.000,3254.3725,S,06849.1323,W,1,05,1.6,739.3,M,29.6,M,,0000*51
$GPGSA,M,3,29,30,31,12,05,,,,,,,,2.6,1.6,2.1*32
$GPRMC,151324.000,A,3254.3725,S,06849.1323,W,0.05,349.18,090511,,,A*6C
$GPGGA,151325.002,3254.3725,S,06849.1320,W,1,04,1.9,739.4,M,29.6,M,,0000*58
$GPGSA,M,3,29,31,12,05,,,,,,,,,3.9,1.9,3.4*34
$GPRMC,151325.002,A,3254.3725,S,06849.1320,W,0.92,121.38,090511,,,A*6C
$GPGGA,151326.000,3254.3724,S,06849.1321,W,1,04,1.9,739.3,M,29.6,M,,0000*5E
$GPGSA,M,3,29,31,12,05,,,,,,,,,3.9,1.9,3.4*34
$GPRMC,151326.000,A,3254.3724,S,06849.1321,W,1.08,290.58,090511,,,A*60
$GPGGA,151326.998,3254.3727,S,06849.1324,W,1,05,1.6,738.7,M,29.6,M,,0000*5B
$GPGSA,M,3,29,31,12,30,05,,,,,,,,2.6,1.6,2.1*32
$GPGSV,2,1,08,25,65,080,37,29,58,160,37,21,53,335,29,31,44,257,35*70
$GPGSV,2,2,08,12,26,061,27,30,18,226,25,05,17,114,27,18,01,002,*77
$GPRMC,151326.998,A,3254.3727,S,06849.1324,W,1.12,203.49,090511,,,A*6F
$GPGGA,151328.000,3254.3730,S,06849.1325,W,0,00,,738.7,M,29.6,M,,0000*77
$GPGSA,M,1,,,,,,,,,,,,,,,*12
$GPRMC,151328.000,V,3254.3730,S,06849.1325,W,,,090511,,,N*78
$GPGGA,151329.000,3254.3733,S,06849.1327,W,0,00,,738.7,M,29.6,M,,0000*77
$GPGSA,M,1,,,,,,,,,,,,,,,*12
$GPRMC,151329.000,V,3254.3733,S,06849.1327,W,,,090511,,,N*78
$GPGGA,151330.000,3254.3736,S,06849.1328,W,0,00,,738.7,M,29.6,M,,0000*75
$GPGSA,M,1,,,,,,,,,,,,,,,*12
$GPRMC,151330.000,V,3254.3736,S,06849.1328,W,,,090511,,,N*7A
$GPGGA,151331.000,3254.3728,S,06849.1327,W,1,04,3.1,739.7,M,29.6,M,,0000*5C
$GPGSA,M,3,29,31,30,05,,,,,,,,,3.9,3.1,2.3*38
$GPRMC,151331.000,A,3254.3728,S,06849.1327,W,1.52,321.07,090511,,,A*62
$GPGGA,151332.000,3254.3720,S,06849.1322,W,1,05,1.6,741.5,M,29.6,M,,0000*5B
$GPGSA,M,3,29,31,12,30,05,,,,,,,,2.6,1.6,2.1*32
$GPGSV,2,1,08,29,58,159,40,31,45,257,38,12,26,061,37,30,18,226,28*77
$GPGSV,2,2,08,05,17,114,33,25,65,079,37,21,53,335,43,18,01,002,*75
$GPRMC,151332.000,A,3254.3720,S,06849.1322,W,0.02,115.98,090511,,,A*6B
$GPGGA,151333.000,3254.3729,S,06849.1312,W,1,05,1.6,742.7,M,29.6,M,,0000*51
$GPGSA,M,3,29,31,12,30,05,,,,,,,,2.6,1.6,2.1*32
$GPRMC,151333.000,A,3254.3729,S,06849.1312,W,0.08,20.81,090511,,,A*55
$GPGGA,151334.000,3254.3727,S,06849.1312,W,1,05,1.6,743.4,M,29.6,M,,0000*5A
$GPGSA,M,3,29,31,12,30,05,,,,,,,,2.6,1.6,2.1*32
$GPRMC,151334.000,A,3254.3727,S,06849.1312,W,0.17,42.42,090511,,,A*59
$GPGGA,151335.000,3254.3725,S,06849.1309,W,1,05,1.6,744.6,M,29.6,M,,0000*56
$GPGSA,M,3,29,31,12,30,05,,,,,,,,2.6,1.6,2.1*32
$GPRMC,151335.000,A,3254.3725,S,06849.1309,W,0.34,145.38,090511,,,A*6A
$GPGGA,151336.000,3254.3725,S,06849.1313,W,1,05,1.6,746.3,M,29.6,M,,0000*59
$GPGSA,M,3,29,31,12,30,05,,,,,,,,2.6,1.6,2.1*32
$GPRMC,151336.000,A,3254.3725,S,06849.1313,W,0.14,327.44,090511,,,A*6D
$GPGGA,151337.000,3254.3723,S,06849.1314,W,1,05,1.6,747.0,M,29.6,M,,0000*5B
$GPGSA,M,3,29,31,12,30,05,,,,,,,,2.6,1.6,2.1*32
$GPGSV,2,1,08,29,58,159,37,31,45,257,31,12,26,061,35,30,18,226,28*7C
$GPGSV,2,2,08,05,17,114,33,25,65,079,31,21,53,335,35,18,01,002,*72
$GPRMC,151337.000,A,3254.3723,S,06849.1314,W,0.14,69.69,090511,,,A*5B
$GPGGA,151338.000,3254.3724,S,06849.1312,W,1,05,1.6,747.2,M,29.6,M,,0000*57
$GPGSA,M,3,29,31,12,30,05,,,,,,,,2.6,1.6,2.1*32
$GPRMC,151338.000,A,3254.3724,S,06849.1312,W,0.87,119.84,090511,,,A*6A
$GPGGA,151339.000,3254.3734,S,06849.1305,W,1,05,1.6,747.9,M,29.6,M,,0000*5A
$GPGSA,M,3,29,31,12,30,05,,,,,,,,2.6,1.6,2.1*32
$GPRMC,151339.000,A,3254.3734,S,06849.1305,W,0.45,158.44,090511,,,A*6B
$GPGGA,151340.000,3254.3734,S,06849.1301,W,1,05,1.6,747.9,M,29.6,M,,0000*50
$GPGSA,M,3,29,31,12,30,05,,,,,,,,2.6,1.6,2.1*32
$GPRMC,151340.000,A,3254.3734,S,06849.1301,W,0.38,12.15,090511,,,A*50
$GPGGA,151341.000,3254.3729,S,06849.1298,W,1,05,1.6,747.9,M,29.6,M,,0000*5C
$GPGSA,M,3,29,31,12,30,05,,,,,,,,2.6,1.6,2.1*32
$GPRMC,151341.000,A,3254.3729,S,06849.1298,W,0.32,7.23,090511,,,A*67
$GPGGA,151342.000,3254.3729,S,06849.1297,W,1,05,1.6,748.0,M,29.6,M,,0000*56
$GPGSA,M,3,29,31,12,30,05,,,,,,,,2.6,1.6,2.1*32
$GPGSV,2,1,08,25,65,079,46,29,58,159,43,21,53,335,45,31,45,257,42*72
$GPGSV,2,2,08,12,26,061,30,30,18,226,28,05,17,114,44,18,01,002,24*7F
$GPRMC,151342.000,A,3254.3729,S,06849.1297,W,0.12,8.37,090511,,,A*63
$GPGGA,151343.000,3254.3729,S,06849.1297,W,1,05,1.5,748.1,M,29.6,M,,0000*55
$GPGSA,M,3,29,31,12,30,05,,,,,,,,2.6,1.5,2.1*31
$GPRMC,151343.000,A,3254.3729,S,06849.1297,W,0.23,7.78,090511,,,A*64
$GPGGA,151344.000,3254.3726,S,06849.1294,W,1,05,1.5,749.0,M,29.6,M,,0000*5E
$GPGSA,M,3,29,31,12,30,05,,,,,,,,2.6,1.5,2.1*31
$GPRMC,151344.000,A,3254.3726,S,06849.1294,W,0.29,8.42,090511,,,A*63
$GPGGA,151345.000,3254.3721,S,06849.1292,W,1,05,1.5,749.7,M,29.6,M,,0000*59
$GPGSA,M,3,29,31,12,30,05,,,,,,,,2.6,1.5,2.1*31
$GPRMC,151345.000,A,3254.3721,S,06849.1292,W,0.23,8.43,090511,,,A*68
$GPGGA,151346.000,3254.3724,S,06849.1293,W,1,05,1.5,750.0,M,29.6,M,,0000*51
$GPGSA,M,3,29,31,12,30,05,,,,,,,,2.6,1.5,2.1*31
$GPRMC,151346.000,A,3254.3724,S,06849.1293,W,0.16,2.03,090511,,,A*67
$GPGGA,151347.000,3254.3729,S,06849.1294,W,1,05,1.5,750.2,M,29.6,M,,0000*58
$GPGSA,M,3,29,31,12,30,05,,,,,,,,2.6,1.5,2.1*31
$GPGSV,2,1,08,25,65,079,46,29,58,159,44,21,53,335,45,31,45,257,42*75
$GPGSV,2,2,08,12,26,061,28,30,18,226,28,05,17,114,43,18,01,002,*77
$GPRMC,151347.000,A,3254.3729,S,06849.1294,W,0.09,0.21,090511,,,A*60
$GPGGA,151348.000,3254.3734,S,06849.1295,W,1,05,1.5,750.4,M,29.6,M,,0000*5C
$GPGSA,M,3,29,31,12,30,05,,,,,,,,2.6,1.5,2.1*31
$GPRMC,151348.000,A,3254.3734,S,06849.1295,W,0.07,342.39,090511,,,A*60
$GPGGA,151349.000,3254.3738,S,06849.1296,W,1,05,1.5,750.6,M,29.6,M,,0000*50
$GPGSA,M,3,29,31,12,30,05,,,,,,,,2.6,1.5,2.1*31
$GPRMC,151349.000,A,3254.3738,S,06849.1296,W,0.10,336.28,090511,,,A*6B
$GPGGA,151350.000,3254.3737,S,06849.1295,W,1,05,1.5,750.9,M,29.6,M,,0000*5B
$GPGSA,M,3,29,31,12,30,05,,,,,,,,2.6,1.5,2.1*31
$GPRMC,151350.000,A,3254.3737,S,06849.1295,W,0.16,1.71,090511,,,A*62
$GPGGA,151351.000,3254.3734,S,06849.1294,W,1,05,1.5,750.9,M,29.6,M,,0000*58
$GPGSA,M,3,29,31,12,30,05,,,,,,,,2.6,1.5,2.1*31
$GPRMC,151351.000,A,3254.3734,S,06849.1294,W,0.43,8.12,090511,,,A*6D
$GPGGA,151352.000,3254.3732,S,06849.1294,W,1,05,1.5,750.8,M,29.6,M,,0000*5C
$GPGSA,M,3,29,31,12,30,05,,,,,,,,2.6,1.5,2.1*31
$GPGSV,2,1,08,25,65,079,46,29,58,159,44,21,53,335,45,31,45,257,43*74
$GPGSV,2,2,08,12,26,061,34,30,18,226,28,05,17,114,43,18,01,002,*7A
$GPRMC,151352.000,A,3254.3732,S,06849.1294,W,0.23,5.92,090511,,,A*6B
$GPGGA,151353.002,3254.3730,S,06849.1295,W,1,04,1.9,750.7,M,29.6,M,,0000*5E
$GPGSA,M,3,29,31,12,05,,,,,,,,,3.9,1.9,3.4*34
$GPRMC,151353.002,A,3254.3730,S,06849.1295,W,0.79,307.17,090511,,,A*68
$GPGGA,151353.999,3254.3729,S,06849.1295,W,1,05,1.5,750.4,M,29.6,M,,0000*53
$GPGSA,M,3,29,31,12,30,05,,,,,,,,2.6,1.5,2.1*31
$GPRMC,151353.999,A,3254.3729,S,06849.1295,W,0.35,58.08,090511,,,A*54
$GPGGA,151355.002,3254.3731,S,06849.1294,W,1,04,1.9,750.5,M,29.6,M,,0000*5A
$GPGSA,M,3,29,31,12,05,,,,,,,,,3.9,1.9,3.4*34
$GPRMC,151355.002,A,3254.3731,S,06849.1294,W,0.66,171.20,090511,,,A*67
$GPGGA,151356.000,3254.3733,S,06849.1294,W,1,04,1.9,750.5,M,29.6,M,,0000*59
$GPGSA,M,3,29,31,12,05,,,,,,,,,3.9,1.9,3.4*34
$GPRMC,151356.000,A,3254.3733,S,06849.1294,W,0.29,187.29,090511,,,A*6F
$GPGGA,151356.998,3254.3732,S,06849.1293,W,1,05,1.5,750.9,M,29.6,M,,0000*56
$GPGSA,M,3,29,31,12,30,05,,,,,,,,2.6,1.5,2.1*31
$GPGSV,2,1,08,25,65,079,39,29,58,159,39,21,53,335,40,31,45,257,34*73
$GPGSV,2,2,08,12,26,061,39,30,18,226,22,05,17,114,39,18,01,002,*70
$GPRMC,151356.998,A,3254.3732,S,06849.1293,W,0.33,147.08,090511,,,A*65
$GPGGA,151358.002,3254.3734,S,06849.1294,W,1,04,1.9,750.6,M,29.6,M,,0000*51
$GPGSA,M,3,29,31,12,05,,,,,,,,,3.9,1.9,3.4*34
$GPRMC,151358.002,A,3254.3734,S,06849.1294,W,0.75,193.29,090511,,,A*68
$GPGGA,151358.998,3254.3734,S,06849.1295,W,1,05,1.5,750.4,M,29.6,M,,0000*55
$GPGSA,M,3,29,31,12,30,05,,,,,,,,2.6,1.5,2.1*31
$GPRMC,151358.998,A,3254.3734,S,06849.1295,W,0.59,192.65,090511,,,A*64
$GPGGA,151400.000,3254.3733,S,06849.1296,W,1,05,1.5,750.3,M,29.6,M,,0000*54
$GPGSA,M,3,29,31,12,30,05,,,,,,,,2.6,1.5,2.1*31
$GPRMC,151400.000,A,3254.3733,S,06849.1296,W,0.57,122.00,090511,,,A*64
$GPGGA,151401.000,3254.3735,S,06849.1295,W,1,05,1.5,750.7,M,29.6,M,,0000*54
$GPGSA,M,3,29,31,12,30,05,,,,,,,,2.6,1.5,2.1*31
$GPRMC,151401.000,A,3254.3735,S,06849.1295,W,1.13,168.27,090511,,,A*6A
$GPGGA,151402.000,3254.3738,S,06849.1295,W,1,05,1.5,750.3,M,29.6,M,,0000*5E
$GPGSA,M,3,29,31,12,30,05,,,,,,,,2.6,1.5,2.1*31
$GPGSV,2,1,08,25,65,079,38,29,58,159,39,21,53,335,40,31,45,257,39*7F
$GPGSV,2,2,08,12,26,061,33,30,18,226,30,05,17,114,35,18,01,002,*75
$GPRMC,151402.000,A,3254.3738,S,06849.1295,W,0.64,176.39,090511,,,A*65
$GPGGA,151403.000,3254.3736,S,06849.1295,W,1,05,1.5,750.3,M,29.6,M,,0000*51
$GPGSA,M,3,29,31,12,30,05,,,,,,,,2.6,1.5,2.1*31
$GPRMC,151403.000,A,3254.3736,S,06849.1295,W,0.30,5.44,090511,,,A*64
$GPGGA,151404.000,3254.3735,S,06849.1295,W,1,05,1.5,750.6,M,29.6,M,,0000*50
$GPGSA,M,3,29,31,12,30,05,,,,,,,,2.6,1.5,2.1*31
$GPRMC,151404.000,A,3254.3735,S,06849.1295,W,0.18,255.47,090511,,,A*6E
$GPGGA,151405.002,3254.3734,S,06849.1296,W,1,04,1.9,750.7,M,29.6,M,,0000*5D
$GPGSA,M,3,29,31,12,05,,,,,,,,,3.9,1.9,3.5*35
$GPRMC,151405.002,A,3254.3734,S,06849.1296,W,1.38,177.05,090511,,,A*69
$GPGGA,151406.000,3254.3732,S,06849.1297,W,1,04,1.9,751.0,M,29.6,M,,0000*5D
$GPGSA,M,3,29,31,12,05,,,,,,,,,3.9,1.9,3.5*35
$GPRMC,151406.000,A,3254.3732,S,06849.1297,W,0.99,158.69,090511,,,A*62
$GPGGA,151407.000,3254.3727,S,06849.1298,W,1,05,1.5,751.4,M,29.6,M,,0000*5E
$GPGSA,M,3,29,31,12,05,30,,,,,,,,2.6,1.5,2.1*31
$GPGSV,2,1,08,29,58,159,42,31,45,258,35,12,25,061,39,30,18,226,28*7A
$GPGSV,2,2,08,05,17,114,27,25,65,079,49,21,53,335,39,18,01,002,*74
$GPRMC,151407.000,A,3254.3727,S,06849.1298,W,0.67,142.78,090511,,,A*62
$GPGGA,151408.000,3254.3728,S,06849.1296,W,1,05,1.5,752.0,M,29.6,M,,0000*57
$GPGSA,M,3,29,31,12,05,30,,,,,,,,2.6,1.5,2.1*31
$GPRMC,151408.000,A,3254.3728,S,06849.1296,W,1.67,137.06,090511,,,A*66
$GPGGA,151409.000,3254.3731,S,06849.1291,W,1,05,1.5,752.2,M,29.6,M,,0000*5B
$GPGSA,M,3,29,31,12,05,30,,,,,,,,2.6,1.5,2.1*31
$GPRMC,151409.000,A,3254.3731,S,06849.1291,W,0.66,154.45,090511,,,A*6A
$GPGGA,151410.000,3254.3732,S,06849.1289,W,1,05,1.5,753.2,M,29.6,M,,0000*58
$GPGSA,M,3,29,31,12,05,30,,,,,,,,2.6,1.5,2.1*31
$GPRMC,151410.000,A,3254.3732,S,06849.1289,W,0.76,145.60,090511,,,A*6E
$GPGGA,151411.000,3254.3733,S,06849.1288,W,1,04,2.0,753.5,M,29.6,M,,0000*59
$GPGSA,M,3,29,31,12,30,,,,,,,,,3.2,2.0,2.4*32
$GPRMC,151411.000,A,3254.3733,S,06849.1288,W,0.90,147.87,090511,,,A*6C
$GPGGA,151412.000,3254.3735,S,06849.1289,W,1,05,1.5,752.9,M,29.6,M,,0000*57
$GPGSA,M,3,29,31,12,05,30,,,,,,,,2.6,1.5,2.1*31
$GPGSV,2,1,08,29,58,159,40,31,45,258,37,12,25,061,40,30,18,226,30*7D
$GPGSV,2,2,08,05,17,114,26,25,65,079,49,21,53,335,39,18,01,002,*75
$GPRMC,151412.000,A,3254.3735,S,06849.1289,W,0.71,167.05,090511,,,A*6F
$GPGGA,151413.000,3254.3738,S,06849.1290,W,1,05,1.5,752.8,M,29.6,M,,0000*52
$GPGSA,M,3,29,31,12,05,30,,,,,,,,2.6,1.5,2.1*31
$GPRMC,151413.000,A,3254.3738,S,06849.1290,W,0.76,172.25,090511,,,A*6A
$GPGGA,151414.000,3254.3742,S,06849.1290,W,1,05,1.5,752.2,M,29.6,M,,0000*52
$GPGSA,M,3,29,31,12,05,30,,,,,,,,2.6,1.5,2.1*31
$GPRMC,151414.000,A,3254.3742,S,06849.1290,W,1.05,178.30,090511,,,A*6B
$GPGGA,151415.000,3254.3743,S,06849.1291,W,1,05,1.5,752.7,M,29.6,M,,0000*56
$GPGSA,M,3,29,31,12,05,30,,,,,,,,2.6,1.5,2.1*31
$GPRMC,151415.000,A,3254.3743,S,06849.1291,W,1.17,182.61,090511,,,A*68
$GPGGA,151416.000,3254.3744,S,06849.1292,W,1,05,1.5,753.1,M,29.6,M,,0000*56
$GPGSA,M,3,29,31,12,05,30,,,,,,,,2.6,1.5,2.1*31
$GPRMC,151416.000,A,3254.3744,S,06849.1292,W,0.51,198.54,090511,,,A*61
$GPGGA,151417.000,3254.3744,S,06849.1292,W,1,05,1.5,753.3,M,29.6,M,,0000*55
$GPGSA,M,3,29,31,12,05,30,,,,,,,,2.6,1.5,2.1*31
$GPGSV,2,1,08,25,65,078,42,29,58,159,38,21,53,335,45,31,45,258,43*75
$GPGSV,2,2,08,12,25,060,41,30,18,226,17,05,17,114,30,18,01,002,*72
$GPRMC,151417.000,A,3254.3744,S,06849.1292,W,0.18,197.70,090511,,,A*64
$GPGGA,151418.000,3254.3744,S,06849.1293,W,1,05,1.5,753.8,M,29.6,M,,0000*50
$GPGSA,M,3,29,31,12,05,30,,,,,,,,2.6,1.5,2.1*31
$GPRMC,151418.000,A,3254.3744,S,06849.1293,W,0.01,34.55,090511,,,A*5D
$GPGGA,151419.000,3254.3743,S,06849.1293,W,1,05,1.5,754.0,M,29.6,M,,0000*59
$GPGSA,M,3,29,31,12,05,30,,,,,,,,2.6,1.5,2.1*31
$GPRMC,151419.000,A,3254.3743,S,06849.1293,W,0.07,334.03,090511,,,A*6D
$GPGGA,151420.000,3254.3742,S,06849.1293,W,1,05,1.5,754.7,M,29.6,M,,0000*55
$GPGSA,M,3,29,31,12,05,30,,,,,,,,2.6,1.5,2.1*31
$GPRMC,151420.000,A,3254.3742,S,06849.1293,W,0.18,350.30,090511,,,A*6A
$GPGGA,151421.000,3254.3742,S,06849.1293,W,1,05,1.5,754.9,M,29.6,M,,0000*5A
$GPGSA,M,3,29,31,12,05,30,,,,,,,,2.6,1.5,2.1*31
$GPRMC,151421.000,A,3254.3742,S,06849.1293,W,0.18,351.88,090511,,,A*69
$GPGGA,151422.000,3254.3741,S,06849.1293,W,1,05,1.5,755.2,M,29.6,M,,0000*50
$GPGSA,M,3,29,31,12,05,30,,,,,,,,2.6,1.5,2.1*31
$GPGSV,2,1,08,25,65,078,44,29,58,159,40,21,53,335,43,31,45,258,43*7A
$GPGSV,2,2,08,12,25,060,42,30,18,226,18,05,17,114,24,18,01,002,*7B
$GPRMC,151422.000,A,3254.3741,S,06849.1293,W,0.15,343.64,090511,,,A*65
$GPGGA,151423.000,3254.3740,S,06849.1294,W,1,05,1.5,755.6,M,29.6,M,,0000*53
$GPGSA,M,3,29,31,12,05,30,,,,,,,,2.6,1.5,2.1*31
$GPRMC,151423.000,A,3254.3740,S,06849.1294,W,0.13,337.52,090511,,,A*62
$GPGGA,151424.000,3254.3738,S,06849.1294,W,1,05,1.5,756.0,M,29.6,M,,0000*5E
$GPGSA,M,3,29,31,12,05,30,,,,,,,,2.6,1.5,2.1*31
$GPRMC,151424.000,A,3254.3738,S,06849.1294,W,0.13,335.60,090511,,,A*69
$GPGGA,151425.000,3254.3737,S,06849.1295,W,1,05,1.5,756.5,M,29.6,M,,0000*54
$GPGSA,M,3,29,31,12,05,30,,,,,,,,2.6,1.5,2.1*31
$GPRMC,151425.000,A,3254.3737,S,06849.1295,W,0.10,337.01,090511,,,A*60
$GPGGA,151426.000,3254.3735,S,06849.1295,W,1,05,1.5,757.2,M,29.6,M,,0000*53
$GPGSA,M,3,29,31,12,05,30,,,,,,,,2.6,1.5,2.1*31
$GPRMC,151426.000,A,3254.3735,S,06849.1295,W,0.21,349.36,090511,,,A*6E
$GPGGA,151427.000,3254.3734,S,06849.1295,W,1,05,1.5,758.0,M,29.6,M,,0000*5E
$GPGSA,M,3,29,31,12,05,30,,,,,,,,2.6,1.5,2.1*31
$GPGSV,2,1,08,25,65,078,44,29,58,159,41,21,53,335,43,31,45,258,44*7C
$GPGSV,2,2,08,12,25,060,43,30,18,226,18,05,17,114,24,18,01,002,*7A
$GPRMC,151427.000,A,3254.3734,S,06849.1295,W,0.21,354.79,090511,,,A*69
$GPGGA,151428.000,3254.3732,S,06849.1296,W,1,05,1.5,758.4,M,29.6,M,,0000*50
$GPGSA,M,3,29,31,12,05,30,,,,,,,,2.6,1.5,2.1*31
$GPRMC,151428.000,A,3254.3732,S,06849.1296,W,0.21,350.04,090511,,,A*6D
$GPGGA,151429.000,3254.3729,S,06849.1295,W,1,05,1.5,760.2,M,29.6,M,,0000*55
$GPGSA,M,3,29,31,12,05,30,,,,,,,,2.6,1.5,2.1*31
$GPRMC,151429.000,A,3254.3729,S,06849.1295,W,0.09,294.67,090511,,,A*63
$GPGGA,151430.000,3254.3728,S,06849.1295,W,1,05,1.5,760.6,M,29.6,M,,0000*58
$GPGSA,M,3,29,31,12,05,30,,,,,,,,2.6,1.5,2.1*31
$GPRMC,151430.000,A,3254.3728,S,06849.1295,W,0.33,349.03,090511,,,A*60
$GPGGA,151431.000,3254.3726,S,06849.1295,W,1,05,1.5,760.9,M,29.6,M,,0000*58
$GPGSA,M,3,29,31,12,05,30,,,,,,,,2.6,1.5,2.1*31
$GPRMC,151431.000,A,3254.3726,S,06849.1295,W,0.91,28.45,090511,,,A*51
$GPGGA,151432.000,3254.3727,S,06849.1290,W,1,05,1.5,760.0,M,29.6,M,,0000*56
$GPGSA,M,3,29,31,12,05,30,,,,,,,,2.6,1.5,2.1*31
$GPGSV,2,1,08,25,65,078,40,29,58,159,42,21,53,335,42,31,45,258,43*7D
$GPGSV,2,2,08,12,25,060,43,30,18,226,34,05,17,114,24,18,01,002,*74
$GPRMC,151432.000,A,3254.3727,S,06849.1290,W,2.54,82.20,090511,,,A*5E
$GPGGA,151433.000,3254.3724,S,06849.1278,W,1,05,1.5,760.3,M,29.6,M,,0000*51
$GPGSA,M,3,29,31,12,05,30,,,,,,,,2.6,1.5,2.1*31
$GPRMC,151433.000,A,3254.3724,S,06849.1278,W,4.60,68.19,090511,,,A*55
$GPGGA,151434.000,3254.3723,S,06849.1261,W,1,07,1.2,759.2,M,29.6,M,,0000*57
$GPGSA,M,3,25,29,21,31,12,05,30,,,,,,2.1,1.2,1.7*30
$GPRMC,151434.000,A,3254.3723,S,06849.1261,W,5.54,79.10,090511,,,A*52
$GPGGA,151435.000,3254.3722,S,06849.1244,W,1,07,1.2,758.2,M,29.6,M,,0000*51
$GPGSA,M,3,25,29,21,31,12,05,30,,,,,,2.1,1.2,1.7*30
$GPRMC,151435.000,A,3254.3722,S,06849.1244,W,5.06,75.65,090511,,,A*5C
$GPGGA,151436.000,3254.3718,S,06849.1227,W,1,07,1.2,759.4,M,29.6,M,,0000*59
$GPGSA,M,3,25,29,21,31,12,05,30,,,,,,2.1,1.2,1.7*30
$GPRMC,151436.000,A,3254.3718,S,06849.1227,W,5.21,88.80,090511,,,A*5F
$GPGGA,151437.000,3254.3718,S,06849.1208,W,1,07,1.2,758.9,M,29.6,M,,0000*59
