$GPGGA,104006.000,1926.9301,S,06958.0570,W,1,05,2.1,1093.4,M,35.0,M,,0000*68
$GPGSA,M,3,12,27,09,26,15,,,,,,,,5.2,2.1,4.7*36
$GPRMC,104006.000,A,1926.9301,S,06958.0570,W,0.15,297.13,010511,,,A*6B
$GPGGA,104007.000,1926.9303,S,06958.0572,W,1,05,2.1,1093.9,M,35.0,M,,0000*64
$GPGSA,M,3,12,27,09,26,15,,,,,,,,5.2,2.1,4.7*36
$GPGSV,3,1,11,15,72,266,30,26,60,019,32,27,45,187,23,12,38,262,35*73
$GPGSV,3,2,11,09,35,204,31,17,27,135,26,02,15,029,,04,15,070,*79
$GPGSV,3,3,11,25,07,286,31,18,06,252,22,05,06,000,*4E
$GPRMC,104007.000,A,1926.9303,S,06958.0572,W,0.23,317.61,010511,,,A*63
$GPGGA,104008.000,1926.9294,S,06958.0578,W,1,04,1.8,1092.1,M,35.0,M,,0000*6C
$GPGSA,M,3,12,27,09,26,,,,,,,,,2.1,1.8,1.0*3E
$GPRMC,104008.000,A,1926.9294,S,06958.0578,W,0.94,341.51,010511,,,A*65
$GPGGA,104009.000,1926.9289,S,06958.0577,W,1,05,2.1,1091.3,M,35.0,M,,0000*64
$GPGSA,M,3,12,27,09,26,15,,,,,,,,5.2,2.1,4.7*36
$GPRMC,104009.000,A,1926.9289,S,06958.0577,W,1.62,356.86,010511,,,A*63
$GPGGA,104010.000,1926.9293,S,06958.0574,W,1,05,2.1,1091.7,M,35.0,M,,0000*60
$GPGSA,M,3,12,27,09,26,15,,,,,,,,5.2,2.1,4.7*36
$GPRMC,104010.000,A,1926.9293,S,06958.0574,W,0.29,27.82,010511,,,A*5C
$GPGGA,104011.000,1926.9292,S,06958.0580,W,1,05,2.1,1092.6,M,35.0,M,,0000*69
$GPGSA,M,3,12,27,09,26,15,,,,,,,,5.2,2.1,4.7*36
$GPRMC,104011.000,A,1926.9292,S,06958.0580,W,0.43,279.06,010511,,,A*6E
$GPGGA,104012.000,1926.9298,S,06958.0580,W,1,05,2.1,1092.5,M,35.0,M,,0000*63
$GPGSA,M,3,12,27,09,26,15,,,,,,,,5.2,2.1,4.7*36
$GPGSV,3,1,11,15,72,266,29,26,60,019,28,27,45,187,23,12,38,262,30*75
$GPGSV,3,2,11,09,35,204,26,17,27,135,26,02,15,029,,04,15,070,*7F
$GPGSV,3,3,11,25,07,286,27,18,06,252,22,05,06,000,*49
$GPRMC,104012.000,A,1926.9298,S,06958.0580,W,0.87,229.25,010511,,,A*6B
$GPGGA,104013.000,1926.9302,S,06958.0570,W,1,05,2.1,1091.5,M,35.0,M,,0000*6C
$GPGSA,M,3,12,27,09,26,15,,,,,,,,5.2,2.1,4.7*36
$GPRMC,104013.000,A,1926.9302,S,06958.0570,W,1.04,148.31,010511,,,A*6C
$GPGGA,104014.000,1926.9300,S,06958.0565,W,1,05,2.1,1089.5,M,35.0,M,,0000*64
$GPGSA,M,3,12,27,09,26,15,,,,,,,,5.2,2.1,4.7*36
$GPRMC,104014.000,A,1926.9300,S,06958.0565,W,1.10,115.46,010511,,,A*60
$GPGGA,104015.000,1926.9293,S,06958.0562,W,1,05,2.1,1087.5,M,35.0,M,,0000*67
$GPGSA,M,3,12,27,09,26,15,,,,,,,,5.2,2.1,4.7*36
$GPRMC,104015.000,A,1926.9293,S,06958.0562,W,0.36,26.20,010511,,,A*59
$GPGGA,104016.000,1926.9292,S,06958.0561,W,0,00,,1087.2,M,35.0,M,,0000*48
$GPGSA,M,1,,,,,,,,,,,,,,,*12
$GPRMC,104016.000,V,1926.9292,S,06958.0561,W,,,010511,,,N*73
$GPGGA,104017.000,1926.9291,S,06958.0561,W,0,00,,1087.0,M,35.0,M,,0000*48
$GPGSA,M,1,,,,,,,,,,,,,,,*12
$GPGSV,3,1,11,15,72,266,27,26,60,019,28,27,45,187,23,12,38,262,35*7E
$GPGSV,3,2,11,09,35,204,26,17,27,135,26,02,15,029,,04,15,070,*7F
$GPGSV,3,3,11,25,07,286,27,18,06,252,22,05,06,000,*49
$GPRMC,104017.000,V,1926.9291,S,06958.0561,W,,,010511,,,N*71
$GPGGA,104018.000,1926.9288,S,06958.0571,W,1,05,2.1,1085.0,M,35.0,M,,0000*65
$GPGSA,M,3,12,27,09,26,15,,,,,,,,5.2,2.1,4.7*36
$GPRMC,104018.000,A,1926.9288,S,06958.0571,W,1.15,257.13,010511,,,A*68
$GPGGA,104019.000,1926.9289,S,06958.0581,W,1,04,2.5,1081.8,M,35.0,M,,0000*63
$GPGSA,M,3,12,09,26,15,,,,,,,,,5.4,2.5,4.8*3E
$GPRMC,104019.000,A,1926.9289,S,06958.0581,W,2.30,232.42,010511,,,A*64
$GPGGA,104020.000,1926.9293,S,06958.0585,W,1,05,2.1,1077.1,M,35.0,M,,0000*63
$GPGSA,M,3,12,27,09,26,15,,,,,,,,5.2,2.1,4.7*36
$GPRMC,104020.000,A,1926.9293,S,06958.0585,W,3.98,227.17,010511,,,A*66
$GPGGA,104021.000,1926.9297,S,06958.0586,W,1,05,2.1,1076.6,M,35.0,M,,0000*63
$GPGSA,M,3,12,27,09,26,15,,,,,,,,5.2,2.1,4.7*36
$GPRMC,104021.000,A,1926.9297,S,06958.0586,W,2.72,230.78,010511,,,A*6A
$GPGGA,104022.000,1926.9285,S,06958.0597,W,1,05,2.1,1074.7,M,35.0,M,,0000*60
$GPGSA,M,3,12,27,09,26,15,,,,,,,,5.2,2.1,4.7*36
$GPGSV,3,1,11,15,72,266,27,26,60,019,21,27,45,187,24,12,38,262,27*73
$GPGSV,3,2,11,09,35,204,28,17,27,135,25,02,15,029,,04,15,070,*72
$GPGSV,3,3,11,25,07,286,26,18,06,252,23,05,06,000,*49
$GPRMC,104022.000,A,1926.9285,S,06958.0597,W,1.08,275.00,010511,,,A*6A
$GPGGA,104023.000,1926.9285,S,06958.0600,W,0,00,,1073.9,M,35.0,M,,0000*4C
$GPGSA,M,1,,,,,,,,,,,,,,,*12
$GPRMC,104023.000,V,1926.9285,S,06958.0600,W,,,010511,,,N*77
$GPGGA,104024.000,1926.9284,S,06958.0603,W,0,00,,1073.1,M,35.0,M,,0000*41
$GPGSA,M,1,,,,,,,,,,,,,,,*12
$GPRMC,104024.000,V,1926.9284,S,06958.0603,W,,,010511,,,N*72
$GPGGA,104025.000,1926.9284,S,06958.0603,W,1,05,2.1,1072.3,M,35.0,M,,0000*6A
$GPGSA,M,3,27,09,12,26,15,,,,,,,,5.2,2.1,4.7*36
$GPRMC,104025.000,A,1926.9284,S,06958.0603,W,0.24,280.44,010511,,,A*67
$GPGGA,104026.000,1926.9271,S,06958.0592,W,1,05,2.1,1070.1,M,35.0,M,,0000*68
$GPGSA,M,3,27,09,12,26,15,,,,,,,,5.2,2.1,4.7*36
$GPRMC,104026.000,A,1926.9271,S,06958.0592,W,0.98,58.56,010511,,,A*56
$GPGGA,104027.000,1926.9273,S,06958.0583,W,1,05,2.1,1068.6,M,35.0,M,,0000*65
$GPGSA,M,3,27,09,12,26,15,,,,,,,,5.2,2.1,4.7*36
$GPGSV,3,1,11,15,72,266,26,26,60,019,26,27,45,187,23,12,38,262,29*7C
$GPGSV,3,2,11,09,35,204,26,17,27,135,25,02,15,029,,04,15,070,*7C
$GPGSV,3,3,11,25,07,286,26,18,06,252,22,05,06,000,*48
$GPRMC,104027.000,A,1926.9273,S,06958.0583,W,1.32,100.12,010511,,,A*68
$GPGGA,104028.000,1926.9268,S,06958.0567,W,1,05,2.1,1064.0,M,35.0,M,,0000*60
$GPGSA,M,3,27,09,12,26,15,,,,,,,,5.2,2.1,4.7*36
$GPRMC,104028.000,A,1926.9268,S,06958.0567,W,1.35,2.99,010511,,,A*60
$GPGGA,104029.000,1926.9264,S,06958.0567,W,0,00,,1062.8,M,35.0,M,,0000*4A
$GPGSA,M,1,,,,,,,,,,,,,,,*12
$GPRMC,104029.000,V,1926.9264,S,06958.0567,W,,,010511,,,N*70
$GPGGA,104030.000,1926.9260,S,06958.0567,W,0,00,,1061.6,M,35.0,M,,0000*4B
$GPGSA,M,1,,,,,,,,,,,,,,,*12
$GPRMC,104030.000,V,1926.9260,S,06958.0567,W,,,010511,,,N*7C
$GPGGA,104031.000,1926.9255,S,06958.0581,W,1,05,2.1,1062.2,M,35.0,M,,0000*6A
$GPGSA,M,3,12,27,09,26,15,,,,,,,,5.2,2.1,4.7*36
$GPRMC,104031.000,A,1926.9255,S,06958.0581,W,2.87,300.70,010511,,,A*62
$GPGGA,104032.000,1926.9263,S,06958.0575,W,1,05,2.1,1061.0,M,35.0,M,,0000*66
$GPGSA,M,3,12,27,09,26,15,,,,,,,,5.2,2.1,4.7*36
$GPGSV,3,1,11,15,72,266,26,26,60,019,25,27,45,187,23,12,38,262,24*72
$GPGSV,3,2,11,09,35,204,26,17,27,135,25,02,15,029,,04,15,070,*7C
$GPGSV,3,3,11,25,07,286,26,18,06,252,22,05,06,000,*48
$GPRMC,104032.000,A,1926.9263,S,06958.0575,W,1.60,270.82,010511,,,A*6E
$GPGGA,104033.000,1926.9268,S,06958.0595,W,1,05,2.1,1062.5,M,35.0,M,,0000*64
$GPGSA,M,3,12,27,09,26,15,,,,,,,,5.2,2.1,4.7*36
$GPRMC,104033.000,A,1926.9268,S,06958.0595,W,1.16,265.96,010511,,,A*6A
$GPGGA,104034.000,1926.9268,S,06958.0598,W,0,00,,1061.6,M,35.0,M,,0000*47
$GPGSA,M,1,,,,,,,,,,,,,,,*12
$GPRMC,104034.000,V,1926.9268,S,06958.0598,W,,,010511,,,N*70
$GPGGA,104035.000,1926.9269,S,06958.0602,W,0,00,,1060.6,M,35.0,M,,0000*46
$GPGSA,M,1,,,,,,,,,,,,,,,*12
$GPRMC,104035.000,V,1926.9269,S,06958.0602,W,,,010511,,,N*70
$GPGGA,104036.000,1926.9261,S,06958.0607,W,1,05,2.1,1060.3,M,35.0,M,,0000*64
$GPGSA,M,3,12,27,09,26,15,,,,,,,,5.2,2.1,4.7*36
$GPRMC,104036.000,A,1926.9261,S,06958.0607,W,1.37,333.11,010511,,,A*60
$GPGGA,104037.000,1926.9260,S,06958.0606,W,1,05,2.1,1064.6,M,35.0,M,,0000*64
$GPGSA,M,3,12,27,09,26,15,,,,,,,,5.2,2.1,4.7*36
$GPGSV,3,1,11,15,72,266,26,26,60,019,30,27,45,187,23,12,38,262,32*71
$GPGSV,3,2,11,09,35,204,28,17,27,135,26,02,15,029,,04,15,070,*71
$GPGSV,3,3,11,25,07,286,28,18,06,252,22,05,06,000,*46
$GPRMC,104037.000,A,1926.9260,S,06958.0606,W,0.45,22.02,010511,,,A*54
$GPGGA,104038.000,1926.9257,S,06958.0590,W,1,05,2.1,1064.2,M,35.0,M,,0000*67
$GPGSA,M,3,12,27,09,26,15,,,,,,,,5.2,2.1,4.7*36
$GPRMC,104038.000,A,1926.9257,S,06958.0590,W,0.50,59.10,010511,,,A*58
$GPGGA,104039.000,1926.9261,S,06958.0582,W,1,05,2.1,1068.3,M,35.0,M,,0000*6D
$GPGSA,M,3,12,27,09,26,15,,,,,,,,5.2,2.1,4.7*36
$GPRMC,104039.000,A,1926.9261,S,06958.0582,W,1.11,128.69,010511,,,A*62
$GPGGA,104040.000,1926.9264,S,06958.0582,W,1,04,3.1,1071.2,M,35.0,M,,0000*6F
$GPGSA,M,3,12,27,09,15,,,,,,,,,3.2,3.1,1.0*37
$GPRMC,104040.000,A,1926.9264,S,06958.0582,W,0.47,107.09,010511,,,A*60
$GPGGA,104041.000,1926.9271,S,06958.0578,W,1,05,2.1,1073.2,M,35.0,M,,0000*6D
$GPGSA,M,3,12,27,09,26,15,,,,,,,,5.2,2.1,4.7*36
$GPRMC,104041.000,A,1926.9271,S,06958.0578,W,0.60,126.00,010511,,,A*6F
$GPGGA,104042.000,1926.9269,S,06958.0574,W,1,05,2.1,1072.2,M,35.0,M,,0000*6A
$GPGSA,M,3,12,27,09,26,15,,,,,,,,5.2,2.1,4.7*36
$GPGSV,3,1,11,15,72,266,26,26,60,019,29,27,45,187,23,12,38,262,30*7B
$GPGSV,3,2,11,09,35,204,26,17,27,135,25,02,15,029,,04,15,070,*7C
$GPGSV,3,3,11,25,07,286,26,18,06,252,21,05,06,000,*4B
$GPRMC,104042.000,A,1926.9269,S,06958.0574,W,0.37,319.36,010511,,,A*60
$GPGGA,104043.000,1926.9268,S,06958.0573,W,1,05,2.1,1071.5,M,35.0,M,,0000*69
$GPGSA,M,3,12,27,09,26,15,,,,,,,,5.2,2.1,4.7*36
$GPRMC,104043.000,A,1926.9268,S,06958.0573,W,1.22,302.17,010511,,,A*6B
$GPGGA,104044.000,1926.9276,S,06958.0577,W,1,05,2.1,1072.0,M,35.0,M,,0000*63
$GPGSA,M,3,12,27,09,26,15,,,,,,,,5.2,2.1,4.7*36
$GPRMC,104044.000,A,1926.9276,S,06958.0577,W,0.84,281.89,010511,,,A*67
$GPGGA,104045.000,1926.9276,S,06958.0579,W,0,00,,1071.9,M,35.0,M,,0000*4F
$GPGSA,M,1,,,,,,,,,,,,,,,*12
$GPRMC,104045.000,V,1926.9276,S,06958.0579,W,,,010511,,,N*76
$GPGGA,104046.000,1926.9275,S,06958.0581,W,0,00,,1071.8,M,35.0,M,,0000*49
$GPGSA,M,1,,,,,,,,,,,,,,,*12
$GPRMC,104046.000,V,1926.9275,S,06958.0581,W,,,010511,,,N*71
$GPGGA,104047.000,1926.9272,S,06958.0587,W,1,05,2.1,1071.9,M,35.0,M,,0000*61
$GPGSA,M,3,12,27,09,26,15,,,,,,,,5.2,2.1,4.7*36
$GPGSV,3,1,11,15,72,266,26,26,60,019,28,27,45,187,23,12,38,262,29*72
$GPGSV,3,2,11,09,35,204,27,17,27,135,25,02,15,029,,04,15,070,*7D
$GPGSV,3,3,11,25,07,286,26,18,06,252,21,05,06,000,*4B
$GPRMC,104047.000,A,1926.9272,S,06958.0587,W,0.55,339.70,010511,,,A*67
$GPGGA,104048.000,1926.9270,S,06958.0588,W,0,00,,1071.9,M,35.0,M,,0000*4A
$GPGSA,M,1,,,,,,,,,,,,,,,*12
$GPRMC,104048.000,V,1926.9270,S,06958.0588,W,,,010511,,,N*73
$GPGGA,104049.000,1926.9269,S,06958.0589,W,0,00,,1071.8,M,35.0,M,,0000*43
$GPGSA,M,1,,,,,,,,,,,,,,,*12
$GPRMC,104049.000,V,1926.9269,S,06958.0589,W,,,010511,,,N*7B
$GPGGA,104050.000,1926.9267,S,06958.0589,W,1,05,2.1,1072.1,M,35.0,M,,0000*66
$GPGSA,M,3,12,27,09,26,15,,,,,,,,5.2,2.1,4.7*36
$GPRMC,104050.000,A,1926.9267,S,06958.0589,W,0.78,17.26,010511,,,A*58
$GPGGA,104051.000,1926.9266,S,06958.0599,W,1,05,2.1,1073.3,M,35.0,M,,0000*64
$GPGSA,M,3,12,27,09,26,15,,,,,,,,5.2,2.1,4.7*36
$GPRMC,104051.000,A,1926.9266,S,06958.0599,W,0.53,45.73,010511,,,A*57
$GPGGA,104052.000,1926.9265,S,06958.0598,W,0,00,,1073.3,M,35.0,M,,0000*4C
$GPGSA,M,1,,,,,,,,,,,,,,,*12
$GPGSV,3,1,11,15,72,266,26,26,60,019,,27,45,187,25,12,38,262,31*77
$GPGSV,3,2,11,09,35,204,25,17,27,135,25,02,15,029,,04,15,070,*7F
$GPGSV,3,3,11,25,07,286,28,18,06,252,23,05,06,000,*47
$GPRMC,104052.000,V,1926.9265,S,06958.0598,W,,,010511,,,N*7D
$GPGGA,104053.000,1926.9264,S,06958.0597,W,0,00,,1073.4,M,35.0,M,,0000*44
$GPGSA,M,1,,,,,,,,,,,,,,,*12
$GPRMC,104053.000,V,1926.9264,S,06958.0597,W,,,010511,,,N*72
$GPGGA,104054.000,1926.9267,S,06958.0581,W,1,04,3.1,1075.2,M,35.0,M,,0000*6E
$GPGSA,M,3,12,27,09,15,,,,,,,,,3.2,3.1,1.0*37
$GPRMC,104054.000,A,1926.9267,S,06958.0581,W,1.16,58.98,010511,,,A*53
$GPGGA,104055.000,1926.9264,S,06958.0568,W,1,05,2.1,1075.1,M,35.0,M,,0000*68
$GPGSA,M,3,12,27,09,26,15,,,,,,,,5.2,2.1,4.7*36
$GPRMC,104055.000,A,1926.9264,S,06958.0568,W,0.99,54.82,010511,,,A*57
$GPGGA,104056.000,1926.9259,S,06958.0571,W,1,04,3.1,1076.9,M,35.0,M,,0000*66
$GPGSA,M,3,12,27,09,15,,,,,,,,,3.2,3.1,1.0*37
$GPRMC,104056.000,A,1926.9259,S,06958.0571,W,0.79,39.61,010511,,,A*5A
$GPGGA,104057.000,1926.9258,S,06958.0569,W,0,00,,1077.1,M,35.0,M,,0000*4F
$GPGSA,M,1,,,,,,,,,,,,,,,*12
$GPGSV,3,1,11,15,72,266,26,26,60,019,26,27,45,187,24,12,38,262,30*73
$GPGSV,3,2,11,09,35,204,25,17,27,135,25,02,15,029,,04,15,070,*7F
$GPGSV,3,3,11,25,07,286,27,18,06,252,22,05,06,000,*49
$GPRMC,104057.000,V,1926.9258,S,06958.0569,W,,,010511,,,N*78
$GPGGA,104058.000,1926.9256,S,06958.0568,W,0,00,,1077.3,M,35.0,M,,0000*4D
$GPGSA,M,1,,,,,,,,,,,,,,,*12
$GPRMC,104058.000,V,1926.9256,S,06958.0568,W,,,010511,,,N*78
$GPGGA,104059.000,1926.9259,S,06958.0567,W,1,05,2.1,1079.0,M,35.0,M,,0000*68
$GPGSA,M,3,12,27,09,26,15,,,,,,,,5.2,2.1,4.7*36
$GPRMC,104059.000,A,1926.9259,S,06958.0567,W,0.62,11.56,010511,,,A*56
$GPGGA,104100.000,1926.9260,S,06958.0558,W,1,05,2.1,1078.8,M,35.0,M,,0000*6A
$GPGSA,M,3,12,27,09,26,15,,,,,,,,5.2,2.1,4.7*36
$GPRMC,104100.000,A,1926.9260,S,06958.0558,W,1.08,353.75,010511,,,A*64
$GPGGA,104101.000,1926.9257,S,06958.0559,W,0,00,,1079.1,M,35.0,M,,0000*4F
$GPGSA,M,1,,,,,,,,,,,,,,,*12
$GPRMC,104101.000,V,1926.9257,S,06958.0559,W,,,010511,,,N*76
$GPGGA,104102.000,1926.9254,S,06958.0559,W,0,00,,1079.4,M,35.0,M,,0000*4A
$GPGSA,M,1,,,,,,,,,,,,,,,*12
$GPGSV,3,1,11,15,72,266,26,26,60,019,27,27,45,187,24,12,38,262,35*77
$GPGSV,3,2,11,09,35,204,26,17,27,135,25,02,15,029,,04,15,070,*7C
$GPGSV,3,3,11,25,07,286,27,18,06,252,22,05,06,000,*49
$GPRMC,104102.000,V,1926.9254,S,06958.0559,W,,,010511,,,N*76
$GPGGA,104103.000,1926.9251,S,06958.0582,W,1,05,2.1,1079.1,M,35.0,M,,0000*64
$GPGSA,M,3,12,27,09,26,15,,,,,,,,5.2,2.1,4.7*36
$GPRMC,104103.000,A,1926.9251,S,06958.0582,W,0.56,349.26,010511,,,A*65
$GPGGA,104104.000,1926.9250,S,06958.0582,W,0,00,,1079.3,M,35.0,M,,0000*49
$GPGSA,M,1,,,,,,,,,,,,,,,*12
$GPRMC,104104.000,V,1926.9250,S,06958.0582,W,,,010511,,,N*72
$GPGGA,104105.000,1926.9244,S,06958.0583,W,1,04,4.2,1079.2,M,35.0,M,,0000*60
$GPGSA,M,3,27,09,26,15,,,,,,,,,7.7,4.2,6.5*37
$GPRMC,104105.000,A,1926.9244,S,06958.0583,W,1.13,4.96,010511,,,A*67
$GPGGA,104106.000,1926.9241,S,06958.0583,W,0,00,,1079.4,M,35.0,M,,0000*4D
$GPGSA,M,1,,,,,,,,,,,,,,,*12
$GPRMC,104106.000,V,1926.9241,S,06958.0583,W,,,010511,,,N*71
$GPGGA,104107.000,1926.9237,S,06958.0583,W,0,00,,1079.6,M,35.0,M,,0000*4F
$GPGSA,M,1,,,,,,,,,,,,,,,*12
$GPGSV,3,1,11,15,72,271,28,26,58,018,28,27,46,185,23,12,38,260,*78
$GPGSV,3,2,11,09,35,203,26,17,26,136,25,02,16,031,,04,15,071,*72
$GPGSV,3,3,11,25,08,285,27,18,06,254,22,05,05,001,*41
$GPRMC,104107.000,V,1926.9237,S,06958.0583,W,,,010511,,,N*71
$GPGGA,104108.000,1926.9237,S,06958.0603,W,1,05,2.1,1079.4,M,35.0,M,,0000*60
$GPGSA,M,3,12,27,09,26,15,,,,,,,,5.2,2.1,4.7*36
$GPRMC,104108.000,A,1926.9237,S,06958.0603,W,3.66,327.26,010511,,,A*6C
$GPGGA,104109.000,1926.9228,S,06958.0609,W,0,00,,1079.6,M,35.0,M,,0000*4E
$GPGSA,M,1,,,,,,,,,,,,,,,*12
$GPRMC,104109.000,V,1926.9228,S,06958.0609,W,,,010511,,,N*70
$GPGGA,104110.000,1926.9220,S,06958.0614,W,0,00,,1079.8,M,35.0,M,,0000*4C
$GPGSA,M,1,,,,,,,,,,,,,,,*12
$GPRMC,104110.000,V,1926.9220,S,06958.0614,W,,,010511,,,N*7C
$GPGGA,104111.000,1926.9211,S,06958.0620,W,0,00,,1080.0,M,35.0,M,,0000*46
$GPGSA,M,1,,,,,,,,,,,,,,,*12
$GPRMC,104111.000,V,1926.9211,S,06958.0620,W,,,010511,,,N*78
$GPGGA,104112.000,1926.9203,S,06958.0626,W,0,00,,1080.2,M,35.0,M,,0000*42
$GPGSA,M,1,,,,,,,,,,,,,,,*12
$GPGSV,3,1,11,15,72,271,27,26,58,018,28,27,46,185,24,12,38,260,34*77
$GPGSV,3,2,11,09,35,203,26,17,26,136,25,02,16,031,,04,15,071,*72
$GPGSV,3,3,11,25,08,285,27,18,06,254,22,05,05,001,*41
$GPRMC,104112.000,V,1926.9203,S,06958.0626,W,,,010511,,,N*7E
$GPGGA,104113.000,1926.9234,S,06958.0619,W,1,05,2.1,1079.9,M,35.0,M,,0000*6F
$GPGSA,M,3,12,27,09,26,15,,,,,,,,5.2,2.1,4.7*36
$GPRMC,104113.000,A,1926.9234,S,06958.0619,W,1.54,299.50,010511,,,A*68
$GPGGA,104114.000,1926.9258,S,06958.0633,W,1,05,2.1,1080.6,M,35.0,M,,0000*63
$GPGSA,M,3,12,27,09,26,15,,,,,,,,5.2,2.1,4.7*36
$GPRMC,104114.000,A,1926.9258,S,06958.0633,W,1.53,284.54,010511,,,A*62
$GPGGA,104115.000,1926.9263,S,06958.0622,W,1,05,2.1,1080.2,M,35.0,M,,0000*6E
$GPGSA,M,3,12,27,09,26,15,,,,,,,,5.2,2.1,4.7*36
$GPRMC,104115.000,A,1926.9263,S,06958.0622,W,1.29,297.29,010511,,,A*6E
$GPGGA,104116.000,1926.9266,S,06958.0616,W,1,05,2.1,1080.2,M,35.0,M,,0000*6F
$GPGSA,M,3,12,27,09,26,15,,,,,,,,5.2,2.1,4.7*36
$GPRMC,104116.000,A,1926.9266,S,06958.0616,W,0.26,306.12,010511,,,A*60
$GPGGA,104117.000,1926.9278,S,06958.0603,W,1,04,3.1,1080.8,M,35.0,M,,0000*6F
$GPGSA,M,3,12,27,09,15,,,,,,,,,3.2,3.1,1.0*37
$GPGSV,3,1,11,15,72,271,28,26,58,018,26,27,46,185,25,12,38,260,31*72
$GPGSV,3,2,11,09,35,203,26,17,26,136,26,02,16,031,,04,15,071,*71
$GPGSV,3,3,11,25,08,285,28,18,06,254,22,05,05,001,*4E
$GPRMC,104117.000,A,1926.9278,S,06958.0603,W,0.61,336.62,010511,,,A*6D
$GPGGA,104118.000,1926.9281,S,06958.0595,W,1,05,2.1,1083.8,M,35.0,M,,0000*69
$GPGSA,M,3,12,27,09,26,15,,,,,,,,5.2,2.1,4.7*36
$GPRMC,104118.000,A,1926.9281,S,06958.0595,W,1.77,344.39,010511,,,A*65
$GPGGA,104119.000,1926.9276,S,06958.0594,W,1,05,2.1,1083.7,M,35.0,M,,0000*6E
$GPGSA,M,3,12,27,09,26,15,,,,,,,,5.2,2.1,4.7*36
$GPRMC,104119.000,A,1926.9276,S,06958.0594,W,1.29,326.46,010511,,,A*6A
$GPGGA,104120.000,1926.9273,S,06958.0596,W,0,00,,1083.9,M,35.0,M,,0000*44
$GPGSA,M,1,,,,,,,,,,,,,,,*12
$GPRMC,104120.000,V,1926.9273,S,06958.0596,W,,,010511,,,N*70
$GPGGA,104121.000,1926.9270,S,06958.0598,W,0,00,,1084.2,M,35.0,M,,0000*44
$GPGSA,M,1,,,,,,,,,,,,,,,*12
$GPRMC,104121.000,V,1926.9270,S,06958.0598,W,,,010511,,,N*7C
$GPGGA,104122.000,1926.9267,S,06958.0600,W,0,00,,1084.4,M,35.0,M,,0000*45
$GPGSA,M,1,,,,,,,,,,,,,,,*12
$GPGSV,3,1,11,15,72,271,27,26,58,018,30,27,46,185,23,12,38,260,*7E
$GPGSV,3,2,11,09,35,203,26,17,26,136,26,02,16,031,,04,15,071,*71
$GPGSV,3,3,11,25,08,285,26,18,06,254,21,05,05,001,*43
$GPRMC,104122.000,V,1926.9267,S,06958.0600,W,,,010511,,,N*7B
$GPGGA,104123.000,1926.9269,S,06958.0610,W,1,04,4.1,1085.5,M,35.0,M,,0000*65
$GPGSA,M,3,26,27,09,15,,,,,,,,,7.7,4.1,6.5*34
$GPRMC,104123.000,A,1926.9269,S,06958.0610,W,1.86,282.43,010511,,,A*6D
$GPGGA,104124.000,1926.9268,S,06958.0615,W,0,00,,1085.8,M,35.0,M,,0000*45
$GPGSA,M,1,,,,,,,,,,,,,,,*12
$GPRMC,104124.000,V,1926.9268,S,06958.0615,W,,,010511,,,N*76
$GPGGA,104125.000,1926.9267,S,06958.0620,W,0,00,,1086.1,M,35.0,M,,0000*47
$GPGSA,M,1,,,,,,,,,,,,,,,*12
$GPRMC,104125.000,V,1926.9267,S,06958.0620,W,,,010511,,,N*7E
$GPGGA,104126.000,1926.9257,S,06958.0626,W,1,05,2.1,1086.0,M,35.0,M,,0000*69
$GPGSA,M,3,26,27,09,12,15,,,,,,,,5.2,2.1,4.7*36
$GPRMC,104126.000,A,1926.9257,S,06958.0626,W,0.49,348.24,010511,,,A*64
$GPGGA,104127.000,1926.9249,S,06958.0595,W,1,05,2.1,1085.7,M,35.0,M,,0000*68
$GPGSA,M,3,26,27,09,12,15,,,,,,,,5.2,2.1,4.7*36
$GPGSV,3,1,11,15,72,271,27,26,58,018,28,27,46,185,23,12,38,260,29*7C
$GPGSV,3,2,11,09,35,203,26,17,26,136,25,02,16,031,,04,15,071,*72
$GPGSV,3,3,11,25,08,285,26,18,06,254,21,05,05,001,*43
$GPRMC,104127.000,A,1926.9249,S,06958.0595,W,1.07,102.17,010511,,,A*66
$GPGGA,104128.000,1926.9250,S,06958.0615,W,1,04,2.2,1086.9,M,35.0,M,,0000*6B
$GPGSA,M,3,26,27,12,15,,,,,,,,,5.6,2.2,5.2*3C
$GPRMC,104128.000,A,1926.9250,S,06958.0615,W,0.85,148.93,010511,,,A*63
$GPGGA,104129.000,1926.9254,S,06958.0592,W,1,05,2.1,1085.6,M,35.0,M,,0000*6C
$GPGSA,M,3,26,27,09,12,15,,,,,,,,5.2,2.1,4.7*36
$GPRMC,104129.000,A,1926.9254,S,06958.0592,W,0.85,167.13,010511,,,A*6F
$GPGGA,104130.000,1926.9266,S,06958.0585,W,1,05,2.1,1088.4,M,35.0,M,,0000*6C
$GPGSA,M,3,26,27,09,12,15,,,,,,,,5.2,2.1,4.7*36
$GPRMC,104130.000,A,1926.9266,S,06958.0585,W,0.65,153.41,010511,,,A*6E
$GPGGA,104131.000,1926.9267,S,06958.0584,W,0,00,,1088.7,M,35.0,M,,0000*47
$GPGSA,M,1,,,,,,,,,,,,,,,*12
$GPRMC,104131.000,V,1926.9267,S,06958.0584,W,,,010511,,,N*76
$GPGGA,104132.000,1926.9269,S,06958.0583,W,0,00,,1089.1,M,35.0,M,,0000*4A
$GPGSA,M,1,,,,,,,,,,,,,,,*12
$GPGSV,3,1,11,15,72,271,27,26,58,018,30,27,46,185,23,12,38,260,33*7E
$GPGSV,3,2,11,09,35,203,28,17,26,136,27,02,16,031,,04,15,071,*7E
$GPGSV,3,3,11,25,08,285,30,18,06,254,21,05,05,001,*44
$GPRMC,104132.000,V,1926.9269,S,06958.0583,W,,,010511,,,N*7C
$GPGGA,104133.000,1926.9271,S,06958.0583,W,0,00,,1089.5,M,35.0,M,,0000*46
$GPGSA,M,1,,,,,,,,,,,,,,,*12
$GPRMC,104133.000,V,1926.9271,S,06958.0583,W,,,010511,,,N*74
$GPGGA,104134.000,1926.9278,S,06958.0584,W,1,05,2.1,1090.3,M,35.0,M,,0000*68
$GPGSA,M,3,26,27,09,12,15,,,,,,,,5.2,2.1,4.7*36
$GPRMC,104134.000,A,1926.9278,S,06958.0584,W,0.93,228.20,010511,,,A*65
$GPGGA,104135.000,1926.9274,S,06958.0601,W,1,05,2.1,1095.7,M,35.0,M,,0000*6A
$GPGSA,M,3,26,27,09,12,15,,,,,,,,5.2,2.1,4.7*36
$GPRMC,104135.000,A,1926.9274,S,06958.0601,W,0.81,272.88,010511,,,A*68
$GPGGA,104136.000,1926.9275,S,06958.0609,W,1,05,2.1,1098.9,M,35.0,M,,0000*63
$GPGSA,M,3,26,27,09,12,15,,,,,,,,5.2,2.1,4.7*36
$GPRMC,104136.000,A,1926.9275,S,06958.0609,W,0.44,334.05,010511,,,A*6D
$GPGGA,104137.000,1926.9282,S,06958.0606,W,1,05,2.1,1099.6,M,35.0,M,,0000*6B
$GPGSA,M,3,26,27,09,12,15,,,,,,,,5.2,2.1,4.7*36
$GPGSV,3,1,11,15,72,271,27,26,58,018,29,27,46,185,23,12,38,260,34*71
$GPGSV,3,2,11,09,35,203,30,17,26,136,25,02,16,031,,04,15,071,*75
$GPGSV,3,3,11,25,08,285,28,18,06,254,21,05,05,001,*4D
$GPRMC,104137.000,A,1926.9282,S,06958.0606,W,0.23,259.46,010511,,,A*67
$GPGGA,104138.000,1926.9291,S,06958.0604,W,1,05,2.1,1104.4,M,35.0,M,,0000*63
$GPGSA,M,3,26,27,09,12,15,,,,,,,,5.2,2.1,4.7*36
$GPRMC,104138.000,A,1926.9291,S,06958.0604,W,0.52,178.55,010511,,,A*6C
$GPGGA,104139.000,1926.9304,S,06958.0607,W,1,04,2.5,1105.6,M,35.0,M,,0000*6A
$GPGSA,M,3,26,09,12,15,,,,,,,,,5.4,2.5,4.8*3E
$GPRMC,104139.000,A,1926.9304,S,06958.0607,W,1.85,196.93,010511,,,A*62
$GPGGA,104140.000,1926.9309,S,06958.0609,W,0,00,,1106.6,M,35.0,M,,0000*48
$GPGSA,M,1,,,,,,,,,,,,,,,*12
$GPRMC,104140.000,V,1926.9309,S,06958.0609,W,,,010511,,,N*7F
$GPGGA,104141.000,1926.9314,S,06958.0610,W,0,00,,1107.5,M,35.0,M,,0000*4F
$GPGSA,M,1,,,,,,,,,,,,,,,*12
$GPRMC,104141.000,V,1926.9314,S,06958.0610,W,,,010511,,,N*7A
$GPGGA,104142.000,1926.9314,S,06958.0619,W,1,04,4.1,1106.6,M,35.0,M,,0000*69
$GPGSA,M,3,26,27,09,15,,,,,,,,,7.7,4.1,6.5*34
$GPGSV,3,1,11,15,72,271,27,26,58,018,29,27,46,185,24,12,38,260,*71
$GPGSV,3,2,11,09,35,203,26,17,26,136,25,02,16,031,,04,15,071,*72
$GPGSV,3,3,11,25,08,285,25,18,06,254,21,05,05,001,*40
$GPRMC,104142.000,A,1926.9314,S,06958.0619,W,2.92,239.60,010511,,,A*6F
$GPGGA,104143.000,1926.9310,S,06958.0607,W,1,05,2.1,1102.8,M,35.0,M,,0000*6E
$GPGSA,M,3,26,27,09,12,15,,,,,,,,5.2,2.1,4.7*36
$GPRMC,104143.000,A,1926.9310,S,06958.0607,W,2.00,152.79,010511,,,A*68
$GPGGA,104144.000,1926.9304,S,06958.0608,W,1,05,2.1,1101.6,M,35.0,M,,0000*6E
$GPGSA,M,3,26,27,09,12,15,,,,,,,,5.2,2.1,4.7*36
$GPRMC,104144.000,A,1926.9304,S,06958.0608,W,0.97,114.70,010511,,,A*62
$GPGGA,104145.000,1926.9306,S,06958.0606,W,0,00,,1102.2,M,35.0,M,,0000*4D
$GPGSA,M,1,,,,,,,,,,,,,,,*12
$GPRMC,104145.000,V,1926.9306,S,06958.0606,W,,,010511,,,N*7A
$GPGGA,104146.000,1926.9307,S,06958.0603,W,0,00,,1102.7,M,35.0,M,,0000*4F
$GPGSA,M,1,,,,,,,,,,,,,,,*12
$GPRMC,104146.000,V,1926.9307,S,06958.0603,W,,,010511,,,N*7D
$GPGGA,104147.000,1926.9302,S,06958.0601,W,1,04,4.1,1101.5,M,35.0,M,,0000*66
$GPGSA,M,3,26,27,09,15,,,,,,,,,7.7,4.1,6.5*34
$GPGSV,3,1,11,15,72,271,27,26,58,018,28,27,46,185,24,12,38,260,*70
$GPGSV,3,2,11,09,35,203,27,17,26,136,24,02,16,031,,04,15,071,*72
$GPGSV,3,3,11,25,08,285,27,18,06,254,22,05,05,001,*41
$GPRMC,104147.000,A,1926.9302,S,06958.0601,W,1.07,97.59,010511,,,A*57
$GPGGA,104148.000,1926.9293,S,06958.0612,W,1,04,3.1,1099.9,M,35.0,M,,0000*69
$GPGSA,M,3,27,09,12,15,,,,,,,,,3.2,3.1,1.0*37
$GPRMC,104148.000,A,1926.9293,S,06958.0612,W,0.32,275.65,010511,,,A*65
$GPGGA,104149.000,1926.9297,S,06958.0603,W,1,05,2.1,1096.5,M,35.0,M,,0000*6F
$GPGSA,M,3,26,27,09,12,15,,,,,,,,5.2,2.1,4.7*36
$GPRMC,104149.000,A,1926.9297,S,06958.0603,W,0.53,256.13,010511,,,A*67
$GPGGA,104150.000,1926.9289,S,06958.0608,W,1,04,1.8,1095.0,M,35.0,M,,0000*6E
$GPGSA,M,3,26,27,09,12,,,,,,,,,2.1,1.8,1.0*3E
$GPRMC,104150.000,A,1926.9289,S,06958.0608,W,0.51,311.64,010511,,,A*6B
$GPGGA,104151.000,1926.9288,S,06958.0609,W,0,00,,1095.0,M,35.0,M,,0000*4D
$GPGSA,M,1,,,,,,,,,,,,,,,*12
$GPRMC,104151.000,V,1926.9288,S,06958.0609,W,,,010511,,,N*77
$GPGGA,104152.000,1926.9285,S,06958.0608,W,1,05,2.1,1093.4,M,35.0,M,,0000*69
$GPGSA,M,3,26,27,09,12,15,,,,,,,,5.2,2.1,4.7*36
$GPGSV,3,1,11,15,72,271,19,26,58,018,27,27,46,185,23,12,38,260,29*7E
$GPGSV,3,2,11,09,35,203,26,17,26,136,24,02,16,031,,04,15,071,*73
$GPGSV,3,3,11,25,08,285,26,18,06,254,21,05,05,001,*43
$GPRMC,104152.000,A,1926.9285,S,06958.0608,W,0.84,128.91,010511,,,A*6F
$GPGGA,104153.000,1926.9287,S,06958.0606,W,1,05,2.1,1093.9,M,35.0,M,,0000*69
$GPGSA,M,3,26,27,09,12,15,,,,,,,,5.2,2.1,4.7*36
$GPRMC,104153.000,A,1926.9287,S,06958.0606,W,0.37,75.97,010511,,,A*55
$GPGGA,104154.000,1926.9287,S,06958.0602,W,1,05,2.1,1092.6,M,35.0,M,,0000*64
$GPGSA,M,3,26,27,09,12,15,,,,,,,,5.2,2.1,4.7*36
$GPRMC,104154.000,A,1926.9287,S,06958.0602,W,0.21,109.35,010511,,,A*63
$GPGGA,104155.000,1926.9285,S,06958.0601,W,1,05,2.1,1092.6,M,35.0,M,,0000*64
$GPGSA,M,3,26,27,09,12,15,,,,,,,,5.2,2.1,4.7*36
$GPRMC,104155.000,A,1926.9285,S,06958.0601,W,0.67,4.43,010511,,,A*6C
$GPGGA,104156.000,1926.9283,S,06958.0601,W,1,05,2.1,1093.7,M,35.0,M,,0000*61
$GPGSA,M,3,26,27,09,12,15,,,,,,,,5.2,2.1,4.7*36
$GPRMC,104156.000,A,1926.9283,S,06958.0601,W,0.88,344.35,010511,,,A*6E
$GPGGA,104157.000,1926.9283,S,06958.0599,W,1,05,2.1,1094.7,M,35.0,M,,0000*65
$GPGSA,M,3,26,27,09,12,15,,,,,,,,5.2,2.1,4.7*36
$GPGSV,3,1,11,15,72,271,26,26,58,018,29,27,46,185,23,12,38,260,33*77
$GPGSV,3,2,11,09,35,203,26,17,26,136,24,02,16,031,,04,15,071,*73
$GPGSV,3,3,11,25,08,285,29,18,06,254,21,05,05,001,*4C
$GPRMC,104157.000,A,1926.9283,S,06958.0599,W,0.17,22.88,010511,,,A*5E
$GPGGA,104158.000,1926.9280,S,06958.0593,W,1,05,2.1,1092.6,M,35.0,M,,0000*64
$GPGSA,M,3,26,27,09,12,15,,,,,,,,5.2,2.1,4.7*36
$GPRMC,104158.000,A,1926.9280,S,06958.0593,W,0.52,52.39,010511,,,A*54
$GPGGA,104159.000,1926.9276,S,06958.0595,W,1,04,1.8,1091.7,M,35.0,M,,0000*63
$GPGSA,M,3,26,27,09,12,,,,,,,,,2.1,1.8,1.0*3E
$GPRMC,104159.000,A,1926.9276,S,06958.0595,W,0.56,93.89,010511,,,A*58
$GPGGA,104200.000,1926.9276,S,06958.0594,W,0,00,,1091.6,M,35.0,M,,0000*4E
$GPGSA,M,1,,,,,,,,,,,,,,,*12
$GPRMC,104200.000,V,1926.9276,S,06958.0594,W,,,010511,,,N*76
$GPGGA,104201.000,1926.9276,S,06958.0592,W,0,00,,1091.5,M,35.0,M,,0000*4A
$GPGSA,M,1,,,,,,,,,,,,,,,*12
$GPRMC,104201.000,V,1926.9276,S,06958.0592,W,,,010511,,,N*71
$GPGGA,104202.000,1926.9275,S,06958.0593,W,1,04,4.1,1091.8,M,35.0,M,,0000*68
$GPGSA,M,3,26,27,09,15,,,,,,,,,7.7,4.1,6.5*34
$GPGSV,3,1,11,15,72,271,27,26,58,018,27,27,46,185,23,12,38,260,*78
$GPGSV,3,2,11,09,35,203,28,17,26,136,26,02,16,031,,04,15,071,*7F
$GPGSV,3,3,11,25,08,285,30,18,06,254,21,05,05,001,*44
$GPRMC,104202.000,A,1926.9275,S,06958.0593,W,0.52,34.34,010511,,,A*5F
$GPGGA,104203.000,1926.9274,S,06958.0592,W,0,00,,1091.7,M,35.0,M,,0000*48
$GPGSA,M,1,,,,,,,,,,,,,,,*12
$GPRMC,104203.000,V,1926.9274,S,06958.0592,W,,,010511,,,N*71
$GPGGA,104204.000,1926.9273,S,06958.0591,W,0,00,,1091.6,M,35.0,M,,0000*4A
$GPGSA,M,1,,,,,,,,,,,,,,,*12
$GPRMC,104204.000,V,1926.9273,S,06958.0591,W,,,010511,,,N*72
$GPGGA,104205.000,1926.9270,S,06958.0605,W,1,04,4.1,1090.9,M,35.0,M,,0000*66
$GPGSA,M,3,26,27,09,15,,,,,,,,,7.7,4.1,6.5*34
$GPRMC,104205.000,A,1926.9270,S,06958.0605,W,1.60,275.62,010511,,,A*65
$GPGGA,104206.000,1926.9264,S,06958.0613,W,1,05,2.1,1089.1,M,35.0,M,,0000*60
$GPGSA,M,3,26,27,09,12,15,,,,,,,,5.2,2.1,4.7*36
$GPRMC,104206.000,A,1926.9264,S,06958.0613,W,0.61,322.11,010511,,,A*63
$GPGGA,104207.000,1926.9261,S,06958.0626,W,1,04,4.1,1088.8,M,35.0,M,,0000*6D
$GPGSA,M,3,26,27,09,15,,,,,,,,,7.7,4.1,6.5*34
$GPGSV,3,1,11,15,72,271,25,26,58,018,29,27,46,185,23,12,38,260,*74
$GPGSV,3,2,11,09,35,203,27,17,26,136,25,02,16,031,,04,15,071,*73
$GPGSV,3,3,11,25,08,285,28,18,06,254,21,05,05,001,*4D
$GPRMC,104207.000,A,1926.9261,S,06958.0626,W,0.48,297.30,010511,,,A*66
$GPGGA,104208.000,1926.9255,S,06958.0611,W,1,05,2.1,1086.8,M,35.0,M,,0000*68
$GPGSA,M,3,26,27,09,12,15,,,,,,,,5.2,2.1,4.7*36
$GPRMC,104208.000,A,1926.9255,S,06958.0611,W,0.76,127.94,010511,,,A*61
$GPGGA,104209.000,1926.9256,S,06958.0627,W,1,05,2.1,1087.4,M,35.0,M,,0000*62
$GPGSA,M,3,26,27,09,12,15,,,,,,,,5.2,2.1,4.7*36
$GPRMC,104209.000,A,1926.9256,S,06958.0627,W,0.37,124.21,010511,,,A*6E
$GPGGA,104210.000,1926.9256,S,06958.0626,W,0,00,,1087.1,M,35.0,M,,0000*47
$GPGSA,M,1,,,,,,,,,,,,,,,*12
$GPRMC,104210.000,V,1926.9256,S,06958.0626,W,,,010511,,,N*7F
$GPGGA,104211.000,1926.9257,S,06958.0625,W,0,00,,1086.9,M,35.0,M,,0000*4D
$GPGSA,M,1,,,,,,,,,,,,,,,*12
$GPRMC,104211.000,V,1926.9257,S,06958.0625,W,,,010511,,,N*7C
$GPGGA,104212.000,1926.9256,S,06958.0622,W,1,05,2.1,1086.3,M,35.0,M,,0000*6B
$GPGSA,M,3,26,27,09,12,15,,,,,,,,5.2,2.1,4.7*36
$GPGSV,3,1,11,15,72,271,22,26,58,018,26,27,46,185,23,12,38,260,28*76
$GPGSV,3,2,11,09,35,203,18,17,26,136,24,02,16,031,,04,15,071,*7E
$GPGSV,3,3,11,25,08,285,,18,06,254,21,05,05,001,*47
$GPRMC,104212.000,A,1926.9256,S,06958.0622,W,0.02,147.08,010511,,,A*69
$GPGGA,104213.000,1926.9237,S,06958.0625,W,1,05,2.1,1085.4,M,35.0,M,,0000*6E
$GPGSA,M,3,26,27,09,12,15,,,,,,,,5.2,2.1,4.7*36
$GPRMC,104213.000,A,1926.9237,S,06958.0625,W,1.42,36.31,010511,,,A*50
$GPGGA,104214.000,1926.9234,S,06958.0623,W,0,00,,1085.0,M,35.0,M,,0000*41
$GPGSA,M,1,,,,,,,,,,,,,,,*12
$GPRMC,104214.000,V,1926.9234,S,06958.0623,W,,,010511,,,N*7A
$GPGGA,104215.000,1926.9230,S,06958.0620,W,0,00,,1084.7,M,35.0,M,,0000*41
$GPGSA,M,1,,,,,,,,,,,,,,,*12
$GPRMC,104215.000,V,1926.9230,S,06958.0620,W,,,010511,,,N*7C
$GPGGA,104216.000,1926.9227,S,06958.0610,W,1,05,2.1,1085.1,M,35.0,M,,0000*69
$GPGSA,M,3,26,27,09,12,15,,,,,,,,5.2,2.1,4.7*36
$GPRMC,104216.000,A,1926.9227,S,06958.0610,W,2.49,32.85,010511,,,A*51
$GPGGA,104217.000,1926.9221,S,06958.0606,W,0,00,,1084.8,M,35.0,M,,0000*48
$GPGSA,M,1,,,,,,,,,,,,,,,*12
$GPGSV,3,1,11,15,72,271,27,26,58,018,26,27,46,185,24,12,38,260,29*75
$GPGSV,3,2,11,09,35,203,22,17,26,136,24,02,16,031,,04,15,071,*77
$GPGSV,3,3,11,25,08,285,28,18,06,254,18,05,05,001,*47
$GPRMC,104217.000,V,1926.9221,S,06958.0606,W,,,010511,,,N*7A
$GPGGA,104218.000,1926.9215,S,06958.0602,W,0,00,,1084.6,M,35.0,M,,0000*4A
$GPGSA,M,1,,,,,,,,,,,,,,,*12
$GPRMC,104218.000,V,1926.9215,S,06958.0602,W,,,010511,,,N*76
$GPGGA,104219.000,1926.9209,S,06958.0598,W,0,00,,1084.4,M,35.0,M,,0000*44
$GPGSA,M,1,,,,,,,,,,,,,,,*12
$GPRMC,104219.000,V,1926.9209,S,06958.0598,W,,,010511,,,N*7A
$GPGGA,104220.000,1926.9222,S,06958.0614,W,1,05,2.1,1084.0,M,35.0,M,,0000*6D
$GPGSA,M,3,26,27,12,09,15,,,,,,,,5.2,2.1,4.7*36
$GPRMC,104220.000,A,1926.9222,S,06958.0614,W,1.83,317.36,010511,,,A*6C
$GPGGA,104221.000,1926.9232,S,06958.0609,W,1,05,2.1,1079.4,M,35.0,M,,0000*67
$GPGSA,M,3,26,27,12,09,15,,,,,,,,5.2,2.1,4.7*36
$GPRMC,104221.000,A,1926.9232,S,06958.0609,W,0.97,335.90,010511,,,A*68
$GPGGA,104222.000,1926.9245,S,06958.0595,W,1,05,2.1,1079.3,M,35.0,M,,0000*65
$GPGSA,M,3,26,27,12,09,15,,,,,,,,5.2,2.1,4.7*36
$GPGSV,3,1,11,15,72,271,28,26,58,018,27,27,46,185,23,12,38,260,30*74
$GPGSV,3,2,11,09,35,203,27,17,26,136,24,02,16,031,,04,15,071,*72
$GPGSV,3,3,11,25,08,285,30,18,06,254,24,05,05,001,*41
$GPRMC,104222.000,A,1926.9245,S,06958.0595,W,0.56,12.82,010511,,,A*55
$GPGGA,104223.000,1926.9231,S,06958.0596,W,1,05,2.1,1076.0,M,35.0,M,,0000*68
$GPGSA,M,3,26,27,12,09,15,,,,,,,,5.2,2.1,4.7*36
$GPRMC,104223.000,A,1926.9231,S,06958.0596,W,0.50,41.59,010511,,,A*52
$GPGGA,104224.000,1926.9240,S,06958.0593,W,1,05,2.1,1078.2,M,35.0,M,,0000*60
$GPGSA,M,3,26,27,12,09,15,,,,,,,,5.2,2.1,4.7*36
$GPRMC,104224.000,A,1926.9240,S,06958.0593,W,0.72,28.39,010511,,,A*5F
$GPGGA,104225.000,1926.9244,S,06958.0583,W,1,05,2.1,1074.9,M,35.0,M,,0000*63
$GPGSA,M,3,26,27,12,09,15,,,,,,,,5.2,2.1,4.7*36
$GPRMC,104225.000,A,1926.9244,S,06958.0583,W,0.58,23.18,010511,,,A*5B
$GPGGA,104226.000,1926.9247,S,06958.0579,W,1,05,2.1,1074.0,M,35.0,M,,0000*6F
$GPGSA,M,3,26,27,12,09,15,,,,,,,,5.2,2.1,4.7*36
$GPRMC,104226.000,A,1926.9247,S,06958.0579,W,0.31,308.17,010511,,,A*64
$GPGGA,104227.000,1926.9248,S,06958.0577,W,1,05,2.1,1070.9,M,35.0,M,,0000*62
$GPGSA,M,3,26,27,12,09,15,,,,,,,,5.2,2.1,4.7*36
$GPGSV,3,1,11,15,72,271,26,26,58,018,23,27,46,185,22,12,38,260,31*7E
$GPGSV,3,2,11,09,35,203,25,17,26,136,23,02,16,031,,04,15,071,*77
$GPGSV,3,3,11,25,08,285,25,18,06,254,23,05,05,001,*42
$GPRMC,104227.000,A,1926.9248,S,06958.0577,W,0.01,114.38,010511,,,A*65
$GPGGA,104228.000,1926.9257,S,06958.0576,W,1,05,2.1,1070.8,M,35.0,M,,0000*63
$GPGSA,M,3,26,27,12,09,15,,,,,,,,5.2,2.1,4.7*36
$GPRMC,104228.000,A,1926.9257,S,06958.0576,W,1.03,142.87,010511,,,A*61
$GPGGA,104229.000,1926.9262,S,06958.0585,W,1,05,2.1,1072.5,M,35.0,M,,0000*67
$GPGSA,M,3,26,27,12,09,15,,,,,,,,5.2,2.1,4.7*36
$GPRMC,104229.000,A,1926.9262,S,06958.0585,W,0.24,19.49,010511,,,A*53
$GPGGA,104230.000,1926.9268,S,06958.0584,W,1,05,2.1,1072.4,M,35.0,M,,0000*65
$GPGSA,M,3,26,27,12,09,15,,,,,,,,5.2,2.1,4.7*36
$GPRMC,104230.000,A,1926.9268,S,06958.0584,W,1.04,122.86,010511,,,A*69
$GPGGA,104231.000,1926.9268,S,06958.0582,W,1,05,2.1,1073.1,M,35.0,M,,0000*66
$GPGSA,M,3,26,27,12,09,15,,,,,,,,5.2,2.1,4.7*36
$GPRMC,104231.000,A,1926.9268,S,06958.0582,W,0.33,53.35,010511,,,A*54
$GPGGA,104232.000,1926.9262,S,06958.0577,W,1,05,2.1,1074.8,M,35.0,M,,0000*6B
$GPGSA,M,3,26,27,12,09,15,,,,,,,,5.2,2.1,4.7*36
$GPGSV,3,1,11,15,72,271,29,26,58,018,26,27,46,185,22,12,38,260,31*74
$GPGSV,3,2,11,09,35,203,27,17,26,136,24,02,16,031,,04,15,071,*72
$GPGSV,3,3,11,25,08,285,29,18,06,254,24,05,05,001,*49
$GPRMC,104232.000,A,1926.9262,S,06958.0577,W,0.85,30.05,010511,,,A*5C
$GPGGA,104233.000,1926.9260,S,06958.0569,W,1,05,2.1,1074.3,M,35.0,M,,0000*6C
$GPGSA,M,3,26,27,12,09,15,,,,,,,,5.2,2.1,4.7*36
$GPRMC,104233.000,A,1926.9260,S,06958.0569,W,1.33,21.43,010511,,,A*5E
$GPGGA,104234.000,1926.9253,S,06958.0565,W,1,05,2.1,1073.8,M,35.0,M,,0000*6B
$GPGSA,M,3,26,27,12,09,15,,,,,,,,5.2,2.1,4.7*36
$GPRMC,104234.000,A,1926.9253,S,06958.0565,W,1.04,10.09,010511,,,A*5D
$GPGGA,104235.000,1926.9253,S,06958.0569,W,1,05,2.1,1075.3,M,35.0,M,,0000*6B
$GPGSA,M,3,26,27,12,09,15,,,,,,,,5.2,2.1,4.7*36
$GPRMC,104235.000,A,1926.9253,S,06958.0569,W,0.42,356.73,010511,,,A*6F
$GPGGA,104236.000,1926.9259,S,06958.0574,W,1,05,2.1,1079.0,M,35.0,M,,0000*61
$GPGSA,M,3,26,27,12,09,15,,,,,,,,5.2,2.1,4.7*36
$GPRMC,104236.000,A,1926.9259,S,06958.0574,W,0.20,344.33,010511,,,A*69
$GPGGA,104237.000,1926.9261,S,06958.0580,W,1,05,2.1,1080.8,M,35.0,M,,0000*6E
$GPGSA,M,3,26,27,12,09,15,,,,,,,,5.2,2.1,4.7*36
$GPGSV,3,1,11,15,72,271,27,26,58,018,25,27,46,185,21,12,38,260,29*73
$GPGSV,3,2,11,09,35,203,26,17,26,136,24,02,16,031,,04,15,071,*73
$GPGSV,3,3,11,25,08,285,26,18,06,254,22,05,05,001,*40
$GPRMC,104237.000,A,1926.9261,S,06958.0580,W,1.30,323.71,010511,,,A*6F
$GPGGA,104238.000,1926.9263,S,06958.0578,W,1,05,2.1,1080.1,M,35.0,M,,0000*6D
$GPGSA,M,3,26,27,12,09,15,,,,,,,,5.2,2.1,4.7*36
$GPRMC,104238.000,A,1926.9263,S,06958.0578,W,0.89,334.78,010511,,,A*69
$GPGGA,104239.000,1926.9260,S,06958.0579,W,0,00,,1080.1,M,35.0,M,,0000*47
$GPGSA,M,1,,,,,,,,,,,,,,,*12
$GPRMC,104239.000,V,1926.9260,S,06958.0579,W,,,010511,,,N*78
$GPGGA,104240.000,1926.9258,S,06958.0581,W,0,00,,1080.2,M,35.0,M,,0000*46
$GPGSA,M,1,,,,,,,,,,,,,,,*12
$GPRMC,104240.000,V,1926.9258,S,06958.0581,W,,,010511,,,N*7A
$GPGGA,104241.000,1926.9256,S,06958.0582,W,0,00,,1080.3,M,35.0,M,,0000*4B
$GPGSA,M,1,,,,,,,,,,,,,,,*12
$GPRMC,104241.000,V,1926.9256,S,06958.0582,W,,,010511,,,N*76
$GPGGA,104242.000,1926.9254,S,06958.0583,W,0,00,,1080.4,M,35.0,M,,0000*4C
$GPGSA,M,1,,,,,,,,,,,,,,,*12
$GPGSV,3,1,11,15,72,271,28,26,58,018,26,27,46,185,22,12,38,260,*77
$GPGSV,3,2,11,09,35,203,26,17,26,136,24,02,16,031,,04,15,071,*73
$GPGSV,3,3,11,25,08,285,26,18,06,254,23,05,05,001,*41
$GPRMC,104242.000,V,1926.9254,S,06958.0583,W,,,010511,,,N*76
$GPGGA,104243.000,1926.9258,S,06958.0577,W,1,05,2.1,1079.7,M,35.0,M,,0000*66
$GPGSA,M,3,26,27,12,09,15,,,,,,,,5.2,2.1,4.7*36
$GPRMC,104243.000,A,1926.9258,S,06958.0577,W,0.86,119.28,010511,,,A*65
$GPGGA,104244.000,1926.9276,S,06958.0567,W,1,05,2.1,1081.3,M,35.0,M,,0000*6F
$GPGSA,M,3,26,27,12,09,15,,,,,,,,5.2,2.1,4.7*36
$GPRMC,104244.000,A,1926.9276,S,06958.0567,W,1.36,117.68,010511,,,A*6F
$GPGGA,104245.000,1926.9279,S,06958.0566,W,1,05,2.1,1079.5,M,35.0,M,,0000*61
$GPGSA,M,3,26,27,12,09,15,,,,,,,,5.2,2.1,4.7*36
$GPRMC,104245.000,A,1926.9279,S,06958.0566,W,0.72,98.29,010511,,,A*52
$GPGGA,104246.000,1926.9279,S,06958.0564,W,0,00,,1079.5,M,35.0,M,,0000*49
$GPGSA,M,1,,,,,,,,,,,,,,,*12
$GPRMC,104246.000,V,1926.9279,S,06958.0564,W,,,010511,,,N*74
$GPGGA,104247.000,1926.9279,S,06958.0562,W,0,00,,1079.5,M,35.0,M,,0000*4E
$GPGSA,M,1,,,,,,,,,,,,,,,*12
$GPGSV,3,1,11,15,72,271,29,26,58,018,26,27,46,185,22,12,38,260,36*73
$GPGSV,3,2,11,09,35,203,28,17,26,136,24,02,16,031,,04,15,071,*7D
$GPGSV,3,3,11,25,08,285,29,18,06,254,23,05,05,001,*4E
$GPRMC,104247.000,V,1926.9279,S,06958.0562,W,,,010511,,,N*73
$GPGGA,104248.000,1926.9281,S,06958.0574,W,1,05,2.1,1078.3,M,35.0,M,,0000*6F
$GPGSA,M,3,26,27,12,09,15,,,,,,,,5.2,2.1,4.7*36
$GPRMC,104248.000,A,1926.9281,S,06958.0574,W,1.45,199.76,010511,,,A*64
$GPGGA,104249.000,1926.9288,S,06958.0600,W,1,05,2.1,1075.8,M,35.0,M,,0000*61
$GPGSA,M,3,26,27,12,09,15,,,,,,,,5.2,2.1,4.7*36
$GPRMC,104249.000,A,1926.9288,S,06958.0600,W,1.73,249.45,010511,,,A*67
$GPGGA,104250.000,1926.9289,S,06958.0605,W,0,00,,1075.6,M,35.0,M,,0000*4A
$GPGSA,M,1,,,,,,,,,,,,,,,*12
$GPRMC,104250.000,V,1926.9289,S,06958.0605,W,,,010511,,,N*78
$GPGGA,104251.000,1926.9291,S,06958.0610,W,0,00,,1075.3,M,35.0,M,,0000*43
$GPGSA,M,1,,,,,,,,,,,,,,,*12
$GPRMC,104251.000,V,1926.9291,S,06958.0610,W,,,010511,,,N*74
$GPGGA,104252.000,1926.9291,S,06958.0600,W,1,04,4.1,1075.1,M,35.0,M,,0000*6D
$GPGSA,M,3,26,27,09,15,,,,,,,,,7.6,4.1,6.5*35
$GPGSV,3,1,11,15,72,271,29,26,58,018,27,27,46,185,21,12,38,260,*74
$GPGSV,3,2,11,09,35,203,26,17,26,136,25,02,16,031,,04,15,071,*72
$GPGSV,3,3,11,25,08,285,28,18,06,254,23,05,05,001,*4F
$GPRMC,104252.000,A,1926.9291,S,06958.0600,W,1.58,144.36,010511,,,A*66
$GPGGA,104253.000,1926.9291,S,06958.0589,W,1,05,2.1,1075.8,M,35.0,M,,0000*60
$GPGSA,M,3,26,27,12,09,15,,,,,,,,5.2,2.1,4.7*36
$GPRMC,104253.000,A,1926.9291,S,06958.0589,W,1.85,114.36,010511,,,A*60
$GPGGA,104254.000,1926.9286,S,06958.0577,W,1,05,2.1,1079.6,M,35.0,M,,0000*62
$GPGSA,M,3,26,27,12,09,15,,,,,,,,5.2,2.1,4.7*36
$GPRMC,104254.000,A,1926.9286,S,06958.0577,W,0.73,85.14,010511,,,A*51
$GPGGA,104255.000,1926.9285,S,06958.0575,W,0,00,,1079.6,M,35.0,M,,0000*4B
$GPGSA,M,1,,,,,,,,,,,,,,,*12
$GPRMC,104255.000,V,1926.9285,S,06958.0575,W,,,010511,,,N*75
$GPGGA,104256.000,1926.9285,S,06958.0573,W,0,00,,1079.7,M,35.0,M,,0000*4F
$GPGSA,M,1,,,,,,,,,,,,,,,*12
$GPRMC,104256.000,V,1926.9285,S,06958.0573,W,,,010511,,,N*70
$GPGGA,104257.000,1926.9285,S,06958.0571,W,0,00,,1079.7,M,35.0,M,,0000*4C
$GPGSA,M,1,,,,,,,,,,,,,,,*12
$GPGSV,3,1,11,15,72,271,,26,58,018,27,27,46,185,22,12,38,260,*7C
$GPGSV,3,2,11,09,35,203,26,17,26,136,24,02,16,031,,04,15,071,*73
$GPGSV,3,3,11,25,08,285,27,18,06,254,24,05,05,001,*47
$GPRMC,104257.000,V,1926.9285,S,06958.0571,W,,,010511,,,N*73
$GPGGA,104258.000,1926.9285,S,06958.0569,W,0,00,,1079.8,M,35.0,M,,0000*45
$GPGSA,M,1,,,,,,,,,,,,,,,*12
$GPRMC,104258.000,V,1926.9285,S,06958.0569,W,,,010511,,,N*75
$GPGGA,104259.000,,,,,0,00,,,M,0.0,M,,0000*5D
$GPGSA,M,1,,,,,,,,,,,,,,,*12
$GPRMC,104259.000,V,,,,,,,010511,,,N*42
$GPGGA,104300.000,1926.9273,S,06958.0594,W,1,04,4.1,1080.7,M,35.0,M,,0000*65
$GPGSA,M,3,26,27,09,15,,,,,,,,,7.6,4.1,6.5*35
$GPRMC,104300.000,A,1926.9273,S,06958.0594,W,2.20,271.43,010511,,,A*69
$GPGGA,104301.000,1926.9254,S,06958.0602,W,1,05,2.1,1079.7,M,35.0,M,,0000*6C
$GPGSA,M,3,26,27,12,09,15,,,,,,,,5.2,2.1,4.7*36
$GPRMC,104301.000,A,1926.9254,S,06958.0602,W,0.24,69.85,010511,,,A*56
$GPGGA,104302.000,1926.9255,S,06958.0606,W,1,04,4.1,1075.2,M,35.0,M,,0000*64
$GPGSA,M,3,26,27,09,15,,,,,,,,,7.6,4.1,6.5*35
$GPGSV,3,1,11,15,72,271,27,26,58,018,27,27,46,185,22,12,38,260,*79
$GPGSV,3,2,11,09,35,203,27,17,26,136,24,02,16,031,,04,15,071,*72
$GPGSV,3,3,11,25,08,285,27,18,06,254,24,05,05,001,*47
$GPRMC,104302.000,A,1926.9255,S,06958.0606,W,0.18,101.68,010511,,,A*63
$GPGGA,104303.000,1926.9257,S,06958.0628,W,1,05,2.1,1077.7,M,35.0,M,,0000*6B
$GPGSA,M,3,26,27,12,09,15,,,,,,,,5.2,2.1,4.7*36
$GPRMC,104303.000,A,1926.9257,S,06958.0628,W,0.56,346.11,010511,,,A*69
$GPGGA,104304.000,1926.9256,S,06958.0629,W,0,00,,1077.7,M,35.0,M,,0000*45
$GPGSA,M,1,,,,,,,,,,,,,,,*12
$GPRMC,104304.000,V,1926.9256,S,06958.0629,W,,,010511,,,N*74
$GPGGA,104305.000,1926.9254,S,06958.0629,W,0,00,,1077.7,M,35.0,M,,0000*46
$GPGSA,M,1,,,,,,,,,,,,,,,*12
$GPRMC,104305.000,V,1926.9254,S,06958.0629,W,,,010511,,,N*77
$GPGGA,104306.000,1926.9256,S,06958.0609,W,1,05,2.1,1079.3,M,35.0,M,,0000*66
$GPGSA,M,3,26,27,12,09,15,,,,,,,,5.2,2.1,4.7*36
$GPRMC,104306.000,A,1926.9256,S,06958.0609,W,0.47,74.38,010511,,,A*57
$GPGGA,104307.000,1926.9264,S,06958.0602,W,1,05,2.1,1085.7,M,35.0,M,,0000*6A
$GPGSA,M,3,26,27,12,09,15,,,,,,,,5.2,2.1,4.7*36
$GPGSV,3,1,11,15,72,271,28,26,58,018,26,27,46,185,22,12,38,260,29*7C
$GPGSV,3,2,11,09,35,203,27,17,26,136,25,02,16,031,,04,15,071,*73
$GPGSV,3,3,11,25,08,285,26,18,06,254,24,05,05,001,*46
$GPRMC,104307.000,A,1926.9264,S,06958.0602,W,0.64,106.81,010511,,,A*6B
$GPGGA,104308.000,1926.9277,S,06958.0614,W,1,05,2.1,1087.3,M,35.0,M,,0000*66
$GPGSA,M,3,26,27,12,09,15,,,,,,,,5.2,2.1,4.7*36
$GPRMC,104308.000,A,1926.9277,S,06958.0614,W,1.05,197.01,010511,,,A*67
$GPGGA,104309.000,1926.9290,S,06958.0608,W,1,05,2.1,1087.8,M,35.0,M,,0000*68
$GPGSA,M,3,26,27,12,09,15,,,,,,,,5.2,2.1,4.7*36
$GPRMC,104309.000,A,1926.9290,S,06958.0608,W,1.65,157.20,010511,,,A*6B
$GPGGA,104310.000,1926.9286,S,06958.0604,W,1,05,2.1,1089.1,M,35.0,M,,0000*6C
$GPGSA,M,3,26,27,12,09,15,,,,,,,,5.2,2.1,4.7*36
$GPRMC,104310.000,A,1926.9286,S,06958.0604,W,0.57,210.46,010511,,,A*68
$GPGGA,104311.000,1926.9287,S,06958.0605,W,0,00,,1089.6,M,35.0,M,,0000*43
$GPGSA,M,1,,,,,,,,,,,,,,,*12
$GPRMC,104311.000,V,1926.9287,S,06958.0605,W,,,010511,,,N*72
$GPGGA,104312.000,1926.9288,S,06958.0605,W,0,00,,1090.1,M,35.0,M,,0000*40
$GPGSA,M,1,,,,,,,,,,,,,,,*12
$GPGSV,3,1,11,15,72,271,,26,58,018,26,27,46,185,21,12,38,260,34*79
$GPGSV,3,2,11,09,35,203,27,17,26,136,24,02,16,031,,04,15,071,*72
$GPGSV,3,3,11,25,08,285,27,18,06,254,24,05,05,001,*47
$GPRMC,104312.000,V,1926.9288,S,06958.0605,W,,,010511,,,N*7E
$GPGGA,104313.000,1926.9284,S,06958.0602,W,1,05,2.1,1089.6,M,35.0,M,,0000*6C
$GPGSA,M,3,26,27,12,09,15,,,,,,,,5.2,2.1,4.7*36
$GPRMC,104313.000,A,1926.9284,S,06958.0602,W,0.91,244.36,010511,,,A*63
$GPGGA,104314.000,1926.9288,S,06958.0588,W,1,05,2.1,1088.6,M,35.0,M,,0000*67
$GPGSA,M,3,26,27,12,09,15,,,,,,,,5.2,2.1,4.7*36
$GPRMC,104314.000,A,1926.9288,S,06958.0588,W,0.43,181.81,010511,,,A*60
$GPGGA,104315.000,1926.9301,S,06958.0578,W,1,05,2.1,1093.0,M,35.0,M,,0000*65
$GPGSA,M,3,26,27,12,09,15,,,,,,,,5.2,2.1,4.7*36
$GPRMC,104315.000,A,1926.9301,S,06958.0578,W,0.07,172.37,010511,,,A*6F
$GPGGA,104316.000,1926.9301,S,06958.0578,W,0,00,,1093.5,M,35.0,M,,0000*4A
$GPGSA,M,1,,,,,,,,,,,,,,,*12
$GPRMC,104316.000,V,1926.9301,S,06958.0578,W,,,010511,,,N*73
$GPGGA,104317.000,1926.9301,S,06958.0578,W,0,00,,1094.0,M,35.0,M,,0000*49
$GPGSA,M,1,,,,,,,,,,,,,,,*12
$GPGSV,3,1,11,15,72,271,,26,58,018,26,27,46,185,22,12,38,260,36*78
$GPGSV,3,2,11,09,35,203,26,17,26,136,24,02,16,031,,04,15,071,*73
$GPGSV,3,3,11,25,08,285,26,18,06,254,24,05,05,001,*46
$GPRMC,104317.000,V,1926.9301,S,06958.0578,W,,,010511,,,N*72
$GPGGA,104318.000,1926.9294,S,06958.0579,W,1,04,1.8,1093.4,M,35.0,M,,0000*6B
$GPGSA,M,3,26,27,12,09,,,,,,,,,2.1,1.8,1.0*3E
$GPRMC,104318.000,A,1926.9294,S,06958.0579,W,1.38,355.77,010511,,,A*60
$GPGGA,104319.000,1926.9294,S,06958.0579,W,1,05,2.1,1094.2,M,35.0,M,,0000*60
$GPGSA,M,3,26,27,12,09,15,,,,,,,,5.2,2.1,4.7*36
$GPRMC,104319.000,A,1926.9294,S,06958.0579,W,1.38,327.74,010511,,,A*67
$GPGGA,104320.000,1926.9292,S,06958.0577,W,1,05,2.1,1090.3,M,35.0,M,,0000*67
$GPGSA,M,3,26,27,12,09,15,,,,,,,,5.2,2.1,4.7*36
$GPRMC,104320.000,A,1926.9292,S,06958.0577,W,0.35,241.98,010511,,,A*6A
$GPGGA,104321.000,1926.9289,S,06958.0567,W,1,05,2.1,1088.1,M,35.0,M,,0000*66
$GPGSA,M,3,26,27,12,09,15,,,,,,,,5.2,2.1,4.7*36
$GPRMC,104321.000,A,1926.9289,S,06958.0567,W,0.87,176.39,010511,,,A*65
$GPGGA,104322.000,1926.9283,S,06958.0568,W,1,05,2.1,1086.7,M,35.0,M,,0000*68
$GPGSA,M,3,26,27,12,09,15,,,,,,,,5.2,2.1,4.7*36
$GPGSV,3,1,11,15,72,271,26,26,58,018,26,27,46,185,21,12,38,260,30*79
$GPGSV,3,2,11,09,35,203,26,17,26,136,23,02,16,031,,04,15,071,*74
$GPGSV,3,3,11,25,08,285,26,18,06,254,23,05,05,001,*41
$GPRMC,104322.000,A,1926.9283,S,06958.0568,W,0.93,214.31,010511,,,A*69
$GPGGA,104323.000,1926.9285,S,06958.0569,W,0,00,,1086.7,M,35.0,M,,0000*47
$GPGSA,M,1,,,,,,,,,,,,,,,*12
$GPRMC,104323.000,V,1926.9285,S,06958.0569,W,,,010511,,,N*78
$GPGGA,104324.000,1926.9288,S,06958.0571,W,0,00,,1086.7,M,35.0,M,,0000*44
$GPGSA,M,1,,,,,,,,,,,,,,,*12
$GPRMC,104324.000,V,1926.9288,S,06958.0571,W,,,010511,,,N*7B
$GPGGA,104325.000,1926.9284,S,06958.0582,W,1,05,2.1,1088.4,M,35.0,M,,0000*61
$GPGSA,M,3,26,27,12,09,15,,,,,,,,5.2,2.1,4.7*36
$GPRMC,104325.000,A,1926.9284,S,06958.0582,W,0.83,229.47,010511,,,A*63
$GPGGA,104326.000,1926.9279,S,06958.0583,W,1,05,2.1,1090.3,M,35.0,M,,0000*6F
$GPGSA,M,3,26,27,12,09,15,,,,,,,,5.2,2.1,4.7*36
$GPRMC,104326.000,A,1926.9279,S,06958.0583,W,0.53,311.82,010511,,,A*6D
$GPGGA,104327.000,1926.9275,S,06958.0586,W,1,04,1.8,1090.3,M,35.0,M,,0000*6C
$GPGSA,M,3,26,27,12,09,,,,,,,,,2.1,1.8,1.0*3E
$GPGSV,3,1,11,15,72,271,,26,58,018,26,27,46,185,21,12,38,260,32*7F
$GPGSV,3,2,11,09,35,203,26,17,26,136,24,02,16,031,,04,15,071,*73
$GPGSV,3,3,11,25,08,285,26,18,06,254,22,05,05,001,*40
$GPRMC,104327.000,A,1926.9275,S,06958.0586,W,1.52,331.37,010511,,,A*69
$GPGGA,104328.000,1926.9277,S,06958.0590,W,1,04,2.1,1091.6,M,35.0,M,,0000*68
$GPGSA,M,3,26,27,12,15,,,,,,,,,5.6,2.1,5.2*3F
$GPRMC,104328.000,A,1926.9277,S,06958.0590,W,1.79,315.18,010511,,,A*61
$GPGGA,104329.000,1926.9274,S,06958.0594,W,0,00,,1091.9,M,35.0,M,,0000*49
$GPGSA,M,1,,,,,,,,,,,,,,,*12
$GPRMC,104329.000,V,1926.9274,S,06958.0594,W,,,010511,,,N*7E
$GPGGA,104330.000,1926.9270,S,06958.0598,W,0,00,,1092.2,M,35.0,M,,0000*41
$GPGSA,M,1,,,,,,,,,,,,,,,*12
$GPRMC,104330.000,V,1926.9270,S,06958.0598,W,,,010511,,,N*7E
$GPGGA,104331.000,1926.9271,S,06958.0592,W,1,05,2.1,1091.4,M,35.0,M,,0000*67
$GPGSA,M,3,26,27,12,09,15,,,,,,,,5.2,2.1,4.7*36
$GPRMC,104331.000,A,1926.9271,S,06958.0592,W,0.90,72.56,010511,,,A*53
$GPGGA,104332.000,1926.9274,S,06958.0572,W,1,05,2.1,1086.7,M,35.0,M,,0000*6A
$GPGSA,M,3,26,27,12,09,15,,,,,,,,5.2,2.1,4.7*36
$GPGSV,3,1,11,15,72,271,22,26,58,018,25,27,46,185,21,12,38,260,28*77
$GPGSV,3,2,11,09,35,203,21,17,26,136,23,02,16,031,,04,15,071,*73
$GPGSV,3,3,11,25,08,285,21,18,06,254,24,05,05,001,*41
$GPRMC,104332.000,A,1926.9274,S,06958.0572,W,1.79,93.18,010511,,,A*58
$GPGGA,104333.000,1926.9267,S,06958.0586,W,1,04,3.0,1083.3,M,35.0,M,,0000*62
$GPGSA,M,3,27,12,09,15,,,,,,,,,3.2,3.0,1.0*36
$GPRMC,104333.000,A,1926.9267,S,06958.0586,W,0.53,33.44,010511,,,A*5A
$GPGGA,104334.000,1926.9265,S,06958.0585,W,0,00,,1083.2,M,35.0,M,,0000*4D
$GPGSA,M,1,,,,,,,,,,,,,,,*12
$GPRMC,104334.000,V,1926.9265,S,06958.0585,W,,,010511,,,N*72
$GPGGA,104335.000,1926.9264,S,06958.0584,W,0,00,,1083.0,M,35.0,M,,0000*4E
$GPGSA,M,1,,,,,,,,,,,,,,,*12
$GPRMC,104335.000,V,1926.9264,S,06958.0584,W,,,010511,,,N*73
$GPGGA,104336.000,1926.9263,S,06958.0583,W,0,00,,1082.8,M,35.0,M,,0000*44
$GPGSA,M,1,,,,,,,,,,,,,,,*12
$GPRMC,104336.000,V,1926.9263,S,06958.0583,W,,,010511,,,N*70
$GPGGA,104337.000,1926.9262,S,06958.0582,W,0,00,,1082.7,M,35.0,M,,0000*4A
$GPGSA,M,1,,,,,,,,,,,,,,,*12
$GPGSV,3,1,11,15,72,271,31,26,58,018,27,27,46,185,21,12,38,260,*7D
$GPGSV,3,2,11,09,35,203,26,17,26,136,23,02,16,031,,04,15,071,*74
$GPGSV,3,3,11,25,08,285,30,18,06,254,25,05,05,001,*40
$GPRMC,104337.000,V,1926.9262,S,06958.0582,W,,,010511,,,N*71
$GPGGA,104338.000,,,,,0,00,,,M,0.0,M,,0000*5B
$GPGSA,M,1,,,,,,,,,,,,,,,*12
$GPRMC,104338.000,V,,,,,,,010511,,,N*44
$GPGGA,104339.000,,,,,0,00,,,M,0.0,M,,0000*5A
$GPGSA,M,1,,,,,,,,,,,,,,,*12
$GPRMC,104339.000,V,,,,,,,010511,,,N*45
$GPGGA,104340.000,1926.9261,S,06958.0589,W,1,04,4.1,1081.4,M,35.0,M,,0000*6C
$GPGSA,M,3,26,27,09,15,,,,,,,,,7.6,4.1,6.5*35
$GPRMC,104340.000,A,1926.9261,S,06958.0589,W,0.50,105.51,010511,,,A*64
$GPGGA,104341.000,1926.9264,S,06958.0598,W,1,05,2.1,1083.2,M,35.0,M,,0000*6B
$GPGSA,M,3,26,27,12,09,15,,,,,,,,5.2,2.1,4.7*36
$GPRMC,104341.000,A,1926.9264,S,06958.0598,W,0.58,51.33,010511,,,A*5C
$GPGGA,104342.000,1926.9263,S,06958.0596,W,0,00,,1083.1,M,35.0,M,,0000*4B
$GPGSA,M,1,,,,,,,,,,,,,,,*12
$GPGSV,3,1,11,15,72,271,29,26,58,018,27,27,46,185,21,12,38,260,*74
$GPGSV,3,2,11,09,35,203,26,17,26,136,24,02,16,031,,04,15,071,*73
$GPGSV,3,3,11,25,08,285,26,18,06,254,24,05,05,001,*46
$GPRMC,104342.000,V,1926.9263,S,06958.0596,W,,,010511,,,N*77
$GPGGA,104343.000,1926.9262,S,06958.0595,W,0,00,,1083.0,M,35.0,M,,0000*49
$GPGSA,M,1,,,,,,,,,,,,,,,*12
$GPRMC,104343.000,V,1926.9262,S,06958.0595,W,,,010511,,,N*74
$GPGGA,104344.000,1926.9261,S,06958.0594,W,0,00,,1082.8,M,35.0,M,,0000*45
$GPGSA,M,1,,,,,,,,,,,,,,,*12
$GPRMC,104344.000,V,1926.9261,S,06958.0594,W,,,010511,,,N*71
$GPGGA,104345.000,1926.9260,S,06958.0592,W,0,00,,1082.7,M,35.0,M,,0000*4C
$GPGSA,M,1,,,,,,,,,,,,,,,*12
$GPRMC,104345.000,V,1926.9260,S,06958.0592,W,,,010511,,,N*77
$GPGGA,104346.000,1926.9267,S,06958.0598,W,1,05,2.1,1085.2,M,35.0,M,,0000*69
$GPGSA,M,3,26,27,12,09,15,,,,,,,,5.2,2.1,4.7*36
$GPRMC,104346.000,A,1926.9267,S,06958.0598,W,0.78,235.03,010511,,,A*69
$GPGGA,104347.000,1926.9268,S,06958.0600,W,0,00,,1085.2,M,35.0,M,,0000*4C
$GPGSA,M,1,,,,,,,,,,,,,,,*12
$GPGSV,3,1,11,15,72,271,28,26,58,018,27,27,46,185,21,12,38,260,*75
$GPGSV,3,2,11,09,35,203,26,17,26,136,23,02,16,031,,04,15,071,*74
$GPGSV,3,3,11,25,08,285,26,18,06,254,24,05,05,001,*46
$GPRMC,104347.000,V,1926.9268,S,06958.0600,W,,,010511,,,N*75
$GPGGA,104348.000,1926.9260,S,06958.0610,W,1,04,4.0,1084.8,M,35.0,M,,0000*6E
$GPGSA,M,3,26,27,09,15,,,,,,,,,7.6,4.0,6.5*34
$GPRMC,104348.000,A,1926.9260,S,06958.0610,W,0.93,280.52,010511,,,A*6C
$GPGGA,104349.000,1926.9265,S,06958.0623,W,1,05,2.1,1084.8,M,35.0,M,,0000*6C
$GPGSA,M,3,26,27,12,09,15,,,,,,,,5.2,2.1,4.7*36
$GPRMC,104349.000,A,1926.9265,S,06958.0623,W,1.04,254.08,010511,,,A*61
$GPGGA,104350.000,1926.9259,S,06958.0653,W,1,05,2.1,1088.8,M,35.0,M,,0000*60
$GPGSA,M,3,26,27,12,09,15,,,,,,,,5.2,2.1,4.7*36
$GPRMC,104350.000,A,1926.9259,S,06958.0653,W,0.61,260.04,010511,,,A*68
$GPGGA,104351.000,1926.9264,S,06958.0644,W,1,05,2.1,1094.0,M,35.0,M,,0000*6C
$GPGSA,M,3,26,27,12,09,15,,,,,,,,5.2,2.1,4.7*36
$GPRMC,104351.000,A,1926.9264,S,06958.0644,W,0.28,276.26,010511,,,A*6B
$GPGGA,104352.000,1926.9266,S,06958.0637,W,1,05,2.1,1095.1,M,35.0,M,,0000*69
$GPGSA,M,3,26,27,12,09,15,,,,,,,,5.2,2.1,4.7*36
$GPGSV,3,1,11,15,72,271,28,26,58,018,27,27,46,185,21,12,38,260,32*74
$GPGSV,3,2,11,09,35,203,26,17,26,136,24,02,16,031,15,04,15,071,*77
$GPGSV,3,3,11,25,08,285,27,18,06,254,25,05,05,001,*46
$GPRMC,104352.000,A,1926.9266,S,06958.0637,W,0.23,301.93,010511,,,A*6A
$GPGGA,104353.000,1926.9258,S,06958.0633,W,1,05,2.1,1095.7,M,35.0,M,,0000*67
$GPGSA,M,3,26,27,12,09,15,,,,,,,,5.2,2.1,4.7*36
$GPRMC,104353.000,A,1926.9258,S,06958.0633,W,0.24,198.06,010511,,,A*6B
$GPGGA,104354.000,1926.9249,S,06958.0631,W,1,05,2.1,1094.7,M,35.0,M,,0000*63
$GPGSA,M,3,26,27,12,09,15,,,,,,,,5.2,2.1,4.7*36
$GPRMC,104354.000,A,1926.9249,S,06958.0631,W,0.91,352.74,010511,,,A*61
$GPGGA,104355.000,1926.9246,S,06958.0627,W,1,05,2.1,1093.7,M,35.0,M,,0000*6D
$GPGSA,M,3,26,27,12,09,15,,,,,,,,5.2,2.1,4.7*36
$GPRMC,104355.000,A,1926.9246,S,06958.0627,W,2.11,341.66,010511,,,A*63
$GPGGA,104356.000,1926.9241,S,06958.0623,W,1,05,2.1,1093.0,M,35.0,M,,0000*6A
$GPGSA,M,3,26,27,12,09,15,,,,,,,,5.2,2.1,4.7*36
$GPRMC,104356.000,A,1926.9241,S,06958.0623,W,0.91,331.35,010511,,,A*68
$GPGGA,104357.000,1926.9239,S,06958.0628,W,1,05,2.1,1095.6,M,35.0,M,,0000*6F
$GPGSA,M,3,26,27,12,09,15,,,,,,,,5.2,2.1,4.7*36
$GPGSV,3,1,11,15,72,271,28,26,58,018,27,27,46,185,21,12,38,260,29*7E
$GPGSV,3,2,11,09,35,203,25,17,26,136,24,02,16,031,15,04,15,071,*74
$GPGSV,3,3,11,25,08,285,25,18,06,254,26,05,05,001,*47
$GPRMC,104357.000,A,1926.9239,S,06958.0628,W,1.21,303.98,010511,,,A*61
$GPGGA,104358.000,1926.9243,S,06958.0630,W,1,05,2.1,1097.2,M,35.0,M,,0000*62
$GPGSA,M,3,26,27,12,09,15,,,,,,,,5.2,2.1,4.7*36
$GPRMC,104358.000,A,1926.9243,S,06958.0630,W,1.77,288.96,010511,,,A*65
$GPGGA,104359.000,1926.9249,S,06958.0625,W,1,05,2.1,1094.9,M,35.0,M,,0000*65
$GPGSA,M,3,26,27,12,09,15,,,,,,,,5.2,2.1,4.7*36
$GPRMC,104359.000,A,1926.9249,S,06958.0625,W,0.99,238.91,010511,,,A*67
$GPGGA,104400.000,1926.9250,S,06958.0627,W,0,00,,1095.3,M,35.0,M,,0000*46
$GPGSA,M,1,,,,,,,,,,,,,,,*12
$GPRMC,104400.000,V,1926.9250,S,06958.0627,W,,,010511,,,N*7F
$GPGGA,104401.000,1926.9252,S,06958.0630,W,0,00,,1095.7,M,35.0,M,,0000*47
$GPGSA,M,1,,,,,,,,,,,,,,,*12
$GPRMC,104401.000,V,1926.9252,S,06958.0630,W,,,010511,,,N*7A
$GPGGA,104402.000,1926.9254,S,06958.0632,W,1,05,2.1,1094.6,M,35.0,M,,0000*69
$GPGSA,M,3,26,27,12,09,15,,,,,,,,5.2,2.1,4.7*36
$GPGSV,3,1,11,15,72,271,27,26,58,018,27,27,46,185,21,12,38,260,28*70
$GPGSV,3,2,11,09,35,203,25,17,26,136,23,02,16,031,15,04,15,071,*73
$GPGSV,3,3,11,25,08,285,26,18,06,254,24,05,05,001,*46
$GPRMC,104402.000,A,1926.9254,S,06958.0632,W,1.43,275.47,010511,,,A*60
$GPGGA,104403.000,1926.9250,S,06958.0622,W,1,05,2.1,1093.1,M,35.0,M,,0000*6D
$GPGSA,M,3,26,27,12,09,15,,,,,,,,5.2,2.1,4.7*36
$GPRMC,104403.000,A,1926.9250,S,06958.0622,W,0.07,245.48,010511,,,A*69
$GPGGA,104404.000,1926.9250,S,06958.0622,W,0,00,,1093.2,M,35.0,M,,0000*40
$GPGSA,M,1,,,,,,,,,,,,,,,*12
$GPRMC,104404.000,V,1926.9250,S,06958.0622,W,,,010511,,,N*7E
$GPGGA,104405.000,1926.9250,S,06958.0622,W,0,00,,1093.4,M,35.0,M,,0000*47
$GPGSA,M,1,,,,,,,,,,,,,,,*12
$GPRMC,104405.000,V,1926.9250,S,06958.0622,W,,,010511,,,N*7F
$GPGGA,104406.000,1926.9258,S,06958.0622,W,1,05,2.1,1091.8,M,35.0,M,,0000*6B
$GPGSA,M,3,26,27,12,09,15,,,,,,,,5.2,2.1,4.7*36
$GPRMC,104406.000,A,1926.9258,S,06958.0622,W,1.02,131.22,010511,,,A*6C
$GPGGA,104407.000,1926.9278,S,06958.0614,W,1,05,2.1,1091.1,M,35.0,M,,0000*64
$GPGSA,M,3,26,27,12,09,15,,,,,,,,5.2,2.1,4.7*36
$GPGSV,3,1,11,15,72,276,27,26,56,018,27,27,46,184,21,12,38,258,25*7E
$GPGSV,3,2,11,09,36,202,25,17,25,137,23,02,16,032,15,04,15,072,*73
$GPGSV,3,3,11,25,08,284,25,18,06,255,24,05,05,002,*46
$GPRMC,104407.000,A,1926.9278,S,06958.0614,W,2.08,135.41,010511,,,A*62
$GPGGA,104408.000,1926.9287,S,06958.0620,W,1,05,2.1,1091.0,M,35.0,M,,0000*6D
$GPGSA,M,3,26,27,12,09,15,,,,,,,,5.2,2.1,4.7*36
$GPRMC,104408.000,A,1926.9287,S,06958.0620,W,0.88,142.52,010511,,,A*62
$GPGGA,104409.000,1926.9289,S,06958.0618,W,0,00,,1091.0,M,35.0,M,,0000*40
$GPGSA,M,1,,,,,,,,,,,,,,,*12
$GPRMC,104409.000,V,1926.9289,S,06958.0618,W,,,010511,,,N*7E
$GPGGA,104410.000,1926.9291,S,06958.0617,W,0,00,,1090.9,M,35.0,M,,0000*46
$GPGSA,M,1,,,,,,,,,,,,,,,*12
$GPRMC,104410.000,V,1926.9291,S,06958.0617,W,,,010511,,,N*70
$GPGGA,104411.000,1926.9288,S,06958.0616,W,1,05,2.1,1090.3,M,35.0,M,,0000*6D
$GPGSA,M,3,26,27,12,09,15,,,,,,,,5.2,2.1,4.7*36
$GPRMC,104411.000,A,1926.9288,S,06958.0616,W,1.06,122.26,010511,,,A*62
$GPGGA,104412.000,1926.9290,S,06958.0611,W,1,05,2.1,1089.8,M,35.0,M,,0000*63
$GPGSA,M,3,26,27,12,09,15,,,,,,,,5.2,2.1,4.7*36
$GPGSV,3,1,11,15,72,276,29,26,56,018,26,27,46,184,21,12,38,258,31*74
$GPGSV,3,2,11,09,36,202,25,17,25,137,23,02,16,032,16,04,15,072,*70
$GPGSV,3,3,11,25,08,284,27,18,06,255,24,05,05,002,*44
$GPRMC,104412.000,A,1926.9290,S,06958.0611,W,0.29,93.93,010511,,,A*56
$GPGGA,104413.000,1926.9278,S,06958.0607,W,1,05,2.1,1087.2,M,35.0,M,,0000*67
$GPGSA,M,3,26,27,12,09,15,,,,,,,,5.2,2.1,4.7*36
$GPRMC,104413.000,A,1926.9278,S,06958.0607,W,0.64,22.36,010511,,,A*5A
$GPGGA,104414.000,1926.9278,S,06958.0602,W,1,05,2.1,1087.7,M,35.0,M,,0000*60
$GPGSA,M,3,26,27,12,09,15,,,,,,,,5.2,2.1,4.7*36
$GPRMC,104414.000,A,1926.9278,S,06958.0602,W,0.94,30.68,010511,,,A*5F
$GPGGA,104415.000,1926.9275,S,06958.0592,W,1,05,2.1,1088.5,M,35.0,M,,0000*6B
$GPGSA,M,3,26,27,12,09,15,,,,,,,,5.2,2.1,4.7*36
$GPRMC,104415.000,A,1926.9275,S,06958.0592,W,0.71,81.91,010511,,,A*5E
$GPGGA,104416.000,1926.9276,S,06958.0585,W,1,05,2.1,1087.4,M,35.0,M,,0000*63
$GPGSA,M,3,26,27,12,09,15,,,,,,,,5.2,2.1,4.7*36
$GPRMC,104416.000,A,1926.9276,S,06958.0585,W,0.85,97.04,010511,,,A*58
$GPGGA,104417.000,1926.9283,S,06958.0573,W,1,05,2.1,1084.6,M,35.0,M,,0000*60
$GPGSA,M,3,26,27,12,09,15,,,,,,,,5.2,2.1,4.7*36
$GPGSV,3,1,11,15,72,276,28,26,56,018,26,27,46,184,21,12,38,258,31*75
$GPGSV,3,2,11,09,36,202,25,17,25,137,23,02,16,032,16,04,15,072,*70
$GPGSV,3,3,11,25,08,284,27,18,06,255,24,05,05,002,*44
$GPRMC,104417.000,A,1926.9283,S,06958.0573,W,0.80,138.16,010511,,,A*68
$GPGGA,104418.000,1926.9292,S,06958.0565,W,1,05,2.1,1082.9,M,35.0,M,,0000*61
$GPGSA,M,3,26,27,12,09,15,,,,,,,,5.2,2.1,4.7*36
$GPRMC,104418.000,A,1926.9292,S,06958.0565,W,2.20,136.37,010511,,,A*65
$GPGGA,104419.000,1926.9297,S,06958.0561,W,0,00,,1082.5,M,35.0,M,,0000*44
$GPGSA,M,1,,,,,,,,,,,,,,,*12
$GPRMC,104419.000,V,1926.9297,S,06958.0561,W,,,010511,,,N*7D
$GPGGA,104420.000,1926.9301,S,06958.0556,W,0,00,,1082.0,M,35.0,M,,0000*41
$GPGSA,M,1,,,,,,,,,,,,,,,*12
$GPRMC,104420.000,V,1926.9301,S,06958.0556,W,,,010511,,,N*7D
$GPGGA,104421.000,1926.9297,S,06958.0558,W,1,05,2.1,1081.0,M,35.0,M,,0000*6A
$GPGSA,M,3,26,27,12,09,15,,,,,,,,5.2,2.1,4.7*36
$GPRMC,104421.000,A,1926.9297,S,06958.0558,W,1.24,130.73,010511,,,A*65
$GPGGA,104422.000,1926.9297,S,06958.0567,W,1,05,2.0,1083.0,M,35.0,M,,0000*66
$GPGSA,M,3,26,27,12,09,15,,,,,,,,5.2,2.0,4.7*37
$GPGSV,3,1,11,15,72,276,28,26,56,018,29,27,46,184,20,12,38,258,32*78
$GPGSV,3,2,11,09,36,202,27,17,25,137,23,02,16,032,16,04,15,072,*72
$GPGSV,3,3,11,25,08,284,27,18,06,255,25,05,05,002,*45
$GPRMC,104422.000,A,1926.9297,S,06958.0567,W,0.78,84.01,010511,,,A*59
$GPGGA,104423.000,1926.9297,S,06958.0565,W,0,00,,1082.7,M,35.0,M,,0000*4B
$GPGSA,M,1,,,,,,,,,,,,,,,*12
$GPRMC,104423.000,V,1926.9297,S,06958.0565,W,,,010511,,,N*70
$GPGGA,104424.000,1926.9296,S,06958.0563,W,0,00,,1082.4,M,35.0,M,,0000*48
$GPGSA,M,1,,,,,,,,,,,,,,,*12
$GPRMC,104424.000,V,1926.9296,S,06958.0563,W,,,010511,,,N*70
$GPGGA,104425.000,1926.9296,S,06958.0560,W,0,00,,1082.2,M,35.0,M,,0000*4C
$GPGSA,M,1,,,,,,,,,,,,,,,*12
$GPRMC,104425.000,V,1926.9296,S,06958.0560,W,,,010511,,,N*72
$GPGGA,104426.000,1926.9285,S,06958.0575,W,1,05,2.0,1080.6,M,35.0,M,,0000*67
$GPGSA,M,3,26,27,12,09,15,,,,,,,,5.2,2.0,4.7*37
$GPRMC,104426.000,A,1926.9285,S,06958.0575,W,0.80,236.34,010511,,,A*67
$GPGGA,104427.000,1926.9287,S,06958.0577,W,0,00,,1080.2,M,35.0,M,,0000*4A
$GPGSA,M,1,,,,,,,,,,,,,,,*12
$GPGSV,3,1,11,15,72,276,28,26,56,018,26,27,46,184,20,12,38,258,*76
$GPGSV,3,2,11,09,36,202,26,17,25,137,23,02,16,032,16,04,15,072,*73
$GPGSV,3,3,11,25,08,284,27,18,06,255,24,05,05,002,*44
$GPRMC,104427.000,V,1926.9287,S,06958.0577,W,,,010511,,,N*76
$GPGGA,104428.000,1926.9288,S,06958.0579,W,0,00,,1079.8,M,35.0,M,,0000*48
$GPGSA,M,1,,,,,,,,,,,,,,,*12
$GPRMC,104428.000,V,1926.9288,S,06958.0579,W,,,010511,,,N*78
$GPGGA,104429.000,1926.9289,S,06958.0581,W,0,00,,1079.5,M,35.0,M,,0000*42
$GPGSA,M,1,,,,,,,,,,,,,,,*12
$GPRMC,104429.000,V,1926.9289,S,06958.0581,W,,,010511,,,N*7F
$GPGGA,104430.000,1926.9290,S,06958.0583,W,0,00,,1079.1,M,35.0,M,,0000*44
$GPGSA,M,1,,,,,,,,,,,,,,,*12
$GPRMC,104430.000,V,1926.9290,S,06958.0583,W,,,010511,,,N*7D
$GPGGA,104431.000,1926.9283,S,06958.0587,W,1,05,2.0,1076.8,M,35.0,M,,0000*6D
$GPGSA,M,3,26,27,12,09,15,,,,,,,,5.2,2.0,4.7*37
$GPRMC,104431.000,A,1926.9283,S,06958.0587,W,0.26,68.22,010511,,,A*58
$GPGGA,104432.000,1926.9282,S,06958.0586,W,0,00,,1076.3,M,35.0,M,,0000*4D
$GPGSA,M,1,,,,,,,,,,,,,,,*12
$GPGSV,3,1,11,15,72,276,28,26,56,018,26,27,46,184,20,12,38,258,*76
$GPGSV,3,2,11,09,36,202,25,17,25,137,23,02,16,032,16,04,15,072,*70
$GPGSV,3,3,11,25,08,284,27,18,06,255,24,05,05,002,*44
$GPRMC,104432.000,V,1926.9282,S,06958.0586,W,,,010511,,,N*79
$GPGGA,104433.000,1926.9282,S,06958.0586,W,0,00,,1075.9,M,35.0,M,,0000*45
$GPGSA,M,1,,,,,,,,,,,,,,,*12
$GPRMC,104433.000,V,1926.9282,S,06958.0586,W,,,010511,,,N*78
$GPGGA,104434.000,1926.9282,S,06958.0585,W,0,00,,1075.4,M,35.0,M,,0000*4C
$GPGSA,M,1,,,,,,,,,,,,,,,*12
$GPRMC,104434.000,V,1926.9282,S,06958.0585,W,,,010511,,,N*7C
$GPGGA,104435.000,1926.9282,S,06958.0584,W,0,00,,1074.9,M,35.0,M,,0000*40
$GPGSA,M,1,,,,,,,,,,,,,,,*12
$GPRMC,104435.000,V,1926.9282,S,06958.0584,W,,,010511,,,N*7C
$GPGGA,104436.000,,,,,0,00,,,M,0.0,M,,0000*52
$GPGSA,M,1,,,,,,,,,,,,,,,*12
$GPRMC,104436.000,V,,,,,,,010511,,,N*4D
$GPGGA,104437.000,,,,,0,00,,,M,0.0,M,,0000*53
$GPGSA,M,1,,,,,,,,,,,,,,,*12
$GPGSV,3,1,11,15,72,276,28,26,56,018,27,27,46,184,21,12,38,258,*76
$GPGSV,3,2,11,09,36,202,24,17,25,137,23,02,16,032,17,04,15,072,*70
$GPGSV,3,3,11,25,08,284,27,18,06,255,25,05,05,002,*45
$GPRMC,104437.000,V,,,,,,,010511,,,N*4C
$GPGGA,104438.000,,,,,0,00,,,M,0.0,M,,0000*5C
