$GPGGA,122026.651,,,,,0,00,,,M,0.0,M,,0000*51
$GPGSA,M,1,,,,,,,,,,,,,,,*12
$GPRMC,122026.651,V,,,,,,,290411,,,N*45
$GPGGA,122027.651,,,,,0,00,,,M,0.0,M,,0000*50
$GPGSA,M,1,,,,,,,,,,,,,,,*12
$GPRMC,122027.651,V,,,,,,,290411,,,N*44
$GPGGA,122028.651,,,,,0,00,,,M,0.0,M,,0000*5F
$GPGSA,M,1,,,,,,,,,,,,,,,*12
$GPGSV,3,1,11,27,65,108,44,09,63,162,33,15,42,345,45,12,40,202,25*7C
$GPGSV,3,2,11,02,37,075,44,29,35,314,44,25,22,244,33,04,18,114,41*7E
$GPGSV,3,3,11,26,16,014,,14,07,220,,18,00,290,*4F
$GPRMC,122028.651,V,,,,,,,290411,,,N*4B
$GPGGA,122029.651,,,,,0,00,,,M,0.0,M,,0000*5E
$GPGSA,M,1,,,,,,,,,,,,,,,*12
$GPRMC,122029.651,V,,,,,,,290411,,,N*4A
$GPGGA,122030.651,,,,,0,00,,,M,0.0,M,,0000*56
$GPGSA,M,1,,,,,,,,,,,,,,,*12
$GPRMC,122030.651,V,,,,,,,290411,,,N*42
$GPGGA,122031.651,,,,,0,00,,,M,0.0,M,,0000*57
$GPGSA,M,1,,,,,,,,,,,,,,,*12
$GPRMC,122031.651,V,,,,,,,290411,,,N*43
$GPGGA,122032.651,,,,,0,00,,,M,0.0,M,,0000*54
$GPGSA,M,1,,,,,,,,,,,,,,,*12
$GPRMC,122032.651,V,,,,,,,290411,,,N*40
$GPGGA,122033.651,,,,,0,00,,,M,0.0,M,,0000*55
$GPGSA,M,1,,,,,,,,,,,,,,,*12
$GPGSV,3,1,11,27,65,108,44,09,63,162,33,15,42,345,44,12,40,202,24*7C
$GPGSV,3,2,11,02,37,075,43,29,35,314,44,25,22,244,33,04,18,114,41*79
$GPGSV,3,3,11,26,16,014,,14,07,220,,18,00,290,*4F
$GPRMC,122033.651,V,,,,,,,290411,,,N*41
$GPGGA,122034.655,1722.8782,S,06954.4254,W,1,05,2.4,4644.2,M,34.5,M,,0000*68
$GPGSA,M,3,02,04,27,29,15,,,,,,,,3.4,2.4,2.5*34
$GPRMC,122034.655,A,1722.8782,S,06954.4254,W,0.03,54.91,290411,,,A*5E
$GPGGA,122035.000,1722.8783,S,06954.4255,W,1,05,2.4,4643.5,M,34.5,M,,0000*6F
$GPGSA,M,3,02,04,27,29,15,,,,,,,,3.4,2.4,2.5*34
$GPRMC,122035.000,A,1722.8783,S,06954.4255,W,0.08,207.42,290411,,,A*68
$GPGGA,122036.000,1722.8784,S,06954.4255,W,1,05,2.4,4643.5,M,34.5,M,,0000*6B
$GPGSA,M,3,02,04,27,29,15,,,,,,,,3.4,2.4,2.5*34
$GPRMC,122036.000,A,1722.8784,S,06954.4255,W,0.04,83.35,290411,,,A*5E
$GPGGA,122037.000,1722.8784,S,06954.4254,W,1,05,2.4,4643.6,M,34.5,M,,0000*68
$GPGSA,M,3,02,04,27,29,15,,,,,,,,3.4,2.4,2.5*34
$GPRMC,122037.000,A,1722.8784,S,06954.4254,W,0.05,73.37,290411,,,A*52
$GPGGA,122038.000,1722.8784,S,06954.4254,W,1,05,2.4,4643.6,M,34.5,M,,0000*67
$GPGSA,M,3,02,04,27,29,15,,,,,,,,3.4,2.4,2.5*34
$GPGSV,3,1,11,27,65,107,44,15,42,345,44,02,37,075,43,29,35,314,44*73
$GPGSV,3,2,11,04,18,114,40,09,63,162,34,12,40,202,25,25,22,244,33*7E
$GPGSV,3,3,11,26,16,014,35,14,08,220,25,18,00,290,*41
$GPRMC,122038.000,A,1722.8784,S,06954.4254,W,0.04,132.81,290411,,,A*65
$GPGGA,122039.000,1722.8784,S,06954.4254,W,1,05,2.4,4643.7,M,34.5,M,,0000*67
$GPGSA,M,3,02,04,27,29,15,,,,,,,,3.4,2.4,2.5*34
$GPRMC,122039.000,A,1722.8784,S,06954.4254,W,0.05,72.54,290411,,,A*58
$GPGGA,122040.000,1722.8783,S,06954.4254,W,1,05,2.4,4643.8,M,34.5,M,,0000*61
$GPGSA,M,3,02,04,27,29,15,,,,,,,,3.4,2.4,2.5*34
$GPRMC,122040.000,A,1722.8783,S,06954.4254,W,0.05,84.10,290411,,,A*58
$GPGGA,122041.000,1722.8783,S,06954.4254,W,1,05,2.4,4643.8,M,34.5,M,,0000*60
$GPGSA,M,3,02,04,27,29,15,,,,,,,,3.4,2.4,2.5*34
$GPRMC,122041.000,A,1722.8783,S,06954.4254,W,0.05,135.50,290411,,,A*66
$GPGGA,122042.000,1722.8783,S,06954.4254,W,1,05,2.4,4643.9,M,34.5,M,,0000*62
$GPGSA,M,3,02,04,27,29,15,,,,,,,,3.4,2.4,2.5*34
$GPRMC,122042.000,A,1722.8783,S,06954.4254,W,0.03,56.50,290411,,,A*57
$GPGGA,122043.000,1722.8783,S,06954.4253,W,1,05,2.4,4643.9,M,34.5,M,,0000*64
$GPGSA,M,3,02,04,27,29,15,,,,,,,,3.4,2.4,2.5*34
$GPGSV,3,1,11,27,65,107,44,09,63,161,34,15,42,345,44,12,40,202,25*76
$GPGSV,3,2,11,02,37,075,42,29,35,314,44,25,22,244,33,04,18,114,40*79
$GPGSV,3,3,11,26,16,014,35,14,08,220,26,18,00,290,*42
$GPRMC,122043.000,A,1722.8783,S,06954.4253,W,0.08,51.33,290411,,,A*58
$GPGGA,122044.000,1722.8783,S,06954.4253,W,1,05,2.4,4643.9,M,34.5,M,,0000*63
$GPGSA,M,3,02,04,27,29,15,,,,,,,,3.4,2.4,2.5*34
$GPRMC,122044.000,A,1722.8783,S,06954.4253,W,0.06,70.41,290411,,,A*57
$GPGGA,122045.000,1722.8783,S,06954.4253,W,1,05,2.4,4644.0,M,34.5,M,,0000*6C
$GPGSA,M,3,02,04,27,29,15,,,,,,,,3.4,2.4,2.5*34
$GPRMC,122045.000,A,1722.8783,S,06954.4253,W,0.04,148.14,290411,,,A*6E
$GPGGA,122046.000,1722.8783,S,06954.4253,W,1,05,2.4,4644.0,M,34.5,M,,0000*6F
$GPGSA,M,3,02,04,27,29,15,,,,,,,,3.4,2.4,2.5*34
$GPRMC,122046.000,A,1722.8783,S,06954.4253,W,0.06,54.37,290411,,,A*52
$GPGGA,122047.000,1722.8782,S,06954.4252,W,1,05,2.4,4644.1,M,34.5,M,,0000*6F
$GPGSA,M,3,02,04,27,29,15,,,,,,,,3.4,2.4,2.5*34
$GPRMC,122047.000,A,1722.8782,S,06954.4252,W,0.23,49.08,290411,,,A*54
$GPGGA,122048.000,1722.8782,S,06954.4253,W,1,05,2.4,4644.1,M,34.5,M,,0000*61
$GPGSA,M,3,02,04,27,29,15,,,,,,,,3.4,2.4,2.5*34
$GPGSV,3,1,11,27,65,107,44,09,64,161,34,15,42,345,43,12,40,202,25*76
$GPGSV,3,2,11,02,37,075,39,29,35,314,36,25,22,244,32,04,18,114,40*71
$GPGSV,3,3,11,26,16,014,36,14,08,220,26,18,00,290,*41
$GPRMC,122048.000,A,1722.8782,S,06954.4253,W,0.16,223.30,290411,,,A*69
$GPGGA,122049.000,1722.8782,S,06954.4253,W,1,05,2.4,4644.1,M,34.5,M,,0000*60
$GPGSA,M,3,02,04,27,29,15,,,,,,,,3.4,2.4,2.5*34
$GPRMC,122049.000,A,1722.8782,S,06954.4253,W,0.08,219.15,290411,,,A*69
$GPGGA,122050.000,1722.8783,S,06954.4253,W,1,05,2.4,4644.1,M,34.5,M,,0000*69
$GPGSA,M,3,02,04,27,29,15,,,,,,,,3.4,2.4,2.5*34
$GPRMC,122050.000,A,1722.8783,S,06954.4253,W,0.05,196.12,290411,,,A*6E
$GPGGA,122051.000,1722.8783,S,06954.4253,W,1,05,2.4,4644.2,M,34.5,M,,0000*6B
$GPGSA,M,3,02,04,27,29,15,,,,,,,,3.4,2.4,2.5*34
$GPRMC,122051.000,A,1722.8783,S,06954.4253,W,0.01,51.33,290411,,,A*52
$GPGGA,122052.000,1722.8783,S,06954.4253,W,1,05,2.4,4644.2,M,34.5,M,,0000*68
$GPGSA,M,3,02,04,27,29,15,,,,,,,,3.4,2.4,2.5*34
$GPRMC,122052.000,A,1722.8783,S,06954.4253,W,0.01,175.85,290411,,,A*6B
$GPGGA,122053.000,1722.8783,S,06954.4253,W,1,05,2.4,4644.2,M,34.5,M,,0000*69
$GPGSA,M,3,02,04,27,29,15,,,,,,,,3.4,2.4,2.5*34
$GPGSV,3,1,11,27,65,107,43,09,64,161,34,15,42,345,41,12,40,202,*74
$GPGSV,3,2,11,02,37,075,42,29,35,314,40,25,22,244,27,04,18,114,40*78
$GPGSV,3,3,11,26,16,014,35,14,08,220,26,18,00,290,*42
$GPRMC,122053.000,A,1722.8783,S,06954.4253,W,0.04,211.03,290411,,,A*60
$GPGGA,122054.000,1722.8783,S,06954.4253,W,1,05,2.4,4644.2,M,34.5,M,,0000*6E
$GPGSA,M,3,02,04,27,29,15,,,,,,,,3.4,2.4,2.5*34
$GPRMC,122054.000,A,1722.8783,S,06954.4253,W,0.02,212.07,290411,,,A*66
$GPGGA,122055.000,1722.8783,S,06954.4253,W,1,05,2.4,4644.2,M,34.5,M,,0000*6F
$GPGSA,M,3,02,04,27,29,15,,,,,,,,3.4,2.4,2.5*34
$GPRMC,122055.000,A,1722.8783,S,06954.4253,W,0.02,85.77,290411,,,A*5C
$GPGGA,122056.000,1722.8783,S,06954.4253,W,1,05,2.4,4644.3,M,34.5,M,,0000*6D
$GPGSA,M,3,02,04,27,29,15,,,,,,,,3.4,2.4,2.5*34
$GPRMC,122056.000,A,1722.8783,S,06954.4253,W,0.03,203.68,290411,,,A*6C
$GPGGA,122057.000,1722.8782,S,06954.4253,W,1,05,2.4,4644.3,M,34.5,M,,0000*6D
$GPGSA,M,3,02,04,27,29,15,,,,,,,,3.4,2.4,2.5*34
$GPRMC,122057.000,A,1722.8782,S,06954.4253,W,0.05,65.99,290411,,,A*56
$GPGGA,122058.000,1722.8782,S,06954.4253,W,1,06,1.8,4644.3,M,34.5,M,,0000*6E
$GPGSA,M,3,02,04,27,29,09,15,,,,,,,2.9,1.8,2.3*38
$GPGSV,3,1,11,27,65,107,43,09,64,161,34,15,42,345,41,12,40,202,24*72
$GPGSV,3,2,11,02,37,075,43,29,35,314,40,25,22,244,28,04,18,114,40*76
$GPGSV,3,3,11,26,16,014,35,14,08,220,25,18,00,290,*41
$GPRMC,122058.000,A,1722.8782,S,06954.4253,W,0.06,65.99,290411,,,A*5A
$GPGGA,122059.000,1722.8781,S,06954.4252,W,1,06,1.8,4644.3,M,34.5,M,,0000*6D
$GPGSA,M,3,02,04,27,29,09,15,,,,,,,2.9,1.8,2.3*38
$GPRMC,122059.000,A,1722.8781,S,06954.4252,W,0.05,74.00,290411,,,A*5A
$GPGGA,122100.000,1722.8781,S,06954.4252,W,1,06,1.8,4644.3,M,34.5,M,,0000*60
$GPGSA,M,3,02,04,27,29,09,15,,,,,,,2.9,1.8,2.3*38
$GPRMC,122100.000,A,1722.8781,S,06954.4252,W,0.06,72.79,290411,,,A*5C
$GPGGA,122101.000,1722.8781,S,06954.4252,W,1,06,1.8,4644.3,M,34.5,M,,0000*61
$GPGSA,M,3,02,04,27,29,09,15,,,,,,,2.9,1.8,2.3*38
$GPRMC,122101.000,A,1722.8781,S,06954.4252,W,0.05,69.07,290411,,,A*5D
$GPGGA,122102.000,1722.8780,S,06954.4252,W,1,05,2.4,4644.3,M,34.5,M,,0000*6F
$GPGSA,M,3,02,04,27,29,15,,,,,,,,3.4,2.4,2.5*34
$GPRMC,122102.000,A,1722.8780,S,06954.4252,W,0.14,56.52,290411,,,A*53
$GPGGA,122103.000,1722.8780,S,06954.4251,W,1,06,1.8,4644.3,M,34.5,M,,0000*61
$GPGSA,M,3,02,04,27,29,09,15,,,,,,,2.9,1.8,2.3*38
$GPGSV,3,1,11,27,65,107,43,09,64,161,25,15,42,345,36,12,40,202,*74
$GPGSV,3,2,11,02,37,075,38,29,35,314,41,25,22,244,31,04,18,114,40*73
$GPGSV,3,3,11,26,15,014,35,14,08,220,23,18,00,291,*45
$GPRMC,122103.000,A,1722.8780,S,06954.4251,W,0.17,177.28,290411,,,A*6D
$GPGGA,122104.000,1722.8780,S,06954.4251,W,1,06,1.8,4644.3,M,34.5,M,,0000*66
$GPGSA,M,3,02,04,27,29,09,15,,,,,,,2.9,1.8,2.3*38
$GPRMC,122104.000,A,1722.8780,S,06954.4251,W,0.33,230.62,290411,,,A*62
$GPGGA,122105.000,1722.8781,S,06954.4253,W,1,06,1.8,4644.4,M,34.5,M,,0000*63
$GPGSA,M,3,02,04,27,29,09,15,,,,,,,2.9,1.8,2.3*38
$GPRMC,122105.000,A,1722.8781,S,06954.4253,W,0.68,206.03,290411,,,A*6C
$GPGGA,122106.000,1722.8782,S,06954.4253,W,1,06,1.8,4644.4,M,34.5,M,,0000*63
$GPGSA,M,3,02,04,27,29,09,15,,,,,,,2.9,1.8,2.3*38
$GPRMC,122106.000,A,1722.8782,S,06954.4253,W,0.07,205.13,290411,,,A*67
$GPGGA,122107.000,1722.8781,S,06954.4253,W,1,06,1.8,4644.4,M,34.5,M,,0000*61
$GPGSA,M,3,02,04,27,29,09,15,,,,,,,2.9,1.8,2.3*38
$GPRMC,122107.000,A,1722.8781,S,06954.4253,W,0.07,40.07,290411,,,A*53
$GPGGA,122108.000,1722.8779,S,06954.4251,W,1,06,1.8,4644.3,M,34.5,M,,0000*6C
$GPGSA,M,3,02,04,27,29,09,15,,,,,,,2.9,1.8,2.3*38
$GPGSV,3,1,11,27,65,107,36,09,64,161,30,15,42,345,36,12,40,202,20*70
$GPGSV,3,2,11,02,37,075,36,29,35,314,34,25,22,244,34,04,18,114,31*7C
$GPGSV,3,3,11,26,15,014,34,14,08,220,25,18,00,291,*42
$GPRMC,122108.000,A,1722.8779,S,06954.4251,W,0.14,39.83,290411,,,A*59
$GPGGA,122109.000,1722.8780,S,06954.4252,W,1,06,1.8,4644.4,M,34.5,M,,0000*6F
$GPGSA,M,3,02,04,27,29,09,15,,,,,,,2.9,1.8,2.3*38
$GPRMC,122109.000,A,1722.8780,S,06954.4252,W,0.07,74.92,290411,,,A*56
$GPGGA,122110.000,1722.8779,S,06954.4251,W,1,06,1.8,4644.3,M,34.5,M,,0000*65
$GPGSA,M,3,02,04,27,29,09,15,,,,,,,2.9,1.8,2.3*38
$GPRMC,122110.000,A,1722.8779,S,06954.4251,W,0.16,42.78,290411,,,A*5A
$GPGGA,122111.000,1722.8777,S,06954.4250,W,1,06,1.8,4644.2,M,34.5,M,,0000*6A
$GPGSA,M,3,02,04,27,29,09,15,,,,,,,2.9,1.8,2.3*38
$GPRMC,122111.000,A,1722.8777,S,06954.4250,W,0.11,49.99,290411,,,A*57
$GPGGA,122112.140,1722.8775,S,06954.4249,W,1,05,2.4,4644.5,M,34.5,M,,0000*6D
$GPGSA,M,3,27,15,02,29,04,,,,,,,,3.4,2.4,2.5*34
$GPRMC,122112.140,A,1722.8775,S,06954.4249,W,0.82,41.00,290411,,,A*59
$GPGGA,122113.004,1722.8773,S,06954.4248,W,1,06,1.8,4644.3,M,34.5,M,,0000*60
$GPGSA,M,3,27,09,15,02,29,04,,,,,,,2.9,1.8,2.3*38
$GPGSV,3,1,11,27,65,107,33,09,64,161,28,15,42,345,37,12,40,202,*7F
$GPGSV,3,2,11,02,37,075,36,29,35,314,37,25,22,244,32,04,18,114,30*78
$GPGSV,3,3,11,26,15,014,36,14,08,220,27,18,00,291,*42
$GPRMC,122113.004,A,1722.8773,S,06954.4248,W,0.53,15.92,290411,,,A*58
$GPGGA,122114.001,1722.8772,S,06954.4248,W,1,06,1.8,4644.3,M,34.5,M,,0000*63
$GPGSA,M,3,27,09,15,02,29,04,,,,,,,2.9,1.8,2.3*38
$GPRMC,122114.001,A,1722.8772,S,06954.4248,W,0.07,76.13,290411,,,A*56
$GPGGA,122114.999,1722.8771,S,06954.4248,W,1,06,1.8,4644.2,M,34.5,M,,0000*69
$GPGSA,M,3,27,09,15,02,29,04,,,,,,,2.9,1.8,2.3*38
$GPRMC,122114.999,A,1722.8771,S,06954.4248,W,0.34,48.54,290411,,,A*53
$GPGGA,122115.995,1722.8772,S,06954.4249,W,1,06,1.8,4644.0,M,34.5,M,,0000*64
$GPGSA,M,3,27,09,15,02,29,04,,,,,,,2.9,1.8,2.3*38
$GPRMC,122115.995,A,1722.8772,S,06954.4249,W,0.02,178.14,290411,,,A*6F
$GPGGA,122117.003,1722.8771,S,06954.4248,W,1,06,1.8,4644.1,M,34.5,M,,0000*63
$GPGSA,M,3,27,09,15,02,29,04,,,,,,,2.9,1.8,2.3*38
$GPRMC,122117.003,A,1722.8771,S,06954.4248,W,0.20,6.53,290411,,,A*62
$GPGGA,122118.001,1722.8770,S,06954.4248,W,1,06,1.8,4643.9,M,34.5,M,,0000*60
$GPGSA,M,3,27,09,15,02,29,04,,,,,,,2.9,1.8,2.3*38
$GPGSV,3,1,11,27,65,107,36,09,64,161,30,15,42,345,38,12,40,202,*7C
$GPGSV,3,2,11,02,37,075,34,29,35,314,37,25,22,244,35,04,18,114,31*7C
$GPGSV,3,3,11,26,15,014,37,14,08,220,28,18,00,291,*4C
$GPRMC,122118.001,A,1722.8770,S,06954.4248,W,0.26,55.54,290411,,,A*59
$GPGGA,122119.000,1722.8769,S,06954.4248,W,1,06,1.8,4643.4,M,34.5,M,,0000*65
$GPGSA,M,3,27,09,15,02,29,04,,,,,,,2.9,1.8,2.3*38
$GPRMC,122119.000,A,1722.8769,S,06954.4248,W,0.23,318.40,290411,,,A*6B
$GPGGA,122120.004,1722.8769,S,06954.4250,W,1,06,1.8,4643.3,M,34.5,M,,0000*65
$GPGSA,M,3,27,09,15,02,29,04,,,,,,,2.9,1.8,2.3*38
$GPRMC,122120.004,A,1722.8769,S,06954.4250,W,0.39,186.89,290411,,,A*67
$GPGGA,122120.996,1722.8772,S,06954.4252,W,1,06,1.8,4643.5,M,34.5,M,,0000*69
$GPGSA,M,3,27,09,15,02,29,04,,,,,,,2.9,1.8,2.3*38
$GPRMC,122120.996,A,1722.8772,S,06954.4252,W,0.74,56.34,290411,,,A*5E
$GPGGA,122122.001,1722.8769,S,06954.4251,W,1,06,1.8,4643.7,M,34.5,M,,0000*67
$GPGSA,M,3,27,09,15,02,29,04,,,,,,,2.9,1.8,2.3*38
$GPRMC,122122.001,A,1722.8769,S,06954.4251,W,0.91,16.05,290411,,,A*5F
$GPGGA,122123.000,1722.8767,S,06954.4254,W,1,06,1.8,4643.2,M,34.5,M,,0000*69
$GPGSA,M,3,27,09,15,02,29,04,,,,,,,2.9,1.8,2.3*38
$GPGSV,3,1,11,27,65,107,31,09,64,161,28,15,42,345,35,12,40,202,*7F
$GPGSV,3,2,11,02,37,075,31,29,35,314,34,25,22,244,31,04,18,114,30*7F
$GPGSV,3,3,11,26,15,014,32,14,08,220,25,18,00,291,*44
$GPRMC,122123.000,A,1722.8767,S,06954.4254,W,1.47,2.18,290411,,,A*67
$GPGGA,122123.999,1722.8762,S,06954.4252,W,1,06,1.8,4643.7,M,34.5,M,,0000*66
$GPGSA,M,3,27,09,15,02,29,04,,,,,,,2.9,1.8,2.3*38
$GPRMC,122123.999,A,1722.8762,S,06954.4252,W,1.14,35.65,290411,,,A*55
$GPGGA,122124.998,1722.8761,S,06954.4254,W,1,06,1.8,4643.2,M,34.5,M,,0000*60
$GPGSA,M,3,27,09,15,02,29,04,,,,,,,2.9,1.8,2.3*38
$GPRMC,122124.998,A,1722.8761,S,06954.4254,W,0.79,279.16,290411,,,A*62
$GPGGA,122126.000,1722.8756,S,06954.4252,W,1,06,1.8,4644.0,M,34.5,M,,0000*6D
$GPGSA,M,3,27,09,15,02,29,04,,,,,,,2.9,1.8,2.3*38
$GPRMC,122126.000,A,1722.8756,S,06954.4252,W,0.28,1.61,290411,,,A*63
$GPGGA,122126.999,1722.8758,S,06954.4254,W,1,06,1.8,4643.4,M,34.5,M,,0000*6F
$GPGSA,M,3,27,09,15,02,29,04,,,,,,,2.9,1.8,2.3*38
$GPRMC,122126.999,A,1722.8758,S,06954.4254,W,1.35,225.01,290411,,,A*6D
$GPGGA,122128.000,1722.8761,S,06954.4255,W,1,06,1.8,4644.4,M,34.5,M,,0000*64
$GPGSA,M,3,27,09,15,02,29,04,,,,,,,2.9,1.8,2.3*38
$GPGSV,3,1,11,27,65,107,33,09,64,161,29,15,42,345,37,12,40,202,*7E
$GPGSV,3,2,11,02,37,075,36,29,35,314,37,25,22,244,32,04,18,114,32*7A
$GPGSV,3,3,11,26,15,014,36,14,08,220,29,18,00,291,*4C
$GPRMC,122128.000,A,1722.8761,S,06954.4255,W,0.32,245.72,290411,,,A*65
$GPGGA,122129.002,1722.8760,S,06954.4257,W,1,06,1.8,4643.7,M,34.5,M,,0000*60
$GPGSA,M,3,27,09,15,02,29,04,,,,,,,2.9,1.8,2.3*38
$GPRMC,122129.002,A,1722.8760,S,06954.4257,W,0.04,99.65,290411,,,A*55
$GPGGA,122130.001,1722.8762,S,06954.4256,W,1,06,1.8,4643.3,M,34.5,M,,0000*6C
$GPGSA,M,3,27,09,15,02,29,04,,,,,,,2.9,1.8,2.3*38
$GPRMC,122130.001,A,1722.8762,S,06954.4256,W,0.56,7.71,290411,,,A*68
$GPGGA,122130.994,1722.8757,S,06954.4255,W,1,06,1.8,4643.5,M,34.5,M,,0000*6A
$GPGSA,M,3,27,09,15,02,29,04,,,,,,,2.9,1.8,2.3*38
$GPRMC,122130.994,A,1722.8757,S,06954.4255,W,0.58,346.28,290411,,,A*6C
$GPGGA,122133.001,1722.8756,S,06954.4255,W,1,05,2.4,4644.6,M,34.5,M,,0000*65
$GPGSA,M,3,27,15,02,29,04,,,,,,,,3.4,2.4,2.5*34
$GPGSV,3,1,11,27,65,107,32,09,64,161,,15,42,345,36,12,40,202,*75
$GPGSV,3,2,11,02,37,075,36,29,35,314,33,25,22,244,29,04,18,114,37*71
$GPGSV,3,3,11,26,15,014,31,14,08,220,,18,00,291,*40
$GPRMC,122133.001,A,1722.8756,S,06954.4255,W,0.49,200.90,290411,,,A*6B
$GPGGA,122134.003,1722.8758,S,06954.4255,W,1,04,3.9,4645.1,M,34.5,M,,0000*65
$GPGSA,M,3,27,15,29,04,,,,,,,,,4.6,3.9,2.5*3F
$GPRMC,122134.003,A,1722.8758,S,06954.4255,W,0.10,97.28,290411,,,A*53
$GPGGA,122134.999,1722.8760,S,06954.4257,W,1,05,2.3,4645.6,M,34.5,M,,0000*6B
$GPGSA,M,3,27,09,15,02,04,,,,,,,,3.6,2.3,2.8*3E
$GPRMC,122134.999,A,1722.8760,S,06954.4257,W,0.13,214.78,290411,,,A*6F
$GPGGA,122135.998,1722.8755,S,06954.4253,W,1,06,1.8,4643.8,M,34.5,M,,0000*6A
$GPGSA,M,3,27,09,15,02,29,04,,,,,,,2.9,1.8,2.3*38
$GPRMC,122135.998,A,1722.8755,S,06954.4253,W,0.31,198.91,290411,,,A*6D
$GPGGA,122137.007,1722.8759,S,06954.4255,W,1,06,1.8,4643.3,M,34.5,M,,0000*66
$GPGSA,M,3,27,09,15,02,29,04,,,,,,,2.9,1.8,2.3*38
$GPRMC,122137.007,A,1722.8759,S,06954.4255,W,0.33,33.02,290411,,,A*52
$GPGGA,122137.998,1722.8760,S,06954.4258,W,1,06,1.8,4641.2,M,34.5,M,,0000*6D
$GPGSA,M,3,27,09,15,02,29,04,,,,,,,2.9,1.8,2.3*38
$GPGSV,3,1,11,27,65,107,40,09,64,161,35,15,42,345,41,12,40,202,30*75
$GPGSV,3,2,11,02,37,075,40,29,35,314,37,25,22,244,36,04,18,114,38*75
$GPGSV,3,3,11,26,15,014,36,14,08,220,26,18,00,291,*43
$GPRMC,122137.998,A,1722.8760,S,06954.4258,W,0.84,33.59,290411,,,A*58
$GPGGA,122138.999,1722.8760,S,06954.4261,W,1,06,1.8,4641.3,M,34.5,M,,0000*68
$GPGSA,M,3,27,09,15,02,29,04,,,,,,,2.9,1.8,2.3*38
$GPRMC,122138.999,A,1722.8760,S,06954.4261,W,0.16,167.28,290411,,,A*61
$GPGGA,122139.999,1722.8757,S,06954.4259,W,1,06,1.8,4641.8,M,34.5,M,,0000*6D
$GPGSA,M,3,27,09,15,02,29,04,,,,,,,2.9,1.8,2.3*38
$GPRMC,122139.999,A,1722.8757,S,06954.4259,W,0.41,66.95,290411,,,A*5B
$GPGGA,122140.999,1722.8756,S,06954.4261,W,1,06,1.8,4642.2,M,34.5,M,,0000*60
$GPGSA,M,3,27,09,15,02,29,04,,,,,,,2.9,1.8,2.3*38
$GPRMC,122140.999,A,1722.8756,S,06954.4261,W,0.81,21.65,290411,,,A*5F
$GPGGA,122141.999,1722.8755,S,06954.4262,W,1,06,1.8,4642.0,M,34.5,M,,0000*63
$GPGSA,M,3,27,09,15,02,29,04,,,,,,,2.9,1.8,2.3*38
$GPRMC,122141.999,A,1722.8755,S,06954.4262,W,0.02,61.60,290411,,,A*54
$GPGGA,122142.994,1722.8757,S,06954.4260,W,1,06,1.8,4642.0,M,34.5,M,,0000*6D
$GPGSA,M,3,27,09,15,02,29,04,,,,,,,2.9,1.8,2.3*38
$GPGSV,3,1,11,27,65,107,37,09,64,161,31,15,42,345,41,12,40,202,37*76
$GPGSV,3,2,11,02,37,075,40,29,35,314,38,25,22,244,37,04,18,114,39*7A
$GPGSV,3,3,11,26,15,014,36,14,08,220,31,18,00,291,*45
$GPRMC,122142.994,A,1722.8757,S,06954.4260,W,0.24,116.78,290411,,,A*66
$GPGGA,122144.003,1722.8765,S,06954.4267,W,1,06,1.8,4641.9,M,34.5,M,,0000*60
$GPGSA,M,3,27,09,15,02,29,04,,,,,,,2.9,1.8,2.3*38
$GPRMC,122144.003,A,1722.8765,S,06954.4267,W,0.37,11.54,290411,,,A*5B
$GPGGA,122145.002,1722.8766,S,06954.4269,W,1,06,1.8,4642.4,M,34.5,M,,0000*63
$GPGSA,M,3,27,09,15,02,29,04,,,,,,,2.9,1.8,2.3*38
$GPRMC,122145.002,A,1722.8766,S,06954.4269,W,0.35,296.19,290411,,,A*60
$GPGGA,122146.004,1722.8766,S,06954.4270,W,1,06,1.8,4642.0,M,34.5,M,,0000*6A
$GPGSA,M,3,27,09,15,02,29,04,,,,,,,2.9,1.8,2.3*38
$GPRMC,122146.004,A,1722.8766,S,06954.4270,W,0.40,211.88,290411,,,A*68
$GPGGA,122146.991,1722.8768,S,06954.4273,W,1,06,1.8,4641.7,M,34.5,M,,0000*66
$GPGSA,M,3,27,09,15,02,29,04,,,,,,,2.9,1.8,2.3*38
$GPRMC,122146.991,A,1722.8768,S,06954.4273,W,1.39,249.51,290411,,,A*66
$GPGGA,122148.007,1722.8776,S,06954.4279,W,1,06,1.8,4642.1,M,34.5,M,,0000*6E
$GPGSA,M,3,27,09,15,02,29,04,,,,,,,2.9,1.8,2.3*38
$GPGSV,3,1,11,27,65,107,35,09,64,161,30,15,42,345,40,12,40,202,32*71
$GPGSV,3,2,11,02,37,075,38,29,35,314,37,25,22,244,35,04,18,114,37*76
$GPGSV,3,3,11,26,15,014,31,14,08,220,30,18,00,291,*43
$GPRMC,122148.007,A,1722.8776,S,06954.4279,W,0.24,18.00,290411,,,A*54
$GPGGA,122148.995,1722.8777,S,06954.4283,W,1,06,1.8,4642.5,M,34.5,M,,0000*6C
$GPGSA,M,3,27,09,15,02,29,04,,,,,,,2.9,1.8,2.3*38
$GPRMC,122148.995,A,1722.8777,S,06954.4283,W,0.31,342.54,290411,,,A*6B
$GPGGA,122150.007,1722.8778,S,06954.4278,W,1,06,1.8,4641.5,M,34.5,M,,0000*6F
$GPGSA,M,3,27,09,15,02,29,04,,,,,,,2.9,1.8,2.3*38
$GPRMC,122150.007,A,1722.8778,S,06954.4278,W,0.22,340.77,290411,,,A*6A
$GPGGA,122150.991,1722.8778,S,06954.4280,W,1,06,1.8,4640.0,M,34.5,M,,0000*6A
$GPGSA,M,3,27,09,15,02,29,04,,,,,,,2.9,1.8,2.3*38
$GPRMC,122150.991,A,1722.8778,S,06954.4280,W,0.47,209.90,290411,,,A*6D
$GPGGA,122152.007,1722.8781,S,06954.4283,W,1,06,1.8,4638.8,M,34.5,M,,0000*6C
$GPGSA,M,3,27,09,15,02,29,04,,,,,,,2.9,1.8,2.3*38
$GPRMC,122152.007,A,1722.8781,S,06954.4283,W,0.64,34.92,290411,,,A*53
$GPGGA,122153.000,1722.8775,S,06954.4276,W,1,06,1.8,4638.5,M,34.5,M,,0000*66
$GPGSA,M,3,27,09,15,02,29,04,,,,,,,2.9,1.8,2.3*38
$GPGSV,3,1,11,27,65,107,36,09,64,161,32,15,42,345,41,12,40,202,38*7B
$GPGSV,3,2,11,02,37,075,40,29,35,314,38,25,22,244,38,04,18,114,38*74
$GPGSV,3,3,11,26,15,014,35,14,08,220,33,18,00,291,*44
$GPRMC,122153.000,A,1722.8775,S,06954.4276,W,0.97,31.36,290411,,,A*53
$GPGGA,122154.000,1722.8778,S,06954.4281,W,1,06,1.8,4637.8,M,34.5,M,,0000*66
$GPGSA,M,3,27,09,15,02,29,04,,,,,,,2.9,1.8,2.3*38
$GPRMC,122154.000,A,1722.8778,S,06954.4281,W,0.48,29.72,290411,,,A*5A
$GPGGA,122154.999,1722.8771,S,06954.4271,W,1,06,1.8,4639.3,M,34.5,M,,0000*6C
$GPGSA,M,3,27,09,15,02,29,04,,,,,,,2.9,1.8,2.3*38
$GPRMC,122154.999,A,1722.8771,S,06954.4271,W,0.67,20.61,290411,,,A*53
$GPGGA,122156.024,1722.8769,S,06954.4270,W,0,00,,4639.1,M,34.5,M,,0000*4B
$GPGSA,M,1,,,,,,,,,,,,,,,*12
$GPRMC,122156.024,V,1722.8769,S,06954.4270,W,,,290411,,,N*7A
$GPGGA,122156.715,1722.8768,S,06954.4270,W,0,00,,4639.0,M,34.5,M,,0000*4E
$GPGSA,M,1,,,,,,,,,,,,,,,*12
$GPRMC,122156.715,V,1722.8768,S,06954.4270,W,,,290411,,,N*7E
$GPGGA,122157.000,1722.8768,S,06954.4270,W,0,00,,4638.9,M,34.5,M,,0000*44
$GPGSA,M,1,,,,,,,,,,,,,,,*12
$GPRMC,122157.000,V,1722.8768,S,06954.4270,W,,,290411,,,N*7C
$GPGGA,122158.000,1722.8766,S,06954.4269,W,0,00,,4638.7,M,34.5,M,,0000*43
$GPGSA,M,1,,,,,,,,,,,,,,,*12
$GPGSV,3,1,11,27,65,106,,09,64,161,,15,42,345,,02,37,076,*70
$GPGSV,3,2,11,29,35,314,38,04,18,115,,12,40,201,,25,22,243,*76
$GPGSV,3,3,11,26,15,014,,14,08,220,,18,00,291,*42
$GPRMC,122158.000,V,1722.8766,S,06954.4269,W,,,290411,,,N*75
$GPGGA,122159.000,1722.8767,S,06954.4260,W,1,05,2.5,4641.4,M,34.5,M,,0000*6A
$GPGSA,M,3,27,29,02,09,15,,,,,,,,6.4,2.5,5.8*37
$GPRMC,122159.000,A,1722.8767,S,06954.4260,W,1.28,5.33,290411,,,A*6A
$GPGGA,122200.000,1722.8774,S,06954.4259,W,1,06,1.8,4643.6,M,34.5,M,,0000*60
$GPGSA,M,3,27,29,02,09,15,04,,,,,,,2.9,1.8,2.3*38
$GPRMC,122200.000,A,1722.8774,S,06954.4259,W,0.23,33.44,290411,,,A*52
$GPGGA,122201.000,1722.8774,S,06954.4259,W,1,06,1.8,4643.1,M,34.5,M,,0000*66
$GPGSA,M,3,27,29,02,09,15,04,,,,,,,2.9,1.8,2.3*38
$GPRMC,122201.000,A,1722.8774,S,06954.4259,W,0.58,8.74,290411,,,A*64
$GPGGA,122202.000,1722.8774,S,06954.4259,W,1,06,1.8,4642.7,M,34.5,M,,0000*62
$GPGSA,M,3,27,29,02,09,15,04,,,,,,,2.9,1.8,2.3*38
$GPRMC,122202.000,A,1722.8774,S,06954.4259,W,0.27,27.58,290411,,,A*5C
$GPGGA,122203.000,1722.8774,S,06954.4258,W,1,06,1.8,4642.4,M,34.5,M,,0000*61
$GPGSA,M,3,27,29,02,09,15,04,,,,,,,2.9,1.8,2.3*38
$GPGSV,3,1,11,27,65,106,41,09,64,161,41,15,42,345,48,02,37,076,44*7C
$GPGSV,3,2,11,29,35,314,41,04,18,115,40,12,40,201,39,25,22,243,39*7C
$GPGSV,3,3,11,26,15,014,37,14,08,220,32,18,00,291,*47
$GPRMC,122203.000,A,1722.8774,S,06954.4258,W,0.09,61.83,290411,,,A*54
$GPGGA,122204.000,1722.8775,S,06954.4258,W,1,06,1.8,4642.4,M,34.5,M,,0000*67
$GPGSA,M,3,27,29,02,09,15,04,,,,,,,2.9,1.8,2.3*38
$GPRMC,122204.000,A,1722.8775,S,06954.4258,W,0.11,42.01,290411,,,A*50
$GPGGA,122205.000,1722.8775,S,06954.4258,W,1,06,1.8,4642.6,M,34.5,M,,0000*64
$GPGSA,M,3,27,29,02,09,15,04,,,,,,,2.9,1.8,2.3*38
$GPRMC,122205.000,A,1722.8775,S,06954.4258,W,0.10,42.65,290411,,,A*52
$GPGGA,122206.000,1722.8776,S,06954.4257,W,1,06,1.8,4642.5,M,34.5,M,,0000*68
$GPGSA,M,3,27,29,02,09,15,04,,,,,,,2.9,1.8,2.3*38
$GPRMC,122206.000,A,1722.8776,S,06954.4257,W,0.11,51.94,290411,,,A*50
$GPGGA,122207.000,1722.8775,S,06954.4257,W,1,06,1.8,4643.0,M,34.5,M,,0000*6E
$GPGSA,M,3,27,29,02,09,15,04,,,,,,,2.9,1.8,2.3*38
$GPRMC,122207.000,A,1722.8775,S,06954.4257,W,0.12,49.65,290411,,,A*56
$GPGGA,122208.000,1722.8775,S,06954.4258,W,1,06,1.8,4643.1,M,34.5,M,,0000*6F
$GPGSA,M,3,27,29,02,09,15,04,,,,,,,2.9,1.8,2.3*38
$GPGSV,3,1,11,27,65,106,42,09,64,161,41,15,42,345,47,02,37,076,45*71
$GPGSV,3,2,11,29,35,314,41,04,18,115,40,12,40,201,40,25,22,243,40*7C
$GPGSV,3,3,11,26,15,014,37,14,08,220,34,18,00,291,*41
$GPRMC,122208.000,A,1722.8775,S,06954.4258,W,0.11,58.50,290411,,,A*53
$GPGGA,122209.000,1722.8775,S,06954.4257,W,1,06,1.8,4643.2,M,34.5,M,,0000*62
$GPGSA,M,3,27,29,02,09,15,04,,,,,,,2.9,1.8,2.3*38
$GPRMC,122209.000,A,1722.8775,S,06954.4257,W,0.12,46.45,290411,,,A*55
$GPGGA,122210.006,1722.8773,S,06954.4257,W,1,06,1.8,4643.6,M,34.5,M,,0000*6E
$GPGSA,M,3,27,09,15,02,29,04,,,,,,,2.9,1.8,2.3*38
$GPRMC,122210.006,A,1722.8773,S,06954.4257,W,0.35,87.51,290411,,,A*50
$GPGGA,122210.996,1722.8772,S,06954.4257,W,1,06,1.8,4643.7,M,34.5,M,,0000*6E
$GPGSA,M,3,27,09,15,02,29,04,,,,,,,2.9,1.8,2.3*38
$GPRMC,122210.996,A,1722.8772,S,06954.4257,W,0.40,320.94,290411,,,A*64
$GPGGA,122211.999,1722.8771,S,06954.4258,W,1,06,1.8,4644.0,M,34.5,M,,0000*6C
$GPGSA,M,3,27,09,15,02,29,04,,,,,,,2.9,1.8,2.3*38
$GPRMC,122211.999,A,1722.8771,S,06954.4258,W,0.12,312.89,290411,,,A*6C
$GPGGA,122212.998,1722.8771,S,06954.4258,W,1,06,1.8,4643.9,M,34.5,M,,0000*60
$GPGSA,M,3,27,09,15,02,29,04,,,,,,,2.9,1.8,2.3*38
$GPGSV,3,1,11,27,65,106,37,09,64,161,33,15,42,345,37,12,40,201,35*75
$GPGSV,3,2,11,02,37,076,30,29,35,314,33,25,22,243,34,04,18,115,31*78
$GPGSV,3,3,11,26,15,014,31,14,08,220,,18,00,291,*40
$GPRMC,122212.998,A,1722.8771,S,06954.4258,W,1.01,35.12,290411,,,A*59
$GPGGA,122214.003,1722.8769,S,06954.4257,W,1,06,1.8,4644.1,M,34.5,M,,0000*64
$GPGSA,M,3,27,09,15,02,29,04,,,,,,,2.9,1.8,2.3*38
$GPRMC,122214.003,A,1722.8769,S,06954.4257,W,0.72,35.92,290411,,,A*5F
$GPGGA,122214.999,1722.8765,S,06954.4255,W,1,06,1.8,4644.3,M,34.5,M,,0000*62
$GPGSA,M,3,27,09,15,02,29,04,,,,,,,2.9,1.8,2.3*38
$GPRMC,122214.999,A,1722.8765,S,06954.4255,W,0.82,30.74,290411,,,A*59
$GPGGA,122216.001,1722.8765,S,06954.4254,W,1,06,1.8,4644.5,M,34.5,M,,0000*6F
$GPGSA,M,3,27,09,15,02,29,04,,,,,,,2.9,1.8,2.3*38
$GPRMC,122216.001,A,1722.8765,S,06954.4254,W,0.40,184.20,290411,,,A*63
$GPGGA,122217.000,1722.8763,S,06954.4254,W,1,06,1.8,4644.9,M,34.5,M,,0000*65
$GPGSA,M,3,27,09,15,02,29,04,,,,,,,2.9,1.8,2.3*38
$GPRMC,122217.000,A,1722.8763,S,06954.4254,W,0.87,7.76,290411,,,A*67
$GPGGA,122218.000,1722.8761,S,06954.4254,W,1,06,1.8,4644.6,M,34.5,M,,0000*67
$GPGSA,M,3,27,09,15,02,29,04,,,,,,,2.9,1.8,2.3*38
$GPGSV,3,1,11,27,65,106,38,09,64,161,38,15,42,345,40,12,40,201,37*73
$GPGSV,3,2,11,02,37,076,40,29,35,314,39,25,22,243,36,04,18,115,37*71
$GPGSV,3,3,11,26,15,014,33,14,08,220,31,18,00,291,*40
$GPRMC,122218.000,A,1722.8761,S,06954.4254,W,0.12,103.22,290411,,,A*62
$GPGGA,122218.997,1722.8761,S,06954.4255,W,1,06,1.8,4644.8,M,34.5,M,,0000*6F
$GPGSA,M,3,27,09,15,02,29,04,,,,,,,2.9,1.8,2.3*38
$GPRMC,122218.997,A,1722.8761,S,06954.4255,W,0.41,319.35,290411,,,A*6D
$GPGGA,122220.002,1722.8760,S,06954.4256,W,1,06,1.8,4645.1,M,34.5,M,,0000*6B
$GPGSA,M,3,27,09,15,02,29,04,,,,,,,2.9,1.8,2.3*38
$GPRMC,122220.002,A,1722.8760,S,06954.4256,W,0.14,219.01,290411,,,A*67
$GPGGA,122220.991,1722.8761,S,06954.4257,W,1,06,1.8,4645.1,M,34.5,M,,0000*68
$GPGSA,M,3,27,09,15,02,29,04,,,,,,,2.9,1.8,2.3*38
$GPRMC,122220.991,A,1722.8761,S,06954.4257,W,0.79,209.85,290411,,,A*62
$GPGGA,122222.007,1722.8760,S,06954.4257,W,1,06,1.8,4645.0,M,34.5,M,,0000*6C
$GPGSA,M,3,27,09,15,02,29,04,,,,,,,2.9,1.8,2.3*38
$GPRMC,122222.007,A,1722.8760,S,06954.4257,W,0.94,10.51,290411,,,A*57
$GPGGA,122223.002,1722.8760,S,06954.4259,W,1,06,1.8,4645.0,M,34.5,M,,0000*66
$GPGSA,M,3,27,09,15,02,29,04,,,,,,,2.9,1.8,2.3*38
$GPGSV,3,1,11,27,65,106,38,09,64,161,38,15,42,345,41,12,40,201,37*72
$GPGSV,3,2,11,02,37,076,39,29,35,314,38,25,22,243,37,04,18,115,38*70
$GPGSV,3,3,11,26,15,014,30,14,08,220,29,18,00,291,*4A
$GPRMC,122223.002,A,1722.8760,S,06954.4259,W,0.51,221.03,290411,,,A*63
$GPGGA,122224.000,1722.8761,S,06954.4260,W,1,06,1.8,4645.1,M,34.5,M,,0000*69
$GPGSA,M,3,27,09,15,02,29,04,,,,,,,2.9,1.8,2.3*38
$GPRMC,122224.000,A,1722.8761,S,06954.4260,W,0.24,9.15,290411,,,A*60
$GPGGA,122224.996,1722.8761,S,06954.4261,W,1,06,1.8,4645.6,M,34.5,M,,0000*69
$GPGSA,M,3,27,09,15,02,29,04,,,,,,,2.9,1.8,2.3*38
$GPRMC,122224.996,A,1722.8761,S,06954.4261,W,0.39,274.35,290411,,,A*61
$GPGGA,122225.999,1722.8760,S,06954.4262,W,1,06,1.8,4645.1,M,34.5,M,,0000*62
$GPGSA,M,3,27,09,15,02,29,04,,,,,,,2.9,1.8,2.3*38
$GPRMC,122225.999,A,1722.8760,S,06954.4262,W,0.35,16.69,290411,,,A*5E
$GPGGA,122226.998,1722.8760,S,06954.4264,W,1,06,1.8,4645.2,M,34.5,M,,0000*65
$GPGSA,M,3,27,09,15,02,29,04,,,,,,,2.9,1.8,2.3*38
$GPRMC,122226.998,A,1722.8760,S,06954.4264,W,0.70,237.96,290411,,,A*6A
$GPGGA,122228.004,1722.8760,S,06954.4265,W,1,06,1.8,4645.0,M,34.5,M,,0000*64
$GPGSA,M,3,27,09,15,02,29,04,,,,,,,2.9,1.8,2.3*38
$GPGSV,3,1,11,27,65,106,33,09,64,161,32,15,42,345,37,12,40,201,31*74
$GPGSV,3,2,11,02,37,076,35,29,35,314,32,25,22,243,29,04,18,115,30*71
$GPGSV,3,3,11,26,15,014,25,14,08,220,,18,00,291,*45
$GPRMC,122228.004,A,1722.8760,S,06954.4265,W,0.48,338.88,290411,,,A*63
$GPGGA,122228.999,1722.8757,S,06954.4263,W,1,06,1.8,4645.5,M,34.5,M,,0000*6E
$GPGSA,M,3,27,09,15,02,29,04,,,,,,,2.9,1.8,2.3*38
$GPRMC,122228.999,A,1722.8757,S,06954.4263,W,0.39,23.52,290411,,,A*54
$GPGGA,122230.001,1722.8756,S,06954.4262,W,1,06,1.8,4645.5,M,34.5,M,,0000*6F
$GPGSA,M,3,27,09,15,02,29,04,,,,,,,2.9,1.8,2.3*38
$GPRMC,122230.001,A,1722.8756,S,06954.4262,W,0.25,221.35,290411,,,A*69
$GPGGA,122230.998,1722.8757,S,06954.4262,W,1,06,1.8,4645.7,M,34.5,M,,0000*65
$GPGSA,M,3,27,09,15,02,29,04,,,,,,,2.9,1.8,2.3*38
$GPRMC,122230.998,A,1722.8757,S,06954.4262,W,0.24,220.40,290411,,,A*63
$GPGGA,122232.002,1722.8759,S,06954.4263,W,1,06,1.8,4645.3,M,34.5,M,,0000*66
$GPGSA,M,3,27,09,15,02,29,04,,,,,,,2.9,1.8,2.3*38
$GPRMC,122232.002,A,1722.8759,S,06954.4263,W,0.49,193.41,290411,,,A*65
$GPGGA,122233.002,1722.8760,S,06954.4263,W,1,06,1.8,4645.0,M,34.5,M,,0000*6E
$GPGSA,M,3,27,09,15,02,29,04,,,,,,,2.9,1.8,2.3*38
$GPGSV,3,1,11,27,65,106,38,09,64,161,38,15,42,345,40,12,40,201,37*73
$GPGSV,3,2,11,02,37,076,40,29,35,314,38,25,22,243,37,04,18,115,37*71
$GPGSV,3,3,11,26,15,014,31,14,08,220,24,18,00,291,*46
$GPRMC,122233.002,A,1722.8760,S,06954.4263,W,0.51,187.71,290411,,,A*61
$GPGGA,122233.997,1722.8763,S,06954.4265,W,1,06,1.8,4644.4,M,34.5,M,,0000*6B
$GPGSA,M,3,27,09,15,02,29,04,,,,,,,2.9,1.8,2.3*38
$GPRMC,122233.997,A,1722.8763,S,06954.4265,W,0.05,274.90,290411,,,A*60
$GPGGA,122235.000,1722.8761,S,06954.4264,W,1,06,1.8,4643.7,M,34.5,M,,0000*6D
$GPGSA,M,3,27,09,15,02,29,04,,,,,,,2.9,1.8,2.3*38
$GPRMC,122235.000,A,1722.8761,S,06954.4264,W,0.29,318.81,290411,,,A*67
$GPGGA,122236.002,1722.8761,S,06954.4264,W,1,06,1.8,4643.4,M,34.5,M,,0000*6F
$GPGSA,M,3,27,09,15,02,29,04,,,,,,,2.9,1.8,2.3*38
$GPRMC,122236.002,A,1722.8761,S,06954.4264,W,0.25,324.90,290411,,,A*65
$GPGGA,122236.999,1722.8761,S,06954.4262,W,1,06,1.8,4643.4,M,34.5,M,,0000*62
$GPGSA,M,3,27,09,15,02,29,04,,,,,,,2.9,1.8,2.3*38
$GPRMC,122236.999,A,1722.8761,S,06954.4262,W,0.15,197.39,290411,,,A*62
$GPGGA,122237.987,1722.8761,S,06954.4261,W,1,06,1.8,4643.7,M,34.5,M,,0000*6C
$GPGSA,M,3,27,09,15,02,29,04,,,,,,,2.9,1.8,2.3*38
$GPGSV,3,1,11,27,65,106,39,09,64,161,38,15,42,345,42,12,40,201,38*7F
$GPGSV,3,2,11,02,37,076,41,29,35,314,39,25,22,243,37,04,18,115,38*7E
$GPGSV,3,3,11,26,15,014,27,14,08,220,29,18,00,291,*4C
$GPRMC,122237.987,A,1722.8761,S,06954.4261,W,0.58,151.07,290411,,,A*61
$GPGGA,122239.010,1722.8763,S,06954.4262,W,1,06,1.8,4643.4,M,34.5,M,,0000*67
$GPGSA,M,3,27,09,15,02,29,04,,,,,,,2.9,1.8,2.3*38
$GPRMC,122239.010,A,1722.8763,S,06954.4262,W,0.18,119.19,290411,,,A*6E
$GPGGA,122240.000,1722.8760,S,06954.4259,W,1,06,1.8,4643.9,M,34.5,M,,0000*6E
$GPGSA,M,3,27,09,15,02,29,04,,,,,,,2.9,1.8,2.3*38
$GPRMC,122240.000,A,1722.8760,S,06954.4259,W,0.35,31.23,290411,,,A*57
$GPGGA,122240.999,1722.8762,S,06954.4260,W,1,06,1.8,4643.6,M,34.5,M,,0000*60
$GPGSA,M,3,27,09,15,02,29,04,,,,,,,2.9,1.8,2.3*38
$GPRMC,122240.999,A,1722.8762,S,06954.4260,W,0.42,117.50,290411,,,A*67
$GPGGA,122242.001,1722.8762,S,06954.4260,W,1,06,1.8,4643.4,M,34.5,M,,0000*68
$GPGSA,M,3,27,09,15,02,29,04,,,,,,,2.9,1.8,2.3*38
$GPRMC,122242.001,A,1722.8762,S,06954.4260,W,0.50,249.61,290411,,,A*64
$GPGGA,122242.998,1722.8761,S,06954.4260,W,1,06,1.8,4643.1,M,34.5,M,,0000*67
$GPGSA,M,3,27,09,15,02,29,04,,,,,,,2.9,1.8,2.2*39
$GPGSV,3,1,11,27,65,106,34,09,64,161,31,15,42,345,38,12,40,201,33*7D
$GPGSV,3,2,11,02,37,076,34,29,35,314,33,25,22,243,30,04,18,115,32*7B
$GPGSV,3,3,11,26,15,014,,14,08,220,,18,00,291,*42
$GPRMC,122242.998,A,1722.8761,S,06954.4260,W,0.31,334.51,290411,,,A*61
$GPGGA,122243.999,1722.8759,S,06954.4260,W,1,06,1.8,4642.6,M,34.5,M,,0000*6A
$GPGSA,M,3,27,09,15,02,29,04,,,,,,,2.9,1.8,2.2*39
$GPRMC,122243.999,A,1722.8759,S,06954.4260,W,0.25,37.04,290411,,,A*5F
$GPGGA,122245.002,1722.8760,S,06954.4260,W,1,06,1.8,4643.0,M,34.5,M,,0000*6A
$GPGSA,M,3,27,09,15,02,29,04,,,,,,,2.9,1.8,2.2*39
$GPRMC,122245.002,A,1722.8760,S,06954.4260,W,0.59,14.43,290411,,,A*51
$GPGGA,122246.002,1722.8759,S,06954.4261,W,1,06,1.8,4642.7,M,34.5,M,,0000*64
$GPGSA,M,3,27,09,15,02,29,04,,,,,,,2.9,1.8,2.2*39
$GPRMC,122246.002,A,1722.8759,S,06954.4261,W,0.64,192.12,290411,,,A*6C
$GPGGA,122246.998,1722.8759,S,06954.4261,W,1,06,1.8,4642.7,M,34.5,M,,0000*6E
$GPGSA,M,3,27,09,15,02,29,04,,,,,,,2.9,1.8,2.2*39
$GPRMC,122246.998,A,1722.8759,S,06954.4261,W,0.33,156.42,290411,,,A*69
$GPGGA,122248.002,1722.8757,S,06954.4261,W,1,05,2.6,4642.4,M,34.5,M,,0000*69
$GPGSA,M,3,27,09,15,02,29,,,,,,,,6.4,2.6,5.9*35
$GPGSV,3,1,11,27,65,106,39,09,64,161,37,15,42,345,39,12,40,201,38*7C
$GPGSV,3,2,11,02,37,076,39,29,35,314,38,25,22,243,38,04,18,115,*74
$GPGSV,3,3,11,26,15,014,33,14,08,220,30,18,00,291,*41
$GPRMC,122248.002,A,1722.8757,S,06954.4261,W,0.31,346.19,290411,,,A*6C
$GPGGA,122248.998,1722.8757,S,06954.4261,W,1,06,1.8,4641.8,M,34.5,M,,0000*62
$GPGSA,M,3,27,09,15,02,29,04,,,,,,,2.9,1.8,2.2*39
$GPRMC,122248.998,A,1722.8757,S,06954.4261,W,0.17,286.30,290411,,,A*64
$GPGGA,122250.003,1722.8754,S,06954.4262,W,1,06,1.8,4640.9,M,34.5,M,,0000*60
$GPGSA,M,3,27,09,15,02,29,04,,,,,,,2.9,1.8,2.2*39
$GPRMC,122250.003,A,1722.8754,S,06954.4262,W,0.48,305.31,290411,,,A*67
$GPGGA,122250.997,1722.8753,S,06954.4262,W,1,06,1.8,4640.4,M,34.5,M,,0000*6E
$GPGSA,M,3,27,09,15,02,29,04,,,,,,,2.9,1.8,2.2*39
$GPRMC,122250.997,A,1722.8753,S,06954.4262,W,0.46,321.77,290411,,,A*6E
$GPGGA,122252.003,1722.8750,S,06954.4262,W,1,06,1.8,4639.6,M,34.5,M,,0000*67
$GPGSA,M,3,27,09,15,02,29,04,,,,,,,2.9,1.8,2.2*39
$GPRMC,122252.003,A,1722.8750,S,06954.4262,W,1.14,26.61,290411,,,A*5E
$GPGGA,122252.989,1722.8749,S,06954.4263,W,1,06,1.8,4639.3,M,34.5,M,,0000*60
$GPGSA,M,3,27,09,15,02,29,04,,,,,,,2.9,1.8,2.2*39
$GPGSV,3,1,11,27,65,106,40,09,64,161,37,15,42,345,41,12,40,201,38*7D
$GPGSV,3,2,11,02,37,076,41,29,35,314,39,25,22,243,38,04,18,115,37*7E
$GPGSV,3,3,11,26,15,014,31,14,08,220,32,18,00,291,*41
$GPRMC,122252.989,A,1722.8749,S,06954.4263,W,0.67,209.06,290411,,,A*67
$GPGGA,122254.013,1722.8750,S,06954.4265,W,1,06,1.8,4638.6,M,34.5,M,,0000*66
$GPGSA,M,3,27,09,15,02,29,04,,,,,,,2.9,1.8,2.2*39
$GPRMC,122254.013,A,1722.8750,S,06954.4265,W,0.54,282.66,290411,,,A*60
$GPGGA,122254.997,1722.8752,S,06954.4267,W,1,05,2.4,4637.8,M,34.5,M,,0000*6E
$GPGSA,M,3,27,15,02,29,04,,,,,,,,3.4,2.4,2.5*34
$GPRMC,122254.997,A,1722.8752,S,06954.4267,W,1.14,229.18,290411,,,A*68
$GPGGA,122256.000,1722.8755,S,06954.4271,W,1,06,1.8,4637.5,M,34.5,M,,0000*6A
$GPGSA,M,3,27,09,15,02,29,04,,,,,,,2.9,1.8,2.2*39
$GPRMC,122256.000,A,1722.8755,S,06954.4271,W,1.13,255.33,290411,,,A*68
$GPGGA,122256.999,1722.8752,S,06954.4272,W,1,06,1.8,4638.1,M,34.5,M,,0000*6C
$GPGSA,M,3,27,09,15,02,29,04,,,,,,,2.9,1.8,2.2*39
$GPRMC,122256.999,A,1722.8752,S,06954.4272,W,0.43,63.54,290411,,,A*57
$GPGGA,122257.997,1722.8753,S,06954.4274,W,1,06,1.8,4637.6,M,34.5,M,,0000*6C
$GPGSA,M,3,27,09,15,02,29,04,,,,,,,2.9,1.8,2.2*39
$GPGSV,3,1,11,27,65,106,35,09,64,161,31,15,42,345,36,12,40,201,33*72
$GPGSV,3,2,11,02,37,076,35,29,35,314,34,25,22,243,30,04,18,115,30*7F
$GPGSV,3,3,11,26,15,014,,14,08,220,28,18,00,291,*48
$GPRMC,122257.997,A,1722.8753,S,06954.4274,W,0.58,13.82,290411,,,A*59
$GPGGA,122259.000,1722.8751,S,06954.4273,W,1,06,1.8,4637.8,M,34.5,M,,0000*6E
$GPGSA,M,3,27,09,15,02,29,04,,,,,,,2.9,1.8,2.2*39
$GPRMC,122259.000,A,1722.8751,S,06954.4273,W,0.65,44.68,290411,,,A*5D
$GPGGA,122300.000,1722.8752,S,06954.4274,W,1,06,1.8,4637.7,M,34.5,M,,0000*68
$GPGSA,M,3,27,09,15,02,29,04,,,,,,,2.9,1.8,2.2*39
$GPRMC,122300.000,A,1722.8752,S,06954.4274,W,0.37,188.80,290411,,,A*64
$GPGGA,122301.003,1722.8752,S,06954.4275,W,1,06,1.8,4637.9,M,34.5,M,,0000*65
$GPGSA,M,3,27,09,15,02,29,04,,,,,,,2.9,1.8,2.2*39
$GPRMC,122301.003,A,1722.8752,S,06954.4275,W,0.18,108.05,290411,,,A*6F
$GPGGA,122302.000,1722.8753,S,06954.4275,W,1,06,1.8,4637.9,M,34.5,M,,0000*64
$GPGSA,M,3,27,09,15,02,29,04,,,,,,,2.9,1.8,2.2*39
$GPRMC,122302.000,A,1722.8753,S,06954.4275,W,0.12,65.11,290411,,,A*5B
$GPGGA,122302.998,1722.8751,S,06954.4274,W,1,06,1.8,4638.5,M,34.5,M,,0000*6C
$GPGSA,M,3,27,09,15,02,29,04,,,,,,,2.9,1.8,2.2*39
$GPGSV,3,1,11,27,65,106,37,09,64,161,39,15,42,345,40,12,40,201,38*72
$GPGSV,3,2,11,02,37,076,40,29,35,314,39,25,22,243,38,04,18,115,36*7E
$GPGSV,3,3,11,26,15,014,,14,08,220,35,18,00,291,*44
$GPRMC,122302.998,A,1722.8751,S,06954.4274,W,0.16,36.24,290411,,,A*54
$GPGGA,122304.000,1722.8748,S,06954.4271,W,1,06,1.8,4638.9,M,34.5,M,,0000*63
$GPGSA,M,3,27,09,15,02,29,04,,,,,,,2.9,1.8,2.2*39
$GPRMC,122304.000,A,1722.8748,S,06954.4271,W,0.40,37.52,290411,,,A*54
$GPGGA,122305.003,1722.8745,S,06954.4270,W,1,06,1.8,4638.9,M,34.5,M,,0000*6D
$GPGSA,M,3,27,09,15,02,29,04,,,,,,,2.9,1.8,2.2*39
$GPRMC,122305.003,A,1722.8745,S,06954.4270,W,1.12,13.59,290411,,,A*51
$GPGGA,122305.998,1722.8744,S,06954.4268,W,1,06,1.8,4638.8,M,34.5,M,,0000*6F
$GPGSA,M,3,27,09,15,02,29,04,,,,,,,2.9,1.8,2.2*39
$GPRMC,122305.998,A,1722.8744,S,06954.4268,W,0.33,82.39,290411,,,A*5E
$GPGGA,122307.002,1722.8743,S,06954.4270,W,1,06,1.8,4638.4,M,34.5,M,,0000*65
$GPGSA,M,3,27,09,15,02,29,04,,,,,,,2.9,1.8,2.2*39
$GPRMC,122307.002,A,1722.8743,S,06954.4270,W,0.28,320.88,290411,,,A*63
$GPGGA,122307.989,1722.8742,S,06954.4271,W,1,06,1.8,4638.5,M,34.5,M,,0000*6E
$GPGSA,M,3,27,09,15,02,29,04,,,,,,,2.9,1.8,2.2*39
$GPGSV,3,1,11,27,65,106,39,09,64,161,37,15,42,345,42,12,40,201,37*7F
$GPGSV,3,2,11,02,37,076,40,29,35,314,38,25,22,243,37,04,18,115,37*71
$GPGSV,3,3,11,26,15,014,34,14,08,220,31,18,00,291,*47
$GPRMC,122307.989,A,1722.8742,S,06954.4271,W,0.89,228.62,290411,,,A*6F
$GPGGA,122309.011,1722.8743,S,06954.4272,W,1,06,1.8,4638.2,M,34.5,M,,0000*6D
$GPGSA,M,3,27,09,15,02,29,04,,,,,,,2.9,1.8,2.2*39
$GPRMC,122309.011,A,1722.8743,S,06954.4272,W,0.22,200.88,290411,,,A*64
$GPGGA,122309.996,1722.8741,S,06954.4270,W,1,06,1.8,4638.7,M,34.5,M,,0000*6E
$GPGSA,M,3,27,09,15,02,29,04,,,,,,,2.9,1.8,2.2*39
$GPRMC,122309.996,A,1722.8741,S,06954.4270,W,0.71,43.36,290411,,,A*54
$GPGGA,122311.003,1722.8741,S,06954.4270,W,1,06,1.8,4638.9,M,34.5,M,,0000*6C
$GPGSA,M,3,27,09,15,02,29,04,,,,,,,2.9,1.8,2.2*39
$GPRMC,122311.003,A,1722.8741,S,06954.4270,W,0.17,215.91,290411,,,A*64
$GPGGA,122311.995,1722.8740,S,06954.4270,W,1,06,1.8,4638.8,M,34.5,M,,0000*6A
$GPGSA,M,3,27,09,15,02,29,04,,,,,,,2.9,1.8,2.2*39
$GPRMC,122311.995,A,1722.8740,S,06954.4270,W,0.63,29.95,290411,,,A*59
$GPGGA,122313.005,1722.8742,S,06954.4270,W,1,06,1.8,4638.3,M,34.5,M,,0000*61
$GPGSA,M,3,27,09,15,02,29,04,,,,,,,2.9,1.8,2.2*39
$GPGSV,3,1,11,27,65,106,31,09,64,161,31,15,42,345,35,12,40,201,30*76
$GPGSV,3,2,11,02,37,076,32,29,35,314,31,25,22,243,29,04,18,115,29*7D
$GPGSV,3,3,11,26,15,014,23,14,08,220,,18,00,291,*43
$GPRMC,122313.005,A,1722.8742,S,06954.4270,W,0.34,163.65,290411,,,A*6B
$GPGGA,122313.996,1722.8744,S,06954.4272,W,1,06,1.8,4638.5,M,34.5,M,,0000*60
$GPGSA,M,3,27,09,15,02,29,04,,,,,,,2.9,1.8,2.2*39
$GPRMC,122313.996,A,1722.8744,S,06954.4272,W,0.52,214.03,290411,,,A*6F
$GPGGA,122314.999,1722.8748,S,06954.4273,W,1,06,1.8,4637.8,M,34.5,M,,0000*67
$GPGSA,M,3,27,09,15,02,29,04,,,,,,,2.9,1.8,2.2*39
$GPRMC,122314.999,A,1722.8748,S,06954.4273,W,0.27,224.83,290411,,,A*63
$GPGGA,122316.000,1722.8750,S,06954.4276,W,1,06,1.8,4637.2,M,34.5,M,,0000*6A
$GPGSA,M,3,27,09,15,02,29,04,,,,,,,2.9,1.8,2.2*39
$GPRMC,122316.000,A,1722.8750,S,06954.4276,W,0.37,81.66,290411,,,A*53
$GPGGA,122317.000,1722.8753,S,06954.4277,W,1,06,1.8,4637.2,M,34.5,M,,0000*69
$GPGSA,M,3,27,09,15,02,29,04,,,,,,,2.9,1.8,2.2*39
$GPRMC,122317.000,A,1722.8753,S,06954.4277,W,0.38,309.34,290411,,,A*6B
$GPGGA,122318.000,1722.8754,S,06954.4278,W,1,06,1.8,4636.5,M,34.5,M,,0000*68
$GPGSA,M,3,27,09,15,02,29,04,,,,,,,2.9,1.8,2.2*39
$GPGSV,3,1,11,27,65,106,40,09,64,161,37,15,42,345,40,12,40,201,38*7C
$GPGSV,3,2,11,02,37,076,40,29,35,314,39,25,22,243,37,04,18,115,38*7F
$GPGSV,3,3,11,26,15,014,34,14,08,220,32,18,00,291,*44
$GPRMC,122318.000,A,1722.8754,S,06954.4278,W,0.26,229.14,290411,,,A*62
$GPGGA,122319.002,1722.8755,S,06954.4278,W,1,06,1.8,4636.4,M,34.5,M,,0000*6B
$GPGSA,M,3,27,09,15,02,29,04,,,,,,,2.9,1.8,2.2*39
$GPRMC,122319.002,A,1722.8755,S,06954.4278,W,0.69,258.23,290411,,,A*69
$GPGGA,122319.998,1722.8755,S,06954.4281,W,1,06,1.8,4636.4,M,34.5,M,,0000*67
$GPGSA,M,3,27,09,15,02,29,04,,,,,,,2.9,1.8,2.2*39
$GPRMC,122319.998,A,1722.8755,S,06954.4281,W,0.55,238.05,290411,,,A*68
$GPGGA,122321.003,1722.8759,S,06954.4283,W,1,06,1.8,4636.2,M,34.5,M,,0000*6F
$GPGSA,M,3,27,09,15,02,29,04,,,,,,,2.9,1.8,2.2*39
$GPRMC,122321.003,A,1722.8759,S,06954.4283,W,1.17,213.47,290411,,,A*6E
$GPGGA,122321.998,1722.8760,S,06954.4285,W,1,06,1.8,4636.9,M,34.5,M,,0000*63
$GPGSA,M,3,27,09,15,02,29,04,,,,,,,2.9,1.8,2.2*39
$GPRMC,122321.998,A,1722.8760,S,06954.4285,W,1.00,212.93,290411,,,A*67
$GPGGA,122322.989,1722.8760,S,06954.4285,W,1,06,1.8,4636.1,M,34.5,M,,0000*68
$GPGSA,M,3,27,09,15,02,29,04,,,,,,,2.9,1.8,2.2*39
$GPGSV,3,1,11,27,65,106,39,09,64,161,37,15,42,345,40,12,40,201,38*72
$GPGSV,3,2,11,02,37,076,39,29,35,314,39,25,22,243,37,04,18,115,37*7E
$GPGSV,3,3,11,26,15,014,34,14,08,220,32,18,00,291,*44
$GPRMC,122322.989,A,1722.8760,S,06954.4285,W,0.39,81.06,290411,,,A*5B
$GPGGA,122324.014,1722.8760,S,06954.4282,W,1,06,1.8,4635.9,M,34.5,M,,0000*6F
$GPGSA,M,3,27,09,15,02,29,04,,,,,,,2.9,1.8,2.2*39
$GPRMC,122324.014,A,1722.8760,S,06954.4282,W,1.18,37.30,290411,,,A*5D
$GPGGA,122324.997,1722.8759,S,06954.4282,W,1,06,1.8,4635.8,M,34.5,M,,0000*66
$GPGSA,M,3,27,09,15,02,29,04,,,,,,,2.9,1.8,2.2*39
$GPRMC,122324.997,A,1722.8759,S,06954.4282,W,0.23,163.31,290411,,,A*6D
$GPGGA,122326.002,1722.8760,S,06954.4282,W,1,06,1.8,4635.1,M,34.5,M,,0000*62
$GPGSA,M,3,27,09,15,02,29,04,,,,,,,2.9,1.8,2.2*39
$GPRMC,122326.002,A,1722.8760,S,06954.4282,W,0.66,8.47,290411,,,A*6C
$GPGGA,122326.996,1722.8755,S,06954.4280,W,1,06,1.8,4635.3,M,34.5,M,,0000*60
$GPGSA,M,3,27,09,15,02,29,04,,,,,,,2.9,1.8,2.2*39
$GPRMC,122326.996,A,1722.8755,S,06954.4280,W,0.18,70.85,290411,,,A*54
$GPGGA,122328.006,1722.8759,S,06954.4281,W,1,06,1.8,4634.9,M,34.5,M,,0000*68
$GPGSA,M,3,27,09,15,02,29,04,,,,,,,2.9,1.8,2.2*39
$GPGSV,3,1,11,27,65,106,32,09,64,161,29,15,42,345,34,12,40,201,30*7D
$GPGSV,3,2,11,02,37,076,33,29,35,314,31,25,22,243,30,04,18,115,29*74
$GPGSV,3,3,11,26,15,014,,14,08,220,,18,00,291,*42
$GPRMC,122328.006,A,1722.8759,S,06954.4281,W,0.78,215.89,290411,,,A*6C
$GPGGA,122328.998,1722.8760,S,06954.4282,W,1,06,1.8,4635.1,M,34.5,M,,0000*66
$GPGSA,M,3,27,09,15,02,29,04,,,,,,,2.9,1.8,2.2*39
$GPRMC,122328.998,A,1722.8760,S,06954.4282,W,0.21,325.93,290411,,,A*6E
$GPGGA,122329.996,1722.8760,S,06954.4283,W,1,06,1.8,4635.2,M,34.5,M,,0000*6B
$GPGSA,M,3,27,09,15,02,29,04,,,,,,,2.9,1.8,2.2*39
$GPRMC,122329.996,A,1722.8760,S,06954.4283,W,0.58,359.00,290411,,,A*6F
$GPGGA,122331.000,1722.8753,S,06954.4279,W,1,06,1.8,4634.9,M,34.5,M,,0000*6B
$GPGSA,M,3,27,09,15,02,29,04,,,,,,,2.9,1.8,2.2*39
$GPRMC,122331.000,A,1722.8753,S,06954.4279,W,0.81,16.87,290411,,,A*56
$GPGGA,122332.001,1722.8753,S,06954.4277,W,1,06,1.8,4635.1,M,34.5,M,,0000*6E
$GPGSA,M,3,27,09,15,02,29,04,,,,,,,2.9,1.8,2.2*39
$GPRMC,122332.001,A,1722.8753,S,06954.4277,W,0.56,15.22,290411,,,A*5C
$GPGGA,122333.003,1722.8751,S,06954.4277,W,1,06,1.8,4634.9,M,34.5,M,,0000*66
$GPGSA,M,3,27,09,15,02,29,04,,,,,,,2.9,1.8,2.2*39
$GPGSV,3,1,11,27,65,106,40,09,64,161,38,15,42,345,40,12,40,201,38*73
$GPGSV,3,2,11,02,37,076,39,29,35,314,39,25,22,243,38,04,18,115,37*71
$GPGSV,3,3,11,26,15,014,34,14,08,220,32,18,00,291,*44
$GPRMC,122333.003,A,1722.8751,S,06954.4277,W,1.47,25.88,290411,,,A*5F
$GPGGA,122333.997,1722.8750,S,06954.4278,W,1,06,1.8,4634.7,M,34.5,M,,0000*62
$GPGSA,M,3,27,09,15,02,29,04,,,,,,,2.9,1.8,2.2*39
$GPRMC,122333.997,A,1722.8750,S,06954.4278,W,0.44,20.30,290411,,,A*51
$GPGGA,122335.003,1722.8746,S,06954.4277,W,1,06,1.8,4633.9,M,34.5,M,,0000*61
$GPGSA,M,3,27,09,15,02,29,04,,,,,,,2.9,1.8,2.2*39
$GPRMC,122335.003,A,1722.8746,S,06954.4277,W,0.12,343.22,290411,,,A*6D
$GPGGA,122335.997,1722.8748,S,06954.4277,W,1,06,1.8,4633.5,M,34.5,M,,0000*67
$GPGSA,M,3,27,09,15,02,29,04,,,,,,,2.9,1.8,2.2*39
$GPRMC,122335.997,A,1722.8748,S,06954.4277,W,0.45,336.78,290411,,,A*68
$GPGGA,122337.003,1722.8747,S,06954.4279,W,1,06,1.8,4632.9,M,34.5,M,,0000*6D
$GPGSA,M,3,27,09,15,02,29,04,,,,,,,2.9,1.8,2.2*39
$GPRMC,122337.003,A,1722.8747,S,06954.4279,W,0.30,252.09,290411,,,A*68
$GPGGA,122337.990,1722.8748,S,06954.4277,W,1,06,1.8,4632.7,M,34.5,M,,0000*61
$GPGSA,M,3,27,09,15,02,29,04,,,,,,,2.9,1.8,2.2*39
$GPGSV,3,1,11,27,65,106,39,09,64,161,38,15,42,345,42,12,40,201,38*7F
$GPGSV,3,2,11,02,37,076,40,29,35,314,39,25,22,243,36,04,18,115,37*71
$GPGSV,3,3,11,26,15,014,34,14,08,220,32,18,00,291,*44
$GPRMC,122337.990,A,1722.8748,S,06954.4277,W,1.01,180.47,290411,,,A*6F
$GPGGA,122339.007,1722.8752,S,06954.4279,W,1,06,1.8,4631.9,M,34.5,M,,0000*60
$GPGSA,M,3,27,09,15,02,29,04,,,,,,,2.9,1.8,2.2*39
$GPRMC,122339.007,A,1722.8752,S,06954.4279,W,0.56,258.78,290411,,,A*6A
$GPGGA,122339.995,1722.8756,S,06954.4283,W,1,06,1.8,4630.7,M,34.5,M,,0000*6C
$GPGSA,M,3,27,09,15,02,29,04,,,,,,,2.9,1.8,2.2*39
$GPRMC,122339.995,A,1722.8756,S,06954.4283,W,0.12,340.88,290411,,,A*6E
$GPGGA,122341.007,1722.8760,S,06954.4288,W,1,06,1.8,4630.0,M,34.5,M,,0000*68
$GPGSA,M,3,27,09,15,02,29,04,,,,,,,2.9,1.8,2.2*39
$GPRMC,122341.007,A,1722.8760,S,06954.4288,W,0.85,240.73,290411,,,A*66
$GPGGA,122341.991,1722.8765,S,06954.4294,W,1,06,1.8,4629.3,M,34.5,M,,0000*6D
$GPGSA,M,3,27,09,15,02,29,04,,,,,,,2.9,1.8,2.2*39
$GPRMC,122341.991,A,1722.8765,S,06954.4294,W,1.05,207.17,290411,,,A*60
$GPGGA,122343.008,1722.8767,S,06954.4292,W,1,06,1.8,4629.7,M,34.5,M,,0000*66
$GPGSA,M,3,27,09,15,02,29,04,,,,,,,2.9,1.8,2.2*39
$GPGSV,3,1,11,27,65,106,32,09,64,161,31,15,42,345,35,12,40,201,33*76
$GPGSV,3,2,11,02,37,076,34,29,35,314,33,25,22,243,31,04,18,115,30*78
$GPGSV,3,3,11,26,15,014,26,14,08,220,,18,00,291,*46
$GPRMC,122343.008,A,1722.8767,S,06954.4292,W,0.56,246.35,290411,,,A*6D
$GPGGA,122344.000,1722.8767,S,06954.4294,W,1,06,1.8,4629.0,M,34.5,M,,0000*68
$GPGSA,M,3,27,09,15,02,29,04,,,,,,,2.9,1.8,2.2*39
$GPRMC,122344.000,A,1722.8767,S,06954.4294,W,0.52,244.83,290411,,,A*6F
$GPGGA,122344.998,1722.8769,S,06954.4293,W,1,06,1.8,4629.0,M,34.5,M,,0000*69
$GPGSA,M,3,27,09,15,02,29,04,,,,,,,2.9,1.8,2.2*39
$GPRMC,122344.998,A,1722.8769,S,06954.4293,W,0.24,117.94,290411,,,A*6C
$GPGGA,122346.003,1722.8767,S,06954.4293,W,1,06,1.8,4629.2,M,34.5,M,,0000*6C
$GPGSA,M,3,27,09,15,02,29,04,,,,,,,2.9,1.8,2.2*39
$GPRMC,122346.003,A,1722.8767,S,06954.4293,W,0.24,12.26,290411,,,A*56
$GPGGA,122347.000,1722.8771,S,06954.4295,W,1,06,1.8,4628.5,M,34.5,M,,0000*69
$GPGSA,M,3,27,09,15,02,29,04,,,,,,,2.9,1.8,2.2*39
$GPRMC,122347.000,A,1722.8771,S,06954.4295,W,0.33,185.71,290411,,,A*6E
$GPGGA,122348.001,1722.8773,S,06954.4298,W,1,06,1.8,4630.0,M,34.5,M,,0000*64
$GPGSA,M,3,27,09,15,02,29,04,,,,,,,2.9,1.8,2.2*39
$GPGSV,3,1,11,27,65,106,40,09,64,161,38,15,42,345,40,12,40,201,39*72
$GPGSV,3,2,11,02,37,076,39,29,35,314,39,25,22,243,37,04,18,115,37*7E
$GPGSV,3,3,11,26,15,014,34,14,08,220,33,18,00,291,*45
$GPRMC,122348.001,A,1722.8773,S,06954.4298,W,0.10,254.24,290411,,,A*61
$GPGGA,122349.000,1722.8771,S,06954.4295,W,1,06,1.8,4630.2,M,34.5,M,,0000*69
$GPGSA,M,3,27,09,15,02,29,04,,,,,,,2.9,1.8,2.2*39
$GPRMC,122349.000,A,1722.8771,S,06954.4295,W,0.68,15.79,290411,,,A*5E
$GPGGA,122350.000,1722.8769,S,06954.4296,W,1,06,1.8,4629.6,M,34.5,M,,0000*67
$GPGSA,M,3,27,09,15,02,29,04,,,,,,,2.9,1.8,2.2*39
$GPRMC,122350.000,A,1722.8769,S,06954.4296,W,0.34,358.96,290411,,,A*6E
$GPGGA,122350.998,1722.8769,S,06954.4295,W,1,06,1.8,4630.0,M,34.5,M,,0000*62
$GPGSA,M,3,27,09,15,02,29,04,,,,,,,2.9,1.8,2.2*39
$GPRMC,122350.998,A,1722.8769,S,06954.4295,W,0.87,71.73,290411,,,A*5E
$GPGGA,122352.002,1722.8771,S,06954.4297,W,1,06,1.8,4630.4,M,34.5,M,,0000*65
$GPGSA,M,3,27,09,15,02,29,04,,,,,,,2.9,1.8,2.2*39
$GPRMC,122352.002,A,1722.8771,S,06954.4297,W,0.98,46.16,290411,,,A*54
$GPGGA,122352.990,1722.8772,S,06954.4296,W,1,06,1.8,4629.6,M,34.5,M,,0000*6F
$GPGSA,M,3,27,09,15,02,29,04,,,,,,,2.9,1.8,2.2*39
$GPGSV,3,1,11,27,65,106,39,09,64,161,38,15,42,345,42,12,40,201,38*7F
$GPGSV,3,2,11,02,37,076,40,29,35,314,40,25,22,243,37,04,18,115,37*7E
$GPGSV,3,3,11,26,15,014,34,14,08,220,32,18,00,291,*44
$GPRMC,122352.990,A,1722.8772,S,06954.4296,W,0.72,224.96,290411,,,A*6E
$GPGGA,122354.007,1722.8773,S,06954.4294,W,1,06,1.8,4628.9,M,34.5,M,,0000*63
$GPGSA,M,3,27,09,15,02,29,04,,,,,,,2.9,1.8,2.2*39
$GPRMC,122354.007,A,1722.8773,S,06954.4294,W,0.79,61.74,290411,,,A*58
$GPGGA,122354.994,1722.8774,S,06954.4292,W,1,06,1.8,4628.8,M,34.5,M,,0000*60
$GPGSA,M,3,27,09,15,02,29,04,,,,,,,2.9,1.8,2.2*39
$GPRMC,122354.994,A,1722.8774,S,06954.4292,W,0.28,249.61,290411,,,A*62
$GPGGA,122356.009,1722.8766,S,06954.4291,W,1,06,1.8,4629.4,M,34.5,M,,0000*62
$GPGSA,M,3,27,09,15,02,29,04,,,,,,,2.9,1.8,2.2*39
$GPRMC,122356.009,A,1722.8766,S,06954.4291,W,1.01,220.10,290411,,,A*6E
$GPGGA,122356.986,1722.8765,S,06954.4290,W,1,06,1.8,4629.0,M,34.5,M,,0000*6A
$GPGSA,M,3,27,09,15,02,29,04,,,,,,,2.9,1.8,2.2*39
$GPRMC,122356.986,A,1722.8765,S,06954.4290,W,1.01,179.86,290411,,,A*62
$GPGGA,122358.011,1722.8772,S,06954.4293,W,1,06,1.8,4628.9,M,34.5,M,,0000*6E
$GPGSA,M,3,27,09,15,02,29,04,,,,,,,2.9,1.8,2.2*39
$GPGSV,3,1,11,27,65,106,32,09,64,161,30,15,42,345,34,12,40,201,31*74
$GPGSV,3,2,11,02,37,076,32,29,35,314,31,25,22,243,30,04,18,115,29*75
$GPGSV,3,3,11,26,15,014,,14,08,220,,18,00,291,*42
$GPRMC,122358.011,A,1722.8772,S,06954.4293,W,1.12,214.23,290411,,,A*6B
$GPGGA,122359.004,1722.8773,S,06954.4294,W,1,06,1.8,4629.6,M,34.5,M,,0000*63
$GPGSA,M,3,09,27,15,02,29,04,,,,,,,2.9,1.8,2.2*39
$GPRMC,122359.004,A,1722.8773,S,06954.4294,W,0.50,213.49,290411,,,A*64
$GPGGA,122359.994,1722.8773,S,06954.4295,W,1,06,1.8,4630.6,M,34.5,M,,0000*6A
$GPGSA,M,3,09,27,15,02,29,04,,,,,,,2.9,1.8,2.2*39
$GPRMC,122359.994,A,1722.8773,S,06954.4295,W,0.44,344.06,290411,,,A*68
$GPGGA,122401.008,1722.8770,S,06954.4294,W,1,06,1.8,4630.9,M,34.5,M,,0000*61
$GPGSA,M,3,09,27,15,02,29,04,,,,,,,2.9,1.8,2.2*39
$GPRMC,122401.008,A,1722.8770,S,06954.4294,W,0.32,329.24,290411,,,A*66
$GPGGA,122401.995,1722.8773,S,06954.4295,W,1,06,1.8,4630.0,M,34.5,M,,0000*67
$GPGSA,M,3,09,27,15,02,29,04,,,,,,,2.9,1.8,2.2*39
$GPRMC,122401.995,A,1722.8773,S,06954.4295,W,0.44,23.63,290411,,,A*52
$GPGGA,122403.000,1722.8769,S,06954.4294,W,1,06,1.8,4630.3,M,34.5,M,,0000*69
$GPGSA,M,3,09,27,15,02,29,04,,,,,,,2.9,1.8,2.2*39
$GPGSV,3,1,10,09,65,159,36,27,65,103,39,15,41,346,39,12,40,200,38*72
$GPGSV,3,2,10,02,38,077,40,29,36,313,38,25,23,242,37,04,18,116,36*78
$GPGSV,3,3,10,26,14,015,35,14,09,221,33*76
$GPRMC,122403.000,A,1722.8769,S,06954.4294,W,0.33,354.87,290411,,,A*66
$GPGGA,122403.997,1722.8769,S,06954.4291,W,1,06,1.8,4630.8,M,34.5,M,,0000*60
$GPGSA,M,3,09,27,15,02,29,04,,,,,,,2.9,1.8,2.2*39
$GPRMC,122403.997,A,1722.8769,S,06954.4291,W,0.88,64.30,290411,,,A*58
$GPGGA,122405.003,1722.8764,S,06954.4288,W,1,06,1.8,4630.5,M,34.5,M,,0000*6A
$GPGSA,M,3,09,27,15,02,29,04,,,,,,,2.9,1.8,2.2*39
$GPRMC,122405.003,A,1722.8764,S,06954.4288,W,0.94,53.65,290411,,,A*56
$GPGGA,122405.998,1722.8755,S,06954.4284,W,1,06,1.8,4631.2,M,34.5,M,,0000*69
$GPGSA,M,3,09,27,15,02,29,04,,,,,,,2.9,1.8,2.2*39
$GPRMC,122405.998,A,1722.8755,S,06954.4284,W,0.37,342.44,290411,,,A*6A
$GPGGA,122407.002,1722.8756,S,06954.4285,W,1,06,1.8,4630.7,M,34.5,M,,0000*67
$GPGSA,M,3,09,27,15,02,29,04,,,,,,,2.9,1.8,2.2*39
$GPRMC,122407.002,A,1722.8756,S,06954.4285,W,0.12,167.66,290411,,,A*62
$GPGGA,122407.986,1722.8758,S,06954.4287,W,1,06,1.8,4630.8,M,34.5,M,,0000*61
$GPGSA,M,3,09,27,15,02,29,04,,,,,,,2.9,1.8,2.2*39
$GPGSV,3,1,10,09,65,159,38,27,65,103,39,15,41,346,41,12,40,200,38*73
$GPGSV,3,2,10,02,38,077,40,29,36,313,40,25,23,242,37,04,18,116,37*76
$GPGSV,3,3,10,26,14,015,33,14,09,221,34*77
$GPRMC,122407.986,A,1722.8758,S,06954.4287,W,0.66,165.96,290411,,,A*65
$GPGGA,122409.012,1722.8759,S,06954.4286,W,1,06,1.8,4630.6,M,34.5,M,,0000*65
$GPGSA,M,3,09,27,15,02,29,04,,,,,,,2.9,1.8,2.2*39
$GPRMC,122409.012,A,1722.8759,S,06954.4286,W,0.53,70.33,290411,,,A*53
$GPGGA,122410.002,1722.8755,S,06954.4281,W,1,06,1.8,4632.3,M,34.5,M,,0000*60
$GPGSA,M,3,09,27,15,02,29,04,,,,,,,2.9,1.8,2.2*39
$GPRMC,122410.002,A,1722.8755,S,06954.4281,W,0.59,48.05,290411,,,A*55
$GPGGA,122411.001,1722.8753,S,06954.4278,W,1,06,1.8,4632.9,M,34.5,M,,0000*68
$GPGSA,M,3,09,27,15,02,29,04,,,,,,,2.9,1.8,2.2*39
$GPRMC,122411.001,A,1722.8753,S,06954.4278,W,0.85,64.30,290411,,,A*5E
$GPGGA,122411.997,1722.8752,S,06954.4276,W,1,06,1.8,4634.4,M,34.5,M,,0000*6A
$GPGSA,M,3,09,27,15,02,29,04,,,,,,,2.9,1.8,2.2*39
$GPRMC,122411.997,A,1722.8752,S,06954.4276,W,0.21,28.91,290411,,,A*5A
$GPGGA,122413.004,1722.8753,S,06954.4275,W,1,06,1.8,4634.6,M,34.5,M,,0000*6B
$GPGSA,M,3,09,27,15,02,29,04,,,,,,,2.9,1.8,2.2*39
$GPGSV,3,1,10,09,65,159,30,27,65,103,33,15,41,346,35,12,40,200,31*7B
$GPGSV,3,2,10,02,38,077,32,29,36,313,32,25,23,242,30,04,18,116,29*7E
$GPGSV,3,3,10,26,14,015,24,14,09,221,*76
$GPRMC,122413.004,A,1722.8753,S,06954.4275,W,0.51,45.00,290411,,,A*5D
$GPGGA,122413.995,1722.8752,S,06954.4274,W,1,06,1.8,4634.3,M,34.5,M,,0000*6F
$GPGSA,M,3,09,27,15,02,29,04,,,,,,,2.9,1.8,2.2*39
$GPRMC,122413.995,A,1722.8752,S,06954.4274,W,0.13,155.71,290411,,,A*6C
$GPGGA,122415.003,1722.8753,S,06954.4276,W,1,06,1.8,4633.7,M,34.5,M,,0000*6F
$GPGSA,M,3,09,27,15,02,29,04,,,,,,,2.9,1.8,2.2*39
$GPRMC,122415.003,A,1722.8753,S,06954.4276,W,0.79,35.48,290411,,,A*5E
$GPGGA,122416.001,1722.8753,S,06954.4272,W,1,06,1.8,4634.7,M,34.5,M,,0000*6D
$GPGSA,M,3,09,27,15,02,29,04,,,,,,,2.9,1.8,2.2*39
$GPRMC,122416.001,A,1722.8753,S,06954.4272,W,0.67,54.08,290411,,,A*57
$GPGGA,122417.002,1722.8753,S,06954.4270,W,1,06,1.8,4634.9,M,34.5,M,,0000*63
$GPGSA,M,3,09,27,15,02,29,04,,,,,,,2.9,1.8,2.2*39
$GPRMC,122417.002,A,1722.8753,S,06954.4270,W,0.84,48.43,290411,,,A*58
$GPGGA,122417.998,1722.8753,S,06954.4268,W,1,06,1.8,4635.4,M,34.5,M,,0000*6C
$GPGSA,M,3,09,27,15,02,29,04,,,,,,,2.9,1.8,2.2*39
$GPGSV,3,1,10,09,65,159,38,27,65,103,39,15,41,346,40,12,40,200,37*7D
$GPGSV,3,2,10,02,38,077,39,29,36,313,39,25,23,242,38,04,18,116,37*79
$GPGSV,3,3,10,26,14,015,35,14,09,221,32*77
$GPRMC,122417.998,A,1722.8753,S,06954.4268,W,0.30,192.61,290411,,,A*62
$GPGGA,122419.001,1722.8754,S,06954.4269,W,1,06,1.8,4635.5,M,34.5,M,,0000*6C
$GPGSA,M,3,09,27,15,02,29,04,,,,,,,2.9,1.8,2.2*39
$GPRMC,122419.001,A,1722.8754,S,06954.4269,W,0.41,338.51,290411,,,A*64
$GPGGA,122420.000,1722.8751,S,06954.4270,W,1,06,1.8,4635.0,M,34.5,M,,0000*6F
$GPGSA,M,3,09,27,15,02,29,04,,,,,,,2.9,1.8,2.2*39
$GPRMC,122420.000,A,1722.8751,S,06954.4270,W,0.05,59.95,290411,,,A*5E
$GPGGA,122420.998,1722.8749,S,06954.4271,W,1,06,1.8,4634.7,M,34.5,M,,0000*69
$GPGSA,M,3,09,27,15,02,29,04,,,,,,,2.9,1.8,2.2*39
$GPRMC,122420.998,A,1722.8749,S,06954.4271,W,0.43,17.76,290411,,,A*5B
$GPGGA,122422.001,1722.8745,S,06954.4267,W,1,06,1.8,4635.3,M,34.5,M,,0000*6C
$GPGSA,M,3,09,27,15,02,29,04,,,,,,,2.9,1.8,2.2*39
$GPRMC,122422.001,A,1722.8745,S,06954.4267,W,0.39,65.15,290411,,,A*56
$GPGGA,122422.989,1722.8744,S,06954.4266,W,1,06,1.8,4635.7,M,34.5,M,,0000*61
$GPGSA,M,3,09,27,15,02,29,04,,,,,,,2.9,1.8,2.2*39
$GPGSV,3,1,10,09,65,159,38,27,65,103,39,15,41,346,39,12,40,200,37*73
$GPGSV,3,2,10,02,38,077,40,29,36,313,40,25,23,242,37,04,18,116,39*78
$GPGSV,3,3,10,26,14,015,34,14,09,221,34*70
$GPRMC,122422.989,A,1722.8744,S,06954.4266,W,0.28,80.74,290411,,,A*53
$GPGGA,122424.012,1722.8744,S,06954.4266,W,1,06,1.8,4635.0,M,34.5,M,,0000*6B
$GPGSA,M,3,09,27,15,02,29,04,,,,,,,2.9,1.8,2.2*39
$GPRMC,122424.012,A,1722.8744,S,06954.4266,W,0.39,55.98,290411,,,A*54
$GPGGA,122425.001,1722.8744,S,06954.4266,W,1,06,1.8,4635.8,M,34.5,M,,0000*60
$GPGSA,M,3,09,27,15,02,29,04,,,,,,,2.9,1.8,2.2*39
$GPRMC,122425.001,A,1722.8744,S,06954.4266,W,0.25,199.67,290411,,,A*6B
$GPGGA,122426.003,1722.8744,S,06954.4265,W,1,06,1.8,4636.0,M,34.5,M,,0000*69
$GPGSA,M,3,09,27,15,02,29,04,,,,,,,2.9,1.8,2.2*39
$GPRMC,122426.003,A,1722.8744,S,06954.4265,W,0.76,8.30,290411,,,A*64
$GPGGA,122426.999,1722.8743,S,06954.4265,W,1,06,1.8,4635.6,M,34.5,M,,0000*61
$GPGSA,M,3,09,27,15,02,29,04,,,,,,,2.9,1.8,2.2*39
$GPRMC,122426.999,A,1722.8743,S,06954.4265,W,0.35,189.82,290411,,,A*6F
$GPGGA,122428.003,1722.8745,S,06954.4268,W,1,06,1.8,4635.8,M,34.5,M,,0000*60
$GPGSA,M,3,09,27,15,02,29,04,,,,,,,2.9,1.8,2.2*39
$GPGSV,3,1,10,09,65,159,30,27,65,103,34,15,41,346,36,12,40,200,31*7F
$GPGSV,3,2,10,02,38,077,34,29,36,313,32,25,23,242,31,04,18,116,33*72
$GPGSV,3,3,10,26,14,015,,14,09,221,*70
$GPRMC,122428.003,A,1722.8745,S,06954.4268,W,0.82,256.17,290411,,,A*61
$GPGGA,122428.995,1722.8743,S,06954.4268,W,1,06,1.8,4635.9,M,34.5,M,,0000*61
$GPGSA,M,3,09,27,15,02,29,04,,,,,,,2.9,1.8,2.2*39
$GPRMC,122428.995,A,1722.8743,S,06954.4268,W,0.20,102.10,290411,,,A*6C
$GPGGA,122429.998,1722.8739,S,06954.4263,W,1,06,1.8,4635.9,M,34.5,M,,0000*6B
$GPGSA,M,3,09,27,15,02,29,04,,,,,,,2.9,1.8,2.2*39
$GPRMC,122429.998,A,1722.8739,S,06954.4263,W,0.97,10.98,290411,,,A*58
$GPGGA,122431.007,1722.8743,S,06954.4266,W,1,06,1.8,4636.2,M,34.5,M,,0000*6D
$GPGSA,M,3,09,27,15,02,29,04,,,,,,,2.9,1.8,2.2*39
$GPRMC,122431.007,A,1722.8743,S,06954.4266,W,1.08,31.40,290411,,,A*57
$GPGGA,122431.992,1722.8741,S,06954.4265,W,1,06,1.8,4636.4,M,34.5,M,,0000*6F
$GPGSA,M,3,09,27,15,02,29,04,,,,,,,2.9,1.8,2.2*39
$GPRMC,122431.992,A,1722.8741,S,06954.4265,W,0.83,36.18,290411,,,A*5B
$GPGGA,122433.002,1722.8739,S,06954.4266,W,1,06,1.8,4635.7,M,34.5,M,,0000*61
$GPGSA,M,3,09,27,15,02,29,04,,,,,,,2.9,1.8,2.2*39
$GPGSV,3,1,10,09,65,159,38,27,65,103,39,15,41,346,40,12,40,200,38*72
$GPGSV,3,2,10,02,38,077,40,29,36,313,38,25,23,242,38,04,18,116,38*79
$GPGSV,3,3,10,26,14,015,35,14,09,221,33*76
$GPRMC,122433.002,A,1722.8739,S,06954.4266,W,0.36,212.34,290411,,,A*61
$GPGGA,122434.003,1722.8744,S,06954.4269,W,1,06,1.8,4635.6,M,34.5,M,,0000*63
$GPGSA,M,3,09,27,15,02,29,04,,,,,,,2.9,1.8,2.2*39
$GPRMC,122434.003,A,1722.8744,S,06954.4269,W,0.55,249.56,290411,,,A*6D
$GPGGA,122434.998,1722.8741,S,06954.4269,W,1,06,1.8,4636.3,M,34.5,M,,0000*6B
$GPGSA,M,3,09,27,15,02,29,04,,,,,,,2.9,1.8,2.2*39
$GPRMC,122434.998,A,1722.8741,S,06954.4269,W,0.41,205.17,290411,,,A*6B
$GPGGA,122435.991,1722.8731,S,06954.4261,W,1,06,1.8,4637.6,M,34.5,M,,0000*68
$GPGSA,M,3,09,27,15,02,29,04,,,,,,,2.9,1.8,2.2*39
$GPRMC,122435.991,A,1722.8731,S,06954.4261,W,0.26,65.18,290411,,,A*56
$GPGGA,122437.009,1722.8735,S,06954.4264,W,1,06,1.8,4638.3,M,34.5,M,,0000*69
$GPGSA,M,3,09,27,15,02,29,04,,,,,,,2.9,1.8,2.2*39
$GPRMC,122437.009,A,1722.8735,S,06954.4264,W,0.64,227.62,290411,,,A*62
$GPGGA,122438.001,1722.8736,S,06954.4266,W,1,06,1.8,4638.9,M,34.5,M,,0000*65
$GPGSA,M,3,09,27,15,02,29,04,,,,,,,2.9,1.8,2.2*39
$GPGSV,3,1,10,09,65,159,38,27,65,103,39,15,41,346,39,12,40,200,38*7C
$GPGSV,3,2,10,02,38,077,39,29,36,313,40,25,23,242,37,04,18,116,38*77
$GPGSV,3,3,10,26,14,015,35,14,09,221,35*70
$GPRMC,122438.001,A,1722.8736,S,06954.4266,W,0.30,240.37,290411,,,A*64
$GPGGA,122439.001,1722.8732,S,06954.4265,W,1,06,1.8,4638.7,M,34.5,M,,0000*6D
$GPGSA,M,3,09,27,15,02,29,04,,,,,,,2.9,1.8,2.2*39
$GPRMC,122439.001,A,1722.8732,S,06954.4265,W,0.12,356.78,290411,,,A*6F
$GPGGA,122440.000,1722.8733,S,06954.4266,W,1,06,1.8,4638.1,M,34.5,M,,0000*66
$GPGSA,M,3,09,27,15,02,29,04,,,,,,,2.9,1.8,2.2*39
$GPRMC,122440.000,A,1722.8733,S,06954.4266,W,0.14,109.52,290411,,,A*64
$GPGGA,122440.999,1722.8735,S,06954.4265,W,1,06,1.8,4639.0,M,34.5,M,,0000*6A
$GPGSA,M,3,09,27,15,02,29,04,,,,,,,2.9,1.8,2.2*39
$GPRMC,122440.999,A,1722.8735,S,06954.4265,W,0.46,347.75,290411,,,A*62
$GPGGA,122442.000,1722.8733,S,06954.4268,W,1,06,1.8,4638.5,M,34.5,M,,0000*6E
$GPGSA,M,3,09,27,15,02,29,04,,,,,,,2.9,1.8,2.2*39
$GPRMC,122442.000,A,1722.8733,S,06954.4268,W,0.17,203.74,290411,,,A*66
$GPGGA,122443.003,1722.8730,S,06954.4269,W,1,06,1.8,4638.3,M,34.5,M,,0000*68
$GPGSA,M,3,09,27,15,02,29,04,,,,,,,2.9,1.8,2.2*39
$GPGSV,3,1,10,09,65,159,31,27,65,103,34,15,41,346,37,12,40,200,33*7D
$GPGSV,3,2,10,02,38,077,35,29,36,313,32,25,23,242,30,04,18,116,32*73
$GPGSV,3,3,10,26,14,015,,14,09,221,26*74
$GPRMC,122443.003,A,1722.8730,S,06954.4269,W,0.51,8.22,290411,,,A*6E
$GPGGA,122443.998,1722.8729,S,06954.4268,W,1,06,1.8,4638.8,M,34.5,M,,0000*61
