$GPGGA,112059.758,,,,,0,00,,,M,0.0,M,,0000*52
$GPGSA,M,1,,,,,,,,,,,,,,,*12
$GPRMC,112059.758,V,,,,,,,180411,,,N*44
$GPGGA,112100.754,,,,,0,00,,,M,0.0,M,,0000*53
$GPGSA,M,1,,,,,,,,,,,,,,,*12
$GPRMC,112100.754,V,,,,,,,180411,,,N*45
$GPGGA,112101.754,,,,,0,00,,,M,0.0,M,,0000*52
$GPGSA,M,1,,,,,,,,,,,,,,,*12
$GPGSV,3,1,11,15,71,225,39,26,67,043,31,12,41,263,38,27,37,187,37*77
$GPGSV,3,2,11,09,29,204,35,17,23,134,42,02,15,031,,05,13,000,*7E
$GPGSV,3,3,11,25,11,290,38,04,11,069,42,18,08,247,*43
$GPRMC,112101.754,V,,,,,,,180411,,,N*44
$GPGGA,112102.758,,,,,0,00,,,M,0.0,M,,0000*5D
$GPGSA,M,1,,,,,,,,,,,,,,,*12
$GPRMC,112102.758,V,,,,,,,180411,,,N*4B
$GPGGA,112103.758,,,,,0,00,,,M,0.0,M,,0000*5C
$GPGSA,M,1,,,,,,,,,,,,,,,*12
$GPRMC,112103.758,V,,,,,,,180411,,,N*4A
$GPGGA,112104.754,,,,,0,00,,,M,0.0,M,,0000*57
$GPGSA,M,1,,,,,,,,,,,,,,,*12
$GPRMC,112104.754,V,,,,,,,180411,,,N*41
$GPGGA,112105.758,,,,,0,00,,,M,0.0,M,,0000*5A
$GPGSA,M,1,,,,,,,,,,,,,,,*12
$GPRMC,112105.758,V,,,,,,,180411,,,N*4C
$GPGGA,112106.758,,,,,0,00,,,M,0.0,M,,0000*59
$GPGSA,M,1,,,,,,,,,,,,,,,*12
$GPGSV,3,1,11,12,41,262,43,17,23,134,42,15,71,225,47,26,67,043,38*76
$GPGSV,3,2,11,27,37,187,45,09,29,204,43,02,15,031,,05,13,000,*76
$GPGSV,3,3,11,25,11,290,43,04,11,069,42,18,08,247,*4F
$GPRMC,112106.758,V,,,,,,,180411,,,N*4F
$GPGGA,112107.758,,,,,0,00,,,M,0.0,M,,0000*58
$GPGSA,M,1,,,,,,,,,,,,,,,*12
$GPRMC,112107.758,V,,,,,,,180411,,,N*4E
$GPGGA,112108.754,,,,,0,00,,,M,0.0,M,,0000*5B
$GPGSA,M,1,,,,,,,,,,,,,,,*12
$GPRMC,112108.754,V,,,,,,,180411,,,N*4D
$GPGGA,112109.754,,,,,0,00,,,M,0.0,M,,0000*5A
$GPGSA,M,1,,,,,,,,,,,,,,,*12
$GPRMC,112109.754,V,,,,,,,180411,,,N*4C
$GPGGA,112109.758,,,,,0,00,,,M,0.0,M,,0000*56
$GPGSA,M,1,,,,,,,,,,,,,,,*12
$GPRMC,112109.758,V,,,,,,,180411,,,N*40
$GPGGA,112110.758,,,,,0,00,,,M,0.0,M,,0000*5E
$GPGSA,M,1,,,,,,,,,,,,,,,*12
$GPGSV,3,1,11,12,41,262,45,17,23,134,43,15,71,225,47,26,67,043,39*70
$GPGSV,3,2,11,27,37,187,45,09,29,204,42,02,15,031,,05,13,000,*77
$GPGSV,3,3,11,25,11,290,42,04,11,069,43,18,08,247,*4F
$GPRMC,112110.758,V,,,,,,,180411,,,N*48
$GPGGA,112111.754,,,,,0,00,,,M,0.0,M,,0000*53
$GPGSA,M,1,,,,,,,,,,,,,,,*12
$GPRMC,112111.754,V,,,,,,,180411,,,N*45
$GPGGA,112112.758,,,,,0,00,,,M,0.0,M,,0000*5C
$GPGSA,M,1,,,,,,,,,,,,,,,*12
$GPRMC,112112.758,V,,,,,,,180411,,,N*4A
$GPGGA,112113.758,,,,,0,00,,,M,0.0,M,,0000*5D
$GPGSA,M,1,,,,,,,,,,,,,,,*12
$GPRMC,112113.758,V,,,,,,,180411,,,N*4B
$GPGGA,112114.758,,,,,0,00,,,M,0.0,M,,0000*5A
$GPGSA,M,1,,,,,,,,,,,,,,,*12
$GPRMC,112114.758,V,,,,,,,180411,,,N*4C
$GPGGA,112115.754,,,,,0,00,,,M,0.0,M,,0000*57
$GPGSA,M,1,,,,,,,,,,,,,,,*12
$GPGSV,3,1,11,12,41,262,46,17,23,134,44,15,71,225,47,26,67,043,40*7A
$GPGSV,3,2,11,27,37,187,45,09,29,204,42,02,15,031,,05,13,000,*77
$GPGSV,3,3,11,25,11,290,42,04,11,069,43,18,08,247,*4F
$GPRMC,112115.754,V,,,,,,,180411,,,N*41
$GPGGA,112116.754,,,,,0,00,,,M,0.0,M,,0000*54
$GPGSA,M,1,,,,,,,,,,,,,,,*12
$GPRMC,112116.754,V,,,,,,,180411,,,N*42
$GPGGA,112117.758,,,,,0,00,,,M,0.0,M,,0000*59
$GPGSA,M,1,,,,,,,,,,,,,,,*12
$GPRMC,112117.758,V,,,,,,,180411,,,N*4F
$GPGGA,112118.758,,,,,0,00,,,M,0.0,M,,0000*56
$GPGSA,M,1,,,,,,,,,,,,,,,*12
$GPRMC,112118.758,V,,,,,,,180411,,,N*40
$GPGGA,112119.754,,,,,0,00,,,M,0.0,M,,0000*5B
$GPGSA,M,1,,,,,,,,,,,,,,,*12
$GPRMC,112119.754,V,,,,,,,180411,,,N*4D
$GPGGA,112120.758,,,,,0,00,,,M,0.0,M,,0000*5D
$GPGSA,M,1,,,,,,,,,,,,,,,*12
$GPGSV,3,1,11,12,41,262,46,17,23,134,44,15,71,226,47,26,67,043,41*78
$GPGSV,3,2,11,27,37,187,45,09,29,204,41,02,15,031,,05,13,000,*74
$GPGSV,3,3,11,25,11,290,42,04,11,070,43,18,08,247,*47
$GPRMC,112120.758,V,,,,,,,180411,,,N*4B
$GPGGA,112121.758,,,,,0,00,,,M,0.0,M,,0000*5C
$GPGSA,M,1,,,,,,,,,,,,,,,*12
$GPRMC,112121.758,V,,,,,,,180411,,,N*4A
$GPGGA,112122.758,,,,,0,00,,,M,0.0,M,,0000*5F
$GPGSA,M,1,,,,,,,,,,,,,,,*12
$GPRMC,112122.758,V,,,,,,,180411,,,N*49
$GPGGA,112123.754,,,,,0,00,,,M,0.0,M,,0000*52
$GPGSA,M,1,,,,,,,,,,,,,,,*12
$GPRMC,112123.754,V,,,,,,,180411,,,N*44
$GPGGA,112124.758,,,,,0,00,,,M,0.0,M,,0000*59
$GPGSA,M,1,,,,,,,,,,,,,,,*12
$GPRMC,112124.758,V,,,,,,,180411,,,N*4F
$GPGGA,112125.758,,,,,0,00,,,M,0.0,M,,0000*58
$GPGSA,M,1,,,,,,,,,,,,,,,*12
$GPGSV,3,1,12,12,41,262,45,09,29,204,43,17,23,134,45,15,71,226,47*7D
$GPGSV,3,2,12,26,67,043,40,27,37,187,44,02,15,031,,05,13,000,*71
$GPGSV,3,3,12,25,11,290,42,04,11,070,43,18,08,247,,29,00,331,*7E
$GPRMC,112125.758,V,,,,,,,180411,,,N*4E
$GPGGA,112126.758,,,,,0,00,,,M,0.0,M,,0000*5B
$GPGSA,M,1,,,,,,,,,,,,,,,*12
$GPRMC,112126.758,V,,,,,,,180411,,,N*4D
$GPGGA,112127.758,1444.3268,S,07434.3230,W,1,04,2.3,3474.4,M,20.9,M,,0000*6D
$GPGSA,M,3,12,09,17,25,,,,,,,,,4.2,2.3,3.5*34
$GPRMC,112127.758,A,1444.3268,S,07434.3230,W,0.30,39.76,180411,,,A*54
$GPGGA,112128.758,1444.3268,S,07434.3230,W,1,04,2.3,3474.5,M,20.9,M,,0000*63
$GPGSA,M,3,12,09,17,25,,,,,,,,,4.2,2.3,3.5*34
$GPRMC,112128.758,A,1444.3268,S,07434.3230,W,0.27,42.39,180411,,,A*5A
$GPGGA,112129.000,1444.3268,S,07434.3230,W,1,04,2.3,3474.5,M,20.9,M,,0000*68
$GPGSA,M,3,12,09,17,25,,,,,,,,,4.2,2.3,3.5*34
$GPRMC,112129.000,A,1444.3268,S,07434.3230,W,0.25,34.80,180411,,,A*50
$GPGGA,112130.000,1444.3267,S,07434.3230,W,1,04,2.3,3474.6,M,20.9,M,,0000*6C
$GPGSA,M,3,12,09,17,25,,,,,,,,,4.2,2.3,3.5*34
$GPGSV,3,1,12,12,41,262,45,09,29,204,43,17,23,134,44,25,11,290,42*71
$GPGSV,3,2,12,15,71,226,47,26,67,043,31,27,37,187,43,02,15,031,27*75
$GPGSV,3,3,12,05,13,000,25,04,11,070,43,18,08,247,,29,00,331,*74
$GPRMC,112130.000,A,1444.3267,S,07434.3230,W,0.39,34.42,180411,,,A*54
$GPGGA,112131.000,1444.3267,S,07434.3230,W,1,04,2.3,3474.6,M,20.9,M,,0000*6D
$GPGSA,M,3,12,09,17,25,,,,,,,,,4.2,2.3,3.5*34
$GPRMC,112131.000,A,1444.3267,S,07434.3230,W,0.32,43.05,180411,,,A*5D
$GPGGA,112132.000,1444.3267,S,07434.3229,W,1,04,2.3,3474.6,M,20.9,M,,0000*66
$GPGSA,M,3,12,09,17,25,,,,,,,,,4.2,2.3,3.5*34
$GPRMC,112132.000,A,1444.3267,S,07434.3229,W,0.28,40.96,180411,,,A*54
$GPGGA,112133.000,1444.3269,S,07434.3232,W,1,07,1.1,3472.0,M,20.9,M,,0000*61
$GPGSA,M,3,04,12,09,27,15,17,25,,,,,,2.1,1.1,1.8*3A
$GPRMC,112133.000,A,1444.3269,S,07434.3232,W,0.07,91.32,180411,,,A*5E
$GPGGA,112134.000,1444.3270,S,07434.3233,W,1,07,1.1,3471.4,M,20.9,M,,0000*68
$GPGSA,M,3,04,12,09,27,15,17,25,,,,,,2.1,1.1,1.8*3A
$GPRMC,112134.000,A,1444.3270,S,07434.3233,W,0.12,141.31,180411,,,A*6B
$GPGGA,112135.000,1444.3271,S,07434.3233,W,1,07,1.1,3471.0,M,20.9,M,,0000*6C
$GPGSA,M,3,04,12,09,27,15,17,25,,,,,,2.1,1.1,1.8*3A
$GPGSV,3,1,12,15,72,226,40,26,67,043,29,12,41,262,39,27,37,187,39*7D
$GPGSV,3,2,12,09,29,204,37,17,23,134,44,02,15,031,27,05,13,000,25*7B
$GPGSV,3,3,12,25,11,290,33,04,11,070,43,18,08,247,24,29,00,331,*7E
$GPRMC,112135.000,A,1444.3271,S,07434.3233,W,0.10,118.46,180411,,,A*65
$GPGGA,112136.000,1444.3271,S,07434.3233,W,1,07,1.1,3470.8,M,20.9,M,,0000*66
$GPGSA,M,3,04,12,09,27,15,17,25,,,,,,2.1,1.1,1.8*3A
$GPRMC,112136.000,A,1444.3271,S,07434.3233,W,0.10,130.00,180411,,,A*6E
$GPGGA,112137.000,1444.3272,S,07434.3233,W,1,07,1.1,3470.7,M,20.9,M,,0000*6B
$GPGSA,M,3,04,12,09,27,15,17,25,,,,,,2.1,1.1,1.8*3A
$GPRMC,112137.000,A,1444.3272,S,07434.3233,W,0.12,146.67,180411,,,A*6E
$GPGGA,112138.000,1444.3272,S,07434.3233,W,1,07,1.1,3470.6,M,20.9,M,,0000*65
$GPGSA,M,3,04,12,09,27,15,17,25,,,,,,2.1,1.1,1.8*3A
$GPRMC,112138.000,A,1444.3272,S,07434.3233,W,0.08,125.15,180411,,,A*6A
$GPGGA,112139.000,1444.3272,S,07434.3233,W,1,07,1.1,3470.6,M,20.9,M,,0000*64
$GPGSA,M,3,04,12,09,27,15,17,25,,,,,,2.1,1.1,1.8*3A
$GPRMC,112139.000,A,1444.3272,S,07434.3233,W,0.09,117.16,180411,,,A*68
$GPGGA,112140.000,1444.3272,S,07434.3233,W,1,07,1.1,3470.6,M,20.9,M,,0000*6A
$GPGSA,M,3,04,12,09,27,15,17,25,,,,,,2.1,1.1,1.8*3A
$GPGSV,3,1,12,15,72,226,40,26,67,043,29,12,41,262,39,27,37,187,39*7D
$GPGSV,3,2,12,09,29,204,38,17,23,134,43,02,15,031,27,05,13,000,26*70
$GPGSV,3,3,12,25,11,290,35,04,11,070,42,18,08,247,24,29,00,331,*79
$GPRMC,112140.000,A,1444.3272,S,07434.3233,W,0.10,130.65,180411,,,A*6F
$GPGGA,112141.000,1444.3272,S,07434.3233,W,1,07,1.1,3470.6,M,20.9,M,,0000*6B
$GPGSA,M,3,04,12,09,27,15,17,25,,,,,,2.1,1.1,1.8*3A
$GPRMC,112141.000,A,1444.3272,S,07434.3233,W,0.11,127.47,180411,,,A*69
$GPGGA,112142.000,1444.3272,S,07434.3233,W,1,07,1.1,3470.6,M,20.9,M,,0000*68
$GPGSA,M,3,04,12,09,27,15,17,25,,,,,,2.1,1.1,1.8*3A
$GPRMC,112142.000,A,1444.3272,S,07434.3233,W,0.11,130.52,180411,,,A*68
$GPGGA,112143.000,1444.3272,S,07434.3233,W,1,07,1.1,3470.6,M,20.9,M,,0000*69
$GPGSA,M,3,04,12,09,27,15,17,25,,,,,,2.1,1.1,1.8*3A
$GPRMC,112143.000,A,1444.3272,S,07434.3233,W,0.08,120.48,180411,,,A*6B
$GPGGA,112144.000,1444.3272,S,07434.3233,W,1,07,1.1,3470.6,M,20.9,M,,0000*6E
$GPGSA,M,3,04,12,09,27,15,17,25,,,,,,2.1,1.1,1.8*3A
$GPRMC,112144.000,A,1444.3272,S,07434.3233,W,0.09,124.01,180411,,,A*64
$GPGGA,112145.132,1444.3273,S,07434.3233,W,1,07,1.1,3470.7,M,20.9,M,,0000*6F
$GPGSA,M,3,15,12,27,09,17,25,04,,,,,,2.1,1.1,1.8*3A
$GPGSV,3,1,12,15,72,226,38,26,67,043,25,12,41,262,38,27,37,187,35*73
$GPGSV,3,2,12,09,29,204,37,17,23,134,39,02,15,031,26,05,13,000,26*73
$GPGSV,3,3,12,25,11,290,34,04,11,070,39,18,08,247,,29,00,331,*72
$GPRMC,112145.132,A,1444.3273,S,07434.3233,W,0.17,33.10,180411,,,A*5C
$GPGGA,112147.003,1444.3270,S,07434.3232,W,1,07,1.1,3470.9,M,20.9,M,,0000*62
$GPGSA,M,3,15,12,27,09,17,25,04,,,,,,2.1,1.1,1.8*3A
$GPRMC,112147.003,A,1444.3270,S,07434.3232,W,1.05,23.15,180411,,,A*59
$GPGGA,112148.001,1444.3269,S,07434.3231,W,1,07,1.1,3471.0,M,20.9,M,,0000*6C
$GPGSA,M,3,15,12,27,09,17,25,04,,,,,,2.1,1.1,1.8*3A
$GPRMC,112148.001,A,1444.3269,S,07434.3231,W,0.14,72.90,180411,,,A*57
$GPGGA,112148.999,1444.3270,S,07434.3231,W,1,07,1.1,3470.9,M,20.9,M,,0000*64
$GPGSA,M,3,15,12,27,09,17,25,04,,,,,,2.1,1.1,1.8*3A
$GPRMC,112148.999,A,1444.3270,S,07434.3231,W,0.46,171.32,180411,,,A*6A
$GPGGA,112150.003,1444.3270,S,07434.3231,W,1,07,1.1,3470.8,M,20.9,M,,0000*66
$GPGSA,M,3,15,12,27,09,17,25,04,,,,,,2.1,1.1,1.8*3A
$GPRMC,112150.003,A,1444.3270,S,07434.3231,W,0.11,348.21,180411,,,A*61
$GPGGA,112150.996,1444.3269,S,07434.3232,W,1,07,1.1,3470.8,M,20.9,M,,0000*68
$GPGSA,M,3,15,12,27,09,17,25,04,,,,,,2.1,1.1,1.8*3A
$GPGSV,3,1,12,15,72,226,41,26,67,043,37,12,41,262,41,27,37,187,41*73
$GPGSV,3,2,12,09,29,204,39,17,23,134,41,02,15,031,,05,13,000,*72
$GPGSV,3,3,12,25,11,290,38,04,11,070,38,18,08,247,,29,00,331,*7F
$GPRMC,112150.996,A,1444.3269,S,07434.3232,W,0.26,0.86,180411,,,A*69
$GPGGA,112152.000,1444.3269,S,07434.3233,W,1,07,1.1,3470.8,M,20.9,M,,0000*6D
$GPGSA,M,3,15,12,27,09,17,25,04,,,,,,2.1,1.1,1.8*3A
$GPRMC,112152.000,A,1444.3269,S,07434.3233,W,0.19,350.03,180411,,,A*6B
$GPGGA,112153.000,1444.3269,S,07434.3233,W,1,07,1.1,3470.6,M,20.9,M,,0000*62
$GPGSA,M,3,15,12,27,09,17,25,04,,,,,,2.1,1.1,1.8*3A
$GPRMC,112153.000,A,1444.3269,S,07434.3233,W,0.59,196.51,180411,,,A*61
$GPGGA,112154.001,1444.3270,S,07434.3233,W,1,07,1.1,3470.6,M,20.9,M,,0000*6C
$GPGSA,M,3,15,12,27,09,17,25,04,,,,,,2.1,1.1,1.8*3A
$GPRMC,112154.001,A,1444.3270,S,07434.3233,W,0.31,194.43,180411,,,A*60
$GPGGA,112155.001,1444.3270,S,07434.3234,W,1,07,1.1,3470.4,M,20.9,M,,0000*68
$GPGSA,M,3,15,12,27,09,17,25,04,,,,,,2.1,1.1,1.8*3A
$GPRMC,112155.001,A,1444.3270,S,07434.3234,W,0.10,106.94,180411,,,A*64
$GPGGA,112156.002,1444.3271,S,07434.3233,W,1,07,1.1,3470.3,M,20.9,M,,0000*69
$GPGSA,M,3,15,12,27,09,17,25,04,,,,,,2.1,1.1,1.8*3A
$GPGSV,3,1,12,15,72,226,41,26,67,043,38,12,41,262,41,27,37,187,41*7C
$GPGSV,3,2,12,09,29,204,38,17,23,134,41,02,15,031,,05,13,000,*73
$GPGSV,3,3,12,25,11,290,38,04,11,070,40,18,08,247,25,29,00,331,*77
$GPRMC,112156.002,A,1444.3271,S,07434.3233,W,0.14,289.37,180411,,,A*6B
$GPGGA,112156.999,1444.3271,S,07434.3233,W,1,07,1.1,3470.1,M,20.9,M,,0000*60
$GPGSA,M,3,15,12,27,09,17,25,04,,,,,,2.1,1.1,1.8*3A
$GPRMC,112156.999,A,1444.3271,S,07434.3233,W,0.21,216.52,180411,,,A*63
$GPGGA,112158.000,1444.3270,S,07434.3234,W,1,07,1.1,3470.2,M,20.9,M,,0000*62
$GPGSA,M,3,15,12,27,09,17,25,04,,,,,,2.1,1.1,1.8*3A
$GPRMC,112158.000,A,1444.3270,S,07434.3234,W,0.13,47.78,180411,,,A*5D
$GPGGA,112159.000,1444.3270,S,07434.3233,W,1,07,1.1,3470.7,M,20.9,M,,0000*61
$GPGSA,M,3,15,12,27,09,17,25,04,,,,,,2.1,1.1,1.8*3A
$GPRMC,112159.000,A,1444.3270,S,07434.3233,W,0.21,177.09,180411,,,A*6E
$GPGGA,112200.000,1444.3271,S,07434.3233,W,1,07,1.1,3470.1,M,20.9,M,,0000*69
$GPGSA,M,3,15,12,27,09,17,25,04,,,,,,2.1,1.1,1.8*3A
$GPRMC,112200.000,A,1444.3271,S,07434.3233,W,0.27,75.66,180411,,,A*5C
$GPGGA,112201.004,1444.3272,S,07434.3233,W,1,07,1.1,3469.9,M,20.9,M,,0000*6F
$GPGSA,M,3,15,12,27,09,17,25,04,,,,,,2.1,1.1,1.8*3A
$GPGSV,3,1,12,15,72,226,40,26,67,043,,12,41,262,40,27,37,187,37*76
$GPGSV,3,2,12,09,29,204,36,17,23,134,40,02,15,031,,05,13,000,*7C
$GPGSV,3,3,12,25,11,290,37,04,11,070,32,18,08,247,30,29,00,331,*79
$GPRMC,112201.004,A,1444.3272,S,07434.3233,W,0.14,224.69,180411,,,A*63
$GPGGA,112201.995,1444.3271,S,07434.3233,W,1,07,1.1,3469.8,M,20.9,M,,0000*6C
$GPGSA,M,3,15,12,27,09,17,25,04,,,,,,2.1,1.1,1.8*3A
$GPRMC,112201.995,A,1444.3271,S,07434.3233,W,0.60,14.73,180411,,,A*58
$GPGGA,112203.000,1444.3271,S,07434.3233,W,1,07,1.1,3469.3,M,20.9,M,,0000*60
$GPGSA,M,3,15,12,27,09,17,25,04,,,,,,2.1,1.1,1.8*3A
$GPRMC,112203.000,A,1444.3271,S,07434.3233,W,0.13,272.97,180411,,,A*63
$GPGGA,112204.001,1444.3271,S,07434.3233,W,1,07,1.1,3469.5,M,20.9,M,,0000*60
$GPGSA,M,3,15,12,27,09,17,25,04,,,,,,2.1,1.1,1.8*3A
$GPRMC,112204.001,A,1444.3271,S,07434.3233,W,0.19,197.49,180411,,,A*64
$GPGGA,112205.003,1444.3272,S,07434.3233,W,1,07,1.1,3469.5,M,20.9,M,,0000*60
$GPGSA,M,3,15,12,27,09,17,25,04,,,,,,2.1,1.1,1.8*3A
$GPRMC,112205.003,A,1444.3272,S,07434.3233,W,0.27,20.88,180411,,,A*59
$GPGGA,112205.998,1444.3270,S,07434.3233,W,1,07,1.1,3469.8,M,20.9,M,,0000*64
$GPGSA,M,3,15,12,27,09,17,25,04,,,,,,2.1,1.1,1.8*3A
$GPGSV,3,1,12,15,72,226,40,26,67,043,38,12,41,262,41,27,37,187,40*7C
$GPGSV,3,2,12,09,29,204,39,17,23,134,41,02,15,031,,05,13,000,*72
$GPGSV,3,3,12,25,11,290,39,04,11,070,40,18,08,247,28,29,00,331,*7B
$GPRMC,112205.998,A,1444.3270,S,07434.3233,W,0.10,104.16,180411,,,A*64
$GPGGA,112207.000,1444.3270,S,07434.3233,W,1,07,1.1,3469.7,M,20.9,M,,0000*61
$GPGSA,M,3,15,12,27,09,17,25,04,,,,,,2.1,1.1,1.8*3A
$GPRMC,112207.000,A,1444.3270,S,07434.3233,W,0.26,11.52,180411,,,A*5E
$GPGGA,112207.999,1444.3269,S,07434.3233,W,1,07,1.1,3469.7,M,20.9,M,,0000*60
$GPGSA,M,3,15,12,27,09,17,25,04,,,,,,2.1,1.1,1.8*3A
$GPRMC,112207.999,A,1444.3269,S,07434.3233,W,0.07,179.37,180411,,,A*60
$GPGGA,112209.001,1444.3270,S,07434.3234,W,1,07,1.1,3469.2,M,20.9,M,,0000*6C
$GPGSA,M,3,15,12,27,09,17,25,04,,,,,,2.1,1.1,1.8*3A
$GPRMC,112209.001,A,1444.3270,S,07434.3234,W,0.10,323.91,180411,,,A*6E
$GPGGA,112210.001,1444.3269,S,07434.3233,W,1,06,1.3,3469.5,M,20.9,M,,0000*6F
$GPGSA,M,3,15,12,27,09,25,04,,,,,,,2.2,1.3,1.8*3D
$GPRMC,112210.001,A,1444.3269,S,07434.3233,W,0.18,65.46,180411,,,A*5A
$GPGGA,112211.001,1444.3270,S,07434.3234,W,1,07,1.1,3468.9,M,20.9,M,,0000*6F
$GPGSA,M,3,15,12,27,09,17,25,04,,,,,,2.1,1.1,1.8*3A
$GPGSV,3,1,12,15,72,226,40,26,67,043,36,12,41,262,41,27,37,187,40*72
$GPGSV,3,2,12,09,29,204,40,17,23,134,40,02,15,031,,05,13,000,24*7B
$GPGSV,3,3,12,25,11,290,37,04,11,070,38,18,08,247,,29,00,331,*70
$GPRMC,112211.001,A,1444.3270,S,07434.3234,W,0.08,160.36,180411,,,A*66
$GPGGA,112212.000,1444.3269,S,07434.3233,W,1,07,1.1,3469.4,M,20.9,M,,0000*6E
$GPGSA,M,3,15,12,27,09,17,25,04,,,,,,2.1,1.1,1.8*3A
$GPRMC,112212.000,A,1444.3269,S,07434.3233,W,0.25,37.24,180411,,,A*54
$GPGGA,112212.999,1444.3268,S,07434.3233,W,1,07,1.1,3469.5,M,20.9,M,,0000*67
$GPGSA,M,3,15,12,27,09,17,25,04,,,,,,2.1,1.1,1.8*3A
$GPRMC,112212.999,A,1444.3268,S,07434.3233,W,0.15,244.33,180411,,,A*6F
$GPGGA,112214.002,1444.3269,S,07434.3233,W,1,07,1.1,3469.9,M,20.9,M,,0000*67
$GPGSA,M,3,15,12,27,09,17,25,04,,,,,,2.1,1.1,1.8*3A
$GPRMC,112214.002,A,1444.3269,S,07434.3233,W,0.07,126.33,180411,,,A*67
$GPGGA,112215.000,1444.3269,S,07434.3232,W,1,07,1.1,3469.6,M,20.9,M,,0000*6A
$GPGSA,M,3,15,12,27,09,17,25,04,,,,,,2.1,1.1,1.8*3A
$GPRMC,112215.000,A,1444.3269,S,07434.3232,W,0.09,148.05,180411,,,A*66
$GPGGA,112216.000,1444.3268,S,07434.3233,W,1,07,1.1,3470.1,M,20.9,M,,0000*66
$GPGSA,M,3,15,12,27,09,17,25,04,,,,,,2.1,1.1,1.8*3A
$GPGSV,3,1,12,15,72,226,40,26,67,043,37,12,41,262,41,27,37,187,40*73
$GPGSV,3,2,12,09,29,204,40,17,23,134,40,02,15,031,,05,13,000,*7D
$GPGSV,3,3,12,25,11,290,38,04,11,070,40,18,08,247,25,29,00,331,*77
$GPRMC,112216.000,A,1444.3268,S,07434.3233,W,0.23,308.24,180411,,,A*68
$GPGGA,112216.999,1444.3269,S,07434.3234,W,1,07,1.1,3469.7,M,20.9,M,,0000*67
$GPGSA,M,3,15,12,27,09,17,25,04,,,,,,2.1,1.1,1.8*3A
$GPRMC,112216.999,A,1444.3269,S,07434.3234,W,0.05,59.92,180411,,,A*59
$GPGGA,112218.001,1444.3268,S,07434.3234,W,1,07,1.1,3469.3,M,20.9,M,,0000*64
$GPGSA,M,3,15,12,27,09,17,25,04,,,,,,2.1,1.1,1.8*3A
$GPRMC,112218.001,A,1444.3268,S,07434.3234,W,0.19,23.06,180411,,,A*53
$GPGGA,112219.001,1444.3268,S,07434.3233,W,1,07,1.1,3470.3,M,20.9,M,,0000*6A
$GPGSA,M,3,15,12,27,09,17,25,04,,,,,,2.1,1.1,1.8*3A
$GPRMC,112219.001,A,1444.3268,S,07434.3233,W,0.12,207.29,180411,,,A*67
$GPGGA,112219.999,1444.3269,S,07434.3233,W,1,07,1.1,3470.2,M,20.9,M,,0000*62
$GPGSA,M,3,15,12,27,09,17,25,04,,,,,,2.1,1.1,1.8*3A
$GPRMC,112219.999,A,1444.3269,S,07434.3233,W,0.25,137.80,180411,,,A*69
$GPGGA,112221.003,1444.3269,S,07434.3233,W,1,07,1.1,3470.1,M,20.9,M,,0000*60
$GPGSA,M,3,15,12,27,09,17,25,04,,,,,,2.1,1.1,1.8*3A
$GPGSV,3,1,12,15,72,226,41,26,67,043,37,12,41,262,39,27,37,187,40*7D
$GPGSV,3,2,12,09,29,204,40,17,23,134,38,02,15,031,25,05,13,000,*75
$GPGSV,3,3,12,25,11,290,39,04,11,070,38,18,08,247,35,29,00,331,*78
$GPRMC,112221.003,A,1444.3269,S,07434.3233,W,0.18,356.86,180411,,,A*65
$GPGGA,112222.002,1444.3269,S,07434.3233,W,1,07,1.1,3469.9,M,20.9,M,,0000*62
$GPGSA,M,3,15,12,27,09,17,25,04,,,,,,2.1,1.1,1.8*3A
$GPRMC,112222.002,A,1444.3269,S,07434.3233,W,0.27,216.74,180411,,,A*63
$GPGGA,112222.997,1444.3270,S,07434.3233,W,1,07,1.1,3469.7,M,20.9,M,,0000*61
$GPGSA,M,3,15,12,27,09,17,25,04,,,,,,2.1,1.1,1.8*3A
$GPRMC,112222.997,A,1444.3270,S,07434.3233,W,0.16,166.32,180411,,,A*6A
$GPGGA,112224.000,1444.3271,S,07434.3234,W,1,07,1.1,3469.6,M,20.9,M,,0000*67
$GPGSA,M,3,15,12,27,09,17,25,04,,,,,,2.1,1.1,1.8*3A
$GPRMC,112224.000,A,1444.3271,S,07434.3234,W,1.16,239.67,180411,,,A*65
$GPGGA,112224.999,1444.3272,S,07434.3236,W,1,07,1.1,3469.7,M,20.9,M,,0000*6E
$GPGSA,M,3,15,12,27,09,17,25,04,,,,,,2.1,1.1,1.8*3A
$GPRMC,112224.999,A,1444.3272,S,07434.3236,W,0.20,294.67,180411,,,A*6E
$GPGGA,112226.002,1444.3274,S,07434.3235,W,1,07,1.1,3469.8,M,20.9,M,,0000*6D
$GPGSA,M,3,15,12,27,09,17,25,04,,,,,,2.1,1.1,1.8*3A
$GPGSV,3,1,12,15,72,226,40,26,67,043,36,12,41,262,39,27,37,187,39*73
$GPGSV,3,2,12,09,29,204,40,17,23,134,37,02,15,031,28,05,13,000,*77
$GPGSV,3,3,12,25,11,290,39,04,11,070,37,18,08,247,36,29,00,331,*74
$GPRMC,112226.002,A,1444.3274,S,07434.3235,W,0.14,114.61,180411,,,A*68
$GPGGA,112226.999,1444.3273,S,07434.3234,W,1,07,1.1,3470.0,M,20.9,M,,0000*60
$GPGSA,M,3,15,12,27,09,17,25,04,,,,,,2.1,1.1,1.8*3A
$GPRMC,112226.999,A,1444.3273,S,07434.3234,W,0.41,256.03,180411,,,A*64
$GPGGA,112228.001,1444.3273,S,07434.3235,W,1,07,1.1,3469.8,M,20.9,M,,0000*67
$GPGSA,M,3,15,12,27,09,17,25,04,,,,,,2.1,1.1,1.8*3A
$GPRMC,112228.001,A,1444.3273,S,07434.3235,W,0.88,230.90,180411,,,A*6C
$GPGGA,112228.997,1444.3275,S,07434.3238,W,1,07,1.1,3468.7,M,20.9,M,,0000*64
$GPGSA,M,3,15,12,27,09,17,25,04,,,,,,2.1,1.1,1.8*3A
$GPRMC,112228.997,A,1444.3275,S,07434.3238,W,0.09,15.21,180411,,,A*57
$GPGGA,112230.005,1444.3275,S,07434.3238,W,1,07,1.1,3468.6,M,20.9,M,,0000*6E
$GPGSA,M,3,15,12,27,09,17,25,04,,,,,,2.1,1.1,1.8*3A
$GPRMC,112230.005,A,1444.3275,S,07434.3238,W,0.49,204.25,180411,,,A*6E
$GPGGA,112230.996,1444.3273,S,07434.3237,W,1,07,1.1,3468.9,M,20.9,M,,0000*6B
$GPGSA,M,3,15,12,27,09,17,25,04,,,,,,2.1,1.1,1.8*3A
$GPGSV,3,1,12,15,72,226,38,26,67,043,,12,41,262,39,27,37,187,41*76
$GPGSV,3,2,12,09,29,204,42,17,23,134,40,02,15,031,,05,13,000,*7F
$GPGSV,3,3,12,25,11,290,39,04,11,070,36,18,08,247,32,29,00,331,*71
$GPRMC,112230.996,A,1444.3273,S,07434.3237,W,0.75,30.49,180411,,,A*54
$GPGGA,112232.001,1444.3273,S,07434.3238,W,1,07,1.1,3468.7,M,20.9,M,,0000*6F
$GPGSA,M,3,15,12,27,09,17,25,04,,,,,,2.1,1.1,1.8*3A
$GPRMC,112232.001,A,1444.3273,S,07434.3238,W,0.36,218.51,180411,,,A*68
$GPGGA,112233.004,1444.3273,S,07434.3238,W,1,07,1.1,3469.2,M,20.9,M,,0000*6F
$GPGSA,M,3,15,12,27,09,17,25,04,,,,,,2.1,1.1,1.8*3A
$GPRMC,112233.004,A,1444.3273,S,07434.3238,W,0.72,261.37,180411,,,A*62
$GPGGA,112233.999,1444.3274,S,07434.3240,W,1,07,1.1,3468.9,M,20.9,M,,0000*60
$GPGSA,M,3,15,12,27,09,17,25,04,,,,,,2.1,1.1,1.8*3A
$GPRMC,112233.999,A,1444.3274,S,07434.3240,W,0.29,16.07,180411,,,A*58
$GPGGA,112234.998,1444.3275,S,07434.3240,W,1,07,1.1,3469.0,M,20.9,M,,0000*6F
$GPGSA,M,3,15,12,27,09,17,25,04,,,,,,2.1,1.1,1.8*3A
$GPRMC,112234.998,A,1444.3275,S,07434.3240,W,0.37,196.89,180411,,,A*6F
$GPGGA,112236.000,1444.3276,S,07434.3240,W,1,07,1.1,3468.7,M,20.9,M,,0000*60
$GPGSA,M,3,15,12,27,09,17,25,04,,,,,,2.1,1.1,1.8*3A
$GPGSV,3,1,12,15,72,226,39,26,67,043,31,12,41,262,40,27,37,187,41*7B
$GPGSV,3,2,12,09,29,204,41,17,23,134,39,02,15,031,,05,13,000,*72
$GPGSV,3,3,12,25,11,290,38,04,11,070,36,18,08,247,30,29,00,331,*72
$GPRMC,112236.000,A,1444.3276,S,07434.3240,W,0.38,150.38,180411,,,A*69
$GPGGA,112237.001,1444.3278,S,07434.3239,W,1,07,1.1,3468.6,M,20.9,M,,0000*61
$GPGSA,M,3,15,12,27,09,17,25,04,,,,,,2.1,1.1,1.8*3A
$GPRMC,112237.001,A,1444.3278,S,07434.3239,W,0.29,182.10,180411,,,A*6C
$GPGGA,112238.001,1444.3280,S,07434.3239,W,1,07,1.1,3468.2,M,20.9,M,,0000*6D
$GPGSA,M,3,15,12,27,09,17,25,04,,,,,,2.1,1.1,1.8*3A
$GPRMC,112238.001,A,1444.3280,S,07434.3239,W,0.24,157.61,180411,,,A*67
$GPGGA,112239.001,1444.3281,S,07434.3239,W,1,07,1.1,3467.9,M,20.9,M,,0000*69
$GPGSA,M,3,15,12,27,09,17,25,04,,,,,,2.1,1.1,1.8*3A
$GPRMC,112239.001,A,1444.3281,S,07434.3239,W,0.54,188.76,180411,,,A*64
$GPGGA,112239.998,1444.3283,S,07434.3238,W,1,07,1.1,3467.6,M,20.9,M,,0000*6C
$GPGSA,M,3,15,12,27,09,17,25,04,,,,,,2.1,1.1,1.8*3A
$GPRMC,112239.998,A,1444.3283,S,07434.3238,W,0.51,50.31,180411,,,A*5C
$GPGGA,112241.001,1444.3284,S,07434.3235,W,1,07,1.1,3466.6,M,20.9,M,,0000*61
$GPGSA,M,3,15,12,27,09,17,25,04,,,,,,2.1,1.1,1.8*3A
$GPGSV,3,1,12,15,72,226,42,26,67,043,36,12,41,262,39,27,37,187,41*7E
$GPGSV,3,2,12,09,29,204,40,17,23,134,37,02,15,031,28,05,13,000,*77
$GPGSV,3,3,12,25,11,290,40,04,11,070,39,18,08,247,29,29,00,331,*7A
$GPRMC,112241.001,A,1444.3284,S,07434.3235,W,1.49,145.70,180411,,,A*68
$GPGGA,112242.003,1444.3286,S,07434.3232,W,1,07,1.1,3466.4,M,20.9,M,,0000*67
$GPGSA,M,3,15,12,27,09,17,25,04,,,,,,2.1,1.1,1.8*3A
$GPRMC,112242.003,A,1444.3286,S,07434.3232,W,0.88,138.63,180411,,,A*68
$GPGGA,112242.998,1444.3288,S,07434.3232,W,1,07,1.1,3466.1,M,20.9,M,,0000*67
$GPGSA,M,3,15,12,27,09,17,25,04,,,,,,2.1,1.1,1.8*3A
$GPRMC,112242.998,A,1444.3288,S,07434.3232,W,0.26,153.28,180411,,,A*6B
$GPGGA,112244.004,1444.3288,S,07434.3230,W,1,07,1.1,3466.5,M,20.9,M,,0000*6B
$GPGSA,M,3,15,12,27,09,17,25,04,,,,,,2.1,1.1,1.8*3A
$GPRMC,112244.004,A,1444.3288,S,07434.3230,W,0.84,153.24,180411,,,A*67
$GPGGA,112244.997,1444.3287,S,07434.3229,W,1,07,1.1,3466.6,M,20.9,M,,0000*6C
$GPGSA,M,3,15,12,27,09,17,25,04,,,,,,2.1,1.1,1.8*3A
$GPRMC,112244.997,A,1444.3287,S,07434.3229,W,0.65,7.59,180411,,,A*66
$GPGGA,112246.001,1444.3285,S,07434.3228,W,1,04,3.0,3466.9,M,20.9,M,,0000*64
$GPGSA,M,3,15,12,27,17,,,,,,,,,4.5,3.0,3.4*3F
$GPGSV,3,1,12,15,72,227,21,12,42,261,30,27,38,186,30,09,30,203,*77
$GPGSV,3,2,12,17,22,135,24,25,11,289,,04,11,070,,26,66,042,31*7B
$GPGSV,3,3,12,02,15,031,,05,13,000,,18,09,247,,29,00,331,*72
$GPRMC,112246.001,A,1444.3285,S,07434.3228,W,1.13,34.66,180411,,,A*5D
$GPGGA,112247.000,1444.3281,S,07434.3224,W,1,04,3.0,3467.7,M,20.9,M,,0000*63
$GPGSA,M,3,15,12,27,17,,,,,,,,,4.5,3.0,3.4*3F
$GPRMC,112247.000,A,1444.3281,S,07434.3224,W,0.87,55.77,180411,,,A*5E
$GPGGA,112248.000,1444.3280,S,07434.3222,W,0,00,,3467.7,M,20.9,M,,0000*43
$GPGSA,M,1,,,,,,,,,,,,,,,*12
$GPRMC,112248.000,V,1444.3280,S,07434.3222,W,,,180411,,,N*71
$GPGGA,112249.000,1444.3279,S,07434.3220,W,0,00,,3467.6,M,20.9,M,,0000*47
$GPGSA,M,1,,,,,,,,,,,,,,,*12
$GPRMC,112249.000,V,1444.3279,S,07434.3220,W,,,180411,,,N*74
$GPGGA,112250.000,1444.3277,S,07434.3218,W,0,00,,3467.5,M,20.9,M,,0000*49
$GPGSA,M,1,,,,,,,,,,,,,,,*12
$GPGSV,3,1,12,15,72,227,24,12,42,261,28,27,38,186,25,09,30,203,26*7B
$GPGSV,3,2,12,17,22,135,25,25,11,289,28,04,11,070,24,26,66,042,24*72
$GPGSV,3,3,12,02,15,031,,05,13,000,,18,09,247,31,29,00,331,*70
$GPRMC,112250.000,V,1444.3277,S,07434.3218,W,,,180411,,,N*79
$GPGGA,112251.000,1444.3276,S,07434.3216,W,0,00,,3467.4,M,20.9,M,,0000*46
$GPGSA,M,1,,,,,,,,,,,,,,,*12
$GPRMC,112251.000,V,1444.3276,S,07434.3216,W,,,180411,,,N*77
$GPGGA,112252.000,1444.3258,S,07434.3247,W,1,06,1.4,3467.7,M,20.9,M,,0000*62
$GPGSA,M,3,12,27,17,09,25,04,,,,,,,3.7,1.4,3.4*32
$GPRMC,112252.000,A,1444.3258,S,07434.3247,W,0.81,183.80,180411,,,A*6F
$GPGGA,112253.000,1444.3256,S,07434.3249,W,1,07,1.1,3467.7,M,20.9,M,,0000*67
$GPGSA,M,3,15,12,27,17,09,25,04,,,,,,2.1,1.1,1.8*3A
$GPRMC,112253.000,A,1444.3256,S,07434.3249,W,0.61,19.54,180411,,,A*5B
$GPGGA,112254.000,1444.3263,S,07434.3248,W,1,07,1.1,3467.4,M,20.9,M,,0000*64
$GPGSA,M,3,15,12,27,17,09,25,04,,,,,,2.1,1.1,1.8*3A
$GPRMC,112254.000,A,1444.3263,S,07434.3248,W,0.39,26.12,180411,,,A*58
$GPGGA,112255.000,1444.3267,S,07434.3246,W,1,07,1.1,3467.1,M,20.9,M,,0000*6A
$GPGSA,M,3,15,12,27,17,09,25,04,,,,,,2.1,1.1,1.8*3A
$GPGSV,3,1,12,15,72,227,44,12,42,261,42,27,38,186,41,09,30,203,40*73
$GPGSV,3,2,12,17,22,135,41,25,11,289,41,04,11,070,37,26,66,042,41*7E
$GPGSV,3,3,12,02,15,031,,05,13,000,,18,09,247,33,29,00,331,*72
$GPRMC,112255.000,A,1444.3267,S,07434.3246,W,0.33,65.42,180411,,,A*5B
$GPGGA,112256.000,1444.3268,S,07434.3244,W,1,07,1.1,3467.2,M,20.9,M,,0000*67
$GPGSA,M,3,15,12,27,17,09,25,04,,,,,,2.1,1.1,1.8*3A
$GPRMC,112256.000,A,1444.3268,S,07434.3244,W,0.13,59.76,180411,,,A*5F
$GPGGA,112257.000,1444.3268,S,07434.3242,W,1,07,1.1,3467.4,M,20.9,M,,0000*66
$GPGSA,M,3,15,12,27,17,09,25,04,,,,,,2.1,1.1,1.8*3A
$GPRMC,112257.000,A,1444.3268,S,07434.3242,W,0.13,49.15,180411,,,A*5C
$GPGGA,112258.000,1444.3267,S,07434.3239,W,1,07,1.1,3467.4,M,20.9,M,,0000*6A
$GPGSA,M,3,15,12,27,17,09,25,04,,,,,,2.1,1.1,1.8*3A
$GPRMC,112258.000,A,1444.3267,S,07434.3239,W,0.14,47.82,180411,,,A*57
$GPGGA,112259.000,1444.3268,S,07434.3239,W,1,07,1.1,3467.5,M,20.9,M,,0000*65
$GPGSA,M,3,15,12,27,17,09,25,04,,,,,,2.1,1.1,1.8*3A
$GPRMC,112259.000,A,1444.3268,S,07434.3239,W,0.15,48.71,180411,,,A*5B
$GPGGA,112300.000,1444.3269,S,07434.3237,W,1,07,1.1,3467.6,M,20.9,M,,0000*64
$GPGSA,M,3,15,12,27,17,09,25,04,,,,,,2.1,1.1,1.8*3A
$GPGSV,3,1,12,15,72,227,40,12,42,261,37,27,38,186,42,09,30,203,40*76
$GPGSV,3,2,12,17,22,135,41,25,11,289,41,04,11,070,37,26,66,042,42*7D
$GPGSV,3,3,12,02,15,031,22,05,13,000,,18,09,247,33,29,00,331,*72
$GPRMC,112300.000,A,1444.3269,S,07434.3237,W,0.12,61.46,180411,,,A*51
$GPGGA,112301.000,1444.3269,S,07434.3236,W,1,07,1.1,3467.8,M,20.9,M,,0000*6A
$GPGSA,M,3,15,12,27,17,09,25,04,,,,,,2.1,1.1,1.8*3A
$GPRMC,112301.000,A,1444.3269,S,07434.3236,W,0.20,38.04,180411,,,A*5A
$GPGGA,112302.000,1444.3269,S,07434.3235,W,1,07,1.1,3467.9,M,20.9,M,,0000*6B
$GPGSA,M,3,15,12,27,17,09,25,04,,,,,,2.1,1.1,1.8*3A
$GPRMC,112302.000,A,1444.3269,S,07434.3235,W,0.18,43.55,180411,,,A*59
$GPGGA,112302.998,1444.3269,S,07434.3235,W,1,07,1.1,3467.7,M,20.9,M,,0000*6D
$GPGSA,M,3,15,12,27,09,17,25,04,,,,,,2.1,1.1,1.8*3A
$GPRMC,112302.998,A,1444.3269,S,07434.3235,W,0.20,198.19,180411,,,A*65
$GPGGA,112304.002,1444.3270,S,07434.3235,W,1,07,1.1,3467.7,M,20.9,M,,0000*69
$GPGSA,M,3,15,12,27,09,17,25,04,,,,,,2.1,1.1,1.8*3A
$GPRMC,112304.002,A,1444.3270,S,07434.3235,W,0.50,173.79,180411,,,A*65
$GPGGA,112305.000,1444.3270,S,07434.3235,W,1,07,1.1,3467.7,M,20.9,M,,0000*6A
$GPGSA,M,3,15,12,27,09,17,25,04,,,,,,2.1,1.1,1.8*3A
$GPRMC,112305.000,A,1444.3270,S,07434.3235,W,0.09,352.03,180411,,,A*66
$GPGGA,112305.999,1444.3269,S,07434.3234,W,1,07,1.1,3467.7,M,20.9,M,,0000*6A
$GPGSA,M,3,15,12,27,09,17,25,04,,,,,,2.1,1.1,1.8*3A
$GPGSV,3,1,12,15,72,227,37,26,66,042,39,12,42,261,38,27,38,186,38*73
$GPGSV,3,2,12,09,30,203,34,17,22,135,37,02,15,031,,05,13,000,*71
$GPGSV,3,3,12,25,11,289,36,04,11,070,35,18,09,247,,29,00,331,*75
$GPRMC,112305.999,A,1444.3269,S,07434.3234,W,0.50,7.87,180411,,,A*65
$GPGGA,112307.001,1444.3269,S,07434.3232,W,1,07,1.1,3467.7,M,20.9,M,,0000*66
$GPGSA,M,3,15,12,27,09,17,25,04,,,,,,2.1,1.1,1.8*3A
$GPRMC,112307.001,A,1444.3269,S,07434.3232,W,0.37,171.22,180411,,,A*67
$GPGGA,112308.003,1444.3268,S,07434.3231,W,1,07,1.1,3468.1,M,20.9,M,,0000*60
$GPGSA,M,3,15,12,27,09,17,25,04,,,,,,2.1,1.1,1.8*3A
$GPRMC,112308.003,A,1444.3268,S,07434.3231,W,0.46,68.29,180411,,,A*5C
$GPGGA,112308.999,1444.3268,S,07434.3230,W,1,07,1.1,3468.3,M,20.9,M,,0000*69
$GPGSA,M,3,15,12,27,09,17,25,04,,,,,,2.1,1.1,1.8*3A
$GPRMC,112308.999,A,1444.3268,S,07434.3230,W,0.09,185.48,180411,,,A*69
$GPGGA,112309.999,1444.3268,S,07434.3230,W,1,07,1.1,3468.2,M,20.9,M,,0000*69
$GPGSA,M,3,15,12,27,09,17,25,04,,,,,,2.1,1.1,1.8*3A
$GPRMC,112309.999,A,1444.3268,S,07434.3230,W,0.26,259.68,180411,,,A*65
$GPGGA,112311.000,1444.3269,S,07434.3231,W,1,07,1.1,3468.2,M,20.9,M,,0000*69
$GPGSA,M,3,15,12,27,09,17,25,04,,,,,,2.1,1.1,1.8*3A
$GPGSV,3,1,12,15,72,227,37,26,66,042,41,12,42,261,39,27,38,186,36*73
$GPGSV,3,2,12,09,30,203,33,17,22,135,38,02,15,031,,05,13,000,*79
$GPGSV,3,3,12,25,11,289,37,04,11,070,35,18,09,247,,29,00,331,*74
$GPRMC,112311.000,A,1444.3269,S,07434.3231,W,0.38,234.07,180411,,,A*68
$GPGGA,112311.998,1444.3272,S,07434.3232,W,1,07,1.1,3467.9,M,20.9,M,,0000*6C
$GPGSA,M,3,15,12,27,09,17,25,04,,,,,,2.1,1.1,1.8*3A
$GPRMC,112311.998,A,1444.3272,S,07434.3232,W,0.40,186.45,180411,,,A*6A
$GPGGA,112313.002,1444.3272,S,07434.3233,W,1,07,1.1,3467.4,M,20.9,M,,0000*68
$GPGSA,M,3,15,12,27,09,17,25,04,,,,,,2.1,1.1,1.8*3A
$GPRMC,112313.002,A,1444.3272,S,07434.3233,W,0.25,30.27,180411,,,A*58
$GPGGA,112313.999,1444.3269,S,07434.3232,W,1,07,1.1,3468.0,M,20.9,M,,0000*63
$GPGSA,M,3,15,12,27,09,17,25,04,,,,,,2.1,1.1,1.8*3A
$GPRMC,112313.999,A,1444.3269,S,07434.3232,W,0.90,36.71,180411,,,A*53
$GPGGA,112315.002,1444.3269,S,07434.3231,W,1,07,1.1,3468.3,M,20.9,M,,0000*6E
$GPGSA,M,3,15,12,27,09,17,25,04,,,,,,2.1,1.1,1.8*3A
$GPRMC,112315.002,A,1444.3269,S,07434.3231,W,0.79,178.83,180411,,,A*6C
$GPGGA,112316.003,1444.3270,S,07434.3230,W,1,07,1.1,3468.3,M,20.9,M,,0000*65
$GPGSA,M,3,15,12,27,09,17,25,04,,,,,,2.1,1.1,1.8*3A
$GPGSV,3,1,12,15,72,227,37,26,66,042,41,12,42,261,38,27,38,186,39*7D
$GPGSV,3,2,12,09,30,203,32,17,22,135,38,02,15,031,,05,13,000,*78
$GPGSV,3,3,12,25,11,289,35,04,11,070,33,18,09,247,,29,00,331,*70
$GPRMC,112316.003,A,1444.3270,S,07434.3230,W,0.36,166.93,180411,,,A*62
$GPGGA,112316.996,1444.3271,S,07434.3230,W,1,06,1.3,3468.4,M,20.9,M,,0000*65
$GPGSA,M,3,15,12,27,17,25,04,,,,,,,2.3,1.3,1.9*32
$GPRMC,112316.996,A,1444.3271,S,07434.3230,W,0.63,198.48,180411,,,A*61
$GPGGA,112318.001,1444.3271,S,07434.3231,W,1,07,1.1,3468.1,M,20.9,M,,0000*6B
$GPGSA,M,3,15,12,27,09,17,25,04,,,,,,2.1,1.1,1.8*3A
$GPRMC,112318.001,A,1444.3271,S,07434.3231,W,0.26,14.03,180411,,,A*52
$GPGGA,112319.006,1444.3270,S,07434.3231,W,1,07,1.1,3467.9,M,20.9,M,,0000*6B
$GPGSA,M,3,15,12,27,09,17,25,04,,,,,,2.1,1.1,1.8*3A
$GPRMC,112319.006,A,1444.3270,S,07434.3231,W,0.23,82.91,180411,,,A*54
$GPGGA,112319.995,1444.3269,S,07434.3232,W,1,07,1.1,3468.4,M,20.9,M,,0000*61
$GPGSA,M,3,15,12,27,09,17,25,04,,,,,,2.1,1.1,1.8*3A
$GPRMC,112319.995,A,1444.3269,S,07434.3232,W,0.43,150.07,180411,,,A*6B
$GPGGA,112320.999,1444.3270,S,07434.3231,W,1,07,1.1,3468.3,M,20.9,M,,0000*6B
$GPGSA,M,3,15,12,27,09,17,25,04,,,,,,2.1,1.1,1.8*3A
$GPGSV,3,1,12,15,72,227,37,26,66,042,39,12,42,261,37,27,38,186,38*7C
$GPGSV,3,2,12,09,30,203,30,17,22,135,38,02,15,031,,05,13,000,*7A
$GPGSV,3,3,12,25,11,289,32,04,11,070,31,18,09,247,27,29,00,331,*70
$GPRMC,112320.999,A,1444.3270,S,07434.3231,W,0.60,187.05,180411,,,A*6F
$GPGGA,112322.003,1444.3269,S,07434.3231,W,1,07,1.1,3468.5,M,20.9,M,,0000*6D
$GPGSA,M,3,15,12,27,09,17,25,04,,,,,,2.1,1.1,1.8*3A
$GPRMC,112322.003,A,1444.3269,S,07434.3231,W,0.26,23.30,180411,,,A*54
$GPGGA,112322.996,1444.3267,S,07434.3233,W,1,07,1.1,3468.4,M,20.9,M,,0000*65
$GPGSA,M,3,15,12,27,09,17,25,04,,,,,,2.1,1.1,1.8*3A
$GPRMC,112322.996,A,1444.3267,S,07434.3233,W,0.08,301.48,180411,,,A*6D
$GPGGA,112324.004,1444.3269,S,07434.3232,W,1,07,1.1,3467.9,M,20.9,M,,0000*6C
$GPGSA,M,3,15,12,27,09,17,25,04,,,,,,2.1,1.1,1.8*3A
$GPRMC,112324.004,A,1444.3269,S,07434.3232,W,0.34,155.46,180411,,,A*64
$GPGGA,112324.999,1444.3271,S,07434.3231,W,1,07,1.1,3467.4,M,20.9,M,,0000*66
$GPGSA,M,3,15,12,27,09,17,25,04,,,,,,2.1,1.1,1.8*3A
$GPRMC,112324.999,A,1444.3271,S,07434.3231,W,0.63,182.94,180411,,,A*64
$GPGGA,112325.999,1444.3272,S,07434.3231,W,1,07,1.1,3467.2,M,20.9,M,,0000*62
$GPGSA,M,3,15,12,27,09,17,25,04,,,,,,2.1,1.1,1.8*3A
$GPGSV,3,1,12,15,72,227,37,26,66,042,40,12,42,261,40,27,38,186,38*72
$GPGSV,3,2,12,09,30,203,29,17,22,135,38,02,15,031,,05,13,000,*72
$GPGSV,3,3,12,25,11,289,36,04,11,070,35,18,09,247,30,29,00,331,*76
$GPRMC,112325.999,A,1444.3272,S,07434.3231,W,0.84,191.47,180411,,,A*63
$GPGGA,112327.000,1444.3276,S,07434.3230,W,1,07,1.1,3467.0,M,20.9,M,,0000*6E
$GPGSA,M,3,15,12,27,09,17,25,04,,,,,,2.1,1.1,1.8*3A
$GPRMC,112327.000,A,1444.3276,S,07434.3230,W,0.35,76.55,180411,,,A*5C
$GPGGA,112328.001,1444.3276,S,07434.3229,W,1,06,1.3,3466.8,M,20.9,M,,0000*62
$GPGSA,M,3,15,12,27,17,25,04,,,,,,,2.3,1.3,1.9*32
$GPRMC,112328.001,A,1444.3276,S,07434.3229,W,0.45,41.18,180411,,,A*50
$GPGGA,112328.999,1444.3275,S,07434.3226,W,1,07,1.1,3467.1,M,20.9,M,,0000*6D
$GPGSA,M,3,15,12,27,09,17,25,04,,,,,,2.1,1.1,1.8*3A
$GPRMC,112328.999,A,1444.3275,S,07434.3226,W,0.22,19.29,180411,,,A*5A
$GPGGA,112330.000,1444.3274,S,07434.3226,W,1,07,1.1,3466.6,M,20.9,M,,0000*6A
$GPGSA,M,3,15,12,27,09,17,25,04,,,,,,2.1,1.1,1.8*3A
$GPRMC,112330.000,A,1444.3274,S,07434.3226,W,0.07,135.03,180411,,,A*6B
$GPGGA,112331.001,1444.3273,S,07434.3225,W,1,07,1.1,3467.2,M,20.9,M,,0000*6B
$GPGSA,M,3,15,12,27,09,17,25,04,,,,,,2.1,1.1,1.8*3A
$GPGSV,3,1,12,15,72,227,38,26,66,042,41,12,42,261,39,27,38,186,38*72
$GPGSV,3,2,12,09,30,203,35,17,22,135,39,02,15,031,27,05,13,000,*7B
$GPGSV,3,3,12,25,11,289,34,04,11,070,36,18,09,247,29,29,00,331,*7F
$GPRMC,112331.001,A,1444.3273,S,07434.3225,W,0.18,343.76,180411,,,A*60
$GPGGA,112331.998,1444.3273,S,07434.3226,W,1,07,1.1,3467.2,M,20.9,M,,0000*61
$GPGSA,M,3,15,12,27,09,17,25,04,,,,,,2.1,1.1,1.8*3A
$GPRMC,112331.998,A,1444.3273,S,07434.3226,W,0.13,32.23,180411,,,A*54
$GPGGA,112333.000,1444.3275,S,07434.3226,W,1,06,1.3,3467.2,M,20.9,M,,0000*6E
$GPGSA,M,3,15,12,27,17,25,04,,,,,,,2.3,1.3,1.9*32
$GPRMC,112333.000,A,1444.3275,S,07434.3226,W,0.63,184.65,180411,,,A*61
$GPGGA,112334.002,1444.3275,S,07434.3227,W,1,07,1.1,3467.4,M,20.9,M,,0000*6F
$GPGSA,M,3,15,12,27,09,17,25,04,,,,,,2.1,1.1,1.8*3A
$GPRMC,112334.002,A,1444.3275,S,07434.3227,W,0.37,137.12,180411,,,A*6C
$GPGGA,112335.000,1444.3273,S,07434.3226,W,1,07,1.1,3467.9,M,20.9,M,,0000*66
$GPGSA,M,3,15,12,27,09,17,25,04,,,,,,2.1,1.1,1.8*3A
$GPRMC,112335.000,A,1444.3273,S,07434.3226,W,0.08,23.87,180411,,,A*5C
$GPGGA,112336.002,1444.3272,S,07434.3225,W,1,07,1.1,3468.3,M,20.9,M,,0000*60
$GPGSA,M,3,15,12,27,09,17,25,04,,,,,,2.1,1.1,1.8*3A
$GPGSV,3,1,12,15,72,227,37,26,66,042,38,12,42,261,38,27,38,186,38*72
$GPGSV,3,2,12,09,30,203,32,17,22,135,37,02,15,031,24,05,13,000,*71
$GPGSV,3,3,12,25,11,289,36,04,11,070,32,18,09,247,24,29,00,331,*74
$GPRMC,112336.002,A,1444.3272,S,07434.3225,W,0.08,274.70,180411,,,A*67
$GPGGA,112337.001,1444.3273,S,07434.3225,W,1,07,1.1,3467.9,M,20.9,M,,0000*66
$GPGSA,M,3,15,12,27,09,17,25,04,,,,,,2.1,1.1,1.8*3A
$GPRMC,112337.001,A,1444.3273,S,07434.3225,W,0.23,34.15,180411,,,A*58
$GPGGA,112337.998,1444.3273,S,07434.3226,W,1,07,1.1,3467.8,M,20.9,M,,0000*6D
$GPGSA,M,3,15,12,27,09,17,25,04,,,,,,2.1,1.1,1.8*3A
$GPRMC,112337.998,A,1444.3273,S,07434.3226,W,0.11,92.99,180411,,,A*5B
$GPGGA,112339.003,1444.3273,S,07434.3228,W,1,07,1.1,3466.9,M,20.9,M,,0000*66
$GPGSA,M,3,15,12,27,09,17,25,04,,,,,,2.1,1.1,1.8*3A
$GPRMC,112339.003,A,1444.3273,S,07434.3228,W,0.14,17.53,180411,,,A*5E
$GPGGA,112339.997,1444.3274,S,07434.3229,W,1,07,1.1,3466.3,M,20.9,M,,0000*6E
$GPGSA,M,3,15,12,27,09,17,25,04,,,,,,2.1,1.1,1.8*3A
$GPRMC,112339.997,A,1444.3274,S,07434.3229,W,0.42,163.17,180411,,,A*6D
$GPGGA,112341.001,1444.3273,S,07434.3230,W,1,07,1.1,3466.8,M,20.9,M,,0000*63
$GPGSA,M,3,15,12,27,09,17,25,04,,,,,,2.1,1.1,1.8*3A
$GPGSV,3,1,12,15,72,227,37,26,66,042,40,12,42,261,39,27,38,186,39*7D
$GPGSV,3,2,12,09,30,203,35,17,22,135,38,02,15,031,28,05,13,000,*75
$GPGSV,3,3,12,25,11,289,37,04,11,070,34,18,09,247,27,29,00,331,*70
$GPRMC,112341.001,A,1444.3273,S,07434.3230,W,0.42,198.90,180411,,,A*60
$GPGGA,112341.998,1444.3276,S,07434.3231,W,1,07,1.1,3466.5,M,20.9,M,,0000*63
$GPGSA,M,3,15,12,27,09,17,25,04,,,,,,2.1,1.1,1.8*3A
$GPRMC,112341.998,A,1444.3276,S,07434.3231,W,0.44,204.23,180411,,,A*65
$GPGGA,112343.002,1444.3273,S,07434.3230,W,1,07,1.1,3467.6,M,20.9,M,,0000*6D
$GPGSA,M,3,15,12,27,09,17,25,04,,,,,,2.1,1.1,1.8*3A
$GPRMC,112343.002,A,1444.3273,S,07434.3230,W,0.33,108.02,180411,,,A*65
$GPGGA,112343.999,1444.3276,S,07434.3231,W,1,07,1.1,3466.9,M,20.9,M,,0000*6C
$GPGSA,M,3,15,12,27,09,17,25,04,,,,,,2.1,1.1,1.8*3A
$GPRMC,112343.999,A,1444.3276,S,07434.3231,W,0.16,83.43,180411,,,A*5A
$GPGGA,112345.002,1444.3272,S,07434.3230,W,1,07,1.1,3467.4,M,20.9,M,,0000*68
$GPGSA,M,3,15,12,27,09,17,25,04,,,,,,2.1,1.1,1.8*3A
$GPRMC,112345.002,A,1444.3272,S,07434.3230,W,0.24,103.16,180411,,,A*6A
$GPGGA,112345.999,1444.3273,S,07434.3233,W,1,07,1.1,3466.8,M,20.9,M,,0000*6C
$GPGSA,M,3,15,12,27,09,17,25,04,,,,,,2.1,1.1,1.8*3A
$GPGSV,3,1,12,15,72,227,38,26,66,042,39,12,42,261,39,27,38,186,38*7D
$GPGSV,3,2,12,09,30,203,27,17,22,135,37,02,15,031,30,05,13,000,*70
$GPGSV,3,3,12,25,11,289,35,04,11,070,38,18,09,247,31,29,00,331,*79
$GPRMC,112345.999,A,1444.3273,S,07434.3233,W,0.21,11.44,180411,,,A*53
$GPGGA,112346.997,1444.3271,S,07434.3234,W,1,07,1.1,3467.3,M,20.9,M,,0000*6E
$GPGSA,M,3,15,12,27,09,17,25,04,,,,,,2.1,1.1,1.8*3A
$GPRMC,112346.997,A,1444.3271,S,07434.3234,W,0.36,203.05,180411,,,A*69
$GPGGA,112347.999,1444.3272,S,07434.3232,W,1,07,1.1,3467.9,M,20.9,M,,0000*6E
$GPGSA,M,3,15,12,27,09,17,25,04,,,,,,2.1,1.1,1.8*3A
$GPRMC,112347.999,A,1444.3272,S,07434.3232,W,0.26,227.05,180411,,,A*64
$GPGGA,112349.001,1444.3275,S,07434.3234,W,1,07,1.1,3466.9,M,20.9,M,,0000*68
$GPGSA,M,3,15,12,27,09,17,25,04,,,,,,2.1,1.1,1.8*3A
$GPRMC,112349.001,A,1444.3275,S,07434.3234,W,0.65,232.97,180411,,,A*6B
$GPGGA,112350.004,1444.3275,S,07434.3233,W,1,06,1.3,3466.5,M,20.9,M,,0000*6D
$GPGSA,M,3,15,12,27,17,25,04,,,,,,,2.3,1.3,1.9*32
$GPRMC,112350.004,A,1444.3275,S,07434.3233,W,0.09,235.12,180411,,,A*61
$GPGGA,112351.000,1444.3277,S,07434.3234,W,1,07,1.1,3465.8,M,20.9,M,,0000*60
$GPGSA,M,3,15,12,27,09,17,25,04,,,,,,2.1,1.1,1.8*3A
$GPGSV,3,1,12,15,72,227,37,26,66,042,39,12,42,261,39,27,38,186,37*7D
$GPGSV,3,2,12,09,30,203,26,17,22,135,38,02,15,031,27,05,13,000,*78
$GPGSV,3,3,12,25,11,289,35,04,11,070,35,18,09,247,,29,00,331,*76
$GPRMC,112351.000,A,1444.3277,S,07434.3234,W,0.43,170.34,180411,,,A*69
$GPGGA,112352.005,1444.3279,S,07434.3234,W,1,07,1.1,3464.8,M,20.9,M,,0000*69
$GPGSA,M,3,15,12,27,09,17,25,04,,,,,,2.1,1.1,1.8*3A
$GPRMC,112352.005,A,1444.3279,S,07434.3234,W,0.20,341.85,180411,,,A*6E
$GPGGA,112352.993,1444.3281,S,07434.3235,W,1,07,1.1,3464.6,M,20.9,M,,0000*67
$GPGSA,M,3,15,12,27,09,17,25,04,,,,,,2.1,1.1,1.8*3A
$GPRMC,112352.993,A,1444.3281,S,07434.3235,W,0.28,192.60,180411,,,A*61
$GPGGA,112353.998,1444.3282,S,07434.3235,W,1,07,1.1,3464.3,M,20.9,M,,0000*6B
$GPGSA,M,3,15,12,27,09,17,25,04,,,,,,2.1,1.1,1.8*3A
$GPRMC,112353.998,A,1444.3282,S,07434.3235,W,0.28,295.01,180411,,,A*6B
$GPGGA,112355.005,1444.3282,S,07434.3235,W,1,06,1.5,3464.3,M,20.9,M,,0000*65
$GPGSA,M,3,15,12,27,09,17,04,,,,,,,3.0,1.5,2.6*34
$GPRMC,112355.005,A,1444.3282,S,07434.3235,W,0.22,132.93,180411,,,A*6F
$GPGGA,112355.999,1444.3281,S,07434.3235,W,1,07,1.1,3464.2,M,20.9,M,,0000*6E
$GPGSA,M,3,15,12,27,09,17,25,04,,,,,,2.1,1.1,1.8*3A
$GPGSV,3,1,12,15,72,227,31,26,66,042,40,12,42,261,33,27,38,186,38*70
$GPGSV,3,2,12,09,30,203,35,17,22,135,38,02,15,031,28,05,13,000,*75
$GPGSV,3,3,12,25,11,289,38,04,11,070,37,18,09,247,,29,00,331,*79
$GPRMC,112355.999,A,1444.3281,S,07434.3235,W,0.18,51.59,180411,,,A*5B
$GPGGA,112357.004,1444.3280,S,07434.3234,W,1,07,1.1,3464.4,M,20.9,M,,0000*67
$GPGSA,M,3,15,12,27,09,17,25,04,,,,,,2.1,1.1,1.8*3A
$GPRMC,112357.004,A,1444.3280,S,07434.3234,W,0.17,198.89,180411,,,A*62
$GPGGA,112357.994,1444.3279,S,07434.3233,W,1,07,1.1,3465.5,M,20.9,M,,0000*66
$GPGSA,M,3,15,12,27,09,17,25,04,,,,,,2.1,1.1,1.8*3A
$GPRMC,112357.994,A,1444.3279,S,07434.3233,W,0.10,168.57,180411,,,A*68
$GPGGA,112359.001,1444.3280,S,07434.3233,W,1,07,1.1,3465.4,M,20.9,M,,0000*6A
$GPGSA,M,3,15,12,27,09,17,25,04,,,,,,2.1,1.1,1.7*35
$GPRMC,112359.001,A,1444.3280,S,07434.3233,W,0.05,339.59,180411,,,A*69
$GPGGA,112359.999,1444.3280,S,07434.3233,W,1,07,1.1,3465.9,M,20.9,M,,0000*6F
$GPGSA,M,3,15,12,27,09,17,25,04,,,,,,2.1,1.1,1.7*35
$GPRMC,112359.999,A,1444.3280,S,07434.3233,W,0.09,105.48,180411,,,A*60
$GPGGA,112401.000,1444.3277,S,07434.3233,W,1,07,1.1,3466.1,M,20.9,M,,0000*6F
$GPGSA,M,3,15,12,27,09,17,25,04,,,,,,2.1,1.1,1.7*35
$GPGSV,3,1,12,15,72,227,39,26,66,042,40,12,42,261,37,27,38,186,31*75
$GPGSV,3,2,12,09,30,203,29,17,22,135,38,02,15,031,30,05,13,000,*71
$GPGSV,3,3,12,25,11,289,37,04,11,070,35,18,09,247,29,29,00,331,*7F
$GPRMC,112401.000,A,1444.3277,S,07434.3233,W,0.65,335.40,180411,,,A*68
$GPGGA,112402.000,1444.3273,S,07434.3234,W,1,07,1.1,3466.1,M,20.9,M,,0000*6F
$GPGSA,M,3,15,12,27,09,17,25,04,,,,,,2.1,1.1,1.7*35
$GPRMC,112402.000,A,1444.3273,S,07434.3234,W,0.77,343.01,180411,,,A*6F
$GPGGA,112403.002,1444.3272,S,07434.3234,W,1,06,1.3,3466.2,M,20.9,M,,0000*6D
$GPGSA,M,3,15,12,27,17,25,04,,,,,,,2.3,1.3,1.9*32
$GPRMC,112403.002,A,1444.3272,S,07434.3234,W,0.08,208.17,180411,,,A*6C
$GPGGA,112404.000,1444.3271,S,07434.3234,W,1,06,1.3,3466.2,M,20.9,M,,0000*6B
$GPGSA,M,3,15,12,27,17,25,04,,,,,,,2.3,1.3,1.9*32
$GPRMC,112404.000,A,1444.3271,S,07434.3234,W,0.16,89.37,180411,,,A*5C
$GPGGA,112405.000,1444.3266,S,07434.3234,W,1,06,1.3,3467.7,M,20.9,M,,0000*68
$GPGSA,M,3,15,12,27,17,25,04,,,,,,,2.3,1.3,1.9*32
$GPRMC,112405.000,A,1444.3266,S,07434.3234,W,0.32,22.63,180411,,,A*5D
$GPGGA,112405.998,1444.3266,S,07434.3233,W,1,07,1.1,3467.5,M,20.9,M,,0000*66
$GPGSA,M,3,15,12,27,09,17,25,04,,,,,,2.1,1.1,1.7*35
$GPGSV,3,1,12,15,72,227,39,26,66,042,38,12,42,261,38,27,38,186,36*72
$GPGSV,3,2,12,09,30,203,28,17,22,135,35,02,15,031,29,05,13,000,*75
$GPGSV,3,3,12,25,11,289,38,04,11,070,36,18,09,247,27,29,00,331,*7D
$GPRMC,112405.998,A,1444.3266,S,07434.3233,W,0.19,279.19,180411,,,A*6A
$GPGGA,112407.002,1444.3265,S,07434.3234,W,0,00,,3467.6,M,20.9,M,,0000*41
$GPGSA,M,1,,,,,,,,,,,,,,,*12
$GPRMC,112407.002,V,1444.3265,S,07434.3234,W,,,180411,,,N*72
$GPGGA,112408.000,1444.3265,S,07434.3234,W,0,00,,3467.8,M,20.9,M,,0000*42
$GPGSA,M,1,,,,,,,,,,,,,,,*12
$GPRMC,112408.000,V,1444.3265,S,07434.3234,W,,,180411,,,N*7F
$GPGGA,112409.000,1444.3249,S,07434.3226,W,1,06,1.3,3467.1,M,20.9,M,,0000*6C
$GPGSA,M,3,15,12,27,17,25,04,,,,,,,2.3,1.3,1.9*32
$GPRMC,112409.000,A,1444.3249,S,07434.3226,W,1.24,94.15,180411,,,A*55
$GPGGA,112410.000,1444.3251,S,07434.3229,W,1,07,1.1,3466.9,M,20.9,M,,0000*68
$GPGSA,M,3,15,12,27,17,25,04,09,,,,,,2.1,1.1,1.7*35
$GPGSV,3,1,12,15,73,229,37,12,42,260,41,27,38,185,36,09,30,203,38*76
$GPGSV,3,2,12,17,22,135,37,25,11,289,39,04,11,071,34,26,66,041,42*72
$GPGSV,3,3,12,02,16,032,29,05,12,001,,18,09,248,,29,01,331,*77
$GPRMC,112410.000,A,1444.3251,S,07434.3229,W,0.08,60.10,180411,,,A*5A
$GPGGA,112411.000,1444.3257,S,07434.3229,W,1,07,1.1,3467.6,M,20.9,M,,0000*61
$GPGSA,M,3,15,12,27,17,25,04,09,,,,,,2.1,1.1,1.7*35
$GPRMC,112411.000,A,1444.3257,S,07434.3229,W,0.01,153.40,180411,,,A*60
$GPGGA,112412.000,1444.3264,S,07434.3229,W,1,07,1.1,3467.6,M,20.9,M,,0000*62
$GPGSA,M,3,15,12,27,17,25,04,09,,,,,,2.1,1.1,1.7*35
$GPRMC,112412.000,A,1444.3264,S,07434.3229,W,0.03,159.99,180411,,,A*6F
$GPGGA,112413.000,1444.3266,S,07434.3230,W,1,07,1.1,3466.9,M,20.9,M,,0000*67
$GPGSA,M,3,15,12,27,17,25,04,09,,,,,,2.1,1.1,1.7*35
$GPRMC,112413.000,A,1444.3266,S,07434.3230,W,0.12,15.07,180411,,,A*5A
$GPGGA,112414.000,1444.3265,S,07434.3228,W,1,07,1.1,3467.3,M,20.9,M,,0000*61
$GPGSA,M,3,15,12,27,17,25,04,09,,,,,,2.1,1.1,1.7*35
$GPRMC,112414.000,A,1444.3265,S,07434.3228,W,0.15,28.12,180411,,,A*5A
$GPGGA,112415.000,1444.3266,S,07434.3228,W,1,07,1.1,3467.4,M,20.9,M,,0000*64
$GPGSA,M,3,15,12,27,17,25,04,09,,,,,,2.1,1.1,1.7*35
$GPGSV,3,1,12,15,73,229,36,12,42,260,41,27,38,185,41,09,30,203,36*79
$GPGSV,3,2,12,17,22,135,38,25,11,289,39,04,11,071,35,26,66,041,45*7B
$GPGSV,3,3,12,02,16,032,31,05,12,001,,18,09,248,,29,01,331,*7E
$GPRMC,112415.000,A,1444.3266,S,07434.3228,W,0.03,95.59,180411,,,A*56
$GPGGA,112416.000,1444.3268,S,07434.3229,W,1,07,1.1,3467.1,M,20.9,M,,0000*6D
$GPGSA,M,3,15,12,27,17,25,04,09,,,,,,2.1,1.1,1.7*35
$GPRMC,112416.000,A,1444.3268,S,07434.3229,W,0.09,34.00,180411,,,A*57
$GPGGA,112417.000,1444.3268,S,07434.3228,W,1,07,1.1,3467.5,M,20.9,M,,0000*69
$GPGSA,M,3,15,12,27,17,25,04,09,,,,,,2.1,1.1,1.7*35
$GPRMC,112417.000,A,1444.3268,S,07434.3228,W,0.12,23.41,180411,,,A*5E
$GPGGA,112418.000,1444.3269,S,07434.3228,W,1,07,1.1,3467.9,M,20.9,M,,0000*6B
$GPGSA,M,3,15,12,27,17,25,04,09,,,,,,2.1,1.1,1.7*35
$GPRMC,112418.000,A,1444.3269,S,07434.3228,W,0.11,37.71,180411,,,A*55
$GPGGA,112419.000,1444.3268,S,07434.3227,W,1,07,1.1,3468.3,M,20.9,M,,0000*61
$GPGSA,M,3,15,12,27,17,25,04,09,,,,,,2.1,1.1,1.7*35
$GPRMC,112419.000,A,1444.3268,S,07434.3227,W,0.10,43.14,180411,,,A*5B
$GPGGA,112420.000,1444.3269,S,07434.3227,W,1,07,1.1,3468.6,M,20.9,M,,0000*6F
$GPGSA,M,3,15,12,27,09,17,25,04,,,,,,2.1,1.1,1.7*35
$GPRMC,112420.000,A,1444.3269,S,07434.3227,W,0.49,226.17,180411,,,A*6E
$GPGGA,112421.001,1444.3268,S,07434.3227,W,1,07,1.1,3468.6,M,20.9,M,,0000*6E
$GPGSA,M,3,15,12,27,09,17,25,04,,,,,,2.1,1.1,1.7*35
$GPGSV,3,1,12,15,73,229,32,26,66,040,41,12,42,260,39,27,38,185,37*78
$GPGSV,3,2,12,09,30,203,34,17,22,135,37,02,16,032,30,05,12,001,*72
$GPGSV,3,3,12,25,11,289,37,04,11,071,36,18,09,248,,29,01,331,*78
$GPRMC,112421.001,A,1444.3268,S,07434.3227,W,0.37,350.66,180411,,,A*60
$GPGGA,112422.001,1444.3268,S,07434.3227,W,1,07,1.1,3468.6,M,20.9,M,,0000*6D
$GPGSA,M,3,15,12,27,09,17,25,04,,,,,,2.1,1.1,1.7*35
$GPRMC,112422.001,A,1444.3268,S,07434.3227,W,0.29,170.61,180411,,,A*6B
$GPGGA,112423.002,1444.3270,S,07434.3226,W,1,07,1.1,3468.6,M,20.9,M,,0000*67
$GPGSA,M,3,15,12,27,09,17,25,04,,,,,,2.1,1.1,1.7*35
$GPRMC,112423.002,A,1444.3270,S,07434.3226,W,0.27,96.32,180411,,,A*50
$GPGGA,112423.998,1444.3270,S,07434.3225,W,1,07,1.1,3468.7,M,20.9,M,,0000*6F
$GPGSA,M,3,15,12,27,09,17,25,04,,,,,,2.1,1.1,1.7*35
$GPRMC,112423.998,A,1444.3270,S,07434.3225,W,0.11,352.89,180411,,,A*67
$GPGGA,112425.001,1444.3269,S,07434.3225,W,1,07,1.1,3468.8,M,20.9,M,,0000*67
$GPGSA,M,3,15,12,27,09,17,25,04,,,,,,2.1,1.1,1.7*35
$GPRMC,112425.001,A,1444.3269,S,07434.3225,W,0.05,179.86,180411,,,A*61
$GPGGA,112426.003,1444.3269,S,07434.3224,W,1,07,1.1,3469.0,M,20.9,M,,0000*6E
$GPGSA,M,3,15,12,27,09,17,25,04,,,,,,2.1,1.1,1.7*35
$GPGSV,3,1,12,15,73,229,38,26,66,040,40,12,42,260,38,27,38,185,36*73
$GPGSV,3,2,12,09,30,203,32,17,22,135,35,02,16,032,31,05,12,001,*77
$GPGSV,3,3,12,25,11,289,36,04,11,071,36,18,09,248,27,29,01,331,*7C
$GPRMC,112426.003,A,1444.3269,S,07434.3224,W,0.13,319.44,180411,,,A*6C
$GPGGA,112426.998,1444.3268,S,07434.3224,W,1,07,1.1,3469.0,M,20.9,M,,0000*64
$GPGSA,M,3,15,12,27,09,17,25,04,,,,,,2.1,1.1,1.7*35
$GPRMC,112426.998,A,1444.3268,S,07434.3224,W,0.32,64.34,180411,,,A*5B
$GPGGA,112428.003,1444.3268,S,07434.3223,W,1,07,1.1,3469.8,M,20.9,M,,0000*6E
$GPGSA,M,3,15,12,27,09,17,25,04,,,,,,2.1,1.1,1.7*35
$GPRMC,112428.003,A,1444.3268,S,07434.3223,W,0.16,194.62,180411,,,A*62
$GPGGA,112428.998,1444.3268,S,07434.3223,W,1,07,1.1,3469.4,M,20.9,M,,0000*69
$GPGSA,M,3,15,12,27,09,17,25,04,,,,,,2.1,1.1,1.7*35
$GPRMC,112428.998,A,1444.3268,S,07434.3223,W,0.20,55.66,180411,,,A*54
$GPGGA,112430.001,1444.3268,S,07434.3224,W,1,07,1.1,3469.2,M,20.9,M,,0000*68
$GPGSA,M,3,15,12,27,09,17,25,04,,,,,,2.1,1.1,1.7*35
$GPRMC,112430.001,A,1444.3268,S,07434.3224,W,0.07,314.70,180411,,,A*67
$GPGGA,112430.999,1444.3270,S,07434.3224,W,1,07,1.1,3468.5,M,20.9,M,,0000*6F
$GPGSA,M,3,15,12,27,09,17,25,04,,,,,,2.1,1.1,1.7*35
$GPGSV,3,1,12,15,73,229,38,26,66,040,40,12,42,260,38,27,38,185,37*72
$GPGSV,3,2,12,09,30,203,30,17,22,135,34,02,16,032,31,05,12,001,*74
$GPGSV,3,3,12,25,11,289,35,04,11,071,36,18,09,248,,29,01,331,*7A
$GPRMC,112430.999,A,1444.3270,S,07434.3224,W,0.10,267.58,180411,,,A*6F
$GPGGA,112432.000,1444.3271,S,07434.3224,W,1,07,1.1,3468.4,M,20.9,M,,0000*64
$GPGSA,M,3,15,12,27,09,17,25,04,,,,,,2.1,1.1,1.7*35
$GPRMC,112432.000,A,1444.3271,S,07434.3224,W,0.39,223.16,180411,,,A*64
$GPGGA,112432.998,1444.3271,S,07434.3224,W,1,07,1.1,3468.3,M,20.9,M,,0000*6B
$GPGSA,M,3,15,12,27,09,17,25,04,,,,,,2.1,1.1,1.7*35
$GPRMC,112432.998,A,1444.3271,S,07434.3224,W,0.08,177.01,180411,,,A*6A
$GPGGA,112434.000,1444.3272,S,07434.3224,W,1,07,1.1,3467.6,M,20.9,M,,0000*6C
$GPGSA,M,3,15,12,27,09,17,25,04,,,,,,2.1,1.1,1.7*35
$GPRMC,112434.000,A,1444.3272,S,07434.3224,W,0.51,186.18,180411,,,A*6D
$GPGGA,112435.000,1444.3274,S,07434.3224,W,1,07,1.1,3467.4,M,20.9,M,,0000*69
$GPGSA,M,3,15,12,27,09,17,25,04,,,,,,2.1,1.1,1.7*35
$GPRMC,112435.000,A,1444.3274,S,07434.3224,W,0.71,154.20,180411,,,A*6C
$GPGGA,112436.004,1444.3274,S,07434.3223,W,1,07,1.1,3467.7,M,20.9,M,,0000*6A
$GPGSA,M,3,15,12,27,09,17,25,04,,,,,,2.1,1.1,1.7*35
$GPGSV,3,1,12,15,73,229,37,26,66,040,38,12,42,260,37,27,38,185,39*73
$GPGSV,3,2,12,09,30,203,30,17,22,135,38,02,16,032,29,05,12,001,*71
$GPGSV,3,3,12,25,11,289,31,04,11,071,37,18,09,248,31,29,01,331,*7D
$GPRMC,112436.004,A,1444.3274,S,07434.3223,W,0.46,191.57,180411,,,A*61
$GPGGA,112437.000,1444.3274,S,07434.3224,W,1,07,1.1,3467.5,M,20.9,M,,0000*6A
$GPGSA,M,3,15,12,27,09,17,25,04,,,,,,2.1,1.1,1.7*35
$GPRMC,112437.000,A,1444.3274,S,07434.3224,W,0.22,140.68,180411,,,A*61
$GPGGA,112438.000,1444.3274,S,07434.3223,W,1,07,1.1,3467.7,M,20.9,M,,0000*60
$GPGSA,M,3,15,12,27,09,17,25,04,,,,,,2.1,1.1,1.7*35
$GPRMC,112438.000,A,1444.3274,S,07434.3223,W,0.23,147.75,180411,,,A*63
$GPGGA,112439.003,1444.3276,S,07434.3223,W,1,06,1.3,3467.3,M,20.9,M,,0000*67
$GPGSA,M,3,15,12,27,17,25,04,,,,,,,2.3,1.3,1.9*32
$GPRMC,112439.003,A,1444.3276,S,07434.3223,W,0.55,155.82,180411,,,A*69
$GPGGA,112439.997,1444.3275,S,07434.3223,W,1,07,1.1,3467.4,M,20.9,M,,0000*64
$GPGSA,M,3,15,12,27,09,17,25,04,,,,,,2.1,1.1,1.7*35
$GPRMC,112439.997,A,1444.3275,S,07434.3223,W,0.23,13.14,180411,,,A*53
$GPGGA,112440.996,1444.3271,S,07434.3221,W,1,07,1.1,3468.8,M,20.9,M,,0000*6E
$GPGSA,M,3,15,12,27,09,17,25,04,,,,,,2.1,1.1,1.7*35
$GPGSV,3,1,12,15,73,229,41,26,66,040,40,12,42,260,41,27,38,185,38*7D
$GPGSV,3,2,12,09,30,203,38,17,22,135,37,02,16,032,27,05,12,001,*78
$GPGSV,3,3,12,25,11,289,40,04,11,071,35,18,09,248,34,29,01,331,19*74
$GPRMC,112440.996,A,1444.3271,S,07434.3221,W,0.19,269.16,180411,,,A*6E
$GPGGA,112442.004,1444.3272,S,07434.3222,W,1,07,1.1,3469.1,M,20.9,M,,0000*66
$GPGSA,M,3,15,12,27,09,17,25,04,,,,,,2.1,1.1,1.7*35
$GPRMC,112442.004,A,1444.3272,S,07434.3222,W,1.30,264.51,180411,,,A*6A
$GPGGA,112442.995,1444.3270,S,07434.3225,W,1,07,1.1,3469.3,M,20.9,M,,0000*60
$GPGSA,M,3,15,12,27,09,17,25,04,,,,,,2.1,1.1,1.7*35
$GPRMC,112442.995,A,1444.3270,S,07434.3225,W,0.27,336.84,180411,,,A*67
$GPGGA,112444.001,1444.3274,S,07434.3228,W,1,07,1.1,3468.8,M,20.9,M,,0000*61
$GPGSA,M,3,15,12,27,09,17,25,04,,,,,,2.1,1.1,1.7*35
$GPRMC,112444.001,A,1444.3274,S,07434.3228,W,1.69,253.83,180411,,,A*62
$GPGGA,112445.006,1444.3276,S,07434.3233,W,1,07,1.1,3468.2,M,20.9,M,,0000*65
$GPGSA,M,3,15,12,27,09,17,25,04,,,,,,2.1,1.1,1.7*35
$GPRMC,112445.006,A,1444.3276,S,07434.3233,W,1.50,239.12,180411,,,A*62
$GPGGA,112445.999,1444.3277,S,07434.3237,W,1,07,1.1,3468.9,M,20.9,M,,0000*64
$GPGSA,M,3,15,12,27,09,17,25,04,,,,,,2.1,1.1,1.7*35
$GPGSV,3,1,12,15,73,229,41,26,66,040,40,12,42,260,40,27,38,185,38*7C
$GPGSV,3,2,12,09,30,203,36,17,22,135,37,02,16,032,30,05,12,001,*70
$GPGSV,3,3,12,25,11,289,41,04,11,071,37,18,09,248,32,29,01,331,*79
$GPRMC,112445.999,A,1444.3277,S,07434.3237,W,1.53,202.72,180411,,,A*65
$GPGGA,112446.998,1444.3279,S,07434.3237,W,1,07,1.1,3469.4,M,20.9,M,,0000*64
$GPGSA,M,3,15,12,27,09,17,25,04,,,,,,2.1,1.1,1.7*35
$GPRMC,112446.998,A,1444.3279,S,07434.3237,W,0.35,105.61,180411,,,A*6E
$GPGGA,112448.001,1444.3279,S,07434.3236,W,1,07,1.1,3469.8,M,20.9,M,,0000*6E
$GPGSA,M,3,15,12,27,09,17,25,04,,,,,,2.1,1.1,1.7*35
$GPRMC,112448.001,A,1444.3279,S,07434.3236,W,0.09,287.89,180411,,,A*68
$GPGGA,112449.000,1444.3278,S,07434.3236,W,1,07,1.1,3470.1,M,20.9,M,,0000*6E
$GPGSA,M,3,15,12,27,09,17,25,04,,,,,,2.1,1.1,1.7*35
$GPRMC,112449.000,A,1444.3278,S,07434.3236,W,0.18,146.40,180411,,,A*62
$GPGGA,112450.001,1444.3277,S,07434.3239,W,1,07,1.1,3470.4,M,20.9,M,,0000*62
$GPGSA,M,3,15,12,27,09,17,25,04,,,,,,2.1,1.1,1.7*35
$GPRMC,112450.001,A,1444.3277,S,07434.3239,W,0.08,247.02,180411,,,A*6E
$GPGGA,112451.001,1444.3273,S,07434.3238,W,1,07,1.1,3470.7,M,20.9,M,,0000*65
$GPGSA,M,3,15,12,27,09,17,25,04,,,,,,2.1,1.1,1.7*35
$GPGSV,3,1,12,15,73,229,41,26,66,040,40,12,42,260,40,27,38,185,36*72
$GPGSV,3,2,12,09,30,203,37,17,22,135,38,02,16,032,30,05,12,001,*7E
$GPGSV,3,3,12,25,11,289,40,04,11,071,36,18,09,248,36,29,01,331,*7D
$GPRMC,112451.001,A,1444.3273,S,07434.3238,W,0.44,293.69,180411,,,A*66
$GPGGA,112452.001,1444.3275,S,07434.3240,W,1,07,1.1,3470.3,M,20.9,M,,0000*6B
$GPGSA,M,3,15,12,27,09,17,25,04,,,,,,2.1,1.1,1.7*35
$GPRMC,112452.001,A,1444.3275,S,07434.3240,W,0.60,196.48,180411,,,A*6F
$GPGGA,112453.001,1444.3277,S,07434.3240,W,1,07,1.1,3470.1,M,20.9,M,,0000*6A
$GPGSA,M,3,15,12,27,09,17,25,04,,,,,,2.1,1.1,1.7*35
$GPRMC,112453.001,A,1444.3277,S,07434.3240,W,0.58,208.32,180411,,,A*6E
$GPGGA,112454.001,1444.3278,S,07434.3240,W,1,07,1.1,3470.8,M,20.9,M,,0000*6B
$GPGSA,M,3,15,12,27,09,17,25,04,,,,,,2.1,1.1,1.7*35
$GPRMC,112454.001,A,1444.3278,S,07434.3240,W,0.06,332.45,180411,,,A*65
$GPGGA,112455.001,1444.3279,S,07434.3240,W,1,07,1.1,3470.8,M,20.9,M,,0000*6B
$GPGSA,M,3,15,12,27,09,17,25,04,,,,,,2.1,1.1,1.7*35
$GPRMC,112455.001,A,1444.3279,S,07434.3240,W,0.26,210.02,180411,,,A*65
$GPGGA,112456.001,1444.3281,S,07434.3242,W,1,07,1.1,3470.0,M,20.9,M,,0000*65
$GPGSA,M,3,15,12,27,09,17,25,04,,,,,,2.1,1.1,1.7*35
$GPGSV,3,1,12,15,73,229,40,26,66,040,39,12,42,260,41,27,38,185,37*7D
$GPGSV,3,2,12,09,30,203,37,17,22,135,38,02,16,032,28,05,12,001,*77
$GPGSV,3,3,12,25,11,289,40,04,11,071,36,18,09,248,34,29,01,331,*7F
$GPRMC,112456.001,A,1444.3281,S,07434.3242,W,0.16,297.15,180411,,,A*69
$GPGGA,112457.001,1444.3283,S,07434.3243,W,1,07,1.1,3469.3,M,20.9,M,,0000*6C
$GPGSA,M,3,15,12,27,09,17,25,04,,,,,,2.1,1.1,1.7*35
$GPRMC,112457.001,A,1444.3283,S,07434.3243,W,0.26,220.43,180411,,,A*67
$GPGGA,112458.001,1444.3281,S,07434.3241,W,1,07,1.1,3470.7,M,20.9,M,,0000*6F
$GPGSA,M,3,15,12,27,09,17,25,04,,,,,,2.1,1.1,1.7*35
$GPRMC,112458.001,A,1444.3281,S,07434.3241,W,0.17,85.21,180411,,,A*53
$GPGGA,112459.000,1444.3281,S,07434.3241,W,1,07,1.1,3470.7,M,20.9,M,,0000*6F
$GPGSA,M,3,15,12,27,09,17,25,04,,,,,,2.1,1.1,1.7*35
$GPRMC,112459.000,A,1444.3281,S,07434.3241,W,0.25,158.68,180411,,,A*6E
$GPGGA,112500.001,1444.3284,S,07434.3241,W,1,07,1.1,3470.8,M,20.9,M,,0000*69
$GPGSA,M,3,15,12,27,09,17,25,04,,,,,,2.1,1.1,1.7*35
$GPRMC,112500.001,A,1444.3284,S,07434.3241,W,0.36,248.75,180411,,,A*6B
$GPGGA,112501.001,1444.3286,S,07434.3242,W,1,07,1.1,3470.4,M,20.9,M,,0000*65
$GPGSA,M,3,15,12,27,09,17,25,04,,,,,,2.1,1.1,1.7*35
$GPGSV,3,1,12,15,73,229,40,26,66,040,39,12,42,260,40,27,38,185,38*73
$GPGSV,3,2,12,09,30,203,37,17,22,135,38,02,16,032,28,05,12,001,*77
$GPGSV,3,3,12,25,11,289,40,04,11,071,35,18,09,248,34,29,01,331,*7C
$GPRMC,112501.001,A,1444.3286,S,07434.3242,W,0.29,306.65,180411,,,A*6F
$GPGGA,112502.002,1444.3286,S,07434.3242,W,1,07,1.1,3470.2,M,20.9,M,,0000*63
$GPGSA,M,3,15,12,27,09,17,25,04,,,,,,2.1,1.1,1.7*35
$GPRMC,112502.002,A,1444.3286,S,07434.3242,W,0.11,201.07,180411,,,A*66
$GPGGA,112503.001,1444.3289,S,07434.3243,W,1,07,1.1,3470.0,M,20.9,M,,0000*6D
$GPGSA,M,3,15,12,27,09,17,25,04,,,,,,2.1,1.1,1.7*35
$GPRMC,112503.001,A,1444.3289,S,07434.3243,W,0.27,178.71,180411,,,A*63
$GPGGA,112504.001,1444.3291,S,07434.3242,W,1,07,1.1,3469.9,M,20.9,M,,0000*63
$GPGSA,M,3,15,12,27,09,17,25,04,,,,,,2.1,1.1,1.7*35
$GPRMC,112504.001,A,1444.3291,S,07434.3242,W,0.53,217.14,180411,,,A*66
$GPGGA,112505.003,1444.3290,S,07434.3245,W,1,07,1.1,3470.6,M,20.9,M,,0000*61
$GPGSA,M,3,15,12,27,09,17,25,04,,,,,,2.1,1.1,1.7*35
$GPRMC,112505.003,A,1444.3290,S,07434.3245,W,2.61,228.02,180411,,,A*6B
$GPGGA,112505.995,1444.3292,S,07434.3246,W,1,07,1.1,3470.7,M,20.9,M,,0000*67
$GPGSA,M,3,15,12,27,09,17,25,04,,,,,,2.1,1.1,1.7*35
$GPGSV,3,1,12,15,73,229,41,26,66,040,40,12,42,260,41,27,38,185,37*72
$GPGSV,3,2,12,09,30,203,37,17,22,135,39,02,16,032,30,05,12,001,*7F
$GPGSV,3,3,12,25,11,289,38,04,11,071,36,18,09,248,37,29,01,331,*73
$GPRMC,112505.995,A,1444.3292,S,07434.3246,W,0.36,141.98,180411,,,A*63
$GPGGA,112507.001,1444.3293,S,07434.3246,W,1,07,1.1,3471.1,M,20.9,M,,0000*67
$GPGSA,M,3,15,12,27,09,17,25,04,,,,,,2.1,1.1,1.7*35
$GPRMC,112507.001,A,1444.3293,S,07434.3246,W,0.32,279.88,180411,,,A*69
$GPGGA,112508.000,1444.3290,S,07434.3247,W,1,07,1.1,3471.1,M,20.9,M,,0000*6B
$GPGSA,M,3,15,12,27,09,17,25,04,,,,,,2.1,1.1,1.7*35
$GPRMC,112508.000,A,1444.3290,S,07434.3247,W,0.14,192.43,180411,,,A*60
$GPGGA,112509.001,1444.3291,S,07434.3247,W,1,07,1.1,3471.0,M,20.9,M,,0000*6B
$GPGSA,M,3,15,12,27,09,17,25,04,,,,,,2.1,1.1,1.7*35
$GPRMC,112509.001,A,1444.3291,S,07434.3247,W,0.34,186.07,180411,,,A*66
$GPGGA,112510.000,1444.3291,S,07434.3247,W,1,07,1.1,3471.2,M,20.9,M,,0000*60
$GPGSA,M,3,15,12,27,09,17,25,04,,,,,,2.1,1.1,1.7*35
$GPRMC,112510.000,A,1444.3291,S,07434.3247,W,0.50,192.14,180411,,,A*6A
$GPGGA,112511.001,1444.3292,S,07434.3246,W,1,07,1.1,3470.9,M,20.9,M,,0000*68
$GPGSA,M,3,15,12,27,09,17,25,04,,,,,,2.1,1.1,1.7*35
$GPGSV,3,1,12,15,73,229,41,26,66,040,40,12,42,260,40,27,38,185,37*73
$GPGSV,3,2,12,09,30,203,37,17,22,135,38,02,16,032,30,05,12,001,*7E
$GPGSV,3,3,12,25,11,289,38,04,11,071,35,18,09,248,34,29,01,331,*73
$GPRMC,112511.001,A,1444.3292,S,07434.3246,W,0.12,337.72,180411,,,A*63
$GPGGA,112512.000,1444.3291,S,07434.3247,W,1,07,1.1,3471.1,M,20.9,M,,0000*61
$GPGSA,M,3,15,12,27,09,17,25,04,,,,,,2.1,1.1,1.7*35
$GPRMC,112512.000,A,1444.3291,S,07434.3247,W,0.35,244.07,180411,,,A*61
$GPGGA,112512.997,1444.3291,S,07434.3246,W,1,07,1.1,3470.5,M,20.9,M,,0000*62
$GPGSA,M,3,15,12,27,09,17,25,04,,,,,,2.1,1.1,1.7*35
$GPRMC,112512.997,A,1444.3291,S,07434.3246,W,0.41,60.67,180411,,,A*56
$GPGGA,112513.999,1444.3286,S,07434.3242,W,1,07,1.1,3470.8,M,20.9,M,,0000*62
$GPGSA,M,3,15,12,27,09,17,25,04,,,,,,2.1,1.1,1.7*35
$GPRMC,112513.999,A,1444.3286,S,07434.3242,W,0.15,18.24,180411,,,A*52
$GPGGA,112515.005,1444.3286,S,07434.3244,W,1,07,1.1,3470.9,M,20.9,M,,0000*6F
$GPGSA,M,3,15,12,27,09,17,25,04,,,,,,2.1,1.1,1.7*35
$GPRMC,112515.005,A,1444.3286,S,07434.3244,W,1.63,186.92,180411,,,A*65
$GPGGA,112515.996,1444.3289,S,07434.3244,W,1,07,1.1,3469.7,M,20.9,M,,0000*65
$GPGSA,M,3,15,12,27,09,17,25,04,,,,,,2.1,1.1,1.7*35
$GPGSV,3,1,12,15,73,229,40,26,66,040,41,12,42,260,41,27,38,185,37*72
$GPGSV,3,2,12,09,30,203,38,17,22,135,40,02,16,032,29,05,12,001,*76
$GPGSV,3,3,12,25,11,289,38,04,11,071,36,18,09,248,36,29,01,331,*72
$GPRMC,112515.996,A,1444.3289,S,07434.3244,W,0.25,204.15,180411,,,A*6C
$GPGGA,112517.004,1444.3288,S,07434.3244,W,1,07,1.1,3469.8,M,20.9,M,,0000*6B
$GPGSA,M,3,15,12,27,09,17,25,04,,,,,,2.1,1.1,1.7*35
$GPRMC,112517.004,A,1444.3288,S,07434.3244,W,2.07,231.53,180411,,,A*6B
$GPGGA,112518.000,1444.3288,S,07434.3244,W,1,07,1.1,3469.5,M,20.9,M,,0000*6D
$GPGSA,M,3,15,12,27,09,17,25,04,,,,,,2.1,1.1,1.7*35
$GPRMC,112518.000,A,1444.3288,S,07434.3244,W,0.92,192.57,180411,,,A*60
$GPGGA,112518.997,1444.3287,S,07434.3243,W,1,07,1.1,3469.7,M,20.9,M,,0000*60
$GPGSA,M,3,15,12,27,09,17,25,04,,,,,,2.1,1.1,1.7*35
$GPRMC,112518.997,A,1444.3287,S,07434.3243,W,0.24,199.36,180411,,,A*6E
$GPGGA,112520.001,1444.3286,S,07434.3243,W,1,07,1.1,3469.7,M,20.9,M,,0000*6C
$GPGSA,M,3,15,12,27,09,17,25,04,,,,,,2.1,1.1,1.7*35
$GPRMC,112520.001,A,1444.3286,S,07434.3243,W,1.50,241.90,180411,,,A*6A
