$GPGGA,034250.000,1926.9356,S,06958.0536,W,1,06,1.4,1115.7,M,35.0,M,,0000*62
$GPGSA,M,3,13,04,08,23,10,02,,,,,,,3.0,1.4,2.7*31
$GPRMC,034250.000,A,1926.9356,S,06958.0536,W,0.59,230.73,010511,,,A*6B
$GPGGA,034250.999,1926.9355,S,06958.0540,W,1,05,1.6,1115.8,M,35.0,M,,0000*67
$GPGSA,M,3,04,08,23,10,02,,,,,,,,4.0,1.6,3.7*37
$GPRMC,034250.999,A,1926.9355,S,06958.0540,W,0.25,200.51,010511,,,A*68
$GPGGA,034251.999,1926.9358,S,06958.0538,W,1,06,1.4,1115.6,M,35.0,M,,0000*6B
$GPGSA,M,3,13,04,08,23,10,02,,,,,,,3.0,1.4,2.7*31
$GPRMC,034251.999,A,1926.9358,S,06958.0538,W,0.29,138.89,010511,,,A*6A
$GPGGA,034253.003,1926.9364,S,06958.0539,W,1,06,1.4,1120.0,M,35.0,M,,0000*6D
$GPGSA,M,3,13,04,08,23,10,02,,,,,,,3.0,1.4,2.7*31
$GPGSV,3,1,12,07,73,325,,20,45,082,,13,45,181,25,04,41,243,30*7D
$GPGSV,3,2,12,08,40,330,32,23,27,139,26,10,21,217,34,32,17,071,*7D
$GPGSV,3,3,12,24,13,021,,02,11,223,32,17,08,311,24,16,07,121,*74
$GPRMC,034253.003,A,1926.9364,S,06958.0539,W,0.07,273.10,010511,,,A*6C
$GPGGA,034253.998,1926.9365,S,06958.0541,W,1,06,1.4,1121.3,M,35.0,M,,0000*6A
$GPGSA,M,3,13,04,08,23,10,02,,,,,,,3.0,1.4,2.7*31
$GPRMC,034253.998,A,1926.9365,S,06958.0541,W,0.03,16.77,010511,,,A*5D
$GPGGA,034255.000,1926.9364,S,06958.0537,W,1,05,1.6,1119.7,M,35.0,M,,0000*6A
$GPGSA,M,3,04,08,23,10,02,,,,,,,,4.0,1.6,3.7*37
$GPRMC,034255.000,A,1926.9364,S,06958.0537,W,1.13,124.43,010511,,,A*64
$GPGGA,034255.999,1926.9367,S,06958.0537,W,1,07,1.0,1121.3,M,35.0,M,,0000*6B
$GPGSA,M,3,13,04,08,23,10,32,02,,,,,,2.4,1.0,2.1*37
$GPRMC,034255.999,A,1926.9367,S,06958.0537,W,0.08,138.57,010511,,,A*6D
$GPGGA,034257.001,1926.9365,S,06958.0540,W,1,05,1.6,1120.8,M,35.0,M,,0000*6D
$GPGSA,M,3,04,08,23,10,02,,,,,,,,4.0,1.6,3.7*37
$GPRMC,034257.001,A,1926.9365,S,06958.0540,W,0.28,184.15,010511,,,A*66
$GPGGA,034257.999,1926.9370,S,06958.0538,W,1,06,1.4,1123.2,M,35.0,M,,0000*66
$GPGSA,M,3,13,04,08,23,10,02,,,,,,,3.0,1.4,2.7*31
$GPGSV,3,1,12,07,73,325,,20,45,082,,13,45,181,26,04,41,243,30*7E
$GPGSV,3,2,12,08,40,330,34,23,27,139,29,10,21,217,35,32,17,071,*75
$GPGSV,3,3,12,24,13,021,,02,11,223,34,17,08,311,26,16,07,121,25*77
$GPRMC,034257.999,A,1926.9370,S,06958.0538,W,0.38,91.40,010511,,,A*51
$GPGGA,034258.999,1926.9367,S,06958.0540,W,1,06,1.4,1121.5,M,35.0,M,,0000*65
$GPGSA,M,3,13,04,08,23,10,02,,,,,,,3.0,1.4,2.7*31
$GPRMC,034258.999,A,1926.9367,S,06958.0540,W,0.58,54.75,010511,,,A*5E
$GPGGA,034259.999,1926.9370,S,06958.0538,W,1,06,1.4,1122.3,M,35.0,M,,0000*68
$GPGSA,M,3,13,04,08,23,10,02,,,,,,,3.0,1.4,2.7*31
$GPRMC,034259.999,A,1926.9370,S,06958.0538,W,0.65,137.23,010511,,,A*6F
$GPGGA,034301.001,1926.9373,S,06958.0531,W,1,06,1.4,1125.0,M,35.0,M,,0000*62
$GPGSA,M,3,13,04,08,23,10,02,,,,,,,3.0,1.4,2.7*31
$GPRMC,034301.001,A,1926.9373,S,06958.0531,W,0.08,358.21,010511,,,A*63
$GPGGA,034302.000,1926.9375,S,06958.0531,W,1,06,1.4,1125.2,M,35.0,M,,0000*64
$GPGSA,M,3,13,04,08,23,10,02,,,,,,,3.0,1.4,2.7*31
$GPRMC,034302.000,A,1926.9375,S,06958.0531,W,0.47,253.09,010511,,,A*6C
$GPGGA,034302.997,1926.9373,S,06958.0535,W,1,06,1.4,1125.5,M,35.0,M,,0000*66
$GPGSA,M,3,13,04,08,23,10,02,,,,,,,3.0,1.4,2.7*31
$GPGSV,3,1,12,07,73,325,,20,45,082,,13,45,181,26,04,41,243,32*7C
$GPGSV,3,2,12,08,40,330,33,23,27,139,29,10,21,217,35,32,17,071,*72
$GPGSV,3,3,12,24,13,021,,02,11,223,33,17,08,311,,16,07,121,*73
$GPRMC,034302.997,A,1926.9373,S,06958.0535,W,0.18,349.55,010511,,,A*60
$GPGGA,034304.004,1926.9373,S,06958.0536,W,1,05,1.6,1125.1,M,35.0,M,,0000*65
$GPGSA,M,3,04,08,23,10,02,,,,,,,,4.0,1.6,3.7*37
$GPRMC,034304.004,A,1926.9373,S,06958.0536,W,0.75,94.86,010511,,,A*50
$GPGGA,034304.999,1926.9372,S,06958.0537,W,1,05,1.6,1124.6,M,35.0,M,,0000*6E
$GPGSA,M,3,04,08,23,10,02,,,,,,,,4.0,1.6,3.7*37
$GPRMC,034304.999,A,1926.9372,S,06958.0537,W,0.68,153.69,010511,,,A*6A
$GPGGA,034305.998,1926.9376,S,06958.0538,W,1,06,1.4,1126.4,M,35.0,M,,0000*64
$GPGSA,M,3,13,04,08,23,10,02,,,,,,,3.0,1.4,2.7*31
$GPRMC,034305.998,A,1926.9376,S,06958.0538,W,0.94,114.98,010511,,,A*6F
$GPGGA,034307.001,1926.9374,S,06958.0536,W,1,06,1.4,1125.3,M,35.0,M,,0000*67
$GPGSA,M,3,13,04,08,23,10,02,,,,,,,3.0,1.4,2.7*31
$GPRMC,034307.001,A,1926.9374,S,06958.0536,W,0.62,78.26,010511,,,A*5F
$GPGGA,034308.002,1926.9375,S,06958.0537,W,1,05,1.6,1125.7,M,35.0,M,,0000*6E
$GPGSA,M,3,04,08,23,10,02,,,,,,,,4.0,1.6,3.7*37
$GPGSV,3,1,12,07,73,325,,20,45,082,,13,45,181,,04,41,243,31*7B
$GPGSV,3,2,12,08,40,330,34,23,27,139,28,10,21,217,34,32,17,071,*75
$GPGSV,3,3,12,24,13,021,,02,11,223,31,17,08,311,,16,07,121,*71
$GPRMC,034308.002,A,1926.9375,S,06958.0537,W,0.76,189.94,010511,,,A*60
$GPGGA,034308.999,1926.9370,S,06958.0535,W,1,06,1.4,1123.4,M,35.0,M,,0000*66
$GPGSA,M,3,13,04,08,23,10,02,,,,,,,3.0,1.4,2.7*31
$GPRMC,034308.999,A,1926.9370,S,06958.0535,W,0.57,59.53,010511,,,A*58
$GPGGA,034310.000,1926.9366,S,06958.0531,W,1,05,1.6,1121.2,M,35.0,M,,0000*60
$GPGSA,M,3,04,08,23,10,02,,,,,,,,4.0,1.6,3.7*37
$GPRMC,034310.000,A,1926.9366,S,06958.0531,W,0.35,169.64,010511,,,A*69
$GPGGA,034310.999,1926.9362,S,06958.0530,W,1,06,1.4,1119.3,M,35.0,M,,0000*67
$GPGSA,M,3,13,04,08,23,10,02,,,,,,,3.0,1.4,2.7*31
$GPRMC,034310.999,A,1926.9362,S,06958.0530,W,0.44,60.43,010511,,,A*5E
$GPGGA,034311.996,1926.9359,S,06958.0532,W,1,05,1.6,1118.1,M,35.0,M,,0000*61
$GPGSA,M,3,04,08,23,10,02,,,,,,,,4.0,1.6,3.7*37
$GPRMC,034311.996,A,1926.9359,S,06958.0532,W,0.35,244.75,010511,,,A*6D
$GPGGA,034313.002,1926.9361,S,06958.0530,W,1,06,1.4,1119.8,M,35.0,M,,0000*67
$GPGSA,M,3,13,04,08,23,10,02,,,,,,,3.0,1.4,2.7*31
$GPGSV,3,1,12,07,74,323,,13,44,180,25,20,44,080,,04,42,245,30*7A
$GPGSV,3,2,12,08,41,329,35,23,26,138,29,10,22,217,35,32,17,070,*7F
$GPGSV,3,3,12,24,12,021,,02,12,224,34,17,07,312,,16,07,122,*7E
$GPRMC,034313.002,A,1926.9361,S,06958.0530,W,0.39,302.74,010511,,,A*6C
$GPGGA,034313.998,1926.9362,S,06958.0530,W,1,06,1.4,1121.2,M,35.0,M,,0000*6F
$GPGSA,M,3,13,04,08,23,10,02,,,,,,,3.0,1.4,2.7*31
$GPRMC,034313.998,A,1926.9362,S,06958.0530,W,0.42,157.29,010511,,,A*63
$GPGGA,034315.002,1926.9363,S,06958.0528,W,1,06,1.4,1121.0,M,35.0,M,,0000*69
$GPGSA,M,3,13,04,08,23,10,02,,,,,,,3.0,1.4,2.7*31
$GPRMC,034315.002,A,1926.9363,S,06958.0528,W,1.08,102.67,010511,,,A*62
$GPGGA,034316.001,1926.9365,S,06958.0531,W,1,05,1.6,1120.8,M,35.0,M,,0000*6F
$GPGSA,M,3,04,08,23,10,02,,,,,,,,4.0,1.6,3.7*37
$GPRMC,034316.001,A,1926.9365,S,06958.0531,W,0.69,264.66,010511,,,A*68
$GPGGA,034317.000,1926.9365,S,06958.0533,W,1,06,1.4,1120.4,M,35.0,M,,0000*60
$GPGSA,M,3,13,04,08,23,10,02,,,,,,,3.0,1.4,2.7*31
$GPRMC,034317.000,A,1926.9365,S,06958.0533,W,0.16,157.19,010511,,,A*69
$GPGGA,034317.998,1926.9361,S,06958.0532,W,1,06,1.4,1116.8,M,35.0,M,,0000*64
$GPGSA,M,3,13,04,08,23,10,02,,,,,,,3.0,1.4,2.7*31
$GPGSV,3,1,12,07,74,323,,13,44,180,25,20,44,080,,04,42,245,31*7B
$GPGSV,3,2,12,08,41,329,35,23,26,138,31,10,22,217,34,32,17,070,*77
$GPGSV,3,3,12,24,12,021,,02,12,224,34,17,07,312,,16,07,122,*7E
$GPRMC,034317.998,A,1926.9361,S,06958.0532,W,0.45,113.75,010511,,,A*68
$GPGGA,034319.001,1926.9361,S,06958.0529,W,1,06,1.4,1114.9,M,35.0,M,,0000*6A
$GPGSA,M,3,13,04,08,23,10,02,,,,,,,3.0,1.4,2.7*31
$GPRMC,034319.001,A,1926.9361,S,06958.0529,W,0.34,295.04,010511,,,A*68
$GPGGA,034319.999,1926.9365,S,06958.0532,W,1,06,1.4,1118.0,M,35.0,M,,0000*69
$GPGSA,M,3,13,04,08,23,10,02,,,,,,,3.0,1.4,2.7*31
$GPRMC,034319.999,A,1926.9365,S,06958.0532,W,0.15,195.80,010511,,,A*62
$GPGGA,034321.001,1926.9366,S,06958.0533,W,1,06,1.4,1118.1,M,35.0,M,,0000*69
$GPGSA,M,3,13,04,08,23,10,02,,,,,,,3.0,1.4,2.7*31
$GPRMC,034321.001,A,1926.9366,S,06958.0533,W,0.49,40.63,010511,,,A*5E
$GPGGA,034321.997,1926.9365,S,06958.0536,W,1,06,1.4,1118.6,M,35.0,M,,0000*6E
$GPGSA,M,3,13,04,08,23,10,02,,,,,,,3.0,1.4,2.7*31
$GPRMC,034321.997,A,1926.9365,S,06958.0536,W,0.16,148.61,010511,,,A*6F
$GPGGA,034323.001,1926.9368,S,06958.0536,W,1,06,1.4,1119.3,M,35.0,M,,0000*63
$GPGSA,M,3,13,04,08,23,10,02,,,,,,,3.0,1.4,2.7*31
$GPGSV,3,1,12,07,74,323,,13,44,180,27,20,44,080,,04,42,245,30*78
$GPGSV,3,2,12,08,41,329,32,23,26,138,27,10,22,217,34,32,17,070,*77
$GPGSV,3,3,12,24,12,021,,02,12,224,32,17,07,312,,16,07,122,*78
$GPRMC,034323.001,A,1926.9368,S,06958.0536,W,0.23,283.62,010511,,,A*67
$GPGGA,034324.001,1926.9366,S,06958.0532,W,1,06,1.4,1117.5,M,35.0,M,,0000*66
$GPGSA,M,3,13,04,08,23,10,02,,,,,,,3.0,1.4,2.7*31
$GPRMC,034324.001,A,1926.9366,S,06958.0532,W,0.92,67.32,010511,,,A*5D
$GPGGA,034324.999,1926.9365,S,06958.0533,W,1,06,1.4,1115.1,M,35.0,M,,0000*6A
$GPGSA,M,3,13,04,08,23,10,02,,,,,,,3.0,1.4,2.7*31
$GPRMC,034324.999,A,1926.9365,S,06958.0533,W,0.89,121.95,010511,,,A*63
$GPGGA,034326.003,1926.9368,S,06958.0531,W,1,05,1.6,1115.0,M,35.0,M,,0000*6D
$GPGSA,M,3,04,08,23,10,02,,,,,,,,4.1,1.6,3.7*36
$GPRMC,034326.003,A,1926.9368,S,06958.0531,W,1.02,105.14,010511,,,A*69
$GPGGA,034326.996,1926.9364,S,06958.0534,W,1,06,1.4,1112.6,M,35.0,M,,0000*61
$GPGSA,M,3,13,04,08,23,10,02,,,,,,,3.0,1.4,2.7*31
$GPRMC,034326.996,A,1926.9364,S,06958.0534,W,0.29,208.26,010511,,,A*62
$GPGGA,034328.000,1926.9368,S,06958.0535,W,1,06,1.4,1114.3,M,35.0,M,,0000*67
$GPGSA,M,3,13,04,08,23,10,02,,,,,,,3.0,1.4,2.7*31
$GPGSV,3,1,12,07,74,323,,13,44,180,27,20,44,080,,04,42,245,33*7B
$GPGSV,3,2,12,08,41,329,35,23,26,138,30,10,22,217,35,32,17,070,*77
$GPGSV,3,3,12,24,12,021,,02,12,224,32,17,07,312,,16,07,122,*78
$GPRMC,034328.000,A,1926.9368,S,06958.0535,W,0.99,100.34,010511,,,A*64
$GPGGA,034329.001,1926.9366,S,06958.0536,W,1,05,1.6,1113.6,M,35.0,M,,0000*69
$GPGSA,M,3,04,08,23,10,02,,,,,,,,4.1,1.6,3.7*36
$GPRMC,034329.001,A,1926.9366,S,06958.0536,W,0.58,189.42,010511,,,A*64
$GPGGA,034330.000,1926.9367,S,06958.0532,W,1,06,1.4,1113.0,M,35.0,M,,0000*62
$GPGSA,M,3,13,04,08,23,10,02,,,,,,,3.0,1.4,2.7*31
$GPRMC,034330.000,A,1926.9367,S,06958.0532,W,0.23,80.74,010511,,,A*59
$GPGGA,034331.000,1926.9367,S,06958.0532,W,1,06,1.4,1113.9,M,35.0,M,,0000*6A
$GPGSA,M,3,13,04,08,23,10,02,,,,,,,3.0,1.4,2.7*31
$GPRMC,034331.000,A,1926.9367,S,06958.0532,W,0.44,33.21,010511,,,A*51
$GPGGA,034332.000,1926.9363,S,06958.0531,W,1,05,1.6,1112.0,M,35.0,M,,0000*67
$GPGSA,M,3,04,08,23,10,02,,,,,,,,4.1,1.6,3.7*36
$GPRMC,034332.000,A,1926.9363,S,06958.0531,W,0.03,346.07,010511,,,A*63
$GPGGA,034332.999,1926.9362,S,06958.0529,W,1,06,1.4,1110.3,M,35.0,M,,0000*66
$GPGSA,M,3,13,04,08,23,10,02,,,,,,,3.0,1.4,2.7*31
$GPGSV,3,1,12,07,74,323,,13,44,180,28,20,44,080,,04,42,245,32*75
$GPGSV,3,2,12,08,41,329,34,23,26,138,30,10,22,217,34,32,17,070,*77
$GPGSV,3,3,12,24,12,021,,02,12,224,34,17,07,312,,16,07,122,*7E
$GPRMC,034332.999,A,1926.9362,S,06958.0529,W,0.65,199.86,010511,,,A*6B
$GPGGA,034334.004,1926.9362,S,06958.0531,W,1,05,1.6,1109.9,M,35.0,M,,0000*67
$GPGSA,M,3,04,08,23,10,02,,,,,,,,4.1,1.6,3.7*36
$GPRMC,034334.004,A,1926.9362,S,06958.0531,W,0.63,210.84,010511,,,A*6F
$GPGGA,034334.998,1926.9362,S,06958.0535,W,1,05,1.6,1110.1,M,35.0,M,,0000*6F
$GPGSA,M,3,04,08,23,10,02,,,,,,,,4.1,1.6,3.7*36
$GPRMC,034334.998,A,1926.9362,S,06958.0535,W,0.82,308.73,010511,,,A*68
$GPGGA,034335.999,1926.9361,S,06958.0535,W,1,06,1.4,1110.4,M,35.0,M,,0000*68
$GPGSA,M,3,13,04,08,23,10,02,,,,,,,3.0,1.4,2.7*31
$GPRMC,034335.999,A,1926.9361,S,06958.0535,W,0.45,120.67,010511,,,A*6D
$GPGGA,034337.002,1926.9361,S,06958.0535,W,1,06,1.4,1109.7,M,35.0,M,,0000*6A
$GPGSA,M,3,13,04,08,23,10,02,,,,,,,3.0,1.4,2.7*31
$GPRMC,034337.002,A,1926.9361,S,06958.0535,W,0.28,262.53,010511,,,A*6D
$GPGGA,034337.999,1926.9360,S,06958.0538,W,1,05,1.6,1109.4,M,35.0,M,,0000*6F
$GPGSA,M,3,04,08,23,10,02,,,,,,,,4.1,1.6,3.7*36
$GPGSV,3,1,12,07,74,323,,13,44,180,,20,44,080,,04,42,245,30*7D
$GPGSV,3,2,12,08,41,329,32,23,26,138,28,10,22,217,34,32,17,070,*78
$GPGSV,3,3,12,24,12,021,,02,12,224,32,17,07,312,,16,07,122,*78
$GPRMC,034337.999,A,1926.9360,S,06958.0538,W,0.80,91.10,010511,,,A*51
$GPGGA,034338.998,1926.9360,S,06958.0540,W,1,06,1.4,1109.9,M,35.0,M,,0000*62
$GPGSA,M,3,13,04,08,23,10,02,,,,,,,3.0,1.4,2.7*31
$GPRMC,034338.998,A,1926.9360,S,06958.0540,W,0.14,21.50,010511,,,A*52
$GPGGA,034340.001,1926.9358,S,06958.0538,W,1,05,1.6,1107.7,M,35.0,M,,0000*61
$GPGSA,M,3,04,08,23,10,02,,,,,,,,4.1,1.6,3.7*36
$GPRMC,034340.001,A,1926.9358,S,06958.0538,W,0.29,111.77,010511,,,A*69
$GPGGA,034341.003,1926.9359,S,06958.0535,W,1,06,1.4,1107.5,M,35.0,M,,0000*6D
$GPGSA,M,3,13,04,08,23,10,02,,,,,,,3.0,1.4,2.7*31
$GPRMC,034341.003,A,1926.9359,S,06958.0535,W,0.59,115.27,010511,,,A*60
$GPGGA,034341.998,1926.9359,S,06958.0538,W,1,05,1.6,1107.4,M,35.0,M,,0000*6B
$GPGSA,M,3,04,08,23,10,02,,,,,,,,4.1,1.6,3.7*36
$GPRMC,034341.998,A,1926.9359,S,06958.0538,W,0.88,249.84,010511,,,A*69
$GPGGA,034342.998,1926.9358,S,06958.0540,W,1,06,1.4,1107.4,M,35.0,M,,0000*67
$GPGSA,M,3,13,04,08,23,10,02,,,,,,,3.0,1.4,2.7*31
$GPGSV,3,1,12,07,74,323,,13,44,180,27,20,44,080,,04,42,245,31*79
$GPGSV,3,2,12,08,41,329,35,23,26,138,30,10,22,217,35,32,17,070,*77
$GPGSV,3,3,12,24,12,021,,02,12,224,34,17,07,312,,16,07,122,*7E
$GPRMC,034342.998,A,1926.9358,S,06958.0540,W,0.44,327.08,010511,,,A*69
$GPGGA,034343.999,1926.9353,S,06958.0539,W,1,06,1.4,1104.8,M,35.0,M,,0000*6D
$GPGSA,M,3,13,04,08,23,10,02,,,,,,,3.0,1.4,2.7*31
$GPRMC,034343.999,A,1926.9353,S,06958.0539,W,0.42,29.69,010511,,,A*50
$GPGGA,034345.002,1926.9354,S,06958.0539,W,1,05,1.6,1104.8,M,35.0,M,,0000*66
$GPGSA,M,3,04,08,23,10,02,,,,,,,,4.1,1.6,3.7*36
$GPRMC,034345.002,A,1926.9354,S,06958.0539,W,0.13,242.43,010511,,,A*69
$GPGGA,034345.998,1926.9354,S,06958.0539,W,1,06,1.4,1105.9,M,35.0,M,,0000*6D
$GPGSA,M,3,13,04,08,23,10,02,,,,,,,3.0,1.4,2.7*31
$GPRMC,034345.998,A,1926.9354,S,06958.0539,W,0.28,321.62,010511,,,A*6C
$GPGGA,034347.002,1926.9355,S,06958.0539,W,1,05,1.6,1105.8,M,35.0,M,,0000*64
$GPGSA,M,3,04,08,23,10,02,,,,,,,,4.1,1.6,3.7*36
$GPRMC,034347.002,A,1926.9355,S,06958.0539,W,0.23,214.98,010511,,,A*6C
$GPGGA,034347.996,1926.9349,S,06958.0538,W,1,06,1.4,1104.0,M,35.0,M,,0000*64
$GPGSA,M,3,13,04,08,23,10,02,,,,,,,3.0,1.4,2.7*31
$GPGSV,3,1,12,07,74,323,,13,44,180,27,20,44,080,,04,42,245,32*7A
$GPGSV,3,2,12,08,41,329,34,23,26,138,29,10,22,217,34,32,17,070,*7F
$GPGSV,3,3,12,24,12,021,,02,12,224,33,17,07,312,,16,07,122,*79
$GPRMC,034347.996,A,1926.9349,S,06958.0538,W,0.48,25.66,010511,,,A*58
$GPGGA,034349.001,1926.9349,S,06958.0540,W,1,06,1.4,1105.0,M,35.0,M,,0000*63
$GPGSA,M,3,13,04,08,23,10,02,,,,,,,3.0,1.4,2.7*31
$GPRMC,034349.001,A,1926.9349,S,06958.0540,W,0.42,242.44,010511,,,A*67
$GPGGA,034349.999,1926.9351,S,06958.0540,W,1,06,1.4,1106.4,M,35.0,M,,0000*65
$GPGSA,M,3,13,04,08,23,10,02,,,,,,,3.0,1.4,2.7*31
$GPRMC,034349.999,A,1926.9351,S,06958.0540,W,0.28,324.93,010511,,,A*61
$GPGGA,034351.002,1926.9353,S,06958.0541,W,1,06,1.4,1110.5,M,35.0,M,,0000*62
$GPGSA,M,3,13,04,08,23,10,02,,,,,,,3.0,1.4,2.7*31
$GPRMC,034351.002,A,1926.9353,S,06958.0541,W,0.39,357.65,010511,,,A*6D
$GPGGA,034352.000,1926.9351,S,06958.0540,W,1,05,1.6,1110.3,M,35.0,M,,0000*67
$GPGSA,M,3,04,08,23,10,02,,,,,,,,4.1,1.6,3.8*39
$GPRMC,034352.000,A,1926.9351,S,06958.0540,W,0.33,62.36,010511,,,A*56
$GPGGA,034353.002,1926.9350,S,06958.0540,W,1,05,1.6,1109.8,M,35.0,M,,0000*66
$GPGSA,M,3,04,08,23,10,02,,,,,,,,4.1,1.6,3.8*39
$GPGSV,3,1,12,07,74,323,,13,44,180,,20,44,080,,04,42,245,30*7D
$GPGSV,3,2,12,08,41,329,33,23,26,138,28,10,22,217,34,32,17,070,*79
$GPGSV,3,3,12,24,12,021,,02,12,224,32,17,07,312,,16,07,122,*78
$GPRMC,034353.002,A,1926.9350,S,06958.0540,W,0.23,280.82,010511,,,A*64
$GPGGA,034353.998,1926.9350,S,06958.0542,W,1,05,1.6,1110.3,M,35.0,M,,0000*6D
$GPGSA,M,3,04,08,23,10,02,,,,,,,,4.1,1.6,3.8*39
$GPRMC,034353.998,A,1926.9350,S,06958.0542,W,0.37,127.89,010511,,,A*6C
$GPGGA,034355.000,1926.9351,S,06958.0540,W,1,06,1.2,1109.6,M,35.0,M,,0000*6A
$GPGSA,M,3,04,08,23,10,32,02,,,,,,,3.1,1.2,2.8*3A
$GPRMC,034355.000,A,1926.9351,S,06958.0540,W,0.86,112.27,010511,,,A*69
$GPGGA,034355.999,1926.9353,S,06958.0539,W,1,06,1.4,1110.1,M,35.0,M,,0000*66
$GPGSA,M,3,13,04,08,23,10,02,,,,,,,3.0,1.4,2.7*31
$GPRMC,034355.999,A,1926.9353,S,06958.0539,W,1.01,111.87,010511,,,A*6B
$GPGGA,034356.999,1926.9349,S,06958.0538,W,1,06,1.4,1106.7,M,35.0,M,,0000*6E
$GPGSA,M,3,13,04,08,23,10,02,,,,,,,3.0,1.4,2.7*31
$GPRMC,034356.999,A,1926.9349,S,06958.0538,W,0.29,349.50,010511,,,A*6C
$GPGGA,034358.003,1926.9347,S,06958.0535,W,1,05,1.6,1105.5,M,35.0,M,,0000*69
$GPGSA,M,3,04,08,23,10,02,,,,,,,,4.1,1.6,3.8*39
$GPGSV,3,1,12,07,74,323,,13,44,180,,20,44,080,,04,42,245,32*7F
$GPGSV,3,2,12,08,41,329,33,23,26,138,29,10,22,217,34,32,17,070,*78
$GPGSV,3,3,12,24,12,021,,02,12,224,34,17,07,312,,16,07,122,*7E
$GPRMC,034358.003,A,1926.9347,S,06958.0535,W,0.31,237.91,010511,,,A*67
$GPGGA,034358.997,1926.9348,S,06958.0539,W,1,06,1.4,1105.5,M,35.0,M,,0000*6F
$GPGSA,M,3,13,04,08,23,10,02,,,,,,,3.0,1.4,2.7*31
$GPRMC,034358.997,A,1926.9348,S,06958.0539,W,0.55,250.88,010511,,,A*6B
$GPGGA,034400.000,1926.9350,S,06958.0539,W,1,06,1.4,1107.1,M,35.0,M,,0000*6D
$GPGSA,M,3,13,04,08,23,10,02,,,,,,,3.0,1.4,2.7*31
$GPRMC,034400.000,A,1926.9350,S,06958.0539,W,0.23,85.97,010511,,,A*5A
$GPGGA,034400.997,1926.9353,S,06958.0541,W,1,06,1.4,1109.6,M,35.0,M,,0000*6F
$GPGSA,M,3,13,04,08,23,10,02,,,,,,,3.0,1.4,2.7*31
$GPRMC,034400.997,A,1926.9353,S,06958.0541,W,0.63,262.16,010511,,,A*67
$GPGGA,034402.001,1926.9350,S,06958.0539,W,1,06,1.4,1108.0,M,35.0,M,,0000*60
$GPGSA,M,3,13,04,08,23,10,02,,,,,,,3.0,1.4,2.7*31
$GPRMC,034402.001,A,1926.9350,S,06958.0539,W,0.70,237.91,010511,,,A*62
$GPGGA,034403.000,1926.9350,S,06958.0540,W,1,06,1.4,1107.7,M,35.0,M,,0000*66
$GPGSA,M,3,13,04,08,23,10,02,,,,,,,3.0,1.4,2.7*31
$GPGSV,3,1,12,07,74,323,,13,44,180,26,20,44,080,,04,42,245,31*78
$GPGSV,3,2,12,08,41,329,34,23,26,138,30,10,22,217,34,32,17,070,*77
$GPGSV,3,3,12,24,12,021,,02,12,224,34,17,07,312,25,16,07,122,*79
$GPRMC,034403.000,A,1926.9350,S,06958.0540,W,0.51,105.47,010511,,,A*66
$GPGGA,034404.005,1926.9350,S,06958.0538,W,1,05,1.6,1107.9,M,35.0,M,,0000*64
$GPGSA,M,3,04,08,23,10,02,,,,,,,,4.1,1.6,3.8*39
$GPRMC,034404.005,A,1926.9350,S,06958.0538,W,0.50,116.08,010511,,,A*63
$GPGGA,034404.994,1926.9353,S,06958.0547,W,1,06,1.4,1110.4,M,35.0,M,,0000*64
$GPGSA,M,3,13,04,08,23,10,02,,,,,,,3.0,1.4,2.7*31
$GPRMC,034404.994,A,1926.9353,S,06958.0547,W,1.17,261.69,010511,,,A*6F
$GPGGA,034406.004,1926.9354,S,06958.0551,W,1,05,1.6,1111.5,M,35.0,M,,0000*67
$GPGSA,M,3,04,08,23,10,02,,,,,,,,4.1,1.6,3.8*39
$GPRMC,034406.004,A,1926.9354,S,06958.0551,W,0.27,123.01,010511,,,A*64
$GPGGA,034406.997,1926.9352,S,06958.0552,W,1,06,1.4,1110.5,M,35.0,M,,0000*61
$GPGSA,M,3,13,04,08,23,10,02,,,,,,,3.0,1.4,2.7*31
$GPRMC,034406.997,A,1926.9352,S,06958.0552,W,0.19,104.68,010511,,,A*65
$GPGGA,034408.003,1926.9352,S,06958.0554,W,1,05,1.6,1110.0,M,35.0,M,,0000*69
$GPGSA,M,3,04,08,23,10,02,,,,,,,,4.1,1.6,3.8*39
$GPGSV,3,1,12,07,74,323,,13,44,180,,20,44,080,,04,42,245,29*75
$GPGSV,3,2,12,08,41,329,34,23,26,138,28,10,22,217,32,32,17,070,*78
$GPGSV,3,3,12,24,12,021,,02,12,224,32,17,07,312,,16,07,122,*78
$GPRMC,034408.003,A,1926.9352,S,06958.0554,W,0.01,251.69,010511,,,A*62
$GPGGA,034409.001,1926.9356,S,06958.0550,W,1,06,1.4,1110.9,M,35.0,M,,0000*62
$GPGSA,M,3,13,04,08,23,10,02,,,,,,,3.0,1.4,2.7*31
$GPRMC,034409.001,A,1926.9356,S,06958.0550,W,0.67,124.87,010511,,,A*60
$GPGGA,034409.998,1926.9355,S,06958.0551,W,1,05,1.6,1110.8,M,35.0,M,,0000*69
$GPGSA,M,3,04,08,23,10,02,,,,,,,,4.1,1.6,3.8*39
$GPRMC,034409.998,A,1926.9355,S,06958.0551,W,0.38,274.62,010511,,,A*6C
$GPGGA,034410.997,1926.9356,S,06958.0552,W,1,06,1.4,1113.2,M,35.0,M,,0000*66
$GPGSA,M,3,13,04,08,23,10,02,,,,,,,3.0,1.4,2.7*31
$GPRMC,034410.997,A,1926.9356,S,06958.0552,W,0.17,132.58,010511,,,A*6E
$GPGGA,034412.004,1926.9353,S,06958.0548,W,1,05,1.6,1111.5,M,35.0,M,,0000*6D
$GPGSA,M,3,04,08,23,10,02,,,,,,,,4.1,1.6,3.8*39
$GPRMC,034412.004,A,1926.9353,S,06958.0548,W,0.91,101.06,010511,,,A*64
$GPGGA,034412.999,1926.9353,S,06958.0547,W,1,05,1.6,1110.7,M,35.0,M,,0000*6C
$GPGSA,M,3,04,08,23,10,02,,,,,,,,4.1,1.6,3.8*39
$GPGSV,3,1,12,07,74,323,,13,44,180,,20,44,080,,04,42,245,30*7D
$GPGSV,3,2,12,08,41,329,35,23,26,138,29,10,22,217,35,32,17,070,*7F
$GPGSV,3,3,12,24,12,021,,02,12,224,34,17,07,312,,16,07,122,*7E
$GPRMC,034412.999,A,1926.9353,S,06958.0547,W,0.45,170.64,010511,,,A*6D
$GPGGA,034414.001,1926.9354,S,06958.0551,W,1,05,1.6,1110.3,M,35.0,M,,0000*66
$GPGSA,M,3,04,08,23,10,02,,,,,,,,4.1,1.6,3.8*39
$GPRMC,034414.001,A,1926.9354,S,06958.0551,W,0.41,184.29,010511,,,A*65
$GPGGA,034415.000,1926.9352,S,06958.0550,W,1,07,1.0,1110.6,M,35.0,M,,0000*60
$GPGSA,M,3,13,04,08,23,10,32,02,,,,,,2.4,1.0,2.2*34
$GPRMC,034415.000,A,1926.9352,S,06958.0550,W,0.66,95.47,010511,,,A*5E
$GPGGA,034416.001,1926.9350,S,06958.0549,W,1,05,1.6,1110.7,M,35.0,M,,0000*6D
$GPGSA,M,3,04,08,23,10,02,,,,,,,,4.1,1.6,3.8*39
$GPRMC,034416.001,A,1926.9350,S,06958.0549,W,0.44,205.67,010511,,,A*6F
$GPGGA,034416.998,1926.9350,S,06958.0547,W,1,06,1.4,1110.5,M,35.0,M,,0000*69
$GPGSA,M,3,13,04,08,23,10,02,,,,,,,3.0,1.4,2.7*31
$GPRMC,034416.998,A,1926.9350,S,06958.0547,W,0.24,84.17,010511,,,A*52
$GPGGA,034418.000,1926.9351,S,06958.0544,W,1,06,1.4,1110.4,M,35.0,M,,0000*6C
$GPGSA,M,3,13,04,08,23,10,02,,,,,,,3.0,1.4,2.7*31
$GPGSV,3,1,12,07,74,323,,13,44,180,28,20,44,080,,04,42,245,32*75
$GPGSV,3,2,12,08,41,329,35,23,26,138,30,10,22,217,35,32,17,070,*77
$GPGSV,3,3,12,24,12,021,,02,12,224,35,17,07,312,24,16,07,122,*79
$GPRMC,034418.000,A,1926.9351,S,06958.0544,W,0.96,119.11,010511,,,A*6C
$GPGGA,034419.000,1926.9352,S,06958.0543,W,1,06,1.4,1110.8,M,35.0,M,,0000*65
$GPGSA,M,3,13,04,08,23,10,02,,,,,,,3.0,1.4,2.7*31
$GPRMC,034419.000,A,1926.9352,S,06958.0543,W,0.49,86.37,010511,,,A*58
$GPGGA,034420.000,1926.9351,S,06958.0541,W,1,06,1.4,1110.3,M,35.0,M,,0000*65
$GPGSA,M,3,13,04,08,23,10,02,,,,,,,3.0,1.4,2.7*31
$GPRMC,034420.000,A,1926.9351,S,06958.0541,W,0.27,8.70,010511,,,A*6E
$GPGGA,034421.000,1926.9355,S,06958.0537,W,1,06,1.4,1111.5,M,35.0,M,,0000*66
$GPGSA,M,3,13,04,08,23,10,02,,,,,,,3.0,1.4,2.7*31
$GPRMC,034421.000,A,1926.9355,S,06958.0537,W,0.16,116.81,010511,,,A*68
$GPGGA,034422.000,1926.9358,S,06958.0536,W,1,06,1.4,1113.1,M,35.0,M,,0000*6F
$GPGSA,M,3,13,04,08,23,10,02,,,,,,,3.0,1.4,2.7*31
$GPRMC,034422.000,A,1926.9358,S,06958.0536,W,0.72,146.95,010511,,,A*65
$GPGGA,034423.001,1926.9359,S,06958.0537,W,1,06,1.2,1112.4,M,35.0,M,,0000*6D
$GPGSA,M,3,04,08,23,10,32,02,,,,,,,3.1,1.2,2.8*3A
$GPGSV,3,1,12,07,74,323,,13,44,180,,20,44,080,,04,42,245,30*7D
$GPGSV,3,2,12,08,41,329,33,23,26,138,28,10,22,217,33,32,17,070,23*7F
$GPGSV,3,3,12,24,12,021,,02,12,224,32,17,07,312,,16,07,122,*78
$GPRMC,034423.001,A,1926.9359,S,06958.0537,W,0.48,120.83,010511,,,A*6B
$GPGGA,034424.000,1926.9358,S,06958.0535,W,1,07,1.0,1111.9,M,35.0,M,,0000*65
$GPGSA,M,3,13,04,08,23,10,32,02,,,,,,2.4,1.0,2.2*34
$GPRMC,034424.000,A,1926.9358,S,06958.0535,W,0.62,94.94,010511,,,A*5E
$GPGGA,034424.999,1926.9356,S,06958.0532,W,1,05,1.6,1111.3,M,35.0,M,,0000*6B
$GPGSA,M,3,04,08,23,10,02,,,,,,,,4.1,1.6,3.8*39
$GPRMC,034424.999,A,1926.9356,S,06958.0532,W,0.98,53.51,010511,,,A*59
$GPGGA,034425.999,1926.9355,S,06958.0532,W,1,06,1.4,1110.5,M,35.0,M,,0000*6F
$GPGSA,M,3,13,04,08,23,10,02,,,,,,,3.1,1.4,2.7*30
$GPRMC,034425.999,A,1926.9355,S,06958.0532,W,0.73,279.95,010511,,,A*6C
$GPGGA,034427.001,1926.9354,S,06958.0534,W,1,06,1.2,1109.6,M,35.0,M,,0000*6F
$GPGSA,M,3,04,08,23,10,32,02,,,,,,,3.1,1.2,2.8*3A
$GPRMC,034427.001,A,1926.9354,S,06958.0534,W,0.42,261.36,010511,,,A*63
$GPGGA,034428.002,1926.9353,S,06958.0533,W,1,06,1.4,1108.8,M,35.0,M,,0000*6A
$GPGSA,M,3,13,04,08,23,10,02,,,,,,,3.1,1.4,2.7*30
$GPGSV,3,1,12,07,74,323,,13,44,180,27,20,44,080,,04,42,245,31*79
$GPGSV,3,2,12,08,41,329,35,23,26,138,30,10,22,217,35,32,17,070,*77
$GPGSV,3,3,12,24,12,021,,02,12,224,34,17,07,312,24,16,07,122,*78
$GPRMC,034428.002,A,1926.9353,S,06958.0533,W,0.57,121.54,010511,,,A*68
$GPGGA,034428.998,1926.9354,S,06958.0535,W,1,05,1.6,1109.3,M,35.0,M,,0000*6A
$GPGSA,M,3,04,08,23,10,02,,,,,,,,4.1,1.6,3.8*39
$GPRMC,034428.998,A,1926.9354,S,06958.0535,W,0.52,252.68,010511,,,A*6E
$GPGGA,034430.002,1926.9354,S,06958.0537,W,1,06,1.2,1108.7,M,35.0,M,,0000*69
$GPGSA,M,3,04,08,23,10,32,02,,,,,,,3.1,1.2,2.8*3A
$GPRMC,034430.002,A,1926.9354,S,06958.0537,W,0.44,270.63,010511,,,A*63
$GPGGA,034431.001,1926.9353,S,06958.0540,W,1,05,1.6,1109.0,M,35.0,M,,0000*6D
$GPGSA,M,3,04,08,23,10,02,,,,,,,,4.1,1.6,3.8*39
$GPRMC,034431.001,A,1926.9353,S,06958.0540,W,0.25,141.06,010511,,,A*63
$GPGGA,034432.000,1926.9355,S,06958.0536,W,1,07,1.0,1111.1,M,35.0,M,,0000*64
$GPGSA,M,3,13,04,08,23,10,32,02,,,,,,2.4,1.0,2.2*34
$GPRMC,034432.000,A,1926.9355,S,06958.0536,W,0.93,69.88,010511,,,A*56
$GPGGA,034432.998,1926.9355,S,06958.0532,W,1,06,1.4,1114.8,M,35.0,M,,0000*61
$GPGSA,M,3,13,04,08,23,10,02,,,,,,,3.1,1.4,2.7*30
$GPGSV,3,1,12,07,74,323,,13,44,180,24,20,44,080,,04,42,245,30*7B
$GPGSV,3,2,12,08,41,329,34,23,26,138,29,10,22,217,34,32,17,070,*7F
$GPGSV,3,3,12,24,12,021,,02,12,224,31,17,07,312,,16,07,122,*7B
$GPRMC,034432.998,A,1926.9355,S,06958.0532,W,0.79,78.40,010511,,,A*5A
$GPGGA,034434.000,1926.9353,S,06958.0532,W,1,06,1.2,1114.0,M,35.0,M,,0000*67
$GPGSA,M,3,04,08,23,10,32,02,,,,,,,3.1,1.2,2.8*3A
$GPRMC,034434.000,A,1926.9353,S,06958.0532,W,0.43,84.53,010511,,,A*5A
$GPGGA,034435.002,1926.9353,S,06958.0531,W,1,05,1.6,1113.5,M,35.0,M,,0000*62
$GPGSA,M,3,04,08,23,10,02,,,,,,,,4.1,1.6,3.8*39
$GPRMC,034435.002,A,1926.9353,S,06958.0531,W,0.98,112.15,010511,,,A*60
$GPGGA,034436.001,1926.9352,S,06958.0533,W,1,06,1.2,1112.6,M,35.0,M,,0000*64
$GPGSA,M,3,04,08,23,10,32,02,,,,,,,3.1,1.2,2.8*3A
$GPRMC,034436.001,A,1926.9352,S,06958.0533,W,0.07,339.15,010511,,,A*6E
$GPGGA,034436.998,1926.9350,S,06958.0535,W,1,06,1.4,1113.0,M,35.0,M,,0000*68
$GPGSA,M,3,13,04,08,23,10,02,,,,,,,3.1,1.4,2.7*30
$GPRMC,034436.998,A,1926.9350,S,06958.0535,W,0.24,239.27,010511,,,A*62
$GPGGA,034438.003,1926.9350,S,06958.0536,W,1,06,1.2,1112.3,M,35.0,M,,0000*6A
$GPGSA,M,3,04,08,23,10,32,02,,,,,,,3.1,1.2,2.8*3A
$GPGSV,3,1,12,07,74,323,,13,44,180,,20,44,080,,04,42,245,32*7F
$GPGSV,3,2,12,08,41,329,34,23,26,138,28,10,22,217,34,32,17,070,25*79
$GPGSV,3,3,12,24,12,021,,02,12,224,33,17,07,312,,16,07,122,*79
$GPRMC,034438.003,A,1926.9350,S,06958.0536,W,0.68,224.94,010511,,,A*68
$GPGGA,034439.001,1926.9348,S,06958.0537,W,1,05,1.6,1111.0,M,35.0,M,,0000*66
$GPGSA,M,3,04,08,23,10,02,,,,,,,,4.1,1.6,3.8*39
$GPRMC,034439.001,A,1926.9348,S,06958.0537,W,0.12,258.94,010511,,,A*65
$GPGGA,034439.999,1926.9345,S,06958.0533,W,1,06,1.4,1107.9,M,35.0,M,,0000*68
$GPGSA,M,3,13,04,08,23,10,02,,,,,,,3.1,1.4,2.7*30
$GPRMC,034439.999,A,1926.9345,S,06958.0533,W,1.03,99.77,010511,,,A*57
$GPGGA,034440.998,1926.9349,S,06958.0533,W,1,06,1.4,1109.8,M,35.0,M,,0000*64
$GPGSA,M,3,13,04,08,23,10,02,,,,,,,3.1,1.4,2.7*30
$GPRMC,034440.998,A,1926.9349,S,06958.0533,W,0.05,172.61,010511,,,A*60
$GPGGA,034442.004,1926.9349,S,06958.0530,W,1,05,1.6,1109.4,M,35.0,M,,0000*64
$GPGSA,M,3,04,08,23,10,02,,,,,,,,4.1,1.6,3.8*39
$GPRMC,034442.004,A,1926.9349,S,06958.0530,W,1.79,89.03,010511,,,A*56
$GPGGA,034442.998,1926.9346,S,06958.0526,W,1,05,1.6,1108.8,M,35.0,M,,0000*6D
$GPGSA,M,3,04,08,23,10,02,,,,,,,,4.1,1.6,3.8*39
$GPGSV,3,1,12,07,74,323,,13,44,180,,20,44,080,,04,42,245,31*7C
$GPGSV,3,2,12,08,41,329,34,23,26,138,29,10,22,217,33,32,17,070,*78
$GPGSV,3,3,12,24,12,021,,02,12,224,34,17,07,312,23,16,07,122,*7F
$GPRMC,034442.998,A,1926.9346,S,06958.0526,W,0.34,89.16,010511,,,A*5E
$GPGGA,034444.001,1926.9347,S,06958.0522,W,1,06,1.4,1107.6,M,35.0,M,,0000*67
$GPGSA,M,3,13,04,08,23,10,02,,,,,,,3.1,1.4,2.7*30
$GPRMC,034444.001,A,1926.9347,S,06958.0522,W,1.23,103.61,010511,,,A*60
$GPGGA,034445.001,1926.9349,S,06958.0523,W,1,07,1.0,1108.5,M,35.0,M,,0000*60
$GPGSA,M,3,13,04,08,23,10,32,02,,,,,,2.4,1.0,2.2*34
$GPRMC,034445.001,A,1926.9349,S,06958.0523,W,0.67,66.66,010511,,,A*5A
$GPGGA,034446.002,1926.9347,S,06958.0520,W,1,05,1.6,1106.3,M,35.0,M,,0000*61
$GPGSA,M,3,04,08,23,10,02,,,,,,,,4.1,1.6,3.8*39
$GPRMC,034446.002,A,1926.9347,S,06958.0520,W,0.66,142.73,010511,,,A*65
$GPGGA,034447.001,1926.9344,S,06958.0519,W,1,05,1.6,1106.2,M,35.0,M,,0000*6B
$GPGSA,M,3,04,08,23,10,02,,,,,,,,4.1,1.6,3.8*39
$GPRMC,034447.001,A,1926.9344,S,06958.0519,W,0.75,102.26,010511,,,A*68
$GPGGA,034448.001,1926.9341,S,06958.0521,W,1,05,1.6,1105.7,M,35.0,M,,0000*6C
$GPGSA,M,3,04,08,23,10,02,,,,,,,,4.1,1.6,3.8*39
$GPGSV,3,1,12,07,74,323,,13,44,180,,20,44,080,,04,42,245,30*7D
$GPGSV,3,2,12,08,41,329,33,23,26,138,28,10,22,217,34,32,17,070,*79
$GPGSV,3,3,12,24,12,021,,02,12,224,33,17,07,312,,16,07,122,*79
$GPRMC,034448.001,A,1926.9341,S,06958.0521,W,0.73,315.99,010511,,,A*6F
$GPGGA,034448.997,1926.9335,S,06958.0525,W,1,06,1.4,1106.6,M,35.0,M,,0000*6E
$GPGSA,M,3,13,04,08,23,10,02,,,,,,,3.1,1.4,2.7*30
$GPRMC,034448.997,A,1926.9335,S,06958.0525,W,0.60,282.48,010511,,,A*6F
$GPGGA,034450.001,1926.9333,S,06958.0526,W,1,06,1.2,1105.2,M,35.0,M,,0000*65
$GPGSA,M,3,04,08,23,10,32,02,,,,,,,3.1,1.2,2.8*3A
$GPRMC,034450.001,A,1926.9333,S,06958.0526,W,0.39,307.16,010511,,,A*6E
$GPGGA,034450.999,1926.9333,S,06958.0528,W,1,05,1.4,1105.1,M,35.0,M,,0000*65
$GPGSA,M,3,13,04,08,23,02,,,,,,,,3.1,1.4,2.8*3E
$GPRMC,034450.999,A,1926.9333,S,06958.0528,W,0.23,66.37,010511,,,A*54
$GPGGA,034452.001,1926.9341,S,06958.0527,W,1,06,1.4,1108.3,M,35.0,M,,0000*69
$GPGSA,M,3,13,04,08,23,10,02,,,,,,,3.1,1.4,2.7*30
$GPRMC,034452.001,A,1926.9341,S,06958.0527,W,0.71,106.48,010511,,,A*6C
$GPGGA,034453.000,1926.9342,S,06958.0527,W,1,06,1.4,1106.8,M,35.0,M,,0000*6F
$GPGSA,M,3,13,04,08,23,10,02,,,,,,,3.1,1.4,2.7*30
$GPGSV,3,1,12,07,74,323,,13,44,180,25,20,44,080,,04,42,245,30*7A
$GPGSV,3,2,12,08,41,329,32,23,26,138,28,10,22,217,34,32,17,070,*78
$GPGSV,3,3,12,24,12,021,,02,12,224,30,17,07,312,,16,07,122,*7A
$GPRMC,034453.000,A,1926.9342,S,06958.0527,W,0.40,229.51,010511,,,A*6B
$GPGGA,034453.998,1926.9342,S,06958.0529,W,1,06,1.4,1107.3,M,35.0,M,,0000*63
$GPGSA,M,3,13,04,08,23,10,02,,,,,,,3.1,1.4,2.7*30
$GPRMC,034453.998,A,1926.9342,S,06958.0529,W,0.42,231.19,010511,,,A*6A
$GPGGA,034455.005,1926.9342,S,06958.0534,W,1,05,1.6,1107.5,M,35.0,M,,0000*63
$GPGSA,M,3,04,08,23,10,02,,,,,,,,4.1,1.6,3.8*39
$GPRMC,034455.005,A,1926.9342,S,06958.0534,W,0.61,249.35,010511,,,A*6D
$GPGGA,034455.999,1926.9345,S,06958.0535,W,1,06,1.4,1107.8,M,35.0,M,,0000*65
$GPGSA,M,3,13,04,08,23,10,02,,,,,,,3.1,1.4,2.7*30
$GPRMC,034455.999,A,1926.9345,S,06958.0535,W,0.35,108.95,010511,,,A*6A
$GPGGA,034456.999,1926.9346,S,06958.0534,W,1,06,1.4,1107.5,M,35.0,M,,0000*69
$GPGSA,M,3,13,04,08,23,10,02,,,,,,,3.1,1.4,2.7*30
$GPRMC,034456.999,A,1926.9346,S,06958.0534,W,0.37,358.39,010511,,,A*68
$GPGGA,034458.005,1926.9341,S,06958.0528,W,1,06,1.2,1105.1,M,35.0,M,,0000*61
$GPGSA,M,3,04,08,23,10,32,02,,,,,,,3.1,1.2,2.8*3A
$GPGSV,3,1,12,07,74,323,,13,44,180,,20,44,080,,04,42,245,31*7C
$GPGSV,3,2,12,08,41,329,35,23,26,138,29,10,22,217,35,32,17,070,24*79
$GPGSV,3,3,12,24,12,021,,02,12,224,32,17,07,312,24,16,07,122,*7E
$GPRMC,034458.005,A,1926.9341,S,06958.0528,W,1.05,84.16,010511,,,A*5F
$GPGGA,034458.992,1926.9341,S,06958.0532,W,1,06,1.4,1104.9,M,35.0,M,,0000*62
$GPGSA,M,3,13,04,08,23,10,02,,,,,,,3.1,1.4,2.7*30
$GPRMC,034458.992,A,1926.9341,S,06958.0532,W,0.41,251.46,010511,,,A*6D
$GPGGA,034500.006,1926.9342,S,06958.0530,W,1,07,1.0,1106.4,M,35.0,M,,0000*61
$GPGSA,M,3,13,04,08,23,10,32,02,,,,,,2.4,1.0,2.2*34
$GPRMC,034500.006,A,1926.9342,S,06958.0530,W,0.40,29.57,010511,,,A*58
$GPGGA,034500.996,1926.9341,S,06958.0534,W,1,05,1.6,1106.7,M,35.0,M,,0000*61
$GPGSA,M,3,04,08,23,10,02,,,,,,,,4.1,1.6,3.8*39
$GPRMC,034500.996,A,1926.9341,S,06958.0534,W,0.69,110.43,010511,,,A*6A
$GPGGA,034502.000,1926.9341,S,06958.0532,W,1,06,1.4,1107.0,M,35.0,M,,0000*64
$GPGSA,M,3,13,04,08,23,10,02,,,,,,,3.1,1.4,2.7*30
$GPRMC,034502.000,A,1926.9341,S,06958.0532,W,0.71,85.76,010511,,,A*5A
$GPGGA,034503.003,1926.9346,S,06958.0531,W,1,06,1.4,1110.2,M,35.0,M,,0000*66
$GPGSA,M,3,13,04,08,23,10,02,,,,,,,3.1,1.4,2.7*30
$GPGSV,3,1,12,07,74,323,,13,44,180,25,20,44,080,,04,42,245,29*72
$GPGSV,3,2,12,08,41,329,32,23,26,138,29,10,22,217,32,32,17,070,*7F
$GPGSV,3,3,12,24,12,021,,02,12,224,32,17,07,312,,16,07,122,*78
$GPRMC,034503.003,A,1926.9346,S,06958.0531,W,0.57,158.99,010511,,,A*68
$GPGGA,034504.001,1926.9346,S,06958.0529,W,1,05,1.6,1109.1,M,35.0,M,,0000*60
$GPGSA,M,3,04,08,23,10,02,,,,,,,,4.1,1.6,3.8*39
$GPRMC,034504.001,A,1926.9346,S,06958.0529,W,0.64,110.55,010511,,,A*68
$GPGGA,034505.000,1926.9344,S,06958.0530,W,1,05,1.6,1108.6,M,35.0,M,,0000*6C
$GPGSA,M,3,04,08,23,10,02,,,,,,,,4.1,1.6,3.8*39
$GPRMC,034505.000,A,1926.9344,S,06958.0530,W,0.63,132.43,010511,,,A*62
$GPGGA,034506.002,1926.9345,S,06958.0527,W,1,07,1.0,1108.6,M,35.0,M,,0000*6E
$GPGSA,M,3,13,04,08,23,10,32,02,,,,,,2.4,1.0,2.2*34
$GPRMC,034506.002,A,1926.9345,S,06958.0527,W,0.06,181.81,010511,,,A*61
$GPGGA,034506.999,1926.9345,S,06958.0526,W,1,05,1.6,1107.6,M,35.0,M,,0000*6F
$GPGSA,M,3,04,08,23,10,02,,,,,,,,4.1,1.6,3.8*39
$GPRMC,034506.999,A,1926.9345,S,06958.0526,W,0.48,131.91,010511,,,A*6B
$GPGGA,034508.001,1926.9345,S,06958.0529,W,1,05,1.6,1107.7,M,35.0,M,,0000*67
$GPGSA,M,3,04,08,23,10,02,,,,,,,,4.1,1.6,3.8*39
$GPGSV,3,1,12,07,74,323,,13,44,180,,20,44,080,,04,42,245,32*7F
$GPGSV,3,2,12,08,41,329,34,23,26,138,29,10,22,217,35,32,17,070,*7E
$GPGSV,3,3,12,24,12,021,,02,12,224,34,17,07,312,,16,07,122,*7E
$GPRMC,034508.001,A,1926.9345,S,06958.0529,W,0.53,243.08,010511,,,A*6E
$GPGGA,034508.999,1926.9342,S,06958.0530,W,1,06,1.2,1105.8,M,35.0,M,,0000*6A
$GPGSA,M,3,04,08,23,10,32,02,,,,,,,3.1,1.2,2.8*3A
$GPRMC,034508.999,A,1926.9342,S,06958.0530,W,0.54,91.30,010511,,,A*58
$GPGGA,034510.000,1926.9345,S,06958.0528,W,1,06,1.4,1107.6,M,35.0,M,,0000*6E
$GPGSA,M,3,13,04,08,23,10,02,,,,,,,3.1,1.4,2.7*30
$GPRMC,034510.000,A,1926.9345,S,06958.0528,W,0.65,83.95,010511,,,A*58
$GPGGA,034511.001,1926.9350,S,06958.0529,W,1,06,1.4,1109.9,M,35.0,M,,0000*6A
$GPGSA,M,3,13,04,08,23,10,02,,,,,,,3.1,1.4,2.7*30
$GPRMC,034511.001,A,1926.9350,S,06958.0529,W,0.17,112.40,010511,,,A*69
$GPGGA,034512.002,1926.9348,S,06958.0527,W,1,05,1.6,1109.4,M,35.0,M,,0000*61
$GPGSA,M,3,04,08,23,10,02,,,,,,,,4.1,1.6,3.8*39
$GPRMC,034512.002,A,1926.9348,S,06958.0527,W,1.33,96.88,010511,,,A*50
$GPGGA,034513.001,1926.9350,S,06958.0522,W,1,06,1.4,1109.7,M,35.0,M,,0000*6D
$GPGSA,M,3,13,04,08,23,10,02,,,,,,,3.1,1.4,2.7*30
$GPGSV,3,1,12,07,74,323,,13,44,180,26,20,44,080,,04,42,245,31*78
$GPGSV,3,2,12,08,41,329,34,23,26,138,29,10,22,217,35,32,17,070,*7E
$GPGSV,3,3,12,24,12,021,,02,12,224,33,17,07,312,24,16,07,122,*7F
$GPRMC,034513.001,A,1926.9350,S,06958.0522,W,0.78,130.20,010511,,,A*6F
$GPGGA,034513.999,1926.9352,S,06958.0520,W,1,05,1.6,1111.2,M,35.0,M,,0000*68
$GPGSA,M,3,04,08,23,10,02,,,,,,,,4.2,1.6,3.8*3A
$GPRMC,034513.999,A,1926.9352,S,06958.0520,W,1.30,102.80,010511,,,A*61
$GPGGA,034514.999,1926.9353,S,06958.0518,W,1,06,1.4,1111.2,M,35.0,M,,0000*64
$GPGSA,M,3,13,04,08,23,10,02,,,,,,,3.1,1.4,2.7*30
$GPRMC,034514.999,A,1926.9353,S,06958.0518,W,0.66,255.86,010511,,,A*69
$GPGGA,034516.004,1926.9355,S,06958.0519,W,1,07,1.0,1113.1,M,35.0,M,,0000*68
$GPGSA,M,3,13,04,08,23,10,32,02,,,,,,2.4,1.0,2.2*34
$GPRMC,034516.004,A,1926.9355,S,06958.0519,W,0.76,97.68,010511,,,A*5C
$GPGGA,034517.002,1926.9358,S,06958.0521,W,1,07,1.0,1114.3,M,35.0,M,,0000*6C
$GPGSA,M,3,13,04,08,23,10,32,02,,,,,,2.4,1.0,2.2*34
$GPRMC,034517.002,A,1926.9358,S,06958.0521,W,0.44,184.62,010511,,,A*65
$GPGGA,034518.001,1926.9359,S,06958.0527,W,1,05,1.6,1114.6,M,35.0,M,,0000*66
$GPGSA,M,3,04,08,23,10,02,,,,,,,,4.2,1.6,3.8*3A
$GPGSV,3,1,12,07,74,323,,13,44,180,,20,44,080,,04,42,245,30*7D
$GPGSV,3,2,12,08,41,329,32,23,26,138,28,10,22,217,33,32,17,070,*7F
$GPGSV,3,3,12,24,12,021,,02,12,224,32,17,07,312,,16,07,122,*78
$GPRMC,034518.001,A,1926.9359,S,06958.0527,W,0.94,264.57,010511,,,A*68
$GPGGA,034518.999,1926.9361,S,06958.0531,W,1,06,1.4,1116.2,M,35.0,M,,0000*65
$GPGSA,M,3,13,04,08,23,10,02,,,,,,,3.1,1.4,2.7*30
$GPRMC,034518.999,A,1926.9361,S,06958.0531,W,0.33,208.43,010511,,,A*6E
$GPGGA,034519.999,1926.9359,S,06958.0530,W,1,05,1.6,1115.3,M,35.0,M,,0000*6D
$GPGSA,M,3,04,08,23,10,02,,,,,,,,4.2,1.6,3.8*3A
$GPRMC,034519.999,A,1926.9359,S,06958.0530,W,0.32,83.29,010511,,,A*59
$GPGGA,034521.000,1926.9359,S,06958.0527,W,1,05,1.6,1114.4,M,35.0,M,,0000*6F
$GPGSA,M,3,04,08,23,10,02,,,,,,,,4.2,1.6,3.8*3A
$GPRMC,034521.000,A,1926.9359,S,06958.0527,W,0.43,133.51,010511,,,A*6E
$GPGGA,034522.002,1926.9357,S,06958.0525,W,1,04,1.7,1113.3,M,35.0,M,,0000*62
$GPGSA,M,3,04,08,23,02,,,,,,,,,4.2,1.7,3.8*3A
$GPRMC,034522.002,A,1926.9357,S,06958.0525,W,0.51,182.61,010511,,,A*69
$GPGGA,034523.000,1926.9361,S,06958.0524,W,1,06,1.4,1115.4,M,35.0,M,,0000*65
$GPGSA,M,3,13,04,08,23,10,02,,,,,,,3.1,1.4,2.7*30
$GPGSV,3,1,12,07,74,323,,13,44,180,26,20,44,080,,04,42,245,31*78
$GPGSV,3,2,12,08,41,329,33,23,26,138,30,10,22,217,35,32,17,070,*71
$GPGSV,3,3,12,24,12,021,,02,12,224,34,17,07,312,,16,07,122,*7E
$GPRMC,034523.000,A,1926.9361,S,06958.0524,W,0.72,197.39,010511,,,A*66
$GPGGA,034524.000,1926.9362,S,06958.0525,W,1,05,1.6,1115.4,M,35.0,M,,0000*61
$GPGSA,M,3,04,08,23,10,02,,,,,,,,4.2,1.6,3.8*3A
$GPRMC,034524.000,A,1926.9362,S,06958.0525,W,0.25,49.15,010511,,,A*5D
$GPGGA,034525.004,1926.9367,S,06958.0526,W,1,06,1.4,1116.4,M,35.0,M,,0000*60
$GPGSA,M,3,13,04,08,23,10,02,,,,,,,3.1,1.4,2.7*30
$GPRMC,034525.004,A,1926.9367,S,06958.0526,W,0.61,143.52,010511,,,A*66
$GPGGA,034525.997,1926.9368,S,06958.0528,W,1,06,1.4,1118.0,M,35.0,M,,0000*68
$GPGSA,M,3,13,04,08,23,10,02,,,,,,,3.1,1.4,2.7*30
$GPRMC,034525.997,A,1926.9368,S,06958.0528,W,0.80,144.91,010511,,,A*63
$GPGGA,034527.000,1926.9365,S,06958.0527,W,1,05,1.6,1117.1,M,35.0,M,,0000*60
$GPGSA,M,3,04,08,23,10,02,,,,,,,,4.2,1.6,3.8*3A
$GPRMC,034527.000,A,1926.9365,S,06958.0527,W,0.46,87.13,010511,,,A*5A
$GPGGA,034528.003,1926.9366,S,06958.0525,W,1,06,1.4,1117.0,M,35.0,M,,0000*6D
$GPGSA,M,3,13,04,08,23,10,02,,,,,,,3.1,1.4,2.7*30
$GPGSV,3,1,12,07,74,323,,13,44,180,27,20,44,080,,04,42,245,31*79
$GPGSV,3,2,12,08,41,329,34,23,26,138,30,10,22,217,35,32,17,070,*76
$GPGSV,3,3,12,24,12,021,,02,12,224,33,17,07,312,24,16,07,122,*7F
$GPRMC,034528.003,A,1926.9366,S,06958.0525,W,0.63,346.73,010511,,,A*68
$GPGGA,034529.002,1926.9362,S,06958.0525,W,1,05,1.6,1114.9,M,35.0,M,,0000*62
$GPGSA,M,3,04,08,23,10,02,,,,,,,,4.2,1.6,3.8*3A
$GPRMC,034529.002,A,1926.9362,S,06958.0525,W,0.18,193.24,010511,,,A*68
$GPGGA,034529.999,1926.9363,S,06958.0528,W,1,05,1.6,1115.3,M,35.0,M,,0000*6E
$GPGSA,M,3,04,08,23,10,02,,,,,,,,4.2,1.6,3.8*3A
$GPRMC,034529.999,A,1926.9363,S,06958.0528,W,0.70,259.89,010511,,,A*63
$GPGGA,034531.000,1926.9360,S,06958.0530,W,1,04,7.4,1114.2,M,35.0,M,,0000*61
$GPGSA,M,3,04,08,10,02,,,,,,,,,8.4,7.4,4.1*3B
$GPRMC,034531.000,A,1926.9360,S,06958.0530,W,1.33,283.57,010511,,,A*6B
$GPGGA,034532.002,1926.9357,S,06958.0530,W,1,06,1.4,1111.9,M,35.0,M,,0000*6E
$GPGSA,M,3,13,04,08,23,10,02,,,,,,,3.1,1.4,2.7*30
$GPRMC,034532.002,A,1926.9357,S,06958.0530,W,0.35,28.76,010511,,,A*59
$GPGGA,034533.000,1926.9356,S,06958.0534,W,1,06,1.4,1111.7,M,35.0,M,,0000*66
$GPGSA,M,3,13,04,08,23,10,02,,,,,,,3.1,1.4,2.7*30
$GPGSV,3,1,12,07,74,323,,13,44,180,25,20,44,080,,04,42,245,30*7A
$GPGSV,3,2,12,08,41,329,33,23,26,138,27,10,22,217,35,32,17,070,*77
$GPGSV,3,3,12,24,12,021,,02,12,224,31,17,07,312,,16,07,122,*7B
$GPRMC,034533.000,A,1926.9356,S,06958.0534,W,0.09,154.41,010511,,,A*6E
$GPGGA,034534.002,1926.9354,S,06958.0536,W,1,05,1.6,1112.2,M,35.0,M,,0000*64
$GPGSA,M,3,04,08,23,10,02,,,,,,,,4.2,1.6,3.8*3A
$GPRMC,034534.002,A,1926.9354,S,06958.0536,W,1.10,64.29,010511,,,A*5E
$GPGGA,034534.999,1926.9352,S,06958.0534,W,1,06,1.4,1111.4,M,35.0,M,,0000*6F
$GPGSA,M,3,13,04,08,23,10,02,,,,,,,3.1,1.4,2.8*3F
$GPRMC,034534.999,A,1926.9352,S,06958.0534,W,0.46,356.40,010511,,,A*6E
$GPGGA,034536.002,1926.9350,S,06958.0532,W,1,06,1.4,1111.5,M,35.0,M,,0000*63
$GPGSA,M,3,13,04,08,23,10,02,,,,,,,3.1,1.4,2.8*3F
$GPRMC,034536.002,A,1926.9350,S,06958.0532,W,0.64,33.30,010511,,,A*54
$GPGGA,034537.001,1926.9350,S,06958.0534,W,1,07,1.0,1111.3,M,35.0,M,,0000*64
$GPGSA,M,3,13,04,08,23,10,32,02,,,,,,2.4,1.0,2.2*34
$GPRMC,034537.001,A,1926.9350,S,06958.0534,W,0.37,235.74,010511,,,A*62
$GPGGA,034538.003,1926.9350,S,06958.0536,W,1,05,1.6,1110.2,M,35.0,M,,0000*6F
$GPGSA,M,3,04,08,23,10,02,,,,,,,,4.2,1.6,3.8*3A
$GPGSV,3,1,12,07,74,323,,13,44,180,,20,44,080,,04,42,245,30*7D
$GPGSV,3,2,12,08,41,329,34,23,26,138,29,10,22,217,34,32,17,070,*7F
$GPGSV,3,3,12,24,12,021,,02,12,224,33,17,07,312,,16,07,122,*79
$GPRMC,034538.003,A,1926.9350,S,06958.0536,W,0.22,314.96,010511,,,A*67
$GPGGA,034539.000,1926.9351,S,06958.0537,W,1,05,1.6,1109.1,M,35.0,M,,0000*66
$GPGSA,M,3,04,08,23,10,02,,,,,,,,4.2,1.6,3.8*3A
$GPRMC,034539.000,A,1926.9351,S,06958.0537,W,0.48,255.34,010511,,,A*65
$GPGGA,034539.996,1926.9350,S,06958.0536,W,1,06,1.4,1108.3,M,35.0,M,,0000*62
$GPGSA,M,3,13,04,08,23,10,02,,,,,,,3.1,1.4,2.8*3F
$GPRMC,034539.996,A,1926.9350,S,06958.0536,W,0.20,127.01,010511,,,A*6D
$GPGGA,034541.000,1926.9349,S,06958.0533,W,1,06,1.4,1109.4,M,35.0,M,,0000*60
$GPGSA,M,3,13,04,08,23,10,02,,,,,,,3.1,1.4,2.8*3F
$GPRMC,034541.000,A,1926.9349,S,06958.0533,W,0.35,213.86,010511,,,A*66
$GPGGA,034542.003,1926.9350,S,06958.0532,W,1,05,1.6,1109.8,M,35.0,M,,0000*64
$GPGSA,M,3,04,08,23,10,02,,,,,,,,4.2,1.6,3.8*3A
$GPRMC,034542.003,A,1926.9350,S,06958.0532,W,0.46,111.84,010511,,,A*68
$GPGGA,034543.000,1926.9356,S,06958.0532,W,1,06,1.4,1113.7,M,35.0,M,,0000*65
$GPGSA,M,3,13,04,08,23,10,02,,,,,,,3.1,1.4,2.8*3F
$GPGSV,3,1,12,07,74,323,,13,44,180,27,20,44,080,,04,42,245,30*78
$GPGSV,3,2,12,08,41,329,34,23,26,138,30,10,22,217,35,32,17,070,*76
$GPGSV,3,3,12,24,12,021,,02,12,224,34,17,07,312,24,16,07,122,*78
$GPRMC,034543.000,A,1926.9356,S,06958.0532,W,0.74,192.49,010511,,,A*67
$GPGGA,034544.000,1926.9354,S,06958.0535,W,1,05,1.6,1112.7,M,35.0,M,,0000*67
$GPGSA,M,3,04,08,23,10,02,,,,,,,,4.2,1.6,3.9*3B
$GPRMC,034544.000,A,1926.9354,S,06958.0535,W,0.49,200.75,010511,,,A*6C
$GPGGA,034545.000,1926.9353,S,06958.0538,W,1,05,1.6,1111.7,M,35.0,M,,0000*6F
$GPGSA,M,3,04,08,23,10,02,,,,,,,,4.2,1.6,3.9*3B
$GPRMC,034545.000,A,1926.9353,S,06958.0538,W,0.82,282.96,010511,,,A*67
$GPGGA,034546.000,1926.9351,S,06958.0540,W,1,05,1.6,1111.5,M,35.0,M,,0000*63
$GPGSA,M,3,04,08,23,10,02,,,,,,,,4.2,1.6,3.9*3B
$GPRMC,034546.000,A,1926.9351,S,06958.0540,W,0.57,3.84,010511,,,A*69
$GPGGA,034546.998,1926.9353,S,06958.0542,W,1,06,1.4,1113.8,M,35.0,M,,0000*65
$GPGSA,M,3,13,04,08,23,10,02,,,,,,,3.1,1.4,2.8*3F
$GPRMC,034546.998,A,1926.9353,S,06958.0542,W,0.84,286.31,010511,,,A*6E
$GPGGA,034548.003,1926.9353,S,06958.0540,W,1,05,1.6,1114.5,M,35.0,M,,0000*69
$GPGSA,M,3,04,08,23,10,02,,,,,,,,4.2,1.6,3.9*3B
$GPGSV,3,1,12,07,74,323,,13,44,180,,20,44,080,,04,42,245,30*7D
$GPGSV,3,2,12,08,41,329,33,23,26,138,28,10,22,217,34,32,17,070,*79
$GPGSV,3,3,12,24,12,021,,02,12,224,31,17,07,312,,16,07,122,*7B
$GPRMC,034548.003,A,1926.9353,S,06958.0540,W,0.47,103.59,010511,,,A*66
$GPGGA,034549.000,1926.9350,S,06958.0538,W,1,06,1.4,1112.4,M,35.0,M,,0000*61
$GPGSA,M,3,13,04,08,23,10,02,,,,,,,3.1,1.4,2.8*3F
$GPRMC,034549.000,A,1926.9350,S,06958.0538,W,0.87,50.24,010511,,,A*59
$GPGGA,034549.999,1926.9357,S,06958.0538,W,1,06,1.4,1115.4,M,35.0,M,,0000*68
$GPGSA,M,3,13,04,08,23,10,02,,,,,,,3.1,1.4,2.8*3F
$GPRMC,034549.999,A,1926.9357,S,06958.0538,W,0.59,143.65,010511,,,A*62
$GPGGA,034551.003,1926.9355,S,06958.0534,W,1,05,1.4,1113.8,M,35.0,M,,0000*6C
$GPGSA,M,3,13,04,08,23,02,,,,,,,,3.1,1.4,2.8*3E
$GPRMC,034551.003,A,1926.9355,S,06958.0534,W,0.82,126.30,010511,,,A*6A
$GPGGA,034551.999,1926.9357,S,06958.0531,W,1,06,1.4,1115.5,M,35.0,M,,0000*69
$GPGSA,M,3,13,04,08,23,10,02,,,,,,,3.1,1.4,2.8*3F
$GPRMC,034551.999,A,1926.9357,S,06958.0531,W,0.60,76.42,010511,,,A*5A
$GPGGA,034553.003,1926.9356,S,06958.0535,W,1,06,1.4,1115.3,M,35.0,M,,0000*62
$GPGSA,M,3,13,04,08,23,10,02,,,,,,,3.1,1.4,2.8*3F
$GPGSV,3,1,12,07,74,323,,13,44,180,27,20,44,080,,04,42,245,31*79
$GPGSV,3,2,12,08,41,329,34,23,26,138,28,10,22,217,35,32,17,070,*7F
$GPGSV,3,3,12,24,12,021,,02,12,224,33,17,07,312,24,16,07,122,*7F
$GPRMC,034553.003,A,1926.9356,S,06958.0535,W,0.13,277.72,010511,,,A*63
$GPGGA,034554.000,1926.9356,S,06958.0536,W,1,05,1.6,1115.2,M,35.0,M,,0000*65
$GPGSA,M,3,04,08,23,10,02,,,,,,,,4.2,1.6,3.9*3B
$GPRMC,034554.000,A,1926.9356,S,06958.0536,W,0.27,185.90,010511,,,A*61
$GPGGA,034555.000,1926.9359,S,06958.0534,W,1,06,1.4,1116.3,M,35.0,M,,0000*6A
$GPGSA,M,3,13,04,08,23,10,02,,,,,,,3.1,1.4,2.8*3F
$GPRMC,034555.000,A,1926.9359,S,06958.0534,W,0.64,237.63,010511,,,A*6C
$GPGGA,034555.999,1926.9356,S,06958.0537,W,1,06,1.4,1115.0,M,35.0,M,,0000*6F
$GPGSA,M,3,13,04,08,23,10,02,,,,,,,3.1,1.4,2.8*3F
$GPRMC,034555.999,A,1926.9356,S,06958.0537,W,0.36,267.65,010511,,,A*6D
$GPGGA,034557.002,1926.9355,S,06958.0538,W,1,06,1.4,1115.6,M,35.0,M,,0000*6C
$GPGSA,M,3,13,04,08,23,10,02,,,,,,,3.1,1.4,2.8*3F
$GPRMC,034557.002,A,1926.9355,S,06958.0538,W,0.82,345.04,010511,,,A*61
$GPGGA,034557.999,1926.9352,S,06958.0539,W,1,06,1.4,1113.8,M,35.0,M,,0000*69
$GPGSA,M,3,13,04,08,23,10,02,,,,,,,3.1,1.4,2.8*3F
$GPGSV,3,1,12,07,74,323,,13,44,180,26,20,44,080,,04,42,245,31*78
$GPGSV,3,2,12,08,41,329,33,23,26,138,29,10,22,217,35,32,17,070,*79
$GPGSV,3,3,12,24,12,021,,02,12,224,34,17,07,312,,16,07,122,*7E
$GPRMC,034557.999,A,1926.9352,S,06958.0539,W,0.44,142.61,010511,,,A*60
$GPGGA,034559.001,1926.9351,S,06958.0538,W,1,06,1.4,1113.6,M,35.0,M,,0000*63
$GPGSA,M,3,13,04,08,23,10,02,,,,,,,3.1,1.4,2.8*3F
$GPRMC,034559.001,A,1926.9351,S,06958.0538,W,0.75,87.07,010511,,,A*5E
$GPGGA,034600.001,1926.9352,S,06958.0536,W,1,06,1.4,1113.6,M,35.0,M,,0000*61
$GPGSA,M,3,13,04,08,23,10,02,,,,,,,3.1,1.4,2.8*3F
$GPRMC,034600.001,A,1926.9352,S,06958.0536,W,0.18,183.40,010511,,,A*61
$GPGGA,034601.003,1926.9348,S,06958.0537,W,1,06,1.4,1112.8,M,35.0,M,,0000*67
$GPGSA,M,3,13,04,08,23,10,02,,,,,,,3.1,1.4,2.8*3F
$GPRMC,034601.003,A,1926.9348,S,06958.0537,W,0.98,27.13,010511,,,A*59
$GPGGA,034602.000,1926.9345,S,06958.0534,W,1,05,1.6,1111.6,M,35.0,M,,0000*65
$GPGSA,M,3,04,08,23,10,02,,,,,,,,4.2,1.6,3.9*3B
$GPRMC,034602.000,A,1926.9345,S,06958.0534,W,0.63,214.95,010511,,,A*6F
$GPGGA,034602.999,1926.9347,S,06958.0541,W,1,06,1.4,1112.0,M,35.0,M,,0000*68
$GPGSA,M,3,13,04,08,23,10,02,,,,,,,3.1,1.4,2.8*3F
$GPGSV,3,1,12,07,74,323,,13,44,180,26,20,44,080,,04,42,245,29*71
$GPGSV,3,2,12,08,41,329,32,23,26,138,28,10,22,217,34,32,17,070,*78
$GPGSV,3,3,12,24,12,021,,02,12,224,33,17,07,312,,16,07,122,*79
$GPRMC,034602.999,A,1926.9347,S,06958.0541,W,0.48,264.16,010511,,,A*63
$GPGGA,034604.000,1926.9346,S,06958.0542,W,1,05,1.6,1111.4,M,35.0,M,,0000*63
$GPGSA,M,3,04,08,23,10,02,,,,,,,,4.2,1.6,3.9*3B
$GPRMC,034604.000,A,1926.9346,S,06958.0542,W,0.64,307.19,010511,,,A*6B
$GPGGA,034605.002,1926.9346,S,06958.0540,W,1,05,1.6,1110.0,M,35.0,M,,0000*67
$GPGSA,M,3,04,08,23,10,02,,,,,,,,4.2,1.6,3.9*3B
$GPRMC,034605.002,A,1926.9346,S,06958.0540,W,0.67,179.94,010511,,,A*67
$GPGGA,034605.999,1926.9342,S,06958.0542,W,1,06,1.4,1106.6,M,35.0,M,,0000*6A
$GPGSA,M,3,13,04,08,23,10,02,,,,,,,3.1,1.4,2.8*3F
$GPRMC,034605.999,A,1926.9342,S,06958.0542,W,0.98,159.97,010511,,,A*6B
$GPGGA,034607.000,1926.9344,S,06958.0542,W,1,06,1.4,1107.8,M,35.0,M,,0000*68
$GPGSA,M,3,13,04,08,23,10,02,,,,,,,3.1,1.4,2.8*3F
$GPRMC,034607.000,A,1926.9344,S,06958.0542,W,0.67,76.58,010511,,,A*59
$GPGGA,034608.002,1926.9342,S,06958.0545,W,1,06,1.4,1107.9,M,35.0,M,,0000*65
$GPGSA,M,3,13,04,08,23,10,02,,,,,,,3.1,1.4,2.8*3F
$GPGSV,3,1,12,07,74,323,,13,44,180,26,20,44,080,,04,42,245,32*7B
$GPGSV,3,2,12,08,41,329,34,23,26,138,29,10,22,217,35,32,17,070,*7E
$GPGSV,3,3,12,24,12,021,,02,12,224,34,17,07,312,24,16,07,122,*78
$GPRMC,034608.002,A,1926.9342,S,06958.0545,W,0.58,114.22,010511,,,A*61
$GPGGA,034609.000,1926.9346,S,06958.0545,W,1,06,1.4,1110.7,M,35.0,M,,0000*6A
$GPGSA,M,3,13,04,08,23,10,02,,,,,,,3.1,1.4,2.8*3F
$GPRMC,034609.000,A,1926.9346,S,06958.0545,W,0.72,75.96,010511,,,A*57
$GPGGA,034610.000,1926.9344,S,06958.0545,W,1,06,1.4,1111.3,M,35.0,M,,0000*65
$GPGSA,M,3,13,04,08,23,10,02,,,,,,,3.1,1.4,2.8*3F
$GPRMC,034610.000,A,1926.9344,S,06958.0545,W,0.26,188.80,010511,,,A*68
$GPGGA,034611.002,1926.9345,S,06958.0546,W,1,05,1.6,1110.4,M,35.0,M,,0000*63
$GPGSA,M,3,08,04,23,10,02,,,,,,,,4.2,1.6,3.9*3B
$GPRMC,034611.002,A,1926.9345,S,06958.0546,W,1.27,244.52,010511,,,A*65
$GPGGA,034611.999,1926.9347,S,06958.0547,W,1,06,1.4,1111.2,M,35.0,M,,0000*6D
$GPGSA,M,3,13,08,04,23,10,02,,,,,,,3.1,1.4,2.8*3F
$GPRMC,034611.999,A,1926.9347,S,06958.0547,W,0.73,164.46,010511,,,A*69
$GPGGA,034612.998,1926.9348,S,06958.0545,W,1,06,1.4,1111.1,M,35.0,M,,0000*61
$GPGSA,M,3,13,08,04,23,10,02,,,,,,,3.1,1.4,2.8*3F
$GPGSV,3,1,12,07,76,320,,13,44,178,26,20,43,078,,08,43,328,33*7B
$GPGSV,3,2,12,04,43,246,30,23,26,137,30,10,23,216,35,32,16,069,*72
$GPGSV,3,3,12,02,13,224,34,24,11,021,,17,07,313,,16,07,123,*7C
$GPRMC,034612.998,A,1926.9348,S,06958.0545,W,0.29,188.45,010511,,,A*68
$GPGGA,034614.003,1926.9348,S,06958.0542,W,1,06,1.4,1111.4,M,35.0,M,,0000*6E
$GPGSA,M,3,13,08,04,23,10,02,,,,,,,3.1,1.4,2.8*3F
$GPRMC,034614.003,A,1926.9348,S,06958.0542,W,0.23,205.08,010511,,,A*67
$GPGGA,034615.004,1926.9348,S,06958.0541,W,1,06,1.4,1111.7,M,35.0,M,,0000*68
$GPGSA,M,3,13,08,04,23,10,02,,,,,,,3.1,1.4,2.8*3F
$GPRMC,034615.004,A,1926.9348,S,06958.0541,W,0.48,56.91,010511,,,A*5B
$GPGGA,034616.001,1926.9348,S,06958.0542,W,1,05,1.6,1109.9,M,35.0,M,,0000*6B
$GPGSA,M,3,08,04,23,10,02,,,,,,,,4.2,1.6,3.9*3B
$GPRMC,034616.001,A,1926.9348,S,06958.0542,W,0.53,212.50,010511,,,A*6B
$GPGGA,034616.999,1926.9351,S,06958.0543,W,1,06,1.4,1111.3,M,35.0,M,,0000*68
$GPGSA,M,3,13,08,04,23,10,02,,,,,,,3.1,1.4,2.8*3F
$GPRMC,034616.999,A,1926.9351,S,06958.0543,W,0.75,266.90,010511,,,A*61
$GPGGA,034618.000,1926.9350,S,06958.0548,W,1,06,1.4,1111.9,M,35.0,M,,0000*6F
$GPGSA,M,3,13,08,04,23,10,02,,,,,,,3.1,1.4,2.8*3F
$GPGSV,3,1,12,07,76,320,,13,44,178,26,20,43,078,,08,43,328,32*7A
$GPGSV,3,2,12,04,43,246,30,23,26,137,28,10,23,216,34,32,16,069,*7A
$GPGSV,3,3,12,02,13,224,33,24,11,021,,17,07,313,,16,07,123,*7B
$GPRMC,034618.000,A,1926.9350,S,06958.0548,W,0.49,304.23,010511,,,A*6E
$GPGGA,034618.999,1926.9349,S,06958.0549,W,1,05,1.6,1111.6,M,35.0,M,,0000*61
$GPGSA,M,3,08,04,23,10,02,,,,,,,,4.2,1.6,3.9*3B
$GPRMC,034618.999,A,1926.9349,S,06958.0549,W,0.16,104.02,010511,,,A*65
$GPGGA,034620.005,1926.9343,S,06958.0549,W,1,05,1.6,1110.2,M,35.0,M,,0000*69
$GPGSA,M,3,08,04,23,10,02,,,,,,,,4.2,1.6,3.9*3B
$GPRMC,034620.005,A,1926.9343,S,06958.0549,W,0.59,315.42,010511,,,A*65
$GPGGA,034620.996,1926.9345,S,06958.0549,W,1,06,1.4,1110.5,M,35.0,M,,0000*6A
$GPGSA,M,3,13,08,04,23,10,02,,,,,,,3.1,1.4,2.8*3F
$GPRMC,034620.996,A,1926.9345,S,06958.0549,W,0.60,200.66,010511,,,A*69
$GPGGA,034622.000,1926.9346,S,06958.0551,W,1,06,1.4,1110.9,M,35.0,M,,0000*68
$GPGSA,M,3,13,08,04,23,10,02,,,,,,,3.1,1.4,2.8*3F
$GPRMC,034622.000,A,1926.9346,S,06958.0551,W,0.46,269.58,010511,,,A*61
$GPGGA,034623.000,1926.9347,S,06958.0552,W,1,06,1.4,1110.9,M,35.0,M,,0000*6B
$GPGSA,M,3,13,08,04,23,10,02,,,,,,,3.1,1.4,2.8*3F
$GPGSV,3,1,12,07,76,320,,13,44,178,26,20,43,078,,08,43,328,33*7B
$GPGSV,3,2,12,04,43,246,32,23,26,137,29,10,23,216,34,32,16,069,*79
$GPGSV,3,3,12,02,13,224,34,24,11,021,,17,07,313,,16,07,123,*7C
$GPRMC,034623.000,A,1926.9347,S,06958.0552,W,0.71,273.19,010511,,,A*68
$GPGGA,034624.000,1926.9351,S,06958.0554,W,1,06,1.4,1112.8,M,35.0,M,,0000*6E
$GPGSA,M,3,13,08,04,23,10,02,,,,,,,3.1,1.4,2.8*3F
$GPRMC,034624.000,A,1926.9351,S,06958.0554,W,0.72,275.49,010511,,,A*6E
$GPGGA,034624.999,1926.9349,S,06958.0556,W,1,05,1.6,1112.7,M,35.0,M,,0000*62
$GPGSA,M,3,08,04,23,10,02,,,,,,,,4.2,1.6,3.9*3B
$GPRMC,034624.999,A,1926.9349,S,06958.0556,W,0.28,22.20,010511,,,A*5C
$GPGGA,034626.001,1926.9350,S,06958.0552,W,1,06,1.4,1113.8,M,35.0,M,,0000*6B
$GPGSA,M,3,13,08,04,23,10,02,,,,,,,3.1,1.4,2.8*3F
$GPRMC,034626.001,A,1926.9350,S,06958.0552,W,0.56,99.22,010511,,,A*51
$GPGGA,034627.003,1926.9347,S,06958.0550,W,1,05,1.5,1111.6,M,35.0,M,,0000*62
$GPGSA,M,3,13,08,04,23,02,,,,,,,,3.1,1.5,2.8*3F
$GPRMC,034627.003,A,1926.9347,S,06958.0550,W,0.94,133.60,010511,,,A*6F
$GPGGA,034628.000,1926.9353,S,06958.0549,W,1,06,1.4,1113.9,M,35.0,M,,0000*6C
$GPGSA,M,3,13,08,04,23,10,02,,,,,,,3.1,1.4,2.8*3F
$GPGSV,3,1,12,07,76,320,,13,44,178,26,20,43,078,,08,43,328,34*7C
$GPGSV,3,2,12,04,43,246,31,23,26,137,30,10,23,216,35,32,16,069,*73
$GPGSV,3,3,12,02,13,224,34,24,11,021,,17,07,313,22,16,07,123,*7C
$GPRMC,034628.000,A,1926.9353,S,06958.0549,W,0.84,113.44,010511,,,A*6B
$GPGGA,034629.002,1926.9354,S,06958.0545,W,1,05,1.6,1112.9,M,35.0,M,,0000*64
$GPGSA,M,3,08,04,23,10,02,,,,,,,,4.2,1.6,3.9*3B
$GPRMC,034629.002,A,1926.9354,S,06958.0545,W,0.68,168.26,010511,,,A*69
$GPGGA,034629.998,1926.9355,S,06958.0547,W,1,05,1.6,1113.4,M,35.0,M,,0000*61
$GPGSA,M,3,08,04,23,10,02,,,,,,,,4.2,1.6,3.9*3B
$GPRMC,034629.998,A,1926.9355,S,06958.0547,W,0.53,67.66,010511,,,A*52
$GPGGA,034631.002,1926.9353,S,06958.0548,W,1,06,1.4,1113.5,M,35.0,M,,0000*6B
$GPGSA,M,3,13,08,04,23,10,02,,,,,,,3.1,1.4,2.8*3F
$GPRMC,034631.002,A,1926.9353,S,06958.0548,W,0.48,0.45,010511,,,A*62
$GPGGA,034632.000,1926.9352,S,06958.0548,W,1,06,1.4,1114.0,M,35.0,M,,0000*69
$GPGSA,M,3,13,08,04,23,10,02,,,,,,,3.1,1.4,2.8*3F
$GPRMC,034632.000,A,1926.9352,S,06958.0548,W,0.67,21.02,010511,,,A*5F
$GPGGA,034633.002,1926.9349,S,06958.0549,W,1,05,1.6,1112.9,M,35.0,M,,0000*6F
$GPGSA,M,3,08,04,23,10,02,,,,,,,,4.2,1.6,3.9*3B
$GPGSV,3,1,12,07,76,320,,13,44,178,,20,43,078,,08,43,328,31*7D
$GPGSV,3,2,12,04,43,246,29,23,26,137,28,10,23,216,34,32,16,069,*72
$GPGSV,3,3,12,02,13,224,31,24,11,021,,17,07,313,,16,07,123,*79
$GPRMC,034633.002,A,1926.9349,S,06958.0549,W,0.20,277.56,010511,,,A*64
$GPGGA,034633.999,1926.9351,S,06958.0551,W,1,06,1.4,1114.9,M,35.0,M,,0000*63
$GPGSA,M,3,13,08,04,23,10,02,,,,,,,3.1,1.4,2.8*3F
$GPRMC,034633.999,A,1926.9351,S,06958.0551,W,0.13,159.16,010511,,,A*64
$GPGGA,034635.001,1926.9349,S,06958.0552,W,1,05,1.6,1112.8,M,35.0,M,,0000*61
$GPGSA,M,3,08,04,23,10,02,,,,,,,,4.2,1.6,3.9*3B
$GPRMC,034635.001,A,1926.9349,S,06958.0552,W,1.19,221.56,010511,,,A*63
$GPGGA,034636.000,1926.9352,S,06958.0552,W,1,06,1.4,1112.7,M,35.0,M,,0000*67
$GPGSA,M,3,13,08,04,23,10,02,,,,,,,3.1,1.4,2.8*3F
$GPRMC,034636.000,A,1926.9352,S,06958.0552,W,0.36,220.43,010511,,,A*62
$GPGGA,034637.000,1926.9353,S,06958.0556,W,1,05,1.6,1112.4,M,35.0,M,,0000*61
$GPGSA,M,3,08,04,23,10,02,,,,,,,,4.2,1.6,3.9*3B
$GPRMC,034637.000,A,1926.9353,S,06958.0556,W,0.36,328.22,010511,,,A*68
$GPGGA,034638.000,1926.9351,S,06958.0556,W,1,05,1.6,1110.1,M,35.0,M,,0000*6B
$GPGSA,M,3,08,04,23,10,02,,,,,,,,4.2,1.6,3.9*3B
$GPGSV,3,1,12,07,76,320,,13,44,178,,20,43,078,,08,43,328,34*78
$GPGSV,3,2,12,04,43,246,29,23,26,137,30,10,23,216,35,32,16,069,*7A
$GPGSV,3,3,12,02,13,224,35,24,11,021,,17,07,313,,16,07,123,*7D
$GPRMC,034638.000,A,1926.9351,S,06958.0556,W,1.51,279.44,010511,,,A*60
$GPGGA,034639.000,1926.9351,S,06958.0557,W,1,05,1.6,1108.6,M,35.0,M,,0000*65
$GPGSA,M,3,08,04,23,10,02,,,,,,,,4.2,1.6,3.9*3B
$GPRMC,034639.000,A,1926.9351,S,06958.0557,W,0.62,198.09,010511,,,A*64
$GPGGA,034639.996,1926.9351,S,06958.0558,W,1,06,1.2,1108.1,M,35.0,M,,0000*6C
$GPGSA,M,3,08,04,23,10,32,02,,,,,,,3.1,1.2,2.9*3B
$GPRMC,034639.996,A,1926.9351,S,06958.0558,W,0.48,23.66,010511,,,A*5D
$GPGGA,034641.004,1926.9351,S,06958.0555,W,1,05,1.6,1107.7,M,35.0,M,,0000*62
$GPGSA,M,3,08,04,23,10,02,,,,,,,,4.2,1.6,3.9*3B
$GPRMC,034641.004,A,1926.9351,S,06958.0555,W,0.72,66.44,010511,,,A*55
$GPGGA,034641.996,1926.9347,S,06958.0554,W,1,05,1.6,1107.9,M,35.0,M,,0000*68
$GPGSA,M,3,08,04,23,10,02,,,,,,,,4.2,1.6,3.9*3B
$GPRMC,034641.996,A,1926.9347,S,06958.0554,W,0.58,344.43,010511,,,A*6D
$GPGGA,034643.001,1926.9345,S,06958.0553,W,1,05,1.6,1107.2,M,35.0,M,,0000*63
$GPGSA,M,3,08,04,23,10,02,,,,,,,,4.2,1.6,3.9*3B
$GPGSV,3,1,12,07,76,320,,13,44,178,,20,43,078,,08,43,328,34*78
$GPGSV,3,2,12,04,43,246,30,23,26,137,30,10,23,216,34,32,16,069,*73
$GPGSV,3,3,12,02,13,224,35,24,11,021,,17,07,313,26,16,07,123,*79
$GPRMC,034643.001,A,1926.9345,S,06958.0553,W,0.20,10.68,010511,,,A*59
$GPGGA,034644.002,1926.9343,S,06958.0546,W,1,06,1.4,1106.0,M,35.0,M,,0000*67
$GPGSA,M,3,13,08,04,23,10,02,,,,,,,3.1,1.4,2.8*3F
$GPRMC,034644.002,A,1926.9343,S,06958.0546,W,0.89,25.64,010511,,,A*56
$GPGGA,034645.000,1926.9339,S,06958.0542,W,1,06,1.4,1105.8,M,35.0,M,,0000*66
$GPGSA,M,3,13,08,04,23,10,02,,,,,,,3.1,1.4,2.8*3F
$GPRMC,034645.000,A,1926.9339,S,06958.0542,W,0.97,61.64,010511,,,A*53
$GPGGA,034646.001,1926.9338,S,06958.0542,W,1,06,1.4,1105.2,M,35.0,M,,0000*6F
$GPGSA,M,3,13,08,04,23,10,02,,,,,,,3.1,1.4,2.8*3F
$GPRMC,034646.001,A,1926.9338,S,06958.0542,W,0.40,320.69,010511,,,A*61
$GPGGA,034647.005,1926.9339,S,06958.0544,W,1,06,1.4,1105.5,M,35.0,M,,0000*6A
$GPGSA,M,3,13,08,04,23,10,02,,,,,,,3.1,1.4,2.8*3F
$GPRMC,034647.005,A,1926.9339,S,06958.0544,W,0.70,243.73,010511,,,A*6F
$GPGGA,034647.997,1926.9337,S,06958.0549,W,1,07,1.0,1105.1,M,35.0,M,,0000*6A
$GPGSA,M,3,13,08,04,23,10,32,02,,,,,,2.4,1.0,2.2*34
$GPGSV,3,1,12,07,76,320,,13,44,178,25,20,43,078,,08,43,328,32*79
$GPGSV,3,2,12,04,43,246,28,23,26,137,28,10,23,216,32,32,16,069,24*73
$GPGSV,3,3,12,02,13,224,32,24,11,021,,17,07,313,,16,07,123,*7A
$GPRMC,034647.997,A,1926.9337,S,06958.0549,W,1.14,295.06,010511,,,A*64
$GPGGA,034649.000,1926.9340,S,06958.0553,W,1,06,1.4,1107.0,M,35.0,M,,0000*6E
$GPGSA,M,3,13,08,04,23,10,02,,,,,,,3.1,1.4,2.8*3F
$GPRMC,034649.000,A,1926.9340,S,06958.0553,W,0.72,299.23,010511,,,A*6C
$GPGGA,034650.003,1926.9334,S,06958.0559,W,1,06,1.4,1104.5,M,35.0,M,,0000*6A
$GPGSA,M,3,13,08,04,23,10,02,,,,,,,3.1,1.4,2.8*3F
$GPRMC,034650.003,A,1926.9334,S,06958.0559,W,1.27,266.29,010511,,,A*65
$GPGGA,034651.006,1926.9336,S,06958.0558,W,1,06,1.4,1104.8,M,35.0,M,,0000*60
$GPGSA,M,3,13,08,04,23,10,02,,,,,,,3.1,1.4,2.8*3F
$GPRMC,034651.006,A,1926.9336,S,06958.0558,W,0.88,144.13,010511,,,A*6C
$GPGGA,034651.992,1926.9336,S,06958.0559,W,1,05,1.6,1105.5,M,35.0,M,,0000*68
$GPGSA,M,3,08,04,23,10,02,,,,,,,,4.2,1.6,3.9*3B
$GPRMC,034651.992,A,1926.9336,S,06958.0559,W,0.56,84.89,010511,,,A*54
$GPGGA,034653.002,1926.9332,S,06958.0556,W,1,07,1.0,1102.7,M,35.0,M,,0000*60
$GPGSA,M,3,13,08,04,23,10,32,02,,,,,,2.4,1.0,2.2*34
$GPGSV,3,1,12,07,76,320,,13,44,178,26,20,43,078,,08,43,328,32*7A
$GPGSV,3,2,12,04,43,246,31,23,26,137,31,10,23,216,35,32,16,069,25*75
$GPGSV,3,3,12,02,13,224,34,24,11,021,,17,07,313,,16,07,123,*7C
$GPRMC,034653.002,A,1926.9332,S,06958.0556,W,0.66,32.91,010511,,,A*5A
$GPGGA,034653.998,1926.9330,S,06958.0557,W,1,06,1.4,1101.9,M,35.0,M,,0000*61
$GPGSA,M,3,13,08,04,23,10,02,,,,,,,3.1,1.4,2.8*3F
$GPRMC,034653.998,A,1926.9330,S,06958.0557,W,0.23,108.65,010511,,,A*61
$GPGGA,034655.000,1926.9331,S,06958.0556,W,1,05,1.6,1101.3,M,35.0,M,,0000*64
$GPGSA,M,3,08,04,23,10,02,,,,,,,,4.2,1.6,3.9*3B
$GPRMC,034655.000,A,1926.9331,S,06958.0556,W,0.36,121.70,010511,,,A*64
$GPGGA,034656.002,1926.9333,S,06958.0556,W,1,05,1.6,1102.2,M,35.0,M,,0000*65
$GPGSA,M,3,08,04,23,10,02,,,,,,,,4.3,1.6,3.9*3A
$GPRMC,034656.002,A,1926.9333,S,06958.0556,W,0.92,130.49,010511,,,A*63
$GPGGA,034657.002,1926.9333,S,06958.0552,W,1,05,1.6,1102.0,M,35.0,M,,0000*62
$GPGSA,M,3,08,04,23,10,02,,,,,,,,4.3,1.6,3.9*3A
$GPRMC,034657.002,A,1926.9333,S,06958.0552,W,0.41,107.45,010511,,,A*60
$GPGGA,034657.996,1926.9333,S,06958.0555,W,1,06,1.4,1102.2,M,35.0,M,,0000*62
$GPGSA,M,3,13,08,04,23,10,02,,,,,,,3.1,1.4,2.8*3F
$GPGSV,3,1,12,07,76,320,,13,44,178,27,20,43,078,,08,43,328,34*7D
$GPGSV,3,2,12,04,43,246,31,23,26,137,30,10,23,216,35,32,16,069,*73
$GPGSV,3,3,12,02,13,224,34,24,11,021,,17,07,313,,16,07,123,*7C
$GPRMC,034657.996,A,1926.9333,S,06958.0555,W,0.53,219.58,010511,,,A*60
$GPGGA,034659.001,1926.9332,S,06958.0558,W,1,05,1.6,1100.5,M,35.0,M,,0000*63
$GPGSA,M,3,08,04,23,10,02,,,,,,,,4.3,1.6,3.9*3A
$GPRMC,034659.001,A,1926.9332,S,06958.0558,W,0.24,236.77,010511,,,A*65
$GPGGA,034700.001,1926.9331,S,06958.0558,W,1,05,1.6,1099.9,M,35.0,M,,0000*60
$GPGSA,M,3,08,04,23,10,02,,,,,,,,4.3,1.6,3.9*3A
$GPRMC,034700.001,A,1926.9331,S,06958.0558,W,0.47,39.03,010511,,,A*50
$GPGGA,034700.999,1926.9330,S,06958.0553,W,1,06,1.4,1099.3,M,35.0,M,,0000*69
$GPGSA,M,3,13,08,04,23,10,02,,,,,,,3.1,1.4,2.8*3F
$GPRMC,034700.999,A,1926.9330,S,06958.0553,W,0.93,92.70,010511,,,A*5E
$GPGGA,034702.002,1926.9330,S,06958.0546,W,1,06,1.4,1101.6,M,35.0,M,,0000*61
$GPGSA,M,3,13,08,04,23,10,02,,,,,,,3.1,1.4,2.8*3F
$GPRMC,034702.002,A,1926.9330,S,06958.0546,W,0.86,76.66,010511,,,A*5A
$GPGGA,034702.998,1926.9325,S,06958.0543,W,1,06,1.4,1099.3,M,35.0,M,,0000*6F
$GPGSA,M,3,13,08,04,23,10,02,,,,,,,3.1,1.4,2.8*3F
$GPGSV,3,1,12,07,76,320,,13,44,178,25,20,43,078,,08,43,328,32*79
$GPGSV,3,2,12,04,43,246,29,23,26,137,28,10,23,216,34,32,16,069,*72
$GPGSV,3,3,12,02,13,224,31,24,11,021,,17,07,313,,16,07,123,*79
