$GPGGA,160212.000,3947.9809,S,07036.5886,W,1,04,2.1,946.4,M,22.9,M,,0000*54
$GPGSA,M,3,30,21,25,31,,,,,,,,,4.1,2.1,3.5*3B
$GPRMC,160212.000,A,3947.9809,S,07036.5886,W,0.18,332.85,120511,,,A*67
$GPGGA,160213.000,3947.9812,S,07036.5883,W,1,04,2.1,946.9,M,22.9,M,,0000*57
$GPGSA,M,3,30,21,25,31,,,,,,,,,4.1,2.1,3.5*3B
$GPRMC,160213.000,A,3947.9812,S,07036.5883,W,0.14,19.83,120511,,,A*59
$GPGGA,160214.000,3947.9813,S,07036.5880,W,1,04,2.1,947.3,M,22.9,M,,0000*59
$GPGSA,M,3,30,21,25,31,,,,,,,,,4.1,2.1,3.5*3B
$GPGSV,3,1,10,21,77,341,47,30,48,230,49,25,34,040,44,31,34,305,39*72
$GPGSV,3,2,10,29,45,114,43,16,24,226,43,18,15,016,41,05,14,136,47*78
$GPGSV,3,3,10,06,13,260,39,03,02,259,*7D
$GPRMC,160214.000,A,3947.9813,S,07036.5880,W,0.13,352.27,120511,,,A*69
$GPGGA,160215.000,3947.9814,S,07036.5878,W,1,04,2.1,947.7,M,22.9,M,,0000*5C
$GPGSA,M,3,30,21,25,31,,,,,,,,,4.1,2.1,3.5*3B
$GPRMC,160215.000,A,3947.9814,S,07036.5878,W,0.11,6.24,120511,,,A*6B
$GPGGA,160216.000,3947.9814,S,07036.5876,W,1,04,2.1,947.9,M,22.9,M,,0000*5F
$GPGSA,M,3,30,21,25,31,,,,,,,,,4.1,2.1,3.5*3B
$GPRMC,160216.000,A,3947.9814,S,07036.5876,W,0.27,12.93,120511,,,A*5A
$GPGGA,160217.000,3947.9814,S,07036.5876,W,1,04,2.1,947.3,M,22.9,M,,0000*54
$GPGSA,M,3,30,21,25,31,,,,,,,,,4.1,2.1,3.5*3B
$GPRMC,160217.000,A,3947.9814,S,07036.5876,W,0.74,335.32,120511,,,A*60
$GPGGA,160218.000,3947.9812,S,07036.5878,W,1,04,2.1,947.0,M,22.9,M,,0000*50
$GPGSA,M,3,30,21,25,31,,,,,,,,,4.1,2.1,3.5*3B
$GPRMC,160218.000,A,3947.9812,S,07036.5878,W,0.97,338.45,120511,,,A*67
$GPGGA,160219.000,3947.9809,S,07036.5880,W,0,00,,947.0,M,22.9,M,,0000*74
$GPGSA,M,1,,,,,,,,,,,,,,,*12
$GPGSV,3,1,10,21,77,341,31,30,49,230,25,29,45,114,24,25,34,040,31*7B
$GPGSV,3,2,10,31,33,305,28,16,24,226,20,18,15,016,31,05,13,136,29*72
$GPGSV,3,3,10,06,13,260,28,03,02,259,*7D
$GPRMC,160219.000,V,3947.9809,S,07036.5880,W,,,120511,,,N*74
$GPGGA,160220.000,3947.9807,S,07036.5881,W,0,00,,947.1,M,22.9,M,,0000*70
$GPGSA,M,1,,,,,,,,,,,,,,,*12
$GPRMC,160220.000,V,3947.9807,S,07036.5881,W,,,120511,,,N*71
$GPGGA,160221.000,3947.9804,S,07036.5882,W,0,00,,947.1,M,22.9,M,,0000*71
$GPGSA,M,1,,,,,,,,,,,,,,,*12
$GPRMC,160221.000,V,3947.9804,S,07036.5882,W,,,120511,,,N*70
$GPGGA,160222.000,3947.9800,S,07036.5872,W,1,04,2.1,947.1,M,22.9,M,,0000*51
$GPGSA,M,3,30,21,25,31,,,,,,,,,4.1,2.1,3.5*3B
$GPRMC,160222.000,A,3947.9800,S,07036.5872,W,0.49,123.68,120511,,,A*63
$GPGGA,160223.000,3947.9801,S,07036.5871,W,0,00,,947.2,M,22.9,M,,0000*79
$GPGSA,M,1,,,,,,,,,,,,,,,*12
$GPRMC,160223.000,V,3947.9801,S,07036.5871,W,,,120511,,,N*7B
$GPGGA,160224.000,3947.9802,S,07036.5869,W,0,00,,947.2,M,22.9,M,,0000*74
$GPGSA,M,1,,,,,,,,,,,,,,,*12
$GPGSV,3,1,10,21,77,341,27,30,49,230,34,29,45,114,31,25,34,040,*7A
$GPGSV,3,2,10,31,33,305,32,16,24,226,18,18,15,016,30,05,13,136,29*73
$GPGSV,3,3,10,06,13,260,28,03,02,259,*7D
$GPRMC,160224.000,V,3947.9802,S,07036.5869,W,,,120511,,,N*76
$GPGGA,160225.000,3947.9803,S,07036.5868,W,0,00,,947.2,M,22.9,M,,0000*75
$GPGSA,M,1,,,,,,,,,,,,,,,*12
$GPRMC,160225.000,V,3947.9803,S,07036.5868,W,,,120511,,,N*77
$GPGGA,160226.000,3947.9789,S,07036.5881,W,1,04,2.1,948.3,M,22.9,M,,0000*5A
$GPGSA,M,3,30,21,25,31,,,,,,,,,4.1,2.1,3.5*3B
$GPRMC,160226.000,A,3947.9789,S,07036.5881,W,0.72,359.99,120511,,,A*6C
$GPGGA,160227.000,3947.9791,S,07036.5886,W,1,04,2.1,950.7,M,22.9,M,,0000*58
$GPGSA,M,3,30,21,25,31,,,,,,,,,4.1,2.1,3.5*3B
$GPRMC,160227.000,A,3947.9791,S,07036.5886,W,1.32,38.52,120511,,,A*55
$GPGGA,160228.000,3947.9797,S,07036.5882,W,1,04,2.1,950.6,M,22.9,M,,0000*54
$GPGSA,M,3,30,21,25,31,,,,,,,,,4.1,2.1,3.5*3B
$GPRMC,160228.000,A,3947.9797,S,07036.5882,W,1.92,335.94,120511,,,A*66
$GPGGA,160229.000,3947.9803,S,07036.5883,W,1,04,2.1,951.7,M,22.9,M,,0000*56
$GPGSA,M,3,30,21,25,31,,,,,,,,,4.1,2.1,3.5*3B
$GPGSV,3,1,10,21,77,341,33,30,49,230,33,29,45,114,36,25,34,040,30*7C
$GPGSV,3,2,10,31,33,305,27,16,24,226,32,18,15,016,37,05,13,136,32*72
$GPGSV,3,3,10,06,13,260,30,03,02,259,*74
$GPRMC,160229.000,A,3947.9803,S,07036.5883,W,1.06,293.96,120511,,,A*66
$GPGGA,160230.000,3947.9801,S,07036.5887,W,1,04,2.1,952.2,M,22.9,M,,0000*5E
$GPGSA,M,3,30,21,25,31,,,,,,,,,4.1,2.1,3.5*3B
$GPRMC,160230.000,A,3947.9801,S,07036.5887,W,0.87,322.85,120511,,,A*69
$GPGGA,160231.000,3947.9797,S,07036.5887,W,1,04,2.1,953.3,M,22.9,M,,0000*5F
$GPGSA,M,3,30,21,25,31,,,,,,,,,4.1,2.1,3.5*3B
$GPRMC,160231.000,A,3947.9797,S,07036.5887,W,0.48,342.59,120511,,,A*6C
$GPGGA,160232.000,3947.9788,S,07036.5889,W,1,04,2.1,954.7,M,22.9,M,,0000*5F
$GPGSA,M,3,30,21,25,31,,,,,,,,,4.1,2.1,3.5*3B
$GPRMC,160232.000,A,3947.9788,S,07036.5889,W,0.59,350.99,120511,,,A*60
$GPGGA,160233.000,3947.9783,S,07036.5888,W,1,04,2.1,955.3,M,22.9,M,,0000*51
$GPGSA,M,3,30,21,25,31,,,,,,,,,4.1,2.1,3.5*3B
$GPRMC,160233.000,A,3947.9783,S,07036.5888,W,0.50,348.40,120511,,,A*6F
$GPGGA,160234.000,3947.9785,S,07036.5889,W,1,04,2.1,954.9,M,22.9,M,,0000*5A
$GPGSA,M,3,30,21,25,31,,,,,,,,,4.1,2.1,3.5*3B
$GPGSV,3,1,10,21,77,341,34,30,49,230,26,29,45,114,36,25,34,040,34*7B
$GPGSV,3,2,10,31,33,305,32,16,24,226,30,18,15,016,35,05,13,136,36*72
$GPGSV,3,3,10,06,13,260,28,03,02,259,*7D
$GPRMC,160234.000,A,3947.9785,S,07036.5889,W,0.23,335.24,120511,,,A*63
$GPGGA,160235.000,3947.9789,S,07036.5884,W,1,04,2.1,954.4,M,22.9,M,,0000*57
$GPGSA,M,3,30,21,25,31,,,,,,,,,4.1,2.1,3.5*3B
$GPRMC,160235.000,A,3947.9789,S,07036.5884,W,0.43,175.86,120511,,,A*6B
$GPGGA,160236.000,3947.9791,S,07036.5885,W,1,04,2.1,953.2,M,22.9,M,,0000*5D
$GPGSA,M,3,30,21,25,31,,,,,,,,,4.1,2.1,3.5*3B
$GPRMC,160236.000,A,3947.9791,S,07036.5885,W,0.32,206.33,120511,,,A*6F
$GPGGA,160237.000,3947.9790,S,07036.5887,W,1,04,2.1,953.1,M,22.9,M,,0000*5C
$GPGSA,M,3,30,21,25,31,,,,,,,,,4.1,2.1,3.5*3B
$GPRMC,160237.000,A,3947.9790,S,07036.5887,W,0.06,298.06,120511,,,A*6B
$GPGGA,160238.000,3947.9790,S,07036.5888,W,1,04,2.1,953.1,M,22.9,M,,0000*5C
$GPGSA,M,3,30,21,25,31,,,,,,,,,4.1,2.1,3.5*3B
$GPRMC,160238.000,A,3947.9790,S,07036.5888,W,0.32,350.85,120511,,,A*62
$GPGGA,160239.000,3947.9786,S,07036.5888,W,1,04,2.1,953.2,M,22.9,M,,0000*59
$GPGSA,M,3,30,21,25,31,,,,,,,,,4.1,2.1,3.5*3B
$GPGSV,3,1,10,21,77,341,35,30,49,230,26,29,45,114,35,25,34,040,36*7B
$GPGSV,3,2,10,31,33,305,32,16,24,226,28,18,15,016,35,05,13,136,37*7A
$GPGSV,3,3,10,06,13,260,28,03,02,259,*7D
$GPRMC,160239.000,A,3947.9786,S,07036.5888,W,0.31,39.69,120511,,,A*59
$GPGGA,160240.000,3947.9789,S,07036.5887,W,1,04,2.1,952.6,M,22.9,M,,0000*52
$GPGSA,M,3,30,21,25,31,,,,,,,,,4.1,2.1,3.5*3B
$GPRMC,160240.000,A,3947.9789,S,07036.5887,W,0.58,41.56,120511,,,A*5B
$GPGGA,160241.000,3947.9796,S,07036.5885,W,1,04,2.1,951.6,M,22.9,M,,0000*5C
$GPGSA,M,3,30,21,25,31,,,,,,,,,4.1,2.1,3.5*3B
$GPRMC,160241.000,A,3947.9796,S,07036.5885,W,1.58,173.63,120511,,,A*61
$GPGGA,160242.000,3947.9802,S,07036.5883,W,1,04,2.1,951.0,M,22.9,M,,0000*5D
$GPGSA,M,3,30,21,25,31,,,,,,,,,4.1,2.1,3.5*3B
$GPRMC,160242.000,A,3947.9802,S,07036.5883,W,1.05,170.76,120511,,,A*69
$GPGGA,160243.000,3947.9806,S,07036.5883,W,1,04,2.1,950.8,M,22.9,M,,0000*51
$GPGSA,M,3,30,21,25,31,,,,,,,,,4.1,2.1,3.5*3B
$GPRMC,160243.000,A,3947.9806,S,07036.5883,W,0.29,163.49,120511,,,A*6D
$GPGGA,160244.000,3947.9805,S,07036.5883,W,1,04,2.1,950.7,M,22.9,M,,0000*5A
$GPGSA,M,3,30,21,25,31,,,,,,,,,4.1,2.1,3.5*3B
$GPGSV,3,1,10,21,77,341,42,30,49,230,35,29,45,114,39,25,34,040,42*76
$GPGSV,3,2,10,31,33,305,31,16,24,226,23,18,15,016,37,05,13,136,32*75
$GPGSV,3,3,10,06,13,260,23,03,02,259,*76
$GPRMC,160244.000,A,3947.9805,S,07036.5883,W,0.28,319.50,120511,,,A*6F
$GPGGA,160245.000,3947.9808,S,07036.5880,W,1,04,2.1,950.4,M,22.9,M,,0000*56
$GPGSA,M,3,30,21,25,31,,,,,,,,,4.1,2.1,3.5*3B
$GPRMC,160245.000,A,3947.9808,S,07036.5880,W,0.25,153.29,120511,,,A*6F
$GPGGA,160246.000,3947.9809,S,07036.5878,W,1,04,2.1,950.5,M,22.9,M,,0000*52
$GPGSA,M,3,30,21,25,31,,,,,,,,,4.1,2.1,3.5*3B
$GPRMC,160246.000,A,3947.9809,S,07036.5878,W,0.17,7.26,120511,,,A*64
$GPGGA,160247.000,3947.9812,S,07036.5874,W,1,04,2.1,951.0,M,22.9,M,,0000*51
$GPGSA,M,3,30,21,25,31,,,,,,,,,4.1,2.1,3.5*3B
$GPRMC,160247.000,A,3947.9812,S,07036.5874,W,0.05,140.67,120511,,,A*67
$GPGGA,160248.000,3947.9815,S,07036.5872,W,1,04,2.1,951.5,M,22.9,M,,0000*5A
$GPGSA,M,3,30,21,25,31,,,,,,,,,4.1,2.1,3.5*3B
$GPRMC,160248.000,A,3947.9815,S,07036.5872,W,0.11,310.32,120511,,,A*6B
$GPGGA,160249.000,3947.9814,S,07036.5873,W,1,04,2.1,951.8,M,22.9,M,,0000*56
$GPGSA,M,3,30,21,25,31,,,,,,,,,4.1,2.1,3.5*3B
$GPGSV,3,1,10,21,77,341,41,30,49,230,35,29,45,114,44,25,34,040,43*7E
$GPGSV,3,2,10,31,33,305,36,16,24,226,28,18,15,016,38,05,13,136,36*72
$GPGSV,3,3,10,06,13,260,24,03,02,259,*71
$GPRMC,160249.000,A,3947.9814,S,07036.5873,W,0.04,216.25,120511,,,A*6F
$GPGGA,160250.000,3947.9814,S,07036.5873,W,1,04,2.1,952.2,M,22.9,M,,0000*57
$GPGSA,M,3,30,21,25,31,,,,,,,,,4.1,2.1,3.5*3B
$GPRMC,160250.000,A,3947.9814,S,07036.5873,W,0.07,322.99,120511,,,A*65
$GPGGA,160251.000,3947.9817,S,07036.5871,W,1,04,2.1,952.0,M,22.9,M,,0000*55
$GPGSA,M,3,30,21,25,31,,,,,,,,,4.1,2.1,3.5*3B
$GPRMC,160251.000,A,3947.9817,S,07036.5871,W,0.09,32.30,120511,,,A*5A
$GPGGA,160252.000,3947.9818,S,07036.5869,W,1,04,2.1,952.2,M,22.9,M,,0000*52
$GPGSA,M,3,30,21,25,31,,,,,,,,,4.1,2.1,3.5*3B
$GPRMC,160252.000,A,3947.9818,S,07036.5869,W,0.24,13.32,120511,,,A*51
$GPGGA,160253.000,3947.9816,S,07036.5870,W,1,04,2.1,952.0,M,22.9,M,,0000*57
$GPGSA,M,3,30,21,25,31,,,,,,,,,4.1,2.1,3.5*3B
$GPRMC,160253.000,A,3947.9816,S,07036.5870,W,0.15,339.08,120511,,,A*66
$GPGGA,160254.000,3947.9816,S,07036.5870,W,1,04,2.1,952.0,M,22.9,M,,0000*50
$GPGSA,M,3,30,21,25,31,,,,,,,,,4.1,2.1,3.5*3B
$GPGSV,3,1,10,21,77,341,42,30,49,230,37,29,45,114,44,25,34,040,42*7E
$GPGSV,3,2,10,31,33,305,37,16,24,226,33,18,15,016,37,05,13,136,37*77
$GPGSV,3,3,10,06,13,260,32,03,02,259,*76
$GPRMC,160254.000,A,3947.9816,S,07036.5870,W,0.15,352.17,120511,,,A*62
$GPGGA,160255.000,3947.9816,S,07036.5871,W,1,04,2.1,951.8,M,22.9,M,,0000*5B
$GPGSA,M,3,30,21,25,31,,,,,,,,,4.1,2.1,3.5*3B
$GPRMC,160255.000,A,3947.9816,S,07036.5871,W,0.14,349.92,120511,,,A*64
$GPGGA,160256.000,3947.9815,S,07036.5871,W,1,04,2.1,951.7,M,22.9,M,,0000*54
$GPGSA,M,3,30,21,25,31,,,,,,,,,4.1,2.1,3.5*3B
$GPRMC,160256.000,A,3947.9815,S,07036.5871,W,0.16,343.77,120511,,,A*67
$GPGGA,160257.000,3947.9814,S,07036.5872,W,0,00,,951.7,M,22.9,M,,0000*7F
$GPGSA,M,1,,,,,,,,,,,,,,,*12
$GPRMC,160257.000,V,3947.9814,S,07036.5872,W,,,120511,,,N*7F
$GPGGA,160258.000,3947.9814,S,07036.5873,W,1,04,2.1,951.6,M,22.9,M,,0000*58
$GPGSA,M,3,30,21,25,31,,,,,,,,,4.1,2.1,3.5*3B
$GPRMC,160258.000,A,3947.9814,S,07036.5873,W,0.12,334.93,120511,,,A*64
$GPGGA,160259.000,3947.9812,S,07036.5874,W,1,04,2.1,951.5,M,22.9,M,,0000*5B
$GPGSA,M,3,30,21,25,31,,,,,,,,,4.1,2.1,3.5*3B
$GPGSV,3,1,10,21,77,341,42,30,49,230,43,29,45,114,45,25,34,040,44*7A
$GPGSV,3,2,10,31,33,305,42,16,24,226,36,18,15,016,39,05,13,136,37*7E
$GPGSV,3,3,10,06,13,260,36,03,02,259,10*73
$GPRMC,160259.000,A,3947.9812,S,07036.5874,W,0.14,354.70,120511,,,A*69
$GPGGA,160300.000,3947.9814,S,07036.5874,W,1,04,2.1,951.3,M,22.9,M,,0000*56
$GPGSA,M,3,30,21,25,31,,,,,,,,,4.1,2.1,3.5*3B
$GPRMC,160300.000,A,3947.9814,S,07036.5874,W,0.12,348.54,120511,,,A*6F
$GPGGA,160301.000,3947.9813,S,07036.5874,W,1,04,2.1,951.3,M,22.9,M,,0000*50
$GPGSA,M,3,30,21,25,31,,,,,,,,,4.1,2.1,3.5*3B
$GPRMC,160301.000,A,3947.9813,S,07036.5874,W,0.12,347.59,120511,,,A*6B
$GPGGA,160302.000,3947.9815,S,07036.5873,W,1,04,2.1,951.1,M,22.9,M,,0000*50
$GPGSA,M,3,30,21,25,31,,,,,,,,,4.1,2.1,3.5*3B
$GPRMC,160302.000,A,3947.9815,S,07036.5873,W,0.08,345.32,120511,,,A*6D
$GPGGA,160303.000,3947.9816,S,07036.5870,W,1,04,2.1,951.4,M,22.9,M,,0000*54
$GPGSA,M,3,30,21,25,31,,,,,,,,,4.1,2.1,3.5*3B
$GPRMC,160303.000,A,3947.9816,S,07036.5870,W,0.10,8.70,120511,,,A*69
$GPGGA,160304.000,3947.9818,S,07036.5867,W,1,05,1.5,951.3,M,22.9,M,,0000*5A
$GPGSA,M,3,30,21,25,29,31,,,,,,,,3.5,1.5,3.2*33
$GPGSV,3,1,10,21,77,341,42,30,49,230,38,29,45,114,45,25,34,040,44*76
$GPGSV,3,2,10,31,33,305,41,16,24,226,32,18,15,016,38,05,13,136,35*7A
$GPGSV,3,3,10,06,13,260,31,03,02,259,*75
$GPRMC,160304.000,A,3947.9818,S,07036.5867,W,0.08,329.72,120511,,,A*6D
$GPGGA,160305.000,3947.9818,S,07036.5865,W,1,05,1.5,951.4,M,22.9,M,,0000*5E
$GPGSA,M,3,30,21,25,29,31,,,,,,,,3.5,1.5,3.2*33
$GPRMC,160305.000,A,3947.9818,S,07036.5865,W,0.06,0.50,120511,,,A*68
$GPGGA,160306.000,3947.9820,S,07036.5864,W,1,05,1.5,951.3,M,22.9,M,,0000*50
$GPGSA,M,3,30,21,25,29,31,,,,,,,,3.5,1.5,3.2*33
$GPRMC,160306.000,A,3947.9820,S,07036.5864,W,0.06,9.52,120511,,,A*6A
$GPGGA,160307.000,3947.9819,S,07036.5863,W,1,05,1.5,951.4,M,22.9,M,,0000*5B
$GPGSA,M,3,30,21,25,29,31,,,,,,,,3.5,1.5,3.2*33
$GPRMC,160307.000,A,3947.9819,S,07036.5863,W,0.07,359.46,120511,,,A*64
$GPGGA,160308.000,3947.9819,S,07036.5862,W,1,05,1.5,951.5,M,22.9,M,,0000*54
$GPGSA,M,3,30,21,25,29,31,,,,,,,,3.5,1.5,3.2*33
$GPRMC,160308.000,A,3947.9819,S,07036.5862,W,0.09,2.20,120511,,,A*69
$GPGGA,160309.156,3947.9819,S,07036.5864,W,1,05,1.5,951.5,M,22.9,M,,0000*51
$GPGSA,M,3,21,30,29,25,31,,,,,,,,3.5,1.5,3.2*33
$GPGSV,3,1,10,21,78,342,33,30,49,230,30,29,45,114,35,25,34,040,34*74
$GPGSV,3,2,10,31,33,305,30,16,24,226,25,18,15,016,31,05,13,136,28*7F
$GPGSV,3,3,10,06,13,259,,03,02,259,*7D
$GPRMC,160309.156,A,3947.9819,S,07036.5864,W,0.17,294.15,120511,,,A*68
$GPGGA,160309.990,3947.9819,S,07036.5865,W,1,05,1.5,951.3,M,22.9,M,,0000*54
$GPGSA,M,3,21,30,29,25,31,,,,,,,,3.5,1.5,3.2*33
$GPRMC,160309.990,A,3947.9819,S,07036.5865,W,0.46,339.62,120511,,,A*69
$GPGGA,160311.005,3947.9818,S,07036.5864,W,1,05,1.5,951.6,M,22.9,M,,0000*5D
$GPGSA,M,3,21,30,29,25,31,,,,,,,,3.5,1.5,3.2*33
$GPRMC,160311.005,A,3947.9818,S,07036.5864,W,0.13,322.07,120511,,,A*6C
$GPGGA,160311.992,3947.9819,S,07036.5862,W,1,05,1.5,951.3,M,22.9,M,,0000*58
$GPGSA,M,3,21,30,29,25,31,,,,,,,,3.5,1.5,3.2*33
$GPRMC,160311.992,A,3947.9819,S,07036.5862,W,0.58,212.43,120511,,,A*61
$GPGGA,160313.012,3947.9820,S,07036.5863,W,1,05,1.5,951.9,M,22.9,M,,0000*5A
$GPGSA,M,3,21,30,29,25,31,,,,,,,,3.5,1.5,3.2*33
$GPRMC,160313.012,A,3947.9820,S,07036.5863,W,0.27,86.78,120511,,,A*56
$GPGGA,160313.998,3947.9819,S,07036.5863,W,1,05,1.5,952.3,M,22.9,M,,0000*52
$GPGSA,M,3,21,30,29,25,31,,,,,,,,3.5,1.5,3.2*33
$GPGSV,3,1,10,21,78,342,39,30,49,230,39,29,45,114,39,25,34,040,38*77
$GPGSV,3,2,10,31,33,305,39,16,24,226,35,18,15,016,37,05,13,136,36*7E
$GPGSV,3,3,10,06,13,259,35,03,02,259,*7B
$GPRMC,160313.998,A,3947.9819,S,07036.5863,W,0.18,341.83,120511,,,A*67
$GPGGA,160314.996,3947.9819,S,07036.5861,W,1,05,1.5,952.5,M,22.9,M,,0000*5F
$GPGSA,M,3,21,30,29,25,31,,,,,,,,3.5,1.5,3.2*33
$GPRMC,160314.996,A,3947.9819,S,07036.5861,W,0.40,41.58,120511,,,A*54
$GPGGA,160316.003,3947.9819,S,07036.5861,W,1,05,1.5,952.1,M,22.9,M,,0000*5C
$GPGSA,M,3,21,30,29,25,31,,,,,,,,3.5,1.5,3.2*33
$GPRMC,160316.003,A,3947.9819,S,07036.5861,W,0.14,296.65,120511,,,A*64
$GPGGA,160317.001,3947.9820,S,07036.5859,W,1,05,1.5,951.9,M,22.9,M,,0000*55
$GPGSA,M,3,21,30,29,25,31,,,,,,,,3.5,1.5,3.2*33
$GPRMC,160317.001,A,3947.9820,S,07036.5859,W,0.45,9.28,120511,,,A*6F
$GPGGA,160317.998,3947.9818,S,07036.5859,W,1,05,1.5,951.8,M,22.9,M,,0000*56
$GPGSA,M,3,21,30,29,25,31,,,,,,,,3.5,1.5,3.2*33
$GPRMC,160317.998,A,3947.9818,S,07036.5859,W,0.37,295.05,120511,,,A*60
$GPGGA,160318.991,3947.9817,S,07036.5860,W,1,05,1.5,952.0,M,22.9,M,,0000*5E
$GPGSA,M,3,21,30,29,25,31,,,,,,,,3.5,1.5,3.2*33
$GPGSV,3,1,10,21,78,342,40,30,49,230,39,29,45,114,40,25,34,040,40*78
$GPGSV,3,2,10,31,33,305,39,16,24,226,35,18,15,016,38,05,13,136,37*70
$GPGSV,3,3,10,06,13,259,35,03,02,259,*7B
$GPRMC,160318.991,A,3947.9817,S,07036.5860,W,0.36,316.22,120511,,,A*6D
$GPGGA,160320.008,3947.9817,S,07036.5862,W,1,05,1.5,951.5,M,22.9,M,,0000*58
$GPGSA,M,3,21,30,29,25,31,,,,,,,,3.5,1.5,3.2*33
$GPRMC,160320.008,A,3947.9817,S,07036.5862,W,0.63,333.04,120511,,,A*6E
$GPGGA,160321.001,3947.9815,S,07036.5865,W,1,05,1.5,951.7,M,22.9,M,,0000*57
$GPGSA,M,3,21,30,29,25,31,,,,,,,,3.5,1.5,3.2*33
$GPRMC,160321.001,A,3947.9815,S,07036.5865,W,0.44,313.13,120511,,,A*62
$GPGGA,160321.999,3947.9813,S,07036.5864,W,1,05,1.5,951.8,M,22.9,M,,0000*57
$GPGSA,M,3,21,30,29,25,31,,,,,,,,3.5,1.5,3.2*33
$GPRMC,160321.999,A,3947.9813,S,07036.5864,W,0.11,20.07,120511,,,A*5B
$GPGGA,160323.004,3947.9815,S,07036.5863,W,1,05,1.5,951.5,M,22.9,M,,0000*54
$GPGSA,M,3,21,30,29,25,31,,,,,,,,3.5,1.5,3.2*33
$GPRMC,160323.004,A,3947.9815,S,07036.5863,W,0.16,275.35,120511,,,A*61
$GPGGA,160323.999,3947.9814,S,07036.5861,W,1,05,1.5,952.0,M,22.9,M,,0000*5C
$GPGSA,M,3,21,30,29,25,31,,,,,,,,3.5,1.5,3.2*33
$GPGSV,3,1,10,21,78,342,37,30,49,230,35,29,45,114,38,25,34,040,38*74
$GPGSV,3,2,10,31,33,305,36,16,24,226,32,18,15,016,31,05,13,136,29*7E
$GPGSV,3,3,10,06,13,259,27,03,02,259,*78
$GPRMC,160323.999,A,3947.9814,S,07036.5861,W,0.46,74.48,120511,,,A*53
$GPGGA,160324.997,3947.9816,S,07036.5858,W,1,05,1.5,951.7,M,22.9,M,,0000*59
$GPGSA,M,3,21,30,29,25,31,,,,,,,,3.5,1.5,3.2*33
$GPRMC,160324.997,A,3947.9816,S,07036.5858,W,0.46,233.77,120511,,,A*6F
$GPGGA,160326.002,3947.9817,S,07036.5857,W,1,05,1.5,951.1,M,22.9,M,,0000*56
$GPGSA,M,3,21,30,29,25,31,,,,,,,,3.5,1.5,3.2*33
$GPRMC,160326.002,A,3947.9817,S,07036.5857,W,0.28,62.44,120511,,,A*58
$GPGGA,160326.998,3947.9816,S,07036.5854,W,1,05,1.5,951.3,M,22.9,M,,0000*5C
$GPGSA,M,3,21,30,29,25,31,,,,,,,,3.5,1.5,3.2*33
$GPRMC,160326.998,A,3947.9816,S,07036.5854,W,0.31,189.52,120511,,,A*6B
$GPGGA,160328.000,3947.9814,S,07036.5853,W,1,05,1.5,951.4,M,22.9,M,,0000*58
$GPGSA,M,3,21,30,29,25,31,,,,,,,,3.5,1.5,3.2*33
$GPRMC,160328.000,A,3947.9814,S,07036.5853,W,0.45,137.36,120511,,,A*6C
$GPGGA,160329.004,3947.9817,S,07036.5854,W,1,05,1.5,951.1,M,22.9,M,,0000*5C
$GPGSA,M,3,21,30,29,25,31,,,,,,,,3.5,1.5,3.2*33
$GPGSV,3,1,10,21,78,342,40,30,49,230,39,29,45,114,40,25,34,040,39*76
$GPGSV,3,2,10,31,33,305,39,16,24,226,35,18,15,016,37,05,13,136,36*7E
$GPGSV,3,3,10,06,13,259,36,03,02,259,*78
$GPRMC,160329.004,A,3947.9817,S,07036.5854,W,0.20,287.08,120511,,,A*6B
$GPGGA,160329.997,3947.9819,S,07036.5853,W,1,04,1.9,950.5,M,22.9,M,,0000*5E
$GPGSA,M,3,21,30,29,31,,,,,,,,,4.0,1.9,3.5*3D
$GPRMC,160329.997,A,3947.9819,S,07036.5853,W,0.27,210.03,120511,,,A*63
$GPGGA,160330.998,3947.9819,S,07036.5850,W,1,05,1.5,950.5,M,22.9,M,,0000*57
$GPGSA,M,3,21,30,29,25,31,,,,,,,,3.5,1.5,3.2*33
$GPRMC,160330.998,A,3947.9819,S,07036.5850,W,0.09,76.77,120511,,,A*5A
$GPGGA,160331.993,3947.9819,S,07036.5855,W,1,05,1.5,949.3,M,22.9,M,,0000*56
$GPGSA,M,3,21,30,29,25,31,,,,,,,,3.5,1.5,3.2*33
$GPRMC,160331.993,A,3947.9819,S,07036.5855,W,0.34,317.06,120511,,,A*69
$GPGGA,160333.009,3947.9816,S,07036.5857,W,1,05,1.5,949.4,M,22.9,M,,0000*54
$GPGSA,M,3,21,30,29,25,31,,,,,,,,3.5,1.5,3.2*33
$GPRMC,160333.009,A,3947.9816,S,07036.5857,W,1.07,9.66,120511,,,A*67
$GPGGA,160333.999,3947.9815,S,07036.5860,W,1,05,1.5,949.2,M,22.9,M,,0000*55
$GPGSA,M,3,21,30,29,25,31,,,,,,,,3.5,1.5,3.2*33
$GPGSV,3,1,10,21,78,342,39,30,49,230,38,29,45,114,39,25,34,040,39*77
$GPGSV,3,2,10,31,33,305,38,16,24,226,38,18,15,016,36,05,13,136,36*73
$GPGSV,3,3,10,06,13,259,33,03,02,259,*7D
$GPRMC,160333.999,A,3947.9815,S,07036.5860,W,0.28,195.07,120511,,,A*6F
$GPGGA,160335.001,3947.9817,S,07036.5856,W,1,05,1.5,948.9,M,22.9,M,,0000*56
$GPGSA,M,3,21,30,29,25,31,,,,,,,,3.5,1.5,3.2*33
$GPRMC,160335.001,A,3947.9817,S,07036.5856,W,0.23,11.03,120511,,,A*54
$GPGGA,160335.997,3947.9816,S,07036.5856,W,1,05,1.5,949.0,M,22.9,M,,0000*59
$GPGSA,M,3,21,30,29,25,31,,,,,,,,3.5,1.5,3.2*33
$GPRMC,160335.997,A,3947.9816,S,07036.5856,W,0.39,330.92,120511,,,A*60
$GPGGA,160337.000,3947.9814,S,07036.5856,W,1,05,1.5,950.0,M,22.9,M,,0000*56
$GPGSA,M,3,21,30,29,25,31,,,,,,,,3.5,1.5,3.2*33
$GPRMC,160337.000,A,3947.9814,S,07036.5856,W,0.65,48.52,120511,,,A*5E
$GPGGA,160337.999,3947.9812,S,07036.5854,W,1,05,1.5,949.9,M,22.9,M,,0000*5A
$GPGSA,M,3,21,30,29,25,31,,,,,,,,3.5,1.5,3.2*33
$GPRMC,160337.999,A,3947.9812,S,07036.5854,W,0.18,132.96,120511,,,A*6D
$GPGGA,160339.001,3947.9811,S,07036.5851,W,1,05,1.5,950.7,M,22.9,M,,0000*5C
$GPGSA,M,3,21,30,29,25,31,,,,,,,,3.5,1.5,3.2*33
$GPGSV,3,1,10,21,78,342,36,30,49,230,34,29,45,114,38,25,34,040,37*7B
$GPGSV,3,2,10,31,33,305,34,16,24,226,30,18,15,016,32,05,13,136,29*7D
$GPGSV,3,3,10,06,13,259,25,03,02,259,*7A
$GPRMC,160339.001,A,3947.9811,S,07036.5851,W,0.69,88.99,120511,,,A*54
$GPGGA,160340.000,3947.9809,S,07036.5850,W,1,05,1.5,950.6,M,22.9,M,,0000*5A
$GPGSA,M,3,21,30,29,25,31,,,,,,,,3.5,1.5,3.2*33
$GPRMC,160340.000,A,3947.9809,S,07036.5850,W,0.27,238.05,120511,,,A*65
$GPGGA,160341.000,3947.9809,S,07036.5848,W,1,05,1.5,951.4,M,22.9,M,,0000*51
$GPGSA,M,3,21,30,29,25,31,,,,,,,,3.5,1.5,3.2*33
$GPRMC,160341.000,A,3947.9809,S,07036.5848,W,0.38,48.32,120511,,,A*52
$GPGGA,160342.000,3947.9807,S,07036.5849,W,1,05,1.5,951.8,M,22.9,M,,0000*51
$GPGSA,M,3,21,30,29,25,31,,,,,,,,3.5,1.5,3.2*33
$GPRMC,160342.000,A,3947.9807,S,07036.5849,W,0.65,325.00,120511,,,A*6F
$GPGGA,160342.990,3947.9809,S,07036.5846,W,1,05,1.5,951.7,M,22.9,M,,0000*5F
$GPGSA,M,3,21,30,29,25,31,,,,,,,,3.5,1.5,3.2*33
$GPRMC,160342.990,A,3947.9809,S,07036.5846,W,0.61,353.96,120511,,,A*64
$GPGGA,160344.009,3947.9805,S,07036.5849,W,1,05,1.5,951.7,M,22.9,M,,0000*53
$GPGSA,M,3,21,30,29,25,31,,,,,,,,3.5,1.5,3.2*33
$GPGSV,3,1,10,21,78,342,35,30,49,230,33,29,45,114,35,25,34,040,36*73
$GPGSV,3,2,10,31,33,305,33,16,24,226,30,18,15,016,30,05,13,136,29*78
$GPGSV,3,3,10,06,13,259,,03,02,259,*7D
$GPRMC,160344.009,A,3947.9805,S,07036.5849,W,1.34,6.88,120511,,,A*65
$GPGGA,160344.993,3947.9803,S,07036.5849,W,1,05,1.5,952.2,M,22.9,M,,0000*59
$GPGSA,M,3,21,30,29,25,31,,,,,,,,3.5,1.5,3.2*33
$GPRMC,160344.993,A,3947.9803,S,07036.5849,W,0.20,84.68,120511,,,A*59
$GPGGA,160346.007,3947.9802,S,07036.5850,W,1,05,1.5,952.4,M,22.9,M,,0000*50
$GPGSA,M,3,21,30,29,25,31,,,,,,,,3.5,1.5,3.2*33
$GPRMC,160346.007,A,3947.9802,S,07036.5850,W,0.22,148.14,120511,,,A*6E
$GPGGA,160346.990,3947.9806,S,07036.5849,W,1,05,1.5,953.7,M,22.9,M,,0000*59
$GPGSA,M,3,21,30,29,25,31,,,,,,,,3.5,1.5,3.2*33
$GPRMC,160346.990,A,3947.9806,S,07036.5849,W,0.72,41.95,120511,,,A*51
$GPGGA,160348.011,3947.9804,S,07036.5848,W,1,05,1.5,954.0,M,22.9,M,,0000*54
$GPGSA,M,3,21,30,29,25,31,,,,,,,,3.5,1.5,3.2*33
$GPRMC,160348.011,A,3947.9804,S,07036.5848,W,0.62,22.69,120511,,,A*5B
$GPGGA,160349.000,3947.9807,S,07036.5844,W,1,05,1.5,952.9,M,22.9,M,,0000*55
$GPGSA,M,3,21,30,29,25,31,,,,,,,,3.5,1.5,3.2*33
$GPGSV,3,1,10,21,78,342,39,30,49,230,38,29,45,114,38,25,34,040,39*76
$GPGSV,3,2,10,31,33,305,39,16,24,226,35,18,15,016,37,05,13,136,36*7E
$GPGSV,3,3,10,06,13,259,35,03,02,259,*7B
$GPRMC,160349.000,A,3947.9807,S,07036.5844,W,0.27,239.01,120511,,,A*62
$GPGGA,160350.000,3947.9806,S,07036.5841,W,1,05,1.5,952.8,M,22.9,M,,0000*58
$GPGSA,M,3,21,30,29,25,31,,,,,,,,3.5,1.5,3.2*33
$GPRMC,160350.000,A,3947.9806,S,07036.5841,W,0.22,352.86,120511,,,A*68
$GPGGA,160350.999,3947.9805,S,07036.5842,W,1,05,1.5,953.0,M,22.9,M,,0000*58
$GPGSA,M,3,21,30,29,25,31,,,,,,,,3.5,1.5,3.2*33
$GPRMC,160350.999,A,3947.9805,S,07036.5842,W,0.44,288.25,120511,,,A*6E
$GPGGA,160352.001,3947.9804,S,07036.5839,W,1,05,1.5,952.9,M,22.9,M,,0000*57
$GPGSA,M,3,21,30,29,25,31,,,,,,,,3.5,1.5,3.2*33
$GPRMC,160352.001,A,3947.9804,S,07036.5839,W,0.64,145.00,120511,,,A*6E
$GPGGA,160352.997,3947.9807,S,07036.5837,W,1,05,1.5,951.9,M,22.9,M,,0000*5F
$GPGSA,M,3,21,30,29,25,31,,,,,,,,3.5,1.5,3.2*33
$GPRMC,160352.997,A,3947.9807,S,07036.5837,W,0.34,207.22,120511,,,A*65
$GPGGA,160353.991,3947.9808,S,07036.5838,W,1,05,1.5,952.1,M,22.9,M,,0000*53
$GPGSA,M,3,21,30,29,25,31,,,,,,,,3.5,1.5,3.2*33
$GPGSV,3,1,10,21,78,342,39,30,49,230,39,29,45,114,40,25,34,040,41*77
$GPGSV,3,2,10,31,33,305,39,16,24,226,36,18,15,016,37,05,13,136,36*7D
$GPGSV,3,3,10,06,13,259,36,03,02,259,*78
$GPRMC,160353.991,A,3947.9808,S,07036.5838,W,0.63,233.26,120511,,,A*63
$GPGGA,160355.008,3947.9807,S,07036.5841,W,1,05,1.5,951.7,M,22.9,M,,0000*58
$GPGSA,M,3,21,30,29,25,31,,,,,,,,3.5,1.5,3.2*33
$GPRMC,160355.008,A,3947.9807,S,07036.5841,W,0.42,236.95,120511,,,A*63
$GPGGA,160356.002,3947.9807,S,07036.5837,W,1,05,1.5,951.0,M,22.9,M,,0000*57
$GPGSA,M,3,21,30,29,25,31,,,,,,,,3.5,1.5,3.2*33
$GPRMC,160356.002,A,3947.9807,S,07036.5837,W,1.20,76.58,120511,,,A*59
$GPGGA,160357.001,3947.9808,S,07036.5840,W,1,05,1.5,951.0,M,22.9,M,,0000*5A
$GPGSA,M,3,21,30,29,25,31,,,,,,,,3.5,1.5,3.2*33
$GPRMC,160357.001,A,3947.9808,S,07036.5840,W,0.43,192.23,120511,,,A*67
$GPGGA,160358.000,3947.9806,S,07036.5842,W,1,05,1.5,949.7,M,22.9,M,,0000*56
$GPGSA,M,3,21,30,29,25,31,,,,,,,,3.5,1.5,3.2*33
$GPRMC,160358.000,A,3947.9806,S,07036.5842,W,0.25,348.20,120511,,,A*63
$GPGGA,160359.002,3947.9802,S,07036.5844,W,1,05,1.5,947.8,M,22.9,M,,0000*56
$GPGSA,M,3,21,30,29,25,31,,,,,,,,3.5,1.5,3.2*33
$GPGSV,3,1,10,21,78,342,35,30,49,230,35,29,45,114,36,25,34,040,36*76
$GPGSV,3,2,10,31,33,305,35,16,24,226,29,18,15,016,31,05,13,136,30*7F
$GPGSV,3,3,10,06,13,259,,03,02,259,*7D
$GPRMC,160359.002,A,3947.9802,S,07036.5844,W,0.69,357.77,120511,,,A*66
$GPGGA,160359.996,3947.9805,S,07036.5843,W,1,05,1.5,946.9,M,22.9,M,,0000*52
$GPGSA,M,3,21,30,29,25,31,,,,,,,,3.5,1.5,3.2*33
$GPRMC,160359.996,A,3947.9805,S,07036.5843,W,0.07,128.45,120511,,,A*61
$GPGGA,160401.001,3947.9806,S,07036.5841,W,1,05,1.5,945.9,M,22.9,M,,0000*5D
$GPGSA,M,3,21,30,29,25,31,,,,,,,,3.5,1.5,3.2*33
$GPRMC,160401.001,A,3947.9806,S,07036.5841,W,0.37,35.29,120511,,,A*59
$GPGGA,160401.998,3947.9805,S,07036.5840,W,1,05,1.5,946.5,M,22.9,M,,0000*59
$GPGSA,M,3,21,30,29,25,31,,,,,,,,3.5,1.5,3.2*33
$GPRMC,160401.998,A,3947.9805,S,07036.5840,W,0.31,182.35,120511,,,A*64
$GPGGA,160403.006,3947.9804,S,07036.5841,W,1,05,1.5,947.2,M,22.9,M,,0000*53
$GPGSA,M,3,21,30,29,25,31,,,,,,,,3.5,1.5,3.2*33
$GPRMC,160403.006,A,3947.9804,S,07036.5841,W,0.44,101.43,120511,,,A*60
$GPGGA,160403.996,3947.9806,S,07036.5838,W,1,05,1.5,947.6,M,22.9,M,,0000*5B
$GPGSA,M,3,21,30,29,25,31,,,,,,,,3.5,1.5,3.2*33
$GPGSV,3,1,10,21,78,342,39,30,49,230,39,29,45,114,39,25,34,040,39*76
$GPGSV,3,2,10,31,33,305,40,16,24,226,37,18,15,016,36,05,13,136,37*72
$GPGSV,3,3,10,06,13,259,28,03,02,259,*77
$GPRMC,160403.996,A,3947.9806,S,07036.5838,W,0.32,86.61,120511,,,A*53
$GPGGA,160405.002,3947.9806,S,07036.5833,W,1,05,1.5,947.9,M,22.9,M,,0000*5D
$GPGSA,M,3,21,30,29,25,31,,,,,,,,3.5,1.5,3.2*33
$GPRMC,160405.002,A,3947.9806,S,07036.5833,W,0.49,64.06,120511,,,A*5B
$GPGGA,160405.998,3947.9806,S,07036.5832,W,1,05,1.5,947.9,M,22.9,M,,0000*56
$GPGSA,M,3,21,30,29,25,31,,,,,,,,3.5,1.5,3.2*33
$GPRMC,160405.998,A,3947.9806,S,07036.5832,W,0.18,354.73,120511,,,A*66
$GPGGA,160406.990,3947.9807,S,07036.5836,W,1,05,1.5,949.0,M,22.9,M,,0000*5F
$GPGSA,M,3,21,30,29,25,31,,,,,,,,3.5,1.5,3.2*33
$GPRMC,160406.990,A,3947.9807,S,07036.5836,W,0.56,331.95,120511,,,A*69
$GPGGA,160408.011,3947.9808,S,07036.5838,W,1,05,1.5,948.3,M,22.9,M,,0000*52
$GPGSA,M,3,21,30,29,25,31,,,,,,,,3.5,1.5,3.2*33
$GPRMC,160408.011,A,3947.9808,S,07036.5838,W,0.09,78.44,120511,,,A*5E
$GPGGA,160409.000,3947.9811,S,07036.5837,W,1,05,1.5,949.0,M,22.9,M,,0000*56
$GPGSA,M,3,21,30,29,25,31,,,,,,,,3.5,1.5,3.2*33
$GPGSV,3,1,10,21,78,342,39,30,49,230,39,29,45,114,39,25,34,040,39*76
$GPGSV,3,2,10,31,33,305,39,16,24,226,36,18,15,016,36,05,13,136,35*7F
$GPGSV,3,3,10,06,13,259,32,03,02,259,*7C
$GPRMC,160409.000,A,3947.9811,S,07036.5837,W,0.16,139.45,120511,,,A*63
$GPGGA,160410.002,3947.9812,S,07036.5835,W,1,05,1.5,949.9,M,22.9,M,,0000*54
$GPGSA,M,3,21,30,29,25,31,,,,,,,,3.5,1.5,3.2*33
$GPRMC,160410.002,A,3947.9812,S,07036.5835,W,0.55,33.10,120511,,,A*54
$GPGGA,160410.998,3947.9810,S,07036.5833,W,1,05,1.5,949.6,M,22.9,M,,0000*55
$GPGSA,M,3,21,30,29,25,31,,,,,,,,3.5,1.5,3.2*33
$GPRMC,160410.998,A,3947.9810,S,07036.5833,W,0.41,357.07,120511,,,A*68
$GPGGA,160412.002,3947.9811,S,07036.5831,W,1,05,1.5,949.1,M,22.9,M,,0000*59
$GPGSA,M,3,21,30,29,25,31,,,,,,,,3.5,1.5,3.2*33
$GPRMC,160412.002,A,3947.9811,S,07036.5831,W,0.40,79.63,120511,,,A*5F
$GPGGA,160412.998,3947.9811,S,07036.5829,W,1,05,1.5,950.4,M,22.9,M,,0000*57
$GPGSA,M,3,21,30,29,25,31,,,,,,,,3.5,1.5,3.2*33
$GPRMC,160412.998,A,3947.9811,S,07036.5829,W,0.19,319.80,120511,,,A*68
$GPGGA,160413.989,3947.9812,S,07036.5833,W,1,05,1.5,948.6,M,22.9,M,,0000*55
$GPGSA,M,3,21,30,29,25,31,,,,,,,,3.5,1.5,3.2*33
$GPGSV,3,1,10,21,78,342,39,30,49,230,39,29,45,114,41,25,34,040,39*79
$GPGSV,3,2,10,31,33,305,39,16,24,226,36,18,15,016,36,05,13,136,37*7D
$GPGSV,3,3,10,06,13,259,31,03,02,259,*7F
$GPRMC,160413.989,A,3947.9812,S,07036.5833,W,0.77,333.29,120511,,,A*62
$GPGGA,160415.012,3947.9811,S,07036.5837,W,1,05,1.5,949.5,M,22.9,M,,0000*5D
$GPGSA,M,3,21,30,29,25,31,,,,,,,,3.5,1.5,3.2*33
$GPRMC,160415.012,A,3947.9811,S,07036.5837,W,0.17,9.60,120511,,,A*69
$GPGGA,160415.989,3947.9808,S,07036.5838,W,1,05,1.5,949.1,M,22.9,M,,0000*55
$GPGSA,M,3,21,30,29,25,31,,,,,,,,3.5,1.5,3.2*33
$GPRMC,160415.989,A,3947.9808,S,07036.5838,W,0.76,358.40,120511,,,A*67
$GPGGA,160417.006,3947.9807,S,07036.5838,W,1,05,1.5,948.1,M,22.9,M,,0000*57
$GPGSA,M,3,21,30,29,25,31,,,,,,,,3.5,1.5,3.2*33
$GPRMC,160417.006,A,3947.9807,S,07036.5838,W,0.47,357.70,120511,,,A*6A
$GPGGA,160417.993,3947.9808,S,07036.5841,W,1,05,1.5,947.8,M,22.9,M,,0000*55
$GPGSA,M,3,21,30,29,25,31,,,,,,,,3.5,1.5,3.2*33
$GPRMC,160417.993,A,3947.9808,S,07036.5841,W,0.48,188.74,120511,,,A*65
$GPGGA,160419.007,3947.9809,S,07036.5840,W,1,05,1.5,948.3,M,22.9,M,,0000*5B
$GPGSA,M,3,21,30,29,25,31,,,,,,,,3.5,1.5,3.2*33
$GPGSV,3,1,10,21,78,342,34,30,49,230,30,29,45,114,35,25,34,040,35*72
$GPGSV,3,2,10,31,33,305,33,16,24,226,27,18,15,016,28,05,13,136,29*77
$GPGSV,3,3,10,06,13,259,,03,02,259,*7D
$GPRMC,160419.007,A,3947.9809,S,07036.5840,W,0.42,104.11,120511,,,A*62
$GPGGA,160419.992,3947.9814,S,07036.5840,W,1,05,1.5,949.0,M,22.9,M,,0000*50
$GPGSA,M,3,21,30,29,25,31,,,,,,,,3.5,1.5,3.2*33
$GPRMC,160419.992,A,3947.9814,S,07036.5840,W,0.35,119.34,120511,,,A*60
$GPGGA,160421.009,3947.9811,S,07036.5840,W,1,05,1.5,947.0,M,22.9,M,,0000*5B
$GPGSA,M,3,21,30,29,25,31,,,,,,,,3.5,1.5,3.2*33
$GPRMC,160421.009,A,3947.9811,S,07036.5840,W,1.07,328.64,120511,,,A*60
$GPGGA,160421.991,3947.9811,S,07036.5844,W,1,05,1.5,947.2,M,22.9,M,,0000*55
$GPGSA,M,3,21,30,29,25,31,,,,,,,,3.5,1.5,3.2*33
$GPRMC,160421.991,A,3947.9811,S,07036.5844,W,0.20,271.28,120511,,,A*6D
$GPGGA,160423.012,3947.9808,S,07036.5846,W,1,05,1.5,947.6,M,22.9,M,,0000*5B
$GPGSA,M,3,21,30,29,25,31,,,,,,,,3.5,1.5,3.2*33
$GPRMC,160423.012,A,3947.9808,S,07036.5846,W,0.31,357.54,120511,,,A*69
$GPGGA,160423.998,3947.9810,S,07036.5847,W,1,05,1.5,948.0,M,22.9,M,,0000*51
$GPGSA,M,3,21,30,29,25,31,,,,,,,,3.5,1.5,3.2*33
$GPGSV,3,1,10,21,78,342,39,30,49,230,38,29,45,114,39,25,34,040,39*77
$GPGSV,3,2,10,31,33,305,39,16,24,226,36,18,15,016,36,05,13,136,37*7D
$GPGSV,3,3,10,06,13,259,27,03,02,259,*78
$GPRMC,160423.998,A,3947.9810,S,07036.5847,W,0.25,252.62,120511,,,A*6E
$GPGGA,160425.000,3947.9809,S,07036.5846,W,1,05,1.5,946.4,M,22.9,M,,0000*5C
$GPGSA,M,3,21,30,29,25,31,,,,,,,,3.5,1.5,3.2*33
$GPRMC,160425.000,A,3947.9809,S,07036.5846,W,0.38,21.34,120511,,,A*50
$GPGGA,160426.001,3947.9814,S,07036.5842,W,1,05,1.5,946.8,M,22.9,M,,0000*5A
$GPGSA,M,3,21,30,29,25,31,,,,,,,,3.5,1.5,3.2*33
$GPRMC,160426.001,A,3947.9814,S,07036.5842,W,0.12,197.89,120511,,,A*68
$GPGGA,160427.001,3947.9809,S,07036.5842,W,1,05,1.5,946.2,M,22.9,M,,0000*5D
$GPGSA,M,3,21,30,29,25,31,,,,,,,,3.5,1.5,3.2*33
$GPRMC,160427.001,A,3947.9809,S,07036.5842,W,0.15,354.57,120511,,,A*6C
$GPGGA,160427.998,3947.9811,S,07036.5841,W,1,05,1.5,945.9,M,22.9,M,,0000*56
$GPGSA,M,3,21,30,29,25,31,,,,,,,,3.5,1.5,3.2*33
$GPRMC,160427.998,A,3947.9811,S,07036.5841,W,0.12,169.83,120511,,,A*6D
$GPGGA,160428.990,3947.9812,S,07036.5840,W,1,05,1.5,946.4,M,22.9,M,,0000*5D
$GPGSA,M,3,21,30,29,25,31,,,,,,,,3.5,1.5,3.2*33
$GPGSV,3,1,10,21,78,342,39,30,49,230,37,29,45,114,40,25,34,040,39*76
$GPGSV,3,2,10,31,33,305,39,16,24,226,36,18,15,016,36,05,13,136,36*7C
$GPGSV,3,3,10,06,13,259,27,03,02,259,*78
$GPRMC,160428.990,A,3947.9812,S,07036.5840,W,0.31,47.10,120511,,,A*5E
$GPGGA,160430.013,3947.9815,S,07036.5841,W,1,05,1.5,945.4,M,22.9,M,,0000*53
$GPGSA,M,3,21,30,29,25,31,,,,,,,,3.5,1.5,3.2*33
$GPRMC,160430.013,A,3947.9815,S,07036.5841,W,0.55,31.49,120511,,,A*5C
$GPGGA,160430.997,3947.9811,S,07036.5842,W,1,05,1.5,944.3,M,22.9,M,,0000*57
$GPGSA,M,3,21,30,29,25,31,,,,,,,,3.5,1.5,3.2*33
$GPRMC,160430.997,A,3947.9811,S,07036.5842,W,0.31,14.26,120511,,,A*52
$GPGGA,160432.003,3947.9810,S,07036.5844,W,1,05,1.5,945.7,M,22.9,M,,0000*53
$GPGSA,M,3,21,30,29,25,31,,,,,,,,3.5,1.5,3.2*33
$GPRMC,160432.003,A,3947.9810,S,07036.5844,W,0.08,324.88,120511,,,A*6D
$GPGGA,160433.000,3947.9810,S,07036.5846,W,1,05,1.5,947.2,M,22.9,M,,0000*54
$GPGSA,M,3,21,30,29,25,31,,,,,,,,3.5,1.5,3.2*33
$GPRMC,160433.000,A,3947.9810,S,07036.5846,W,0.10,84.53,120511,,,A*5B
$GPGGA,160434.000,3947.9809,S,07036.5851,W,1,05,1.5,950.6,M,22.9,M,,0000*5F
$GPGSA,M,3,21,30,29,25,31,,,,,,,,3.5,1.5,3.2*33
$GPRMC,160434.000,A,3947.9809,S,07036.5851,W,0.14,287.26,120511,,,A*65
$GPGGA,160435.000,3947.9811,S,07036.5856,W,1,05,1.5,950.3,M,22.9,M,,0000*55
$GPGSA,M,3,21,30,29,25,31,,,,,,,,3.5,1.5,3.2*33
$GPRMC,160435.000,A,3947.9811,S,07036.5856,W,0.09,19.83,120511,,,A*5C
$GPGGA,160436.000,3947.9812,S,07036.5859,W,1,05,1.5,950.2,M,22.9,M,,0000*5B
$GPGSA,M,3,21,30,29,25,31,,,,,,,,3.5,1.5,3.2*33
$GPRMC,160436.000,A,3947.9812,S,07036.5859,W,0.14,21.81,120511,,,A*56
$GPGGA,160437.000,3947.9814,S,07036.5860,W,1,05,1.5,949.9,M,22.9,M,,0000*55
$GPGSA,M,3,21,30,29,25,31,,,,,,,,3.5,1.5,3.2*33
$GPRMC,160437.000,A,3947.9814,S,07036.5860,W,0.13,5.38,120511,,,A*68
$GPGGA,160438.000,3947.9813,S,07036.5861,W,1,05,1.5,950.3,M,22.9,M,,0000*5E
$GPGSA,M,3,21,30,29,25,31,,,,,,,,3.5,1.5,3.2*33
$GPGSV,3,1,10,21,79,342,41,30,49,230,39,29,44,113,44,25,33,039,42*71
$GPGSV,3,2,10,31,33,306,39,16,25,226,34,18,16,016,36,06,13,259,33*73
$GPGSV,3,3,10,05,13,137,36,03,03,259,*71
$GPRMC,160438.000,A,3947.9813,S,07036.5861,W,0.09,18.22,120511,,,A*5D
$GPGGA,160439.000,3947.9814,S,07036.5861,W,1,05,1.5,951.4,M,22.9,M,,0000*5E
$GPGSA,M,3,21,30,29,25,31,,,,,,,,3.5,1.5,3.2*33
$GPGSV,3,1,10,21,79,342,41,30,49,230,39,29,44,113,44,25,33,039,42*71
$GPGSV,3,2,10,31,33,306,39,16,25,226,35,18,16,016,36,06,13,259,33*72
$GPGSV,3,3,10,05,13,137,37,03,03,259,*70
$GPRMC,160439.000,A,3947.9814,S,07036.5861,W,0.11,20.33,120511,,,A*59
$GPGGA,160440.000,3947.9816,S,07036.5859,W,1,05,1.5,951.7,M,22.9,M,,0000*5A
$GPGSA,M,3,21,30,29,25,31,,,,,,,,3.5,1.5,3.2*33
$GPRMC,160440.000,A,3947.9816,S,07036.5859,W,0.08,9.00,120511,,,A*6D
$GPGGA,160441.000,3947.9816,S,07036.5860,W,1,05,1.5,952.1,M,22.9,M,,0000*54
$GPGSA,M,3,21,30,29,25,31,,,,,,,,3.5,1.5,3.2*33
$GPRMC,160441.000,A,3947.9816,S,07036.5860,W,0.08,5.25,120511,,,A*6D
$GPGGA,160442.000,3947.9816,S,07036.5860,W,1,05,1.5,952.4,M,22.9,M,,0000*52
$GPGSA,M,3,21,30,29,25,31,,,,,,,,3.5,1.5,3.2*33
$GPRMC,160442.000,A,3947.9816,S,07036.5860,W,0.16,16.39,120511,,,A*5E
$GPGGA,160443.000,3947.9817,S,07036.5860,W,1,05,1.5,952.3,M,22.9,M,,0000*55
$GPGSA,M,3,21,30,29,25,31,,,,,,,,3.5,1.5,3.2*33
$GPRMC,160443.000,A,3947.9817,S,07036.5860,W,0.05,333.47,120511,,,A*61
$GPGGA,160444.000,3947.9816,S,07036.5860,W,1,05,1.5,952.1,M,22.9,M,,0000*51
$GPGSA,M,3,21,30,29,25,31,,,,,,,,3.5,1.5,3.2*33
$GPGSV,3,1,10,21,79,342,42,30,49,230,41,29,44,113,44,25,33,039,43*7C
$GPGSV,3,2,10,31,33,306,40,16,25,226,37,18,16,016,37,06,13,259,33*7F
$GPGSV,3,3,10,05,13,137,34,03,03,259,*73
$GPRMC,160444.000,A,3947.9816,S,07036.5860,W,0.10,2.03,120511,,,A*62
$GPGGA,160445.000,3947.9816,S,07036.5861,W,1,05,1.5,951.9,M,22.9,M,,0000*5A
$GPGSA,M,3,21,30,29,25,31,,,,,,,,3.5,1.5,3.2*33
$GPRMC,160445.000,A,3947.9816,S,07036.5861,W,0.10,7.52,120511,,,A*63
$GPGGA,160446.000,3947.9816,S,07036.5861,W,1,05,1.5,951.8,M,22.9,M,,0000*58
$GPGSA,M,3,21,30,29,25,31,,,,,,,,3.5,1.5,3.2*33
$GPRMC,160446.000,A,3947.9816,S,07036.5861,W,0.10,13.40,120511,,,A*56
$GPGGA,160447.000,3947.9815,S,07036.5862,W,1,05,1.5,951.8,M,22.9,M,,0000*59
$GPGSA,M,3,21,30,29,25,31,,,,,,,,3.5,1.5,3.2*33
$GPRMC,160447.000,A,3947.9815,S,07036.5862,W,0.06,5.28,120511,,,A*69
$GPGGA,160447.998,3947.9815,S,07036.5862,W,1,05,1.5,951.5,M,22.9,M,,0000*5C
$GPGSA,M,3,21,30,29,25,31,,,,,,,,3.5,1.5,3.2*33
$GPRMC,160447.998,A,3947.9815,S,07036.5862,W,0.55,335.74,120511,,,A*6E
$GPGGA,160448.991,3947.9816,S,07036.5862,W,1,05,1.5,951.5,M,22.9,M,,0000*59
$GPGSA,M,3,21,30,29,25,31,,,,,,,,3.5,1.5,3.2*33
$GPGSV,3,1,10,21,79,342,40,30,49,230,38,29,44,113,40,25,33,039,40*77
$GPGSV,3,2,10,31,33,306,39,16,25,226,35,18,16,016,37,06,13,259,35*75
$GPGSV,3,3,10,05,13,137,36,03,03,259,*71
$GPRMC,160448.991,A,3947.9816,S,07036.5862,W,0.40,181.98,120511,,,A*60
$GPGGA,160450.011,3947.9816,S,07036.5861,W,1,05,1.5,951.3,M,22.9,M,,0000*54
$GPGSA,M,3,21,30,29,25,31,,,,,,,,3.5,1.5,3.2*33
$GPRMC,160450.011,A,3947.9816,S,07036.5861,W,0.12,325.08,120511,,,A*69
$GPGGA,160450.989,3947.9816,S,07036.5861,W,1,05,1.5,951.0,M,22.9,M,,0000*5F
$GPGSA,M,3,21,30,29,25,31,,,,,,,,3.5,1.5,3.2*33
$GPRMC,160450.989,A,3947.9816,S,07036.5861,W,0.33,47.98,120511,,,A*5C
$GPGGA,160452.010,3947.9815,S,07036.5861,W,1,05,1.5,951.4,M,22.9,M,,0000*53
$GPGSA,M,3,21,30,29,25,31,,,,,,,,3.5,1.5,3.2*33
$GPRMC,160452.010,A,3947.9815,S,07036.5861,W,0.57,11.82,120511,,,A*5E
$GPGGA,160452.990,3947.9811,S,07036.5861,W,1,05,1.5,952.9,M,22.9,M,,0000*58
$GPGSA,M,3,21,30,29,25,31,,,,,,,,3.5,1.5,3.2*33
$GPRMC,160452.990,A,3947.9811,S,07036.5861,W,1.05,359.57,120511,,,A*6A
$GPGGA,160454.010,3947.9810,S,07036.5860,W,1,05,1.5,952.8,M,22.9,M,,0000*5E
$GPGSA,M,3,21,30,29,25,31,,,,,,,,3.5,1.5,3.2*33
$GPGSV,3,1,10,21,79,342,34,30,49,230,35,29,44,113,35,25,33,039,35*79
$GPGSV,3,2,10,31,33,306,33,16,25,226,29,18,16,016,31,06,13,259,27*77
$GPGSV,3,3,10,05,13,137,31,03,03,259,*76
$GPRMC,160454.010,A,3947.9810,S,07036.5860,W,0.41,16.39,120511,,,A*5C
$GPGGA,160454.999,3947.9811,S,07036.5859,W,1,05,1.5,952.7,M,22.9,M,,0000*52
$GPGSA,M,3,21,30,29,25,31,,,,,,,,3.5,1.5,3.2*33
$GPRMC,160454.999,A,3947.9811,S,07036.5859,W,0.17,298.46,120511,,,A*60
$GPGGA,160456.000,3947.9810,S,07036.5857,W,1,05,1.5,953.0,M,22.9,M,,0000*50
$GPGSA,M,3,21,30,29,25,31,,,,,,,,3.5,1.5,3.2*33
$GPRMC,160456.000,A,3947.9810,S,07036.5857,W,0.62,89.54,120511,,,A*57
$GPGGA,160456.999,3947.9809,S,07036.5857,W,1,05,1.5,952.5,M,22.9,M,,0000*55
$GPGSA,M,3,21,30,29,25,31,,,,,,,,3.5,1.5,3.2*33
$GPRMC,160456.999,A,3947.9809,S,07036.5857,W,0.43,337.07,120511,,,A*65
$GPGGA,160458.001,3947.9808,S,07036.5857,W,1,05,1.5,952.5,M,22.9,M,,0000*52
$GPGSA,M,3,21,30,29,25,31,,,,,,,,3.5,1.5,3.2*33
$GPRMC,160458.001,A,3947.9808,S,07036.5857,W,0.48,16.09,120511,,,A*57
$GPGGA,160458.999,3947.9807,S,07036.5854,W,1,05,1.5,953.3,M,22.9,M,,0000*51
$GPGSA,M,3,21,30,29,25,31,,,,,,,,3.5,1.5,3.2*33
$GPGSV,3,1,10,21,79,342,39,30,49,230,39,29,44,113,39,25,33,039,39*78
$GPGSV,3,2,10,31,33,306,39,16,25,226,36,18,16,016,37,06,13,259,34*77
$GPGSV,3,3,10,05,13,137,37,03,03,259,*70
$GPRMC,160458.999,A,3947.9807,S,07036.5854,W,0.22,21.20,120511,,,A*50
$GPGGA,160500.002,3947.9809,S,07036.5853,W,1,05,1.5,953.1,M,22.9,M,,0000*5D
$GPGSA,M,3,21,30,29,25,31,,,,,,,,3.5,1.5,3.2*33
$GPRMC,160500.002,A,3947.9809,S,07036.5853,W,0.89,178.40,120511,,,A*64
$GPGGA,160500.997,3947.9812,S,07036.5853,W,1,05,1.5,953.5,M,22.9,M,,0000*56
$GPGSA,M,3,21,30,29,25,31,,,,,,,,3.5,1.5,3.2*33
$GPRMC,160500.997,A,3947.9812,S,07036.5853,W,1.33,204.46,120511,,,A*65
$GPGGA,160501.999,3947.9816,S,07036.5853,W,1,05,1.5,953.7,M,22.9,M,,0000*5F
$GPGSA,M,3,21,30,29,25,31,,,,,,,,3.5,1.5,3.2*33
$GPRMC,160501.999,A,3947.9816,S,07036.5853,W,2.07,197.11,120511,,,A*61
$GPGGA,160503.000,3947.9826,S,07036.5850,W,1,05,1.5,954.4,M,22.9,M,,0000*50
$GPGSA,M,3,21,30,29,25,31,,,,,,,,3.5,1.5,3.2*33
$GPRMC,160503.000,A,3947.9826,S,07036.5850,W,3.57,184.54,120511,,,A*6D
$GPGGA,160504.000,3947.9841,S,07036.5833,W,1,05,1.5,955.4,M,22.9,M,,0000*52
$GPGSA,M,3,21,30,29,25,31,,,,,,,,3.5,1.5,3.2*33
$GPGSV,3,1,10,21,79,342,47,30,50,230,47,29,44,113,46,25,33,039,47*71
$GPGSV,3,2,10,31,32,306,43,16,25,226,42,18,16,016,41,06,13,259,38*75
$GPGSV,3,3,10,05,13,137,42,03,03,259,*72
$GPRMC,160504.000,A,3947.9841,S,07036.5833,W,4.34,186.07,120511,,,A*68
$GPGGA,160505.000,3947.9857,S,07036.5835,W,1,05,1.5,955.1,M,22.9,M,,0000*57
$GPGSA,M,3,21,30,29,25,31,,,,,,,,3.5,1.5,3.2*33
$GPRMC,160505.000,A,3947.9857,S,07036.5835,W,4.81,187.86,120511,,,A*6E
$GPGGA,160506.000,3947.9873,S,07036.5841,W,1,05,1.5,954.7,M,22.9,M,,0000*56
$GPGSA,M,3,21,30,29,25,31,,,,,,,,3.5,1.5,3.2*33
$GPRMC,160506.000,A,3947.9873,S,07036.5841,W,5.28,189.18,120511,,,A*63
$GPGGA,160507.000,3947.9889,S,07036.5849,W,1,05,1.5,954.8,M,22.9,M,,0000*55
$GPGSA,M,3,21,30,29,25,31,,,,,,,,3.5,1.5,3.2*33
$GPRMC,160507.000,A,3947.9889,S,07036.5849,W,5.61,191.64,120511,,,A*60
$GPGGA,160508.000,3947.9905,S,07036.5856,W,1,05,1.5,954.7,M,22.9,M,,0000*5E
$GPGSA,M,3,21,30,29,25,31,,,,,,,,3.5,1.5,3.2*33
$GPGSV,3,1,10,21,79,342,41,30,50,230,43,29,44,113,41,25,33,039,44*77
$GPGSV,3,2,10,31,32,306,42,16,25,226,31,18,16,016,35,06,13,259,*78
$GPGSV,3,3,10,05,13,137,39,03,03,259,*7E
$GPRMC,160508.000,A,3947.9905,S,07036.5856,W,5.43,193.96,120511,,,A*6B
$GPGGA,160509.000,3947.9921,S,07036.5862,W,1,05,1.5,954.4,M,22.9,M,,0000*5D
$GPGSA,M,3,21,30,29,25,31,,,,,,,,3.5,1.5,3.2*33
$GPGSV,3,1,10,21,79,342,41,30,50,230,43,29,44,113,41,25,33,039,43*70
$GPGSV,3,2,10,31,32,306,42,16,25,226,30,18,16,016,35,06,13,259,32*78
$GPGSV,3,3,10,05,13,137,39,03,03,259,*7E
$GPRMC,160509.000,A,3947.9921,S,07036.5862,W,5.97,193.97,120511,,,A*63
$GPGGA,160510.000,3947.9939,S,07036.5869,W,1,05,1.5,954.2,M,22.9,M,,0000*51
$GPGSA,M,3,21,30,29,25,31,,,,,,,,3.5,1.5,3.2*33
$GPRMC,160510.000,A,3947.9939,S,07036.5869,W,6.54,192.99,120511,,,A*6A
$GPGGA,160511.000,3947.9959,S,07036.5876,W,1,05,1.5,954.4,M,22.9,M,,0000*5E
$GPGSA,M,3,21,30,29,25,31,,,,,,,,3.5,1.5,3.2*33
$GPRMC,160511.000,A,3947.9959,S,07036.5876,W,6.87,193.95,120511,,,A*60
$GPGGA,160512.000,3947.9979,S,07036.5883,W,1,05,1.5,954.4,M,22.9,M,,0000*55
$GPGSA,M,3,21,30,29,25,31,,,,,,,,3.5,1.5,3.2*33
$GPRMC,160512.000,A,3947.9979,S,07036.5883,W,7.97,194.73,120511,,,A*64
$GPGGA,160513.000,3948.0000,S,07036.5892,W,1,05,1.5,954.7,M,22.9,M,,0000*56
$GPGSA,M,3,21,30,29,25,31,,,,,,,,3.5,1.5,3.2*33
$GPRMC,160513.000,A,3948.0000,S,07036.5892,W,7.45,195.37,120511,,,A*6A
$GPGGA,160514.000,3948.0021,S,07036.5900,W,1,05,1.5,954.8,M,22.9,M,,0000*57
$GPGSA,M,3,21,30,29,25,31,,,,,,,,3.5,1.5,3.2*33
$GPGSV,3,1,10,21,79,342,41,30,50,230,45,29,44,113,41,25,33,039,42*77
$GPGSV,3,2,10,31,32,306,42,16,25,226,25,18,16,016,35,06,13,259,33*7D
$GPGSV,3,3,10,05,13,137,40,03,03,259,*70
$GPRMC,160514.000,A,3948.0021,S,07036.5900,W,7.55,195.30,120511,,,A*62
$GPGGA,160515.000,3948.0040,S,07036.5908,W,1,05,1.5,954.9,M,22.9,M,,0000*58
$GPGSA,M,3,21,30,29,25,31,,,,,,,,3.5,1.5,3.2*33
$GPRMC,160515.000,A,3948.0040,S,07036.5908,W,6.95,196.17,120511,,,A*67
$GPGGA,160516.000,3948.0058,S,07036.5916,W,1,05,1.5,955.0,M,22.9,M,,0000*55
$GPGSA,M,3,21,30,29,25,31,,,,,,,,3.5,1.5,3.2*33
$GPRMC,160516.000,A,3948.0058,S,07036.5916,W,6.81,196.93,120511,,,A*6B
$GPGGA,160517.000,3948.0076,S,07036.5924,W,1,05,1.5,954.9,M,22.9,M,,0000*51
$GPGSA,M,3,21,30,29,25,31,,,,,,,,3.5,1.5,3.2*33
$GPRMC,160517.000,A,3948.0076,S,07036.5924,W,6.64,194.58,120511,,,A*69
$GPGGA,160518.000,3948.0094,S,07036.5928,W,1,05,1.5,954.8,M,22.9,M,,0000*5F
$GPGSA,M,3,21,30,29,25,31,,,,,,,,3.5,1.5,3.2*33
$GPRMC,160518.000,A,3948.0094,S,07036.5928,W,5.98,189.67,120511,,,A*66
$GPGGA,160519.000,3948.0111,S,07036.5934,W,1,05,1.5,955.0,M,22.9,M,,0000*56
$GPGSA,M,3,21,30,29,25,31,,,,,,,,3.5,1.5,3.2*33
$GPGSV,3,1,10,21,79,342,34,30,50,230,35,29,44,113,34,25,33,039,35*70
$GPGSV,3,2,10,31,32,306,34,16,25,226,,18,16,016,,06,13,259,28*77
$GPGSV,3,3,10,05,13,137,29,03,03,259,*7F
$GPRMC,160519.000,A,3948.0111,S,07036.5934,W,6.99,196.80,120511,,,A*63
$GPGGA,160520.000,3948.0129,S,07036.5940,W,1,05,1.5,955.3,M,22.9,M,,0000*57
$GPGSA,M,3,21,30,29,25,31,,,,,,,,3.5,1.5,3.2*33
$GPRMC,160520.000,A,3948.0129,S,07036.5940,W,7.29,193.41,120511,,,A*63
$GPGGA,160521.004,3948.0150,S,07036.5947,W,1,05,1.5,955.2,M,22.9,M,,0000*5A
$GPGSA,M,3,21,30,29,25,31,,,,,,,,3.5,1.5,3.2*33
$GPRMC,160521.004,A,3948.0150,S,07036.5947,W,7.54,194.89,120511,,,A*66
$GPGGA,160521.998,3948.0169,S,07036.5953,W,1,05,1.5,955.1,M,22.9,M,,0000*5A
$GPGSA,M,3,21,30,29,25,31,,,,,,,,3.5,1.5,3.2*33
$GPRMC,160521.998,A,3948.0169,S,07036.5953,W,7.28,194.89,120511,,,A*6E
$GPGGA,160522.987,3948.0190,S,07036.5961,W,1,05,1.5,954.7,M,22.9,M,,0000*57
$GPGSA,M,3,21,30,29,25,31,,,,,,,,3.5,1.5,3.2*33
$GPRMC,160522.987,A,3948.0190,S,07036.5961,W,7.68,197.62,120511,,,A*66
$GPGGA,160524.012,3948.0211,S,07036.5970,W,1,05,1.5,954.9,M,22.9,M,,0000*50
$GPGSA,M,3,21,30,29,25,31,,,,,,,,3.5,1.5,3.2*33
$GPGSV,3,1,10,21,79,342,32,30,50,230,32,29,44,113,34,25,33,039,32*76
$GPGSV,3,2,10,31,32,306,33,16,25,226,,18,16,016,25,06,13,259,28*77
$GPGSV,3,3,10,05,13,137,32,03,03,259,*75
$GPRMC,160524.012,A,3948.0211,S,07036.5970,W,7.14,196.11,120511,,,A*61
$GPGGA,160524.989,3948.0231,S,07036.5979,W,1,05,1.5,954.4,M,22.9,M,,0000*5D
$GPGSA,M,3,21,30,29,25,31,,,,,,,,3.5,1.5,3.2*33
$GPRMC,160524.989,A,3948.0231,S,07036.5979,W,8.13,202.32,120511,,,A*66
$GPGGA,160526.007,3948.0254,S,07036.5987,W,1,05,1.5,954.5,M,22.9,M,,0000*53
$GPGSA,M,3,21,30,29,25,31,,,,,,,,3.5,1.5,3.2*33
$GPRMC,160526.007,A,3948.0254,S,07036.5987,W,7.88,196.95,120511,,,A*67
$GPGGA,160526.992,3948.0279,S,07036.5994,W,1,05,1.5,953.6,M,22.9,M,,0000*5F
$GPGSA,M,3,21,30,29,25,31,,,,,,,,3.5,1.5,3.2*33
$GPRMC,160526.992,A,3948.0279,S,07036.5994,W,8.25,192.75,120511,,,A*6D
$GPGGA,160528.010,3948.0301,S,07036.6003,W,1,05,1.5,953.5,M,22.9,M,,0000*5B
$GPGSA,M,3,21,30,29,25,31,,,,,,,,3.5,1.5,3.2*33
$GPRMC,160528.010,A,3948.0301,S,07036.6003,W,8.17,197.19,120511,,,A*64
$GPGGA,160529.001,3948.0323,S,07036.6011,W,1,05,1.5,953.2,M,22.9,M,,0000*5E
$GPGSA,M,3,21,30,29,25,31,,,,,,,,3.5,1.5,3.2*33
$GPGSV,3,1,10,21,79,342,39,30,50,230,39,29,44,113,39,25,33,039,40*7E
$GPGSV,3,2,10,31,32,306,39,16,25,226,28,18,16,016,35,06,13,259,37*78
$GPGSV,3,3,10,05,13,137,38,03,03,259,*7F
$GPRMC,160529.001,A,3948.0323,S,07036.6011,W,8.44,195.69,120511,,,A*65
$GPGGA,160530.001,3948.0348,S,07036.6020,W,1,05,1.5,953.2,M,22.9,M,,0000*59
$GPGSA,M,3,21,30,29,25,31,,,,,,,,3.5,1.5,3.2*33
$GPRMC,160530.001,A,3948.0348,S,07036.6020,W,8.16,197.12,120511,,,A*6B
$GPGGA,160531.000,3948.0367,S,07036.6030,W,1,05,1.5,953.3,M,22.9,M,,0000*54
$GPGSA,M,3,21,30,29,25,31,,,,,,,,3.5,1.5,3.2*33
$GPRMC,160531.000,A,3948.0367,S,07036.6030,W,7.80,196.05,120511,,,A*60
$GPGGA,160532.000,3948.0389,S,07036.6039,W,1,05,1.5,953.4,M,22.9,M,,0000*59
$GPGSA,M,3,21,30,29,25,31,,,,,,,,3.5,1.5,3.2*33
$GPRMC,160532.000,A,3948.0389,S,07036.6039,W,7.86,196.76,120511,,,A*68
$GPGGA,160532.997,3948.0410,S,07036.6048,W,1,05,1.5,953.5,M,22.9,M,,0000*5E
$GPGSA,M,3,21,30,29,25,31,,,,,,,,3.5,1.5,3.2*33
$GPRMC,160532.997,A,3948.0410,S,07036.6048,W,7.47,198.27,120511,,,A*69
$GPGGA,160533.993,3948.0435,S,07036.6053,W,1,05,1.5,954.6,M,22.9,M,,0000*52
$GPGSA,M,3,21,30,29,25,31,,,,,,,,3.5,1.5,3.2*33
$GPGSV,3,1,10,21,79,342,39,30,50,230,39,29,44,113,39,25,33,039,40*7E
$GPGSV,3,2,10,31,32,306,39,16,25,226,,18,16,016,36,06,13,259,37*71
$GPGSV,3,3,10,05,13,137,38,03,03,259,*7F
$GPRMC,160533.993,A,3948.0435,S,07036.6053,W,7.98,194.85,120511,,,A*67
$GPGGA,160535.011,3948.0458,S,07036.6060,W,1,05,1.5,954.4,M,22.9,M,,0000*5E
$GPGSA,M,3,21,30,29,25,31,,,,,,,,3.5,1.5,3.2*33
$GPRMC,160535.011,A,3948.0458,S,07036.6060,W,8.57,194.01,120511,,,A*69
$GPGGA,160535.985,3948.0476,S,07036.6066,W,1,05,1.5,954.2,M,22.9,M,,0000*56
$GPGSA,M,3,21,30,29,25,31,,,,,,,,3.5,1.5,3.2*33
$GPRMC,160535.985,A,3948.0476,S,07036.6066,W,7.90,195.03,120511,,,A*60
$GPGGA,160537.012,3948.0499,S,07036.6072,W,1,05,1.5,953.5,M,22.9,M,,0000*57
$GPGSA,M,3,21,30,29,25,31,,,,,,,,3.5,1.5,3.2*33
$GPRMC,160537.012,A,3948.0499,S,07036.6072,W,8.49,192.84,120511,,,A*62
$GPGGA,160537.989,3948.0519,S,07036.6081,W,1,05,1.5,952.3,M,22.9,M,,0000*5E
$GPGSA,M,3,21,30,29,25,31,,,,,,,,3.5,1.5,3.2*33
$GPRMC,160537.989,A,3948.0519,S,07036.6081,W,7.61,191.49,120511,,,A*6B
$GPGGA,160539.013,3948.0540,S,07036.6087,W,1,05,1.5,952.4,M,22.9,M,,0000*57
$GPGSA,M,3,21,30,29,25,31,,,,,,,,3.5,1.5,3.2*33
$GPGSV,3,1,10,21,79,342,33,30,50,230,34,29,44,113,32,25,33,039,32*77
$GPGSV,3,2,10,31,32,306,33,16,25,226,,18,16,016,32,06,13,259,30*78
$GPGSV,3,3,10,05,13,137,31,03,03,259,*76
$GPRMC,160539.013,A,3948.0540,S,07036.6087,W,8.01,192.37,120511,,,A*66
$GPGGA,160539.998,3948.0560,S,07036.6093,W,1,05,1.5,952.7,M,22.9,M,,0000*59
$GPGSA,M,3,21,30,29,25,31,,,,,,,,3.5,1.5,3.2*33
$GPRMC,160539.998,A,3948.0560,S,07036.6093,W,8.12,197.11,120511,,,A*68
$GPGGA,160541.000,3948.0584,S,07036.6101,W,1,05,1.5,952.5,M,22.9,M,,0000*5C
$GPGSA,M,3,21,30,29,25,31,,,,,,,,3.5,1.5,3.2*33
$GPRMC,160541.000,A,3948.0584,S,07036.6101,W,9.19,194.37,120511,,,A*62
$GPGGA,160542.000,3948.0606,S,07036.6107,W,1,05,1.5,951.8,M,22.9,M,,0000*5E
$GPGSA,M,3,21,30,29,25,31,,,,,,,,3.5,1.5,3.2*33
$GPRMC,160542.000,A,3948.0606,S,07036.6107,W,7.79,195.82,120511,,,A*69
$GPGGA,160543.002,3948.0628,S,07036.6115,W,1,05,1.5,951.6,M,22.9,M,,0000*5C
$GPGSA,M,3,21,30,29,25,31,,,,,,,,3.5,1.5,3.2*33
$GPRMC,160543.002,A,3948.0628,S,07036.6115,W,8.20,199.54,120511,,,A*61
$GPGGA,160543.996,3948.0656,S,07036.6122,W,1,05,1.5,951.1,M,22.9,M,,0000*52
$GPGSA,M,3,21,30,29,25,31,,,,,,,,3.5,1.5,3.2*33
$GPGSV,3,1,10,21,79,342,38,30,50,230,38,29,44,113,39,25,33,039,39*70
$GPGSV,3,2,10,31,32,306,38,16,25,226,34,18,16,016,38,06,13,259,36*78
$GPGSV,3,3,10,05,13,137,39,03,03,259,*7E
$GPRMC,160543.996,A,3948.0656,S,07036.6122,W,8.48,192.44,120511,,,A*6C
$GPGGA,160545.002,3948.0680,S,07036.6128,W,1,05,1.5,950.4,M,22.9,M,,0000*55
$GPGSA,M,3,21,30,29,25,31,,,,,,,,3.5,1.5,3.2*33
$GPRMC,160545.002,A,3948.0680,S,07036.6128,W,8.75,193.49,120511,,,A*6D
$GPGGA,160545.998,3948.0703,S,07036.6136,W,1,05,1.5,949.5,M,22.9,M,,0000*53
$GPGSA,M,3,21,30,29,25,31,,,,,,,,3.5,1.5,3.2*33
$GPRMC,160545.998,A,3948.0703,S,07036.6136,W,8.33,197.09,120511,,,A*60
$GPGGA,160546.991,3948.0727,S,07036.6152,W,1,05,1.5,948.4,M,22.9,M,,0000*5D
$GPGSA,M,3,21,30,29,25,31,,,,,,,,3.5,1.5,3.2*33
$GPRMC,160546.991,A,3948.0727,S,07036.6152,W,8.31,201.41,120511,,,A*6C
$GPGGA,160548.011,3948.0746,S,07036.6164,W,1,05,1.5,948.4,M,22.9,M,,0000*50
$GPGSA,M,3,21,30,29,25,31,,,,,,,,3.5,1.5,3.2*33
$GPRMC,160548.011,A,3948.0746,S,07036.6164,W,8.84,194.48,120511,,,A*69
$GPGGA,160549.000,3948.0772,S,07036.6175,W,1,05,1.5,950.7,M,22.9,M,,0000*5C
$GPGSA,M,3,21,30,29,25,31,,,,,,,,3.5,1.5,3.2*33
$GPGSV,3,1,10,21,79,342,38,30,50,230,39,29,44,113,39,25,33,039,39*71
$GPGSV,3,2,10,31,32,306,39,16,25,226,33,18,16,016,37,06,13,259,36*71
$GPGSV,3,3,10,05,13,137,36,03,03,259,*71
$GPRMC,160549.000,A,3948.0772,S,07036.6175,W,8.14,195.27,120511,,,A*6E
$GPGGA,160549.999,3948.0795,S,07036.6185,W,1,05,1.5,949.8,M,22.9,M,,0000*54
$GPGSA,M,3,21,30,29,25,31,,,,,,,,3.5,1.5,3.2*33
$GPRMC,160549.999,A,3948.0795,S,07036.6185,W,8.75,192.43,120511,,,A*63
$GPGGA,160550.999,3948.0817,S,07036.6192,W,1,05,1.5,949.9,M,22.9,M,,0000*5E
$GPGSA,M,3,21,30,29,25,31,,,,,,,,3.5,1.5,3.2*33
$GPRMC,160550.999,A,3948.0817,S,07036.6192,W,8.17,196.98,120511,,,A*6E
$GPGGA,160552.000,3948.0842,S,07036.6202,W,1,05,1.5,949.4,M,22.9,M,,0000*52
$GPGSA,M,3,21,30,29,25,31,,,,,,,,3.5,1.5,3.2*33
$GPRMC,160552.000,A,3948.0842,S,07036.6202,W,9.02,199.13,120511,,,A*66
$GPGGA,160553.000,3948.0867,S,07036.6214,W,1,05,1.5,949.4,M,22.9,M,,0000*53
$GPGSA,M,3,21,30,29,25,31,,,,,,,,3.5,1.5,3.2*33
$GPRMC,160553.000,A,3948.0867,S,07036.6214,W,8.18,196.57,120511,,,A*62
$GPGGA,160554.001,3948.0889,S,07036.6223,W,1,05,1.5,948.2,M,22.9,M,,0000*56
$GPGSA,M,3,21,30,29,25,31,,,,,,,,3.5,1.5,3.1*30
$GPGSV,3,1,10,21,79,342,34,30,50,230,35,29,44,113,34,25,33,039,34*71
$GPGSV,3,2,10,31,32,306,32,16,25,226,24,18,16,016,30,06,13,259,29*75
$GPGSV,3,3,10,05,13,137,,03,03,259,*74
$GPRMC,160554.001,A,3948.0889,S,07036.6223,W,8.41,195.16,120511,,,A*6A
$GPGGA,160554.998,3948.0916,S,07036.6231,W,1,05,1.5,947.5,M,22.9,M,,0000*53
$GPGSA,M,3,21,30,29,25,31,,,,,,,,3.5,1.5,3.1*30
$GPRMC,160554.998,A,3948.0916,S,07036.6231,W,7.77,195.48,120511,,,A*66
$GPGGA,160556.002,3948.0937,S,07036.6238,W,1,05,1.5,947.6,M,22.9,M,,0000*52
$GPGSA,M,3,21,30,29,25,31,,,,,,,,3.5,1.5,3.1*30
$GPRMC,160556.002,A,3948.0937,S,07036.6238,W,8.23,193.99,120511,,,A*60
$GPGGA,160556.998,3948.0961,S,07036.6245,W,1,05,1.5,948.0,M,22.9,M,,0000*58
$GPGSA,M,3,21,30,29,25,31,,,,,,,,3.5,1.5,3.1*30
$GPRMC,160556.998,A,3948.0961,S,07036.6245,W,7.66,195.85,120511,,,A*66
$GPGGA,160557.990,3948.0979,S,07036.6251,W,1,05,1.5,949.0,M,22.9,M,,0000*5C
$GPGSA,M,3,21,30,29,25,31,,,,,,,,3.5,1.5,3.1*30
$GPRMC,160557.990,A,3948.0979,S,07036.6251,W,7.51,197.60,120511,,,A*6E
$GPGGA,160559.011,3948.0997,S,07036.6261,W,1,05,1.5,949.5,M,22.9,M,,0000*54
$GPGSA,M,3,21,30,29,25,31,,,,,,,,3.5,1.5,3.1*30
$GPGSV,3,1,10,21,79,342,32,30,50,230,34,29,44,113,33,25,33,039,33*76
$GPGSV,3,2,10,31,32,306,32,16,25,226,,18,16,016,27,06,13,259,*7E
$GPGSV,3,3,10,05,13,137,30,03,03,259,*77
$GPRMC,160559.011,A,3948.0997,S,07036.6261,W,8.42,198.39,120511,,,A*6D
$GPGGA,160559.991,3948.1022,S,07036.6271,W,1,05,1.5,949.3,M,22.9,M,,0000*54
$GPGSA,M,3,21,30,29,25,31,,,,,,,,3.5,1.5,3.1*30
$GPRMC,160559.991,A,3948.1022,S,07036.6271,W,8.56,199.14,120511,,,A*60
$GPGGA,160601.009,3948.1044,S,07036.6285,W,1,05,1.5,949.2,M,22.9,M,,0000*58
$GPGSA,M,3,21,30,29,25,31,,,,,,,,3.5,1.5,3.1*30
$GPRMC,160601.009,A,3948.1044,S,07036.6285,W,7.64,198.15,120511,,,A*63
$GPGGA,160601.989,3948.1062,S,07036.6287,W,1,05,1.5,950.3,M,22.9,M,,0000*56
$GPGSA,M,3,21,30,29,25,31,,,,,,,,3.5,1.5,3.1*30
$GPRMC,160601.989,A,3948.1062,S,07036.6287,W,7.06,198.98,120511,,,A*65
$GPGGA,160603.010,3948.1081,S,07036.6298,W,1,05,1.5,950.7,M,22.9,M,,0000*5A
$GPGSA,M,3,21,30,29,25,31,,,,,,,,3.5,1.5,3.1*30
$GPRMC,160603.010,A,3948.1081,S,07036.6298,W,7.99,194.98,120511,,,A*67
$GPGGA,160603.998,3948.1104,S,07036.6302,W,1,05,1.5,950.2,M,22.9,M,,0000*58
$GPGSA,M,3,21,30,29,25,31,,,,,,,,3.5,1.5,3.1*30
$GPGSV,3,1,10,21,79,342,39,30,50,230,40,29,44,113,38,25,33,039,39*7F
$GPGSV,3,2,10,31,32,306,40,16,25,226,27,18,16,016,36,06,13,259,36*7B
$GPGSV,3,3,10,05,13,137,36,03,03,259,*71
$GPRMC,160603.998,A,3948.1104,S,07036.6302,W,8.60,196.06,120511,,,A*6C
$GPGGA,160605.005,3948.1129,S,07036.6315,W,1,05,1.5,950.1,M,22.9,M,,0000*59
$GPGSA,M,3,21,30,29,25,31,,,,,,,,3.5,1.5,3.1*30
$GPRMC,160605.005,A,3948.1129,S,07036.6315,W,8.69,198.02,120511,,,A*6D
$GPGGA,160605.997,3948.1159,S,07036.6326,W,1,05,1.5,949.5,M,22.9,M,,0000*50
$GPGSA,M,3,21,30,29,25,31,,,,,,,,3.5,1.5,3.1*30
$GPRMC,160605.997,A,3948.1159,S,07036.6326,W,8.94,196.58,120511,,,A*6B
$GPGGA,160606.999,3948.1183,S,07036.6334,W,1,05,1.5,949.0,M,22.9,M,,0000*5C
$GPGSA,M,3,21,30,29,25,31,,,,,,,,3.5,1.5,3.1*30
$GPRMC,160606.999,A,3948.1183,S,07036.6334,W,9.39,196.30,120511,,,A*6A
$GPGGA,160607.999,3948.1202,S,07036.6338,W,1,05,1.5,949.3,M,22.9,M,,0000*58
$GPGSA,M,3,21,30,29,25,31,,,,,,,,3.5,1.5,3.1*30
$GPRMC,160607.999,A,3948.1202,S,07036.6338,W,8.51,195.11,120511,,,A*62
$GPGGA,160608.989,3948.1216,S,07036.6347,W,1,05,1.5,949.2,M,22.9,M,,0000*5A
$GPGSA,M,3,21,30,29,25,31,,,,,,,,3.5,1.5,3.1*30
$GPGSV,3,1,10,21,79,343,39,30,50,230,41,29,44,113,41,25,33,039,40*7F
$GPGSV,3,2,10,31,32,306,39,16,25,226,25,18,16,016,36,06,14,259,36*70
$GPGSV,3,3,10,05,13,137,38,03,03,258,*7E
$GPRMC,160608.989,A,3948.1216,S,07036.6347,W,7.41,201.40,120511,,,A*65
$GPGGA,160610.013,3948.1238,S,07036.6355,W,1,05,1.5,949.5,M,22.9,M,,0000*51
$GPGSA,M,3,21,30,29,25,31,,,,,,,,3.5,1.5,3.1*30
$GPRMC,160610.013,A,3948.1238,S,07036.6355,W,7.67,194.24,120511,,,A*60
$GPGGA,160610.986,3948.1261,S,07036.6363,W,1,05,1.5,949.0,M,22.9,M,,0000*58
$GPGSA,M,3,21,30,29,25,31,,,,,,,,3.5,1.5,3.1*30
$GPRMC,160610.986,A,3948.1261,S,07036.6363,W,8.76,196.50,120511,,,A*62
$GPGGA,160612.012,3948.1288,S,07036.6375,W,1,05,1.5,948.7,M,22.9,M,,0000*58
$GPGSA,M,3,21,30,29,25,31,,,,,,,,3.5,1.5,3.1*30
$GPRMC,160612.012,A,3948.1288,S,07036.6375,W,8.65,193.10,120511,,,A*67
$GPGGA,160612.991,3948.1310,S,07036.6382,W,1,05,1.5,949.7,M,22.9,M,,0000*53
$GPGSA,M,3,21,30,29,25,31,,,,,,,,3.5,1.5,3.1*30
$GPRMC,160612.991,A,3948.1310,S,07036.6382,W,8.44,201.69,120511,,,A*68
$GPGGA,160614.025,3948.1333,S,07036.6394,W,0,00,,949.9,M,22.9,M,,0000*75
$GPGSA,M,1,,,,,,,,,,,,,,,*12
$GPGSV,3,1,10,21,79,343,,30,50,230,,29,44,113,,25,33,039,*71
$GPGSV,3,2,10,31,32,306,,16,25,226,,18,16,016,,06,14,258,*7C
$GPGSV,3,3,10,05,13,137,,03,03,258,*75
$GPRMC,160614.025,V,3948.1333,S,07036.6394,W,,,120511,,,N*72
$GPGGA,160614.723,3948.1348,S,07036.6402,W,0,00,,950.1,M,22.9,M,,0000*70
$GPGSA,M,1,,,,,,,,,,,,,,,*12
$GPRMC,160614.723,V,3948.1348,S,07036.6402,W,,,120511,,,N*77
$GPGGA,160615.000,3948.1354,S,07036.6405,W,0,00,,950.1,M,22.9,M,,0000*7D
$GPGSA,M,1,,,,,,,,,,,,,,,*12
$GPRMC,160615.000,V,3948.1354,S,07036.6405,W,,,120511,,,N*7A
$GPGGA,160616.000,3948.1376,S,07036.6416,W,0,00,,950.3,M,22.9,M,,0000*7E
$GPGSA,M,1,,,,,,,,,,,,,,,*12
$GPRMC,160616.000,V,3948.1376,S,07036.6416,W,,,120511,,,N*7B
$GPGGA,160617.000,3948.1407,S,07036.6432,W,1,05,1.5,951.9,M,22.9,M,,0000*5D
$GPGSA,M,3,21,25,31,30,29,,,,,,,,3.5,1.5,3.1*30
$GPRMC,160617.000,A,3948.1407,S,07036.6432,W,8.91,197.78,120511,,,A*65
$GPGGA,160618.000,3948.1431,S,07036.6442,W,1,05,1.5,952.2,M,22.9,M,,0000*58
$GPGSA,M,3,21,25,31,30,29,,,,,,,,3.5,1.5,3.1*30
$GPGSV,3,1,10,21,79,343,36,30,50,230,37,29,44,113,37,25,33,039,37*70
$GPGSV,3,2,10,31,32,306,35,16,25,226,19,18,16,016,27,06,14,258,24*71
$GPGSV,3,3,10,05,13,137,34,03,03,258,*72
$GPRMC,160618.000,A,3948.1431,S,07036.6442,W,8.70,198.90,120511,,,A*6E
$GPGGA,160619.000,3948.1458,S,07036.6448,W,1,05,1.5,953.2,M,22.9,M,,0000*5D
$GPGSA,M,3,21,25,31,30,29,,,,,,,,3.5,1.5,3.1*30
$GPRMC,160619.000,A,3948.1458,S,07036.6448,W,8.79,198.94,120511,,,A*67
$GPGGA,160620.000,3948.1482,S,07036.6457,W,1,05,1.5,953.1,M,22.9,M,,0000*5D
$GPGSA,M,3,21,25,31,30,29,,,,,,,,3.5,1.5,3.1*30
$GPRMC,160620.000,A,3948.1482,S,07036.6457,W,8.75,198.62,120511,,,A*61
$GPGGA,160621.000,3948.1505,S,07036.6469,W,1,05,1.5,953.8,M,22.9,M,,0000*56
$GPGSA,M,3,21,25,31,30,29,,,,,,,,3.5,1.5,3.1*30
$GPRMC,160621.000,A,3948.1505,S,07036.6469,W,8.75,198.79,120511,,,A*69
$GPGGA,160622.000,3948.1527,S,07036.6480,W,1,05,1.5,953.7,M,22.9,M,,0000*5D
$GPGSA,M,3,21,25,31,30,29,,,,,,,,3.5,1.5,3.1*30
$GPRMC,160622.000,A,3948.1527,S,07036.6480,W,8.76,199.11,120511,,,A*61
$GPGGA,160623.000,3948.1549,S,07036.6491,W,1,05,1.5,954.0,M,22.9,M,,0000*54
$GPGSA,M,3,21,25,31,30,29,,,,,,,,3.5,1.5,3.1*30
$GPRMC,160623.000,A,3948.1549,S,07036.6491,W,8.81,199.10,120511,,,A*61
$GPGGA,160624.000,3948.1573,S,07036.6502,W,1,05,1.5,954.4,M,22.9,M,,0000*55
$GPGSA,M,3,21,25,31,30,29,,,,,,,,3.5,1.5,3.1*30
$GPRMC,160624.000,A,3948.1573,S,07036.6502,W,8.80,199.52,120511,,,A*63
$GPGGA,160625.000,3948.1596,S,07036.6513,W,1,05,1.5,955.0,M,22.9,M,,0000*5A
$GPGSA,M,3,21,25,31,30,29,,,,,,,,3.5,1.5,3.1*30
$GPRMC,160625.000,A,3948.1596,S,07036.6513,W,8.78,199.27,120511,,,A*6C
$GPGGA,160626.000,3948.1620,S,07036.6522,W,1,05,1.5,955.2,M,22.9,M,,0000*57
$GPGSA,M,3,21,25,31,30,29,,,,,,,,3.5,1.5,3.1*30
$GPRMC,160626.000,A,3948.1620,S,07036.6522,W,8.71,199.46,120511,,,A*6D
$GPGGA,160627.000,3948.1642,S,07036.6532,W,1,05,1.5,955.4,M,22.9,M,,0000*55
$GPGSA,M,3,21,25,31,30,29,,,,,,,,3.5,1.5,3.1*30
$GPRMC,160627.000,A,3948.1642,S,07036.6532,W,8.71,199.45,120511,,,A*6A
$GPGGA,160628.013,3948.1665,S,07036.6544,W,1,05,1.5,955.5,M,22.9,M,,0000*5D
$GPGSA,M,3,21,30,29,25,31,,,,,,,,3.5,1.5,3.1*30
$GPRMC,160628.013,A,3948.1665,S,07036.6544,W,9.03,201.49,120511,,,A*69
$GPGGA,160628.986,3948.1690,S,07036.6554,W,1,05,1.5,954.3,M,22.9,M,,0000*54
$GPGSA,M,3,21,30,29,25,31,,,,,,,,3.5,1.5,3.1*30
$GPGSV,3,1,10,21,79,343,39,30,50,230,39,29,44,113,40,25,33,039,39*7F
$GPGSV,3,2,10,31,32,306,39,16,25,226,28,18,16,016,36,06,14,258,29*72
$GPGSV,3,3,10,05,13,137,37,03,03,258,*71
$GPRMC,160628.986,A,3948.1690,S,07036.6554,W,8.84,200.72,120511,,,A*60
$GPGGA,160630.011,3948.1711,S,07036.6566,W,1,05,1.5,954.3,M,22.9,M,,0000*53
$GPGSA,M,3,21,30,29,25,31,,,,,,,,3.5,1.5,3.1*30
$GPRMC,160630.011,A,3948.1711,S,07036.6566,W,8.77,200.06,120511,,,A*68
$GPGGA,160630.999,3948.1737,S,07036.6575,W,1,05,1.5,954.5,M,22.9,M,,0000*5A
$GPGSA,M,3,21,30,29,25,31,,,,,,,,3.5,1.5,3.1*30
$GPRMC,160630.999,A,3948.1737,S,07036.6575,W,8.85,200.87,120511,,,A*63
$GPGGA,160632.002,3948.1761,S,07036.6589,W,1,05,1.5,954.6,M,22.9,M,,0000*50
$GPGSA,M,3,21,30,29,25,31,,,,,,,,3.5,1.5,3.1*30
$GPRMC,160632.002,A,3948.1761,S,07036.6589,W,9.18,203.43,120511,,,A*64
$GPGGA,160633.000,3948.1787,S,07036.6599,W,1,05,1.5,953.9,M,22.9,M,,0000*52
$GPGSA,M,3,21,30,29,25,31,,,,,,,,3.5,1.5,3.1*30
