$GPGGA,134349.787,,,,,0,00,,,M,0.0,M,,0000*56
$GPGSA,M,1,,,,,,,,,,,,,,,*12
$GPRMC,134349.787,V,,,,,,,200411,,,N*4B
$GPGGA,134350.787,,,,,0,00,,,M,0.0,M,,0000*5E
$GPGSA,M,1,,,,,,,,,,,,,,,*12
$GPRMC,134350.787,V,,,,,,,200411,,,N*43
$GPGGA,134351.787,,,,,0,00,,,M,0.0,M,,0000*5F
$GPGSA,M,1,,,,,,,,,,,,,,,*12
$GPRMC,134351.787,V,,,,,,,200411,,,N*42
$GPGGA,134352.787,,,,,0,00,,,M,0.0,M,,0000*5C
$GPGSA,M,1,,,,,,,,,,,,,,,*12
$GPGSV,3,1,12,09,68,106,40,29,57,289,46,27,53,067,39,12,37,171,36*79
$GPGSV,3,2,12,02,32,107,42,25,29,219,43,15,27,000,,14,21,233,44*7C
$GPGSV,3,3,12,04,05,132,,21,03,337,,01,02,020,,18,01,309,*7F
$GPRMC,134352.787,V,,,,,,,200411,,,N*41
$GPGGA,134353.787,,,,,0,00,,,M,0.0,M,,0000*5D
$GPGSA,M,1,,,,,,,,,,,,,,,*12
$GPRMC,134353.787,V,,,,,,,200411,,,N*40
$GPGGA,134354.787,,,,,0,00,,,M,0.0,M,,0000*5A
$GPGSA,M,1,,,,,,,,,,,,,,,*12
$GPRMC,134354.787,V,,,,,,,200411,,,N*47
$GPGGA,134355.787,,,,,0,00,,,M,0.0,M,,0000*5B
$GPGSA,M,1,,,,,,,,,,,,,,,*12
$GPRMC,134355.787,V,,,,,,,200411,,,N*46
$GPGGA,134356.787,,,,,0,00,,,M,0.0,M,,0000*58
$GPGSA,M,1,,,,,,,,,,,,,,,*12
$GPRMC,134356.787,V,,,,,,,200411,,,N*45
$GPGGA,134357.787,,,,,0,00,,,M,0.0,M,,0000*59
$GPGSA,M,1,,,,,,,,,,,,,,,*12
$GPGSV,3,1,12,09,68,106,40,29,57,289,46,27,53,067,39,12,37,171,28*76
$GPGSV,3,2,12,02,32,107,43,25,29,219,42,15,27,000,,14,21,233,42*7A
$GPGSV,3,3,12,04,05,132,,21,03,337,,01,02,020,,18,01,309,*7F
$GPRMC,134357.787,V,,,,,,,200411,,,N*44
$GPGGA,134358.787,,,,,0,00,,,M,0.0,M,,0000*56
$GPGSA,M,1,,,,,,,,,,,,,,,*12
$GPRMC,134358.787,V,,,,,,,200411,,,N*4B
$GPGGA,134359.787,,,,,0,00,,,M,0.0,M,,0000*57
$GPGSA,M,1,,,,,,,,,,,,,,,*12
$GPRMC,134359.787,V,,,,,,,200411,,,N*4A
$GPGGA,134400.787,,,,,0,00,,,M,0.0,M,,0000*5C
$GPGSA,M,1,,,,,,,,,,,,,,,*12
$GPRMC,134400.787,V,,,,,,,200411,,,N*41
$GPGGA,134401.787,,,,,0,00,,,M,0.0,M,,0000*5D
$GPGSA,M,1,,,,,,,,,,,,,,,*12
$GPRMC,134401.787,V,,,,,,,200411,,,N*40
$GPGGA,134402.787,,,,,0,00,,,M,0.0,M,,0000*5E
$GPGSA,M,1,,,,,,,,,,,,,,,*12
$GPGSV,3,1,12,09,68,106,41,29,57,289,47,27,53,067,38,12,37,171,29*76
$GPGSV,3,2,12,02,32,107,45,25,29,219,41,15,27,000,,14,21,233,41*7C
$GPGSV,3,3,12,04,05,132,,21,03,337,,01,02,020,,18,01,309,*7F
$GPRMC,134402.787,V,,,,,,,200411,,,N*43
$GPGGA,134403.787,,,,,0,00,,,M,0.0,M,,0000*5F
$GPGSA,M,1,,,,,,,,,,,,,,,*12
$GPRMC,134403.787,V,,,,,,,200411,,,N*42
$GPGGA,134404.787,,,,,0,00,,,M,0.0,M,,0000*58
$GPGSA,M,1,,,,,,,,,,,,,,,*12
$GPRMC,134404.787,V,,,,,,,200411,,,N*45
$GPGGA,134405.787,,,,,0,00,,,M,0.0,M,,0000*59
$GPGSA,M,1,,,,,,,,,,,,,,,*12
$GPRMC,134405.787,V,,,,,,,200411,,,N*44
$GPGGA,134406.787,,,,,0,00,,,M,0.0,M,,0000*5A
$GPGSA,M,1,,,,,,,,,,,,,,,*12
$GPRMC,134406.787,V,,,,,,,200411,,,N*47
$GPGGA,134407.787,,,,,0,00,,,M,0.0,M,,0000*5B
$GPGSA,M,1,,,,,,,,,,,,,,,*12
$GPGSV,3,1,12,09,68,105,41,29,57,289,48,27,53,067,38,12,37,171,29*7A
$GPGSV,3,2,12,02,32,108,47,25,29,219,40,15,26,000,,14,21,234,41*76
$GPGSV,3,3,12,04,05,132,,21,03,337,,01,02,020,,18,01,309,*7F
$GPRMC,134407.787,V,,,,,,,200411,,,N*46
$GPGGA,134408.787,,,,,0,00,,,M,0.0,M,,0000*54
$GPGSA,M,1,,,,,,,,,,,,,,,*12
$GPRMC,134408.787,V,,,,,,,200411,,,N*49
$GPGGA,134409.787,,,,,0,00,,,M,0.0,M,,0000*55
$GPGSA,M,1,,,,,,,,,,,,,,,*12
$GPRMC,134409.787,V,,,,,,,200411,,,N*48
$GPGGA,134410.787,,,,,0,00,,,M,0.0,M,,0000*5D
$GPGSA,M,1,,,,,,,,,,,,,,,*12
$GPRMC,134410.787,V,,,,,,,200411,,,N*40
$GPGGA,134411.787,,,,,0,00,,,M,0.0,M,,0000*5C
$GPGSA,M,1,,,,,,,,,,,,,,,*12
$GPRMC,134411.787,V,,,,,,,200411,,,N*41
$GPGGA,134412.787,,,,,0,00,,,M,0.0,M,,0000*5F
$GPGSA,M,1,,,,,,,,,,,,,,,*12
$GPGSV,3,1,12,09,68,105,42,29,57,289,48,27,53,067,38,12,37,171,34*75
$GPGSV,3,2,12,02,32,108,47,25,29,219,40,15,26,000,,14,21,234,40*77
$GPGSV,3,3,12,04,05,132,,21,03,337,,01,02,020,,18,01,309,18*76
$GPRMC,134412.787,V,,,,,,,200411,,,N*42
$GPGGA,134413.787,,,,,0,00,,,M,0.0,M,,0000*5E
$GPGSA,M,1,,,,,,,,,,,,,,,*12
$GPRMC,134413.787,V,,,,,,,200411,,,N*43
$GPGGA,134414.787,,,,,0,00,,,M,0.0,M,,0000*59
$GPGSA,M,1,,,,,,,,,,,,,,,*12
$GPRMC,134414.787,V,,,,,,,200411,,,N*44
$GPGGA,134415.787,,,,,0,00,,,M,0.0,M,,0000*58
$GPGSA,M,1,,,,,,,,,,,,,,,*12
$GPRMC,134415.787,V,,,,,,,200411,,,N*45
$GPGGA,134416.787,,,,,0,00,,,M,0.0,M,,0000*5B
$GPGSA,M,1,,,,,,,,,,,,,,,*12
$GPRMC,134416.787,V,,,,,,,200411,,,N*46
$GPGGA,134417.787,,,,,0,00,,,M,0.0,M,,0000*5A
$GPGSA,M,1,,,,,,,,,,,,,,,*12
$GPGSV,3,1,12,09,68,105,34,29,57,289,47,27,53,066,37,12,37,171,35*74
$GPGSV,3,2,12,02,32,108,29,25,29,219,31,15,26,000,,14,21,234,32*7C
$GPGSV,3,3,12,04,05,132,,21,03,337,,01,02,020,,18,01,309,17*79
$GPRMC,134417.787,V,,,,,,,200411,,,N*47
$GPGGA,134418.787,,,,,0,00,,,M,0.0,M,,0000*55
$GPGSA,M,1,,,,,,,,,,,,,,,*12
$GPRMC,134418.787,V,,,,,,,200411,,,N*48
$GPGGA,134419.787,,,,,0,00,,,M,0.0,M,,0000*54
$GPGSA,M,1,,,,,,,,,,,,,,,*12
$GPRMC,134419.787,V,,,,,,,200411,,,N*49
$GPGGA,134420.787,,,,,0,00,,,M,0.0,M,,0000*5E
$GPGSA,M,1,,,,,,,,,,,,,,,*12
$GPRMC,134420.787,V,,,,,,,200411,,,N*43
$GPGGA,134421.787,,,,,0,00,,,M,0.0,M,,0000*5F
$GPGSA,M,1,,,,,,,,,,,,,,,*12
$GPRMC,134421.787,V,,,,,,,200411,,,N*42
$GPGGA,134422.787,1441.7198,S,07407.4492,W,1,06,2.3,3220.9,M,22.7,M,,0000*6B
$GPGSA,M,3,29,02,27,09,25,14,,,,,,,4.2,2.3,3.5*38
$GPRMC,134422.787,A,1441.7198,S,07407.4492,W,0.15,42.21,200411,,,A*54
$GPGGA,134424.000,1441.7195,S,07407.4491,W,1,06,2.3,3220.6,M,22.7,M,,0000*64
$GPGSA,M,3,29,02,27,09,25,14,,,,,,,4.2,2.3,3.5*38
$GPRMC,134424.000,A,1441.7195,S,07407.4491,W,0.20,20.31,200411,,,A*57
$GPGGA,134425.000,1441.7197,S,07407.4492,W,1,06,2.3,3220.7,M,22.7,M,,0000*65
$GPGSA,M,3,29,02,27,09,25,14,,,,,,,4.2,2.3,3.5*38
$GPRMC,134425.000,A,1441.7197,S,07407.4492,W,0.29,11.76,200411,,,A*5F
$GPGGA,134426.000,1441.7196,S,07407.4491,W,1,06,2.3,3220.5,M,22.7,M,,0000*66
$GPGSA,M,3,29,02,27,09,25,14,,,,,,,4.2,2.3,3.5*38
$GPRMC,134426.000,A,1441.7196,S,07407.4491,W,0.22,15.56,200411,,,A*53
$GPGGA,134427.000,1441.7196,S,07407.4491,W,1,06,2.3,3220.4,M,22.7,M,,0000*66
$GPGSA,M,3,29,02,27,09,25,14,,,,,,,4.2,2.3,3.5*38
$GPGSV,3,1,12,09,68,105,43,29,57,289,47,27,52,066,37,02,32,108,45*78
$GPGSV,3,2,12,25,29,219,43,14,21,234,42,12,37,171,32,15,26,000,*7E
$GPGSV,3,3,12,04,05,132,,21,03,337,,01,02,020,,18,01,309,*7F
$GPRMC,134427.000,A,1441.7196,S,07407.4491,W,0.20,18.55,200411,,,A*5E
$GPGGA,134428.000,1441.7196,S,07407.4491,W,1,06,2.3,3220.4,M,22.7,M,,0000*69
$GPGSA,M,3,29,02,27,09,25,14,,,,,,,4.2,2.3,3.5*38
$GPRMC,134428.000,A,1441.7196,S,07407.4491,W,0.20,12.09,200411,,,A*52
$GPGGA,134429.000,1441.7196,S,07407.4491,W,1,06,2.3,3220.3,M,22.7,M,,0000*6F
$GPGSA,M,3,29,02,27,09,25,14,,,,,,,4.2,2.3,3.5*38
$GPRMC,134429.000,A,1441.7196,S,07407.4491,W,0.21,20.74,200411,,,A*59
$GPGGA,134430.000,1441.7202,S,07407.4493,W,1,06,2.3,3220.8,M,22.7,M,,0000*60
$GPGSA,M,3,29,02,27,09,25,14,,,,,,,4.2,2.3,3.5*38
$GPRMC,134430.000,A,1441.7202,S,07407.4493,W,1.74,206.63,200411,,,A*6C
$GPGGA,134431.000,1441.7214,S,07407.4495,W,1,06,2.3,3223.6,M,22.7,M,,0000*6D
$GPGSA,M,3,29,02,27,09,25,14,,,,,,,4.2,2.3,3.5*38
$GPRMC,134431.000,A,1441.7214,S,07407.4495,W,1.50,181.29,200411,,,A*68
$GPGGA,134432.000,1441.7219,S,07407.4497,W,1,06,2.3,3224.4,M,22.7,M,,0000*64
$GPGSA,M,3,29,02,27,09,25,14,,,,,,,4.2,2.3,3.5*38
$GPGSV,3,1,12,09,68,105,37,29,57,289,40,27,52,066,30,02,32,108,37*7E
$GPGSV,3,2,12,25,29,219,45,14,21,234,38,12,37,171,43,15,26,000,*73
$GPGSV,3,3,12,04,05,132,22,21,03,337,,01,02,020,,18,01,309,*7F
$GPRMC,134432.000,A,1441.7219,S,07407.4497,W,0.44,193.22,200411,,,A*68
$GPGGA,134433.000,1441.7220,S,07407.4498,W,1,06,2.3,3224.7,M,22.7,M,,0000*63
$GPGSA,M,3,29,02,27,09,25,14,,,,,,,4.2,2.3,3.5*38
$GPRMC,134433.000,A,1441.7220,S,07407.4498,W,0.44,352.85,200411,,,A*6E
$GPGGA,134434.000,1441.7221,S,07407.4499,W,1,06,2.3,3225.3,M,22.7,M,,0000*61
$GPGSA,M,3,29,02,27,09,25,14,,,,,,,4.2,2.3,3.5*38
$GPRMC,134434.000,A,1441.7221,S,07407.4499,W,0.17,22.30,200411,,,A*55
$GPGGA,134435.000,1441.7224,S,07407.4500,W,1,06,2.3,3225.7,M,22.7,M,,0000*60
$GPGSA,M,3,29,02,27,09,25,14,,,,,,,4.2,2.3,3.5*38
$GPRMC,134435.000,A,1441.7224,S,07407.4500,W,0.14,265.85,200411,,,A*6C
$GPGGA,134436.000,1441.7228,S,07407.4498,W,1,06,2.3,3226.2,M,22.7,M,,0000*69
$GPGSA,M,3,29,02,27,09,25,14,,,,,,,4.2,2.3,3.5*38
$GPRMC,134436.000,A,1441.7228,S,07407.4498,W,1.24,28.04,200411,,,A*53
$GPGGA,134437.161,1441.7227,S,07407.4497,W,1,04,3.8,3226.5,M,22.7,M,,0000*61
$GPGSA,M,3,09,27,02,25,,,,,,,,,5.8,3.8,4.4*31
$GPGSV,3,1,12,09,68,104,29,29,57,289,,27,52,066,26,02,32,108,29*7C
$GPGSV,3,2,12,25,29,219,24,14,21,234,,12,37,171,24,15,26,000,*7E
$GPGSV,3,3,12,04,05,132,,21,03,337,,01,01,021,,18,01,309,*7D
$GPRMC,134437.161,A,1441.7227,S,07407.4497,W,0.43,17.23,200411,,,A*5D
$GPGGA,134438.001,1441.7226,S,07407.4498,W,1,04,3.8,3227.0,M,22.7,M,,0000*63
$GPGSA,M,3,09,27,02,25,,,,,,,,,5.8,3.8,4.4*31
$GPRMC,134438.001,A,1441.7226,S,07407.4498,W,0.92,328.78,200411,,,A*66
$GPGGA,134439.000,1441.7230,S,07407.4497,W,1,04,3.8,3228.2,M,22.7,M,,0000*66
$GPGSA,M,3,09,27,02,25,,,,,,,,,5.8,3.8,4.4*31
$GPRMC,134439.000,A,1441.7230,S,07407.4497,W,0.78,86.84,200411,,,A*5E
$GPGGA,134440.000,1441.7222,S,07407.4506,W,1,06,2.3,3227.1,M,22.7,M,,0000*66
$GPGSA,M,3,09,27,02,25,29,14,,,,,,,4.2,2.3,3.5*38
$GPRMC,134440.000,A,1441.7222,S,07407.4506,W,1.36,0.57,200411,,,A*61
$GPGGA,134441.000,1441.7216,S,07407.4515,W,1,04,1.7,3228.1,M,22.7,M,,0000*68
$GPGSA,M,3,27,02,25,29,,,,,,,,,2.0,1.7,1.0*30
$GPRMC,134441.000,A,1441.7216,S,07407.4515,W,1.17,318.23,200411,,,A*6F
$GPGGA,134442.000,1441.7226,S,07407.4513,W,1,06,2.3,3229.4,M,22.7,M,,0000*6F
$GPGSA,M,3,27,02,25,29,14,09,,,,,,,4.2,2.3,3.5*38
$GPGSV,3,1,12,09,68,104,35,29,57,289,35,27,52,066,32,02,32,108,30*7A
$GPGSV,3,2,12,25,29,219,40,14,21,234,30,12,37,171,35,15,26,000,*7F
$GPGSV,3,3,12,04,05,132,,21,03,337,,01,01,021,,18,01,309,*7D
$GPRMC,134442.000,A,1441.7226,S,07407.4513,W,0.35,273.05,200411,,,A*60
$GPGGA,134443.000,1441.7234,S,07407.4510,W,1,06,2.3,3230.3,M,22.7,M,,0000*61
$GPGSA,M,3,27,02,25,29,14,09,,,,,,,4.2,2.3,3.5*38
$GPRMC,134443.000,A,1441.7234,S,07407.4510,W,0.22,135.76,200411,,,A*62
$GPGGA,134444.000,1441.7237,S,07407.4509,W,1,06,2.3,3230.8,M,22.7,M,,0000*66
$GPGSA,M,3,27,02,25,29,14,09,,,,,,,4.2,2.3,3.5*38
$GPRMC,134444.000,A,1441.7237,S,07407.4509,W,0.15,34.49,200411,,,A*56
$GPGGA,134445.000,1441.7236,S,07407.4508,W,1,06,2.3,3230.9,M,22.7,M,,0000*66
$GPGSA,M,3,27,02,25,29,14,09,,,,,,,4.2,2.3,3.5*38
$GPRMC,134445.000,A,1441.7236,S,07407.4508,W,0.12,43.19,200411,,,A*55
$GPGGA,134446.000,1441.7236,S,07407.4507,W,1,06,2.3,3230.6,M,22.7,M,,0000*65
$GPGSA,M,3,27,02,25,29,14,09,,,,,,,4.2,2.3,3.5*38
$GPRMC,134446.000,A,1441.7236,S,07407.4507,W,0.11,35.48,200411,,,A*5F
$GPGGA,134447.000,1441.7237,S,07407.4507,W,1,06,2.3,3230.8,M,22.7,M,,0000*6B
$GPGSA,M,3,27,02,25,29,14,09,,,,,,,4.2,2.3,3.5*38
$GPGSV,3,1,12,09,68,104,38,29,57,289,47,27,52,066,35,02,32,108,36*73
$GPGSV,3,2,12,25,29,219,39,14,21,234,26,12,37,171,44,15,26,000,*70
$GPGSV,3,3,12,04,05,132,25,21,03,337,,01,01,021,,18,01,309,*7A
$GPRMC,134447.000,A,1441.7237,S,07407.4507,W,0.16,30.50,200411,,,A*54
$GPGGA,134448.000,1441.7241,S,07407.4507,W,1,06,2.3,3230.8,M,22.7,M,,0000*65
$GPGSA,M,3,27,02,25,29,14,09,,,,,,,4.2,2.3,3.5*38
$GPRMC,134448.000,A,1441.7241,S,07407.4507,W,0.09,32.70,200411,,,A*54
$GPGGA,134449.000,1441.7242,S,07407.4507,W,1,06,2.3,3230.6,M,22.7,M,,0000*69
$GPGSA,M,3,27,02,25,29,14,09,,,,,,,4.2,2.3,3.5*38
$GPRMC,134449.000,A,1441.7242,S,07407.4507,W,0.20,26.66,200411,,,A*5F
$GPGGA,134450.000,1441.7243,S,07407.4507,W,1,06,2.3,3230.7,M,22.7,M,,0000*61
$GPGSA,M,3,27,02,25,29,14,09,,,,,,,4.2,2.3,3.5*38
$GPRMC,134450.000,A,1441.7243,S,07407.4507,W,0.19,26.11,200411,,,A*5C
$GPGGA,134451.000,1441.7244,S,07407.4507,W,1,06,2.3,3230.5,M,22.7,M,,0000*65
$GPGSA,M,3,27,02,25,29,14,09,,,,,,,4.2,2.3,3.5*38
$GPRMC,134451.000,A,1441.7244,S,07407.4507,W,0.11,31.24,200411,,,A*52
$GPGGA,134452.000,1441.7245,S,07407.4507,W,1,06,2.3,3230.6,M,22.7,M,,0000*64
$GPGSA,M,3,27,02,25,29,14,09,,,,,,,4.2,2.3,3.5*38
$GPGSV,3,1,12,09,68,104,40,29,57,289,46,27,52,066,36,02,32,108,37*7F
$GPGSV,3,2,12,25,29,219,37,14,21,234,26,12,37,171,44,15,26,000,*7E
$GPGSV,3,3,12,04,05,132,25,21,03,337,,01,01,021,,18,01,309,*7A
$GPRMC,134452.000,A,1441.7245,S,07407.4507,W,0.06,43.86,200411,,,A*5B
$GPGGA,134453.160,1441.7244,S,07407.4508,W,1,06,2.3,3231.0,M,22.7,M,,0000*6B
$GPGSA,M,3,09,29,27,02,25,14,,,,,,,4.2,2.3,3.5*38
$GPRMC,134453.160,A,1441.7244,S,07407.4508,W,1.08,341.58,200411,,,A*6E
$GPGGA,134454.002,1441.7244,S,07407.4508,W,1,06,2.3,3231.2,M,22.7,M,,0000*6B
$GPGSA,M,3,09,29,27,02,25,14,,,,,,,4.2,2.3,3.5*38
$GPRMC,134454.002,A,1441.7244,S,07407.4508,W,0.28,149.74,200411,,,A*6B
$GPGGA,134455.001,1441.7242,S,07407.4509,W,1,06,2.3,3230.6,M,22.7,M,,0000*6B
$GPGSA,M,3,09,29,27,02,25,14,,,,,,,4.2,2.3,3.5*38
$GPRMC,134455.001,A,1441.7242,S,07407.4509,W,0.66,342.49,200411,,,A*63
$GPGGA,134456.001,1441.7241,S,07407.4510,W,1,06,2.3,3231.0,M,22.7,M,,0000*64
$GPGSA,M,3,09,29,27,02,25,14,,,,,,,4.2,2.3,3.5*38
$GPRMC,134456.001,A,1441.7241,S,07407.4510,W,0.18,80.78,200411,,,A*5D
$GPGGA,134456.998,1441.7241,S,07407.4510,W,1,06,2.3,3230.7,M,22.7,M,,0000*6B
$GPGSA,M,3,09,29,27,02,25,14,,,,,,,4.2,2.3,3.5*38
$GPGSV,3,1,12,09,68,104,38,29,57,289,41,27,52,066,31,12,37,171,41*7B
$GPGSV,3,2,12,02,32,108,34,25,29,219,32,15,26,000,,14,21,234,28*78
$GPGSV,3,3,12,04,05,132,26,21,03,337,,01,01,021,,18,01,309,*79
$GPRMC,134456.998,A,1441.7241,S,07407.4510,W,0.20,230.23,200411,,,A*68
$GPGGA,134458.000,1441.7241,S,07407.4510,W,1,06,2.3,3231.0,M,22.7,M,,0000*6B
$GPGSA,M,3,09,29,27,02,25,14,,,,,,,4.2,2.3,3.5*38
$GPRMC,134458.000,A,1441.7241,S,07407.4510,W,0.77,355.35,200411,,,A*69
$GPGGA,134459.002,1441.7239,S,07407.4511,W,1,06,2.3,3230.4,M,22.7,M,,0000*63
$GPGSA,M,3,09,29,27,02,25,14,,,,,,,4.2,2.3,3.5*38
$GPRMC,134459.002,A,1441.7239,S,07407.4511,W,0.37,199.20,200411,,,A*66
$GPGGA,134500.001,1441.7238,S,07407.4512,W,1,04,2.6,3230.5,M,22.7,M,,0000*69
$GPGSA,M,3,09,29,27,25,,,,,,,,,5.9,2.6,5.3*30
$GPRMC,134500.001,A,1441.7238,S,07407.4512,W,0.96,256.25,200411,,,A*64
$GPGGA,134501.005,1441.7239,S,07407.4513,W,1,05,2.5,3231.1,M,22.7,M,,0000*6B
$GPGSA,M,3,09,29,27,25,14,,,,,,,,4.9,2.5,4.2*37
$GPRMC,134501.005,A,1441.7239,S,07407.4513,W,0.38,151.13,200411,,,A*64
$GPGGA,134501.998,1441.7240,S,07407.4514,W,1,05,2.5,3231.6,M,22.7,M,,0000*68
$GPGSA,M,3,09,29,27,25,14,,,,,,,,4.9,2.5,4.2*37
$GPGSV,3,1,12,09,68,104,38,29,57,289,41,27,52,066,32,12,37,171,41*78
$GPGSV,3,2,12,02,32,108,,25,29,219,37,15,26,000,,14,21,234,34*77
$GPGSV,3,3,12,04,05,132,,21,03,337,,01,01,021,,18,01,309,*7D
$GPRMC,134501.998,A,1441.7240,S,07407.4514,W,0.83,285.95,200411,,,A*64
$GPGGA,134502.999,1441.7239,S,07407.4515,W,1,05,2.5,3231.7,M,22.7,M,,0000*64
$GPGSA,M,3,09,29,27,25,14,,,,,,,,4.9,2.5,4.2*37
$GPRMC,134502.999,A,1441.7239,S,07407.4515,W,0.21,251.69,200411,,,A*6B
$GPGGA,134503.995,1441.7241,S,07407.4515,W,1,06,2.3,3232.1,M,22.7,M,,0000*66
$GPGSA,M,3,09,29,27,02,25,14,,,,,,,4.2,2.3,3.5*38
$GPRMC,134503.995,A,1441.7241,S,07407.4515,W,0.90,194.29,200411,,,A*6D
$GPGGA,134505.004,1441.7238,S,07407.4514,W,1,05,2.5,3231.2,M,22.7,M,,0000*6B
$GPGSA,M,3,09,29,27,25,14,,,,,,,,4.9,2.5,4.2*37
$GPRMC,134505.004,A,1441.7238,S,07407.4514,W,0.43,145.11,200411,,,A*6C
$GPGGA,134505.996,1441.7233,S,07407.4513,W,1,06,2.3,3230.5,M,22.7,M,,0000*66
$GPGSA,M,3,09,29,27,02,25,14,,,,,,,4.2,2.3,3.5*38
$GPRMC,134505.996,A,1441.7233,S,07407.4513,W,0.86,29.26,200411,,,A*54
$GPGGA,134507.000,1441.7228,S,07407.4511,W,1,06,2.3,3230.1,M,22.7,M,,0000*6E
$GPGSA,M,3,09,29,27,02,25,14,,,,,,,4.2,2.3,3.5*38
$GPGSV,3,1,12,09,68,104,30,29,57,289,40,27,52,066,29,12,37,171,32*7F
$GPGSV,3,2,12,02,32,108,36,25,29,219,33,15,26,000,28,14,21,234,28*71
$GPGSV,3,3,12,04,05,132,,21,03,337,,01,01,021,,18,01,309,*7D
$GPRMC,134507.000,A,1441.7228,S,07407.4511,W,1.06,6.92,200411,,,A*63
$GPGGA,134508.009,1441.7226,S,07407.4510,W,1,05,2.4,3229.4,M,22.7,M,,0000*6E
$GPGSA,M,3,09,29,27,02,25,,,,,,,,4.8,2.4,4.2*30
$GPRMC,134508.009,A,1441.7226,S,07407.4510,W,0.89,0.87,200411,,,A*6E
$GPGGA,134508.994,1441.7224,S,07407.4510,W,1,06,2.3,3229.2,M,22.7,M,,0000*63
$GPGSA,M,3,09,29,27,02,25,14,,,,,,,4.2,2.3,3.5*38
$GPRMC,134508.994,A,1441.7224,S,07407.4510,W,0.72,329.45,200411,,,A*63
$GPGGA,134509.997,1441.7215,S,07407.4510,W,1,06,2.3,3227.2,M,22.7,M,,0000*6D
$GPGSA,M,3,09,29,27,02,25,14,,,,,,,4.2,2.3,3.5*38
$GPRMC,134509.997,A,1441.7215,S,07407.4510,W,1.06,344.65,200411,,,A*68
$GPGGA,134511.003,1441.7209,S,07407.4507,W,1,05,2.7,3225.6,M,22.7,M,,0000*6A
$GPGSA,M,3,09,29,02,25,14,,,,,,,,4.7,2.7,3.8*31
$GPRMC,134511.003,A,1441.7209,S,07407.4507,W,0.97,53.91,200411,,,A*59
$GPGGA,134511.998,1441.7207,S,07407.4503,W,1,06,2.3,3224.5,M,22.7,M,,0000*6E
$GPGSA,M,3,09,29,27,02,25,14,,,,,,,4.2,2.3,3.5*38
$GPGSV,3,1,12,09,68,104,39,29,57,289,40,27,52,066,31,12,37,171,35*78
$GPGSV,3,2,12,02,32,108,32,25,29,219,39,15,26,000,,14,21,234,36*7A
$GPGSV,3,3,12,04,05,132,31,21,03,337,,01,01,021,,18,01,309,*7F
$GPRMC,134511.998,A,1441.7207,S,07407.4503,W,2.11,107.10,200411,,,A*6D
$GPGGA,134513.006,1441.7212,S,07407.4495,W,1,05,2.8,3225.3,M,22.7,M,,0000*67
$GPGSA,M,3,09,29,27,02,14,,,,,,,,4.7,2.8,3.8*3C
$GPRMC,134513.006,A,1441.7212,S,07407.4495,W,3.11,111.13,200411,,,A*6E
$GPGGA,134513.994,1441.7218,S,07407.4488,W,1,06,2.3,3225.9,M,22.7,M,,0000*61
$GPGSA,M,3,09,29,27,02,25,14,,,,,,,4.2,2.3,3.5*38
$GPRMC,134513.994,A,1441.7218,S,07407.4488,W,3.97,118.65,200411,,,A*6C
$GPGGA,134515.000,1441.7224,S,07407.4476,W,1,06,2.3,3225.5,M,22.7,M,,0000*61
$GPGSA,M,3,09,29,27,02,25,14,,,,,,,4.2,2.3,3.5*38
$GPRMC,134515.000,A,1441.7224,S,07407.4476,W,5.16,112.73,200411,,,A*62
$GPGGA,134516.001,1441.7234,S,07407.4463,W,1,06,2.3,3226.5,M,22.7,M,,0000*65
$GPGSA,M,3,09,29,27,02,25,14,,,,,,,4.2,2.3,3.5*38
$GPRMC,134516.001,A,1441.7234,S,07407.4463,W,5.77,123.12,200411,,,A*67
$GPGGA,134517.003,1441.7239,S,07407.4448,W,1,06,2.3,3225.0,M,22.7,M,,0000*64
$GPGSA,M,3,09,29,27,02,25,14,,,,,,,4.2,2.3,3.5*38
$GPGSV,3,1,12,09,68,104,40,29,57,289,41,27,52,066,38,12,37,171,37*7C
$GPGSV,3,2,12,02,32,108,34,25,29,219,38,15,26,000,,14,21,234,28*72
$GPGSV,3,3,12,04,05,132,,21,03,337,,01,01,021,,18,01,309,*7D
$GPRMC,134517.003,A,1441.7239,S,07407.4448,W,5.91,126.08,200411,,,A*66
$GPGGA,134517.999,1441.7248,S,07407.4434,W,1,06,2.3,3224.2,M,22.7,M,,0000*60
$GPGSA,M,3,09,29,27,02,25,14,,,,,,,4.2,2.3,3.5*38
$GPRMC,134517.999,A,1441.7248,S,07407.4434,W,6.20,125.79,200411,,,A*6D
$GPGGA,134518.997,1441.7260,S,07407.4421,W,1,05,2.4,3223.6,M,22.7,M,,0000*68
$GPGSA,M,3,09,29,27,02,25,,,,,,,,4.8,2.4,4.2*30
$GPRMC,134518.997,A,1441.7260,S,07407.4421,W,6.48,129.69,200411,,,A*61
$GPGGA,134520.005,1441.7269,S,07407.4406,W,1,05,2.4,3223.2,M,22.7,M,,0000*69
$GPGSA,M,3,09,29,27,02,25,,,,,,,,4.8,2.4,4.2*30
$GPRMC,134520.005,A,1441.7269,S,07407.4406,W,6.62,133.07,200411,,,A*6F
$GPGGA,134520.995,1441.7281,S,07407.4394,W,1,04,3.4,3222.6,M,22.7,M,,0000*66
$GPGSA,M,3,09,29,27,02,,,,,,,,,5.5,3.4,4.4*3C
$GPRMC,134520.995,A,1441.7281,S,07407.4394,W,6.69,136.87,200411,,,A*63
$GPGGA,134522.002,1441.7301,S,07407.4384,W,1,05,2.4,3221.1,M,22.7,M,,0000*6F
$GPGSA,M,3,09,29,27,02,25,,,,,,,,4.8,2.4,4.2*30
$GPGSV,3,1,12,09,68,104,39,29,57,289,37,27,52,066,41,12,37,171,32*78
$GPGSV,3,2,12,02,32,108,40,25,29,219,24,15,26,000,31,14,21,234,*74
$GPGSV,3,3,12,04,05,132,,21,03,337,,01,01,021,,18,01,309,*7D
$GPRMC,134522.002,A,1441.7301,S,07407.4384,W,8.47,160.93,200411,,,A*6A
$GPGGA,134523.001,1441.7324,S,07407.4378,W,1,05,2.4,3219.3,M,22.7,M,,0000*60
$GPGSA,M,3,09,29,27,02,25,,,,,,,,4.8,2.4,4.2*30
$GPRMC,134523.001,A,1441.7324,S,07407.4378,W,9.01,171.80,200411,,,A*6D
$GPGGA,134524.000,1441.7350,S,07407.4375,W,1,05,2.4,3218.8,M,22.7,M,,0000*62
$GPGSA,M,3,09,29,27,02,25,,,,,,,,4.8,2.4,4.2*30
$GPRMC,134524.000,A,1441.7350,S,07407.4375,W,9.51,171.97,200411,,,A*66
$GPGGA,134525.004,1441.7376,S,07407.4368,W,1,05,2.4,3218.4,M,22.7,M,,0000*63
$GPGSA,M,3,09,29,27,02,25,,,,,,,,4.8,2.4,4.2*30
$GPRMC,134525.004,A,1441.7376,S,07407.4368,W,9.97,170.70,200411,,,A*69
$GPGGA,134525.993,1441.7408,S,07407.4360,W,1,06,2.3,3218.3,M,22.7,M,,0000*61
$GPGSA,M,3,09,29,27,02,25,14,,,,,,,4.2,2.3,3.5*38
$GPRMC,134525.993,A,1441.7408,S,07407.4360,W,11.00,160.23,200411,,,A*58
$GPGGA,134527.001,1441.7434,S,07407.4348,W,1,06,2.3,3217.4,M,22.7,M,,0000*6C
$GPGSA,M,3,09,29,27,02,25,14,,,,,,,4.2,2.3,3.5*38
$GPGSV,3,1,12,09,68,104,39,29,57,289,40,27,52,066,40,12,37,171,39*72
$GPGSV,3,2,12,02,32,108,38,25,29,219,39,15,26,000,33,14,21,234,28*7F
$GPGSV,3,3,12,04,05,132,,21,03,337,,01,01,021,,18,01,309,*7D
$GPRMC,134527.001,A,1441.7434,S,07407.4348,W,10.92,153.14,200411,,,A*53
$GPGGA,134528.002,1441.7454,S,07407.4332,W,1,06,2.3,3215.9,M,22.7,M,,0000*64
$GPGSA,M,3,09,29,27,02,25,14,,,,,,,4.2,2.3,3.5*38
$GPRMC,134528.002,A,1441.7454,S,07407.4332,W,10.40,144.36,200411,,,A*5D
$GPGGA,134529.001,1441.7476,S,07407.4314,W,1,04,3.4,3215.0,M,22.7,M,,0000*6F
$GPGSA,M,3,09,29,27,02,,,,,,,,,5.5,3.4,4.4*3C
$GPRMC,134529.001,A,1441.7476,S,07407.4314,W,10.38,144.16,200411,,,A*56
$GPGGA,134530.008,1441.7496,S,07407.4298,W,1,04,3.4,3214.0,M,22.7,M,,0000*64
$GPGSA,M,3,09,29,27,02,,,,,,,,,5.5,3.4,4.4*3C
$GPRMC,134530.008,A,1441.7496,S,07407.4298,W,9.89,145.53,200411,,,A*6E
$GPGGA,134530.992,1441.7518,S,07407.4282,W,0,00,,3213.7,M,22.7,M,,0000*4E
$GPGSA,M,1,,,,,,,,,,,,,,,*12
$GPRMC,134530.992,V,1441.7518,S,07407.4282,W,,,200411,,,N*7E
$GPGGA,134532.000,1441.7541,S,07407.4266,W,0,00,,3213.3,M,22.7,M,,0000*4C
$GPGSA,M,1,,,,,,,,,,,,,,,*12
$GPGSV,3,1,12,09,68,103,,29,57,288,45,27,52,066,41,02,32,108,*7A
$GPGSV,3,2,12,25,29,219,,14,22,234,,12,37,170,,15,26,000,39*76
$GPGSV,3,3,12,04,05,133,31,21,04,337,,01,01,021,,18,01,310,*71
$GPRMC,134532.000,V,1441.7541,S,07407.4266,W,,,200411,,,N*78
$GPGGA,134533.000,1441.7564,S,07407.4250,W,0,00,,3213.0,M,22.7,M,,0000*4C
$GPGSA,M,1,,,,,,,,,,,,,,,*12
$GPRMC,134533.000,V,1441.7564,S,07407.4250,W,,,200411,,,N*7B
$GPGGA,134534.000,1441.7610,S,07407.4240,W,1,05,2.4,3215.2,M,22.7,M,,0000*62
$GPGSA,M,3,29,27,25,09,02,,,,,,,,4.8,2.4,4.2*30
$GPRMC,134534.000,A,1441.7610,S,07407.4240,W,10.81,144.55,200411,,,A*5C
$GPGGA,134535.000,1441.7636,S,07407.4217,W,1,06,2.3,3215.4,M,22.7,M,,0000*67
$GPGSA,M,3,29,27,14,25,09,02,,,,,,,4.2,2.3,3.5*38
$GPRMC,134535.000,A,1441.7636,S,07407.4217,W,11.26,143.68,200411,,,A*5E
$GPGGA,134536.000,1441.7671,S,07407.4197,W,1,06,2.3,3215.6,M,22.7,M,,0000*6E
$GPGSA,M,3,29,27,14,25,09,02,,,,,,,4.2,2.3,3.5*38
$GPRMC,134536.000,A,1441.7671,S,07407.4197,W,12.04,143.54,200411,,,A*59
$GPGGA,134537.000,1441.7701,S,07407.4172,W,1,06,2.3,3216.3,M,22.7,M,,0000*64
$GPGSA,M,3,29,27,14,25,09,02,,,,,,,4.2,2.3,3.5*38
$GPGSV,3,1,12,09,68,103,45,29,57,288,45,27,52,066,41,02,32,108,40*7F
$GPGSV,3,2,12,25,29,219,41,14,22,234,32,12,37,170,41,15,26,000,35*7B
$GPGSV,3,3,12,04,05,133,28,21,04,337,,01,01,021,,18,01,310,*79
$GPRMC,134537.000,A,1441.7701,S,07407.4172,W,12.62,142.43,200411,,,A*52
$GPGGA,134538.000,1441.7732,S,07407.4148,W,1,06,2.3,3216.8,M,22.7,M,,0000*69
$GPGSA,M,3,29,27,14,25,09,02,,,,,,,4.2,2.3,3.5*38
$GPRMC,134538.000,A,1441.7732,S,07407.4148,W,13.12,142.05,200411,,,A*50
$GPGGA,134539.000,1441.7763,S,07407.4123,W,1,06,2.3,3216.9,M,22.7,M,,0000*60
$GPGSA,M,3,29,27,14,25,09,02,,,,,,,4.2,2.3,3.5*38
$GPRMC,134539.000,A,1441.7763,S,07407.4123,W,13.68,142.19,200411,,,A*58
$GPGGA,134540.000,1441.7794,S,07407.4096,W,1,06,2.3,3216.5,M,22.7,M,,0000*65
$GPGSA,M,3,29,27,14,25,09,02,,,,,,,4.2,2.3,3.5*38
$GPRMC,134540.000,A,1441.7794,S,07407.4096,W,13.67,141.90,200411,,,A*5C
$GPGGA,134541.000,1441.7823,S,07407.4072,W,1,06,2.3,3216.3,M,22.7,M,,0000*6B
$GPGSA,M,3,29,27,14,25,09,02,,,,,,,4.2,2.3,3.5*38
$GPRMC,134541.000,A,1441.7823,S,07407.4072,W,13.49,139.33,200411,,,A*5E
$GPGGA,134542.000,1441.7855,S,07407.4047,W,1,06,2.3,3216.2,M,22.7,M,,0000*6E
$GPGSA,M,3,29,27,14,25,09,02,,,,,,,4.2,2.3,3.5*38
$GPGSV,3,1,12,09,68,103,44,29,57,288,45,27,52,066,33,02,32,108,35*79
$GPGSV,3,2,12,25,29,219,41,14,22,234,38,12,37,170,41,15,26,000,35*71
$GPGSV,3,3,12,04,05,133,29,21,04,337,,01,01,021,,18,01,310,*78
$GPRMC,134542.000,A,1441.7855,S,07407.4047,W,13.63,141.24,200411,,,A*5B
$GPGGA,134543.000,1441.7887,S,07407.4022,W,1,06,2.3,3215.8,M,22.7,M,,0000*6A
$GPGSA,M,3,29,27,14,25,09,02,,,,,,,4.2,2.3,3.5*38
$GPRMC,134543.000,A,1441.7887,S,07407.4022,W,13.65,142.53,200411,,,A*53
$GPGGA,134544.000,1441.7918,S,07407.3997,W,1,06,2.3,3215.4,M,22.7,M,,0000*66
$GPGSA,M,3,29,27,14,25,09,02,,,,,,,4.2,2.3,3.5*38
$GPRMC,134544.000,A,1441.7918,S,07407.3997,W,13.46,141.35,200411,,,A*51
$GPGGA,134544.992,1441.7947,S,07407.3973,W,1,05,2.4,3215.0,M,22.7,M,,0000*64
$GPGSA,M,3,09,29,27,02,25,,,,,,,,4.9,2.4,4.2*31
$GPRMC,134544.992,A,1441.7947,S,07407.3973,W,13.96,140.88,200411,,,A*59
$GPGGA,134545.999,1441.7978,S,07407.3948,W,1,05,2.4,3214.2,M,22.7,M,,0000*69
$GPGSA,M,3,09,29,27,02,25,,,,,,,,4.9,2.4,4.2*31
$GPRMC,134545.999,A,1441.7978,S,07407.3948,W,13.60,142.52,200411,,,A*5B
$GPGGA,134547.000,1441.8006,S,07407.3923,W,1,05,2.4,3212.8,M,22.7,M,,0000*6C
$GPGSA,M,3,09,29,27,02,25,,,,,,,,4.9,2.4,4.2*31
$GPGSV,3,1,12,09,68,103,41,29,57,288,40,27,52,066,37,12,37,170,32*71
$GPGSV,3,2,12,02,32,108,37,25,29,219,27,15,26,000,34,14,22,234,*71
$GPGSV,3,3,12,04,05,133,33,21,04,337,,01,01,021,,18,01,310,*73
$GPRMC,134547.000,A,1441.8006,S,07407.3923,W,13.48,142.99,200411,,,A*5F
$GPGGA,134548.002,1441.8038,S,07407.3899,W,1,04,3.4,3212.8,M,22.7,M,,0000*6C
$GPGSA,M,3,09,29,27,02,,,,,,,,,5.5,3.4,4.4*3C
$GPRMC,134548.002,A,1441.8038,S,07407.3899,W,13.48,141.74,200411,,,A*5F
$GPGGA,134548.999,1441.8066,S,07407.3877,W,1,05,2.4,3212.6,M,22.7,M,,0000*62
$GPGSA,M,3,09,29,27,02,25,,,,,,,,4.9,2.4,4.2*31
$GPRMC,134548.999,A,1441.8066,S,07407.3877,W,13.52,145.87,200411,,,A*5C
$GPGGA,134550.000,1441.8098,S,07407.3855,W,1,06,2.3,3213.4,M,22.7,M,,0000*64
$GPGSA,M,3,09,29,27,02,25,14,,,,,,,4.2,2.3,3.5*38
$GPRMC,134550.000,A,1441.8098,S,07407.3855,W,12.82,141.96,200411,,,A*55
$GPGGA,134551.004,1441.8128,S,07407.3830,W,1,05,2.4,3213.1,M,22.7,M,,0000*69
$GPGSA,M,3,09,29,27,02,25,,,,,,,,4.9,2.4,4.2*31
$GPRMC,134551.004,A,1441.8128,S,07407.3830,W,13.10,142.29,200411,,,A*54
$GPGGA,134551.999,1441.8159,S,07407.3808,W,1,05,2.4,3213.6,M,22.7,M,,0000*6E
$GPGSA,M,3,09,29,27,02,25,,,,,,,,4.9,2.4,4.2*31
$GPGSV,3,1,12,09,68,103,39,29,57,288,38,27,52,066,38,12,37,170,32*7E
$GPGSV,3,2,12,02,32,108,38,25,29,219,32,15,26,000,32,14,22,234,*7C
$GPGSV,3,3,12,04,05,133,33,21,04,337,,01,01,021,,18,01,310,*73
$GPRMC,134551.999,A,1441.8159,S,07407.3808,W,13.14,142.82,200411,,,A*51
$GPGGA,134553.000,1441.8188,S,07407.3787,W,1,05,2.4,3213.2,M,22.7,M,,0000*65
$GPGSA,M,3,09,29,27,02,25,,,,,,,,4.9,2.4,4.2*31
$GPRMC,134553.000,A,1441.8188,S,07407.3787,W,13.14,143.88,200411,,,A*55
$GPGGA,134553.999,1441.8215,S,07407.3764,W,1,04,3.4,3212.6,M,22.7,M,,0000*63
$GPGSA,M,3,09,29,27,02,,,,,,,,,5.5,3.4,4.4*3C
$GPRMC,134553.999,A,1441.8215,S,07407.3764,W,13.14,139.60,200411,,,A*5D
$GPGGA,134555.000,1441.8241,S,07407.3740,W,1,04,3.4,3211.6,M,22.7,M,,0000*68
$GPGSA,M,3,09,29,27,02,,,,,,,,,5.5,3.4,4.4*3C
$GPRMC,134555.000,A,1441.8241,S,07407.3740,W,12.45,139.56,200411,,,A*55
$GPGGA,134555.997,1441.8265,S,07407.3718,W,1,05,2.8,3210.0,M,22.7,M,,0000*6F
$GPGSA,M,3,09,29,27,02,14,,,,,,,,4.7,2.8,3.8*3C
$GPRMC,134555.997,A,1441.8265,S,07407.3718,W,12.32,140.96,200411,,,A*5B
$GPGGA,134557.003,1441.8296,S,07407.3696,W,1,04,3.4,3210.7,M,22.7,M,,0000*69
$GPGSA,M,3,09,29,27,02,,,,,,,,,5.5,3.4,4.4*3C
$GPGSV,3,1,12,09,68,103,39,29,57,288,38,27,52,066,39,12,37,170,38*75
$GPGSV,3,2,12,02,32,108,38,25,29,219,,15,26,000,33,14,22,234,*7C
$GPGSV,3,3,12,04,05,133,30,21,04,337,,01,01,021,,18,01,310,*70
$GPRMC,134557.003,A,1441.8296,S,07407.3696,W,12.30,142.65,200411,,,A*5A
$GPGGA,134558.000,1441.8320,S,07407.3676,W,1,06,2.3,3209.3,M,22.7,M,,0000*6F
$GPGSA,M,3,09,29,27,02,25,14,,,,,,,4.2,2.3,3.5*38
$GPRMC,134558.000,A,1441.8320,S,07407.3676,W,11.99,135.81,200411,,,A*5E
$GPGGA,134558.999,1441.8335,S,07407.3650,W,1,05,2.4,3208.7,M,22.7,M,,0000*67
$GPGSA,M,3,09,29,27,02,25,,,,,,,,4.9,2.4,4.2*31
$GPRMC,134558.999,A,1441.8335,S,07407.3650,W,11.57,127.97,200411,,,A*51
$GPGGA,134600.004,1441.8354,S,07407.3623,W,1,06,2.3,3206.8,M,22.7,M,,0000*62
$GPGSA,M,3,09,29,27,02,25,14,,,,,,,4.2,2.3,3.5*38
$GPRMC,134600.004,A,1441.8354,S,07407.3623,W,11.32,118.76,200411,,,A*51
$GPGGA,134600.995,1441.8367,S,07407.3595,W,1,06,2.3,3206.7,M,22.7,M,,0000*62
$GPGSA,M,3,09,29,27,02,25,14,,,,,,,4.2,2.3,3.5*38
$GPRMC,134600.995,A,1441.8367,S,07407.3595,W,11.50,110.11,200411,,,A*53
$GPGGA,134602.000,1441.8376,S,07407.3564,W,1,05,2.8,3207.0,M,22.7,M,,0000*65
$GPGSA,M,3,09,29,27,02,14,,,,,,,,4.7,2.8,3.8*3C
$GPGSV,3,1,12,09,68,102,38,29,57,287,36,27,52,065,29,02,32,109,38*7C
$GPGSV,3,2,12,25,29,218,,14,22,234,33,12,37,170,32,15,26,001,*7D
$GPGSV,3,3,12,04,05,133,28,21,04,337,,01,01,021,,18,01,310,*79
$GPRMC,134602.000,A,1441.8376,S,07407.3564,W,11.43,106.18,200411,,,A*56
$GPGGA,134603.000,1441.8384,S,07407.3532,W,1,05,2.8,3206.9,M,22.7,M,,0000*62
$GPGSA,M,3,09,29,27,02,14,,,,,,,,4.7,2.8,3.8*3C
$GPRMC,134603.000,A,1441.8384,S,07407.3532,W,12.19,104.09,200411,,,A*57
$GPGGA,134604.000,1441.8385,S,07407.3500,W,1,05,2.8,3205.9,M,22.7,M,,0000*66
$GPGSA,M,3,09,29,27,02,14,,,,,,,,4.7,2.8,3.8*3C
$GPRMC,134604.000,A,1441.8385,S,07407.3500,W,11.99,98.02,200411,,,A*64
$GPGGA,134605.000,1441.8386,S,07407.3468,W,1,06,2.3,3206.5,M,22.7,M,,0000*6C
$GPGSA,M,3,09,29,27,02,14,25,,,,,,,4.2,2.3,3.5*38
$GPRMC,134605.000,A,1441.8386,S,07407.3468,W,12.15,77.34,200411,,,A*6A
$GPGGA,134606.000,1441.8372,S,07407.3434,W,1,06,2.3,3207.3,M,22.7,M,,0000*6A
$GPGSA,M,3,09,29,27,02,14,25,,,,,,,4.2,2.3,3.5*38
$GPRMC,134606.000,A,1441.8372,S,07407.3434,W,12.46,70.43,200411,,,A*6A
$GPGGA,134607.000,1441.8357,S,07407.3401,W,1,06,2.3,3207.0,M,22.7,M,,0000*69
$GPGSA,M,3,09,29,27,02,14,25,,,,,,,4.2,2.3,3.5*38
$GPGSV,3,1,12,09,68,102,40,29,57,287,36,27,52,065,42,02,32,109,43*72
$GPGSV,3,2,12,25,29,218,36,14,22,234,38,12,37,170,39,15,26,001,39*72
$GPGSV,3,3,12,04,05,133,13,21,04,337,,01,01,021,,18,01,310,*71
$GPRMC,134607.000,A,1441.8357,S,07407.3401,W,12.32,69.23,200411,,,A*67
$GPGGA,134608.000,1441.8340,S,07407.3368,W,1,06,2.3,3207.0,M,22.7,M,,0000*68
$GPGSA,M,3,09,29,27,02,14,25,,,,,,,4.2,2.3,3.5*38
$GPRMC,134608.000,A,1441.8340,S,07407.3368,W,12.16,69.22,200411,,,A*61
$GPGGA,134609.000,1441.8327,S,07407.3334,W,1,06,2.3,3206.6,M,22.7,M,,0000*66
$GPGSA,M,3,09,29,27,02,14,25,,,,,,,4.2,2.3,3.5*38
$GPRMC,134609.000,A,1441.8327,S,07407.3334,W,12.11,69.65,200411,,,A*6C
$GPGGA,134609.000,1441.8315,S,07407.3301,W,1,06,2.3,3206.8,M,22.7,M,,0000*6F
$GPGSA,M,3,09,29,27,02,14,25,,,,,,,4.2,2.3,3.5*38
$GPRMC,134609.000,A,1441.8315,S,07407.3301,W,12.48,70.66,200411,,,A*6C
$GPGGA,134610.000,1441.8303,S,07407.3266,W,1,06,2.3,3206.7,M,22.7,M,,0000*6F
$GPGSA,M,3,09,29,27,02,14,25,,,,,,,4.2,2.3,3.5*38
$GPRMC,134610.000,A,1441.8303,S,07407.3266,W,12.78,70.49,200411,,,A*6D
$GPGGA,134611.000,1441.8290,S,07407.3231,W,1,06,2.3,3206.3,M,22.7,M,,0000*63
$GPGSA,M,3,09,29,27,02,25,14,,,,,,,4.2,2.3,3.5*38
$GPGSV,3,1,12,09,68,102,39,29,57,287,34,27,52,065,38,12,37,170,37*7A
$GPGSV,3,2,12,02,32,109,39,25,29,218,36,15,26,001,37,14,22,234,36*78
$GPGSV,3,3,12,04,05,133,30,21,04,337,,01,01,021,,18,01,310,*70
$GPRMC,134611.000,A,1441.8290,S,07407.3231,W,12.89,69.78,200411,,,A*61
$GPGGA,134611.999,1441.8278,S,07407.3198,W,1,06,2.3,3206.0,M,22.7,M,,0000*6F
$GPGSA,M,3,09,29,27,02,25,14,,,,,,,4.2,2.3,3.5*38
$GPRMC,134611.999,A,1441.8278,S,07407.3198,W,13.04,68.70,200411,,,A*63
$GPGGA,134613.001,1441.8263,S,07407.3162,W,1,06,2.3,3204.9,M,22.7,M,,0000*61
$GPGSA,M,3,09,29,27,02,25,14,,,,,,,4.2,2.3,3.5*38
$GPRMC,134613.001,A,1441.8263,S,07407.3162,W,13.37,68.05,200411,,,A*64
$GPGGA,134614.002,1441.8247,S,07407.3128,W,1,06,2.3,3204.2,M,22.7,M,,0000*66
$GPGSA,M,3,09,29,27,02,25,14,,,,,,,4.2,2.3,3.5*38
$GPRMC,134614.002,A,1441.8247,S,07407.3128,W,12.98,68.36,200411,,,A*6C
$GPGGA,134615.002,1441.8236,S,07407.3090,W,1,06,2.3,3204.2,M,22.7,M,,0000*63
$GPGSA,M,3,09,29,27,02,25,14,,,,,,,4.2,2.3,3.5*38
$GPRMC,134615.002,A,1441.8236,S,07407.3090,W,13.24,70.37,200411,,,A*67
$GPGGA,134615.996,1441.8221,S,07407.3056,W,1,06,2.3,3203.7,M,22.7,M,,0000*69
$GPGSA,M,3,09,29,27,02,25,14,,,,,,,4.2,2.3,3.5*38
$GPGSV,3,1,12,09,68,102,39,29,57,287,34,27,52,065,38,12,37,170,38*75
$GPGSV,3,2,12,02,32,109,39,25,29,218,35,15,26,001,37,14,22,234,36*7B
$GPGSV,3,3,12,04,05,133,26,21,04,337,,01,01,021,,18,01,310,*77
$GPRMC,134615.996,A,1441.8221,S,07407.3056,W,13.33,69.42,200411,,,A*63
$GPGGA,134617.000,1441.8209,S,07407.3021,W,1,06,2.3,3203.7,M,22.7,M,,0000*67
$GPGSA,M,3,09,29,27,02,25,14,,,,,,,4.2,2.3,3.5*38
$GPRMC,134617.000,A,1441.8209,S,07407.3021,W,13.31,70.69,200411,,,A*6E
$GPGGA,134618.000,1441.8192,S,07407.2986,W,1,06,2.3,3202.7,M,22.7,M,,0000*6D
$GPGSA,M,3,09,29,27,02,25,14,,,,,,,4.2,2.3,3.5*38
$GPRMC,134618.000,A,1441.8192,S,07407.2986,W,13.27,66.32,200411,,,A*6B
$GPGGA,134619.000,1441.8175,S,07407.2952,W,1,06,2.3,3201.8,M,22.7,M,,0000*60
$GPGSA,M,3,09,29,27,02,25,14,,,,,,,4.2,2.3,3.5*38
$GPRMC,134619.000,A,1441.8175,S,07407.2952,W,13.71,65.00,200411,,,A*6B
$GPGGA,134620.000,1441.8157,S,07407.2917,W,1,06,2.3,3201.1,M,22.7,M,,0000*62
$GPGSA,M,3,09,29,27,02,25,14,,,,,,,4.2,2.3,3.5*38
$GPRMC,134620.000,A,1441.8157,S,07407.2917,W,13.33,59.90,200411,,,A*60
$GPGGA,134621.000,1441.8139,S,07407.2884,W,1,06,2.3,3200.9,M,22.7,M,,0000*69
$GPGSA,M,3,09,29,27,02,25,14,,,,,,,4.2,2.3,3.5*38
$GPGSV,3,1,12,09,68,102,39,29,57,287,35,27,52,065,38,12,37,170,37*7B
$GPGSV,3,2,12,02,32,109,41,25,29,218,37,15,26,001,37,14,22,234,32*72
$GPGSV,3,3,12,04,05,133,31,21,04,337,,01,01,021,,18,01,310,*71
$GPRMC,134621.000,A,1441.8139,S,07407.2884,W,13.50,60.57,200411,,,A*66
$GPGGA,134622.000,1441.8124,S,07407.2850,W,1,06,2.3,3201.5,M,22.7,M,,0000*62
$GPGSA,M,3,09,29,27,02,25,14,,,,,,,4.2,2.3,3.5*38
$GPRMC,134622.000,A,1441.8124,S,07407.2850,W,13.24,59.66,200411,,,A*6B
$GPGGA,134623.001,1441.8103,S,07407.2819,W,1,06,2.3,3201.3,M,22.7,M,,0000*6C
$GPGSA,M,3,09,29,27,02,25,14,,,,,,,4.2,2.3,3.5*38
$GPRMC,134623.001,A,1441.8103,S,07407.2819,W,13.39,56.97,200411,,,A*6E
$GPGGA,134624.000,1441.8081,S,07407.2787,W,1,06,2.3,3200.6,M,22.7,M,,0000*6D
$GPGSA,M,3,09,29,27,02,25,14,,,,,,,4.2,2.3,3.5*38
$GPRMC,134624.000,A,1441.8081,S,07407.2787,W,13.26,54.42,200411,,,A*6F
$GPGGA,134625.001,1441.8058,S,07407.2757,W,1,06,2.3,3200.1,M,22.7,M,,0000*63
$GPGSA,M,3,09,29,27,02,25,14,,,,,,,4.2,2.3,3.5*38
$GPRMC,134625.001,A,1441.8058,S,07407.2757,W,13.04,53.91,200411,,,A*6F
$GPGGA,134626.022,1441.8036,S,07407.2727,W,0,00,,3199.9,M,22.7,M,,0000*4D
$GPGSA,M,1,,,,,,,,,,,,,,,*12
$GPGSV,3,1,12,09,68,102,,29,57,287,,27,52,065,,02,32,109,*72
$GPGSV,3,2,12,25,30,218,,14,22,235,,12,37,170,,15,25,001,*76
$GPGSV,3,3,12,04,05,133,,21,04,337,,18,01,310,,01,01,021,*73
$GPRMC,134626.022,V,1441.8036,S,07407.2727,W,,,200411,,,N*72
$GPGGA,134626.724,1441.8021,S,07407.2705,W,0,00,,3199.7,M,22.7,M,,0000*44
$GPGSA,M,1,,,,,,,,,,,,,,,*12
$GPGSV,3,1,12,09,68,102,,29,57,287,,27,52,065,,02,32,109,*72
$GPGSV,3,2,12,25,30,218,,14,22,235,,12,37,170,,15,25,001,*76
$GPGSV,3,3,12,04,05,133,,21,04,337,,18,01,310,,01,01,021,*73
$GPRMC,134626.724,V,1441.8021,S,07407.2705,W,,,200411,,,N*75
$GPGGA,134627.000,1441.8015,S,07407.2697,W,0,00,,3199.6,M,22.7,M,,0000*48
$GPGSA,M,1,,,,,,,,,,,,,,,*12
$GPRMC,134627.000,V,1441.8015,S,07407.2697,W,,,200411,,,N*78
$GPGGA,134628.000,1441.7994,S,07407.2667,W,0,00,,3199.4,M,22.7,M,,0000*45
$GPGSA,M,1,,,,,,,,,,,,,,,*12
$GPRMC,134628.000,V,1441.7994,S,07407.2667,W,,,200411,,,N*77
$GPGGA,134629.000,1441.7972,S,07407.2630,W,1,05,2.5,3199.2,M,22.7,M,,0000*65
$GPGSA,M,3,02,25,29,27,09,,,,,,,,4.9,2.5,4.2*30
$GPRMC,134629.000,A,1441.7972,S,07407.2630,W,14.13,52.60,200411,,,A*62
$GPGGA,134630.000,1441.7953,S,07407.2599,W,1,06,2.3,3199.0,M,22.7,M,,0000*69
$GPGSA,M,3,02,25,29,27,09,14,,,,,,,4.2,2.3,3.5*38
$GPRMC,134630.000,A,1441.7953,S,07407.2599,W,13.59,54.47,200411,,,A*63
$GPGGA,134631.000,1441.7940,S,07407.2565,W,1,06,2.3,3198.3,M,22.7,M,,0000*6B
$GPGSA,M,3,02,25,29,27,09,14,,,,,,,4.2,2.3,3.5*38
$GPGSV,3,1,12,09,68,102,44,29,57,287,38,27,52,065,37,02,32,109,43*7A
$GPGSV,3,2,12,25,30,218,37,14,22,235,36,12,37,170,42,15,25,001,35*77
$GPGSV,3,3,12,04,05,133,33,21,04,337,,18,01,310,,01,01,021,*73
$GPRMC,134631.000,A,1441.7940,S,07407.2565,W,13.62,54.22,200411,,,A*68
$GPGGA,134632.000,1441.7920,S,07407.2535,W,1,06,2.3,3197.2,M,22.7,M,,0000*65
$GPGSA,M,3,02,25,29,27,09,14,,,,,,,4.2,2.3,3.5*38
$GPRMC,134632.000,A,1441.7920,S,07407.2535,W,13.63,54.45,200411,,,A*68
$GPGGA,134633.000,1441.7901,S,07407.2506,W,1,06,2.3,3196.2,M,22.7,M,,0000*66
$GPGSA,M,3,02,25,29,27,09,14,,,,,,,4.2,2.3,3.5*38
$GPRMC,134633.000,A,1441.7901,S,07407.2506,W,13.58,54.53,200411,,,A*65
$GPGGA,134634.000,1441.7880,S,07407.2475,W,1,06,2.3,3195.7,M,22.7,M,,0000*6A
$GPGSA,M,3,02,25,29,27,09,14,,,,,,,4.2,2.3,3.5*38
$GPRMC,134634.000,A,1441.7880,S,07407.2475,W,13.53,54.66,200411,,,A*62
$GPGGA,134635.000,1441.7857,S,07407.2443,W,1,06,2.3,3195.0,M,22.7,M,,0000*63
$GPGSA,M,3,02,25,29,27,09,14,,,,,,,4.2,2.3,3.5*38
$GPRMC,134635.000,A,1441.7857,S,07407.2443,W,13.49,55.01,200411,,,A*67
$GPGGA,134636.000,1441.7837,S,07407.2411,W,1,06,2.3,3194.3,M,22.7,M,,0000*63
$GPGSA,M,3,02,25,29,27,09,14,,,,,,,4.2,2.3,3.5*38
$GPGSV,3,1,12,09,68,102,44,29,57,287,38,27,52,065,38,02,32,109,43*75
$GPGSV,3,2,12,25,30,218,37,14,22,235,35,12,37,170,41,15,25,001,35*77
$GPGSV,3,3,12,04,05,133,28,21,04,337,,18,01,310,,01,01,021,*79
$GPRMC,134636.000,A,1441.7837,S,07407.2411,W,13.51,52.43,200411,,,A*6D
$GPGGA,134637.000,1441.7813,S,07407.2382,W,1,06,2.3,3194.1,M,22.7,M,,0000*6B
$GPGSA,M,3,02,25,29,27,09,14,,,,,,,4.2,2.3,3.5*38
$GPRMC,134637.000,A,1441.7813,S,07407.2382,W,13.34,46.05,200411,,,A*63
$GPGGA,134638.000,1441.7786,S,07407.2358,W,1,06,2.3,3193.5,M,22.7,M,,0000*63
$GPGSA,M,3,02,25,29,27,09,14,,,,,,,4.2,2.3,3.5*38
$GPRMC,134638.000,A,1441.7786,S,07407.2358,W,13.36,38.26,200411,,,A*62
$GPGGA,134639.000,1441.7751,S,07407.2339,W,1,05,2.5,3192.9,M,22.7,M,,0000*67
$GPGSA,M,3,02,25,29,27,09,,,,,,,,4.9,2.5,4.2*30
$GPRMC,134639.000,A,1441.7751,S,07407.2339,W,13.79,29.89,200411,,,A*60
$GPGGA,134640.014,1441.7718,S,07407.2323,W,1,06,2.3,3192.6,M,22.7,M,,0000*60
$GPGSA,M,3,09,29,27,02,25,14,,,,,,,4.2,2.3,3.5*38
$GPRMC,134640.014,A,1441.7718,S,07407.2323,W,12.69,22.23,200411,,,A*66
$GPGGA,134640.987,1441.7680,S,07407.2314,W,1,06,2.3,3192.0,M,22.7,M,,0000*61
$GPGSA,M,3,09,29,27,02,25,14,,,,,,,4.2,2.3,3.5*38
$GPGSV,3,1,12,09,68,102,33,29,57,287,37,27,52,065,37,12,37,170,35*7E
$GPGSV,3,2,12,02,32,109,32,25,30,218,37,15,25,001,32,14,22,235,28*72
$GPGSV,3,3,12,04,05,133,30,21,04,337,,18,01,310,,01,01,021,*70
$GPRMC,134640.987,A,1441.7680,S,07407.2314,W,14.07,11.58,200411,,,A*63
$GPGGA,134642.001,1441.7638,S,07407.2308,W,1,06,2.3,3190.8,M,22.7,M,,0000*60
$GPGSA,M,3,09,29,27,02,25,14,,,,,,,4.2,2.3,3.5*38
$GPRMC,134642.001,A,1441.7638,S,07407.2308,W,14.41,8.84,200411,,,A*53
$GPGGA,134643.001,1441.7598,S,07407.2301,W,1,06,2.3,3189.5,M,22.7,M,,0000*64
$GPGSA,M,3,09,29,27,02,25,14,,,,,,,4.2,2.3,3.5*38
$GPRMC,134643.001,A,1441.7598,S,07407.2301,W,14.10,8.03,200411,,,A*59
$GPGGA,134644.000,1441.7558,S,07407.2297,W,1,06,2.3,3189.9,M,22.7,M,,0000*6C
$GPGSA,M,3,09,29,27,02,25,14,,,,,,,4.2,2.3,3.5*38
$GPRMC,134644.000,A,1441.7558,S,07407.2297,W,14.04,6.19,200411,,,A*5D
$GPGGA,134645.001,1441.7517,S,07407.2292,W,1,06,2.3,3189.0,M,22.7,M,,0000*6B
$GPGSA,M,3,09,29,27,02,25,14,,,,,,,4.2,2.3,3.5*38
$GPRMC,134645.001,A,1441.7517,S,07407.2292,W,14.32,6.11,200411,,,A*5E
$GPGGA,134646.001,1441.7477,S,07407.2288,W,1,06,2.3,3188.3,M,22.7,M,,0000*66
$GPGSA,M,3,09,29,27,02,25,14,,,,,,,4.2,2.3,3.5*38
$GPGSV,3,1,12,09,68,102,37,29,57,287,38,27,52,065,37,12,37,170,37*77
$GPGSV,3,2,12,02,32,109,38,25,30,218,38,15,25,001,34,14,22,235,38*70
$GPGSV,3,3,12,04,05,133,32,21,04,337,,18,01,310,,01,01,021,*72
$GPRMC,134646.001,A,1441.7477,S,07407.2288,W,13.84,7.61,200411,,,A*5D
$GPGGA,134647.001,1441.7438,S,07407.2283,W,1,06,2.3,3188.5,M,22.7,M,,0000*61
$GPGSA,M,3,09,29,27,02,25,14,,,,,,,4.2,2.3,3.5*38
$GPRMC,134647.001,A,1441.7438,S,07407.2283,W,13.89,7.41,200411,,,A*53
$GPGGA,134648.001,1441.7395,S,07407.2280,W,1,06,2.3,3187.0,M,22.7,M,,0000*67
$GPGSA,M,3,09,29,27,02,25,14,,,,,,,4.2,2.3,3.5*38
$GPRMC,134648.001,A,1441.7395,S,07407.2280,W,13.77,5.98,200411,,,A*58
$GPGGA,134649.001,1441.7354,S,07407.2277,W,1,06,2.3,3185.6,M,22.7,M,,0000*67
$GPGSA,M,3,09,29,27,02,25,14,,,,,,,4.2,2.3,3.5*38
$GPRMC,134649.001,A,1441.7354,S,07407.2277,W,13.68,5.35,200411,,,A*55
$GPGGA,134650.001,1441.7313,S,07407.2273,W,1,06,2.3,3185.0,M,22.7,M,,0000*6E
$GPGSA,M,3,09,29,27,02,25,14,,,,,,,4.2,2.3,3.5*38
$GPRMC,134650.001,A,1441.7313,S,07407.2273,W,14.56,3.89,200411,,,A*51
$GPGGA,134651.000,1441.7269,S,07407.2270,W,1,06,2.3,3184.3,M,22.7,M,,0000*63
$GPGSA,M,3,09,29,27,02,25,14,,,,,,,4.2,2.3,3.5*38
$GPGSV,3,1,12,09,68,102,38,29,57,287,39,27,52,065,36,12,37,170,38*77
$GPGSV,3,2,12,02,32,109,37,25,30,218,39,15,25,001,29,14,22,235,38*72
$GPGSV,3,3,12,04,05,133,30,21,04,337,,18,01,310,,01,01,021,*70
$GPRMC,134651.000,A,1441.7269,S,07407.2270,W,15.12,3.79,200411,,,A*50
$GPGGA,134652.000,1441.7225,S,07407.2269,W,1,06,2.3,3183.2,M,22.7,M,,0000*66
$GPGSA,M,3,09,29,27,02,25,14,,,,,,,4.2,2.3,3.5*38
$GPRMC,134652.000,A,1441.7225,S,07407.2269,W,14.32,3.40,200411,,,A*5A
$GPGGA,134653.000,1441.7178,S,07407.2268,W,1,06,2.3,3182.4,M,22.7,M,,0000*6A
$GPGSA,M,3,09,29,27,02,25,14,,,,,,,4.2,2.3,3.5*38
$GPRMC,134653.000,A,1441.7178,S,07407.2268,W,15.37,2.67,200411,,,A*51
$GPGGA,134653.998,1441.7135,S,07407.2267,W,1,06,2.3,3181.8,M,22.7,M,,0000*6B
$GPGSA,M,3,09,29,27,02,25,14,,,,,,,4.2,2.3,3.5*38
$GPRMC,134653.998,A,1441.7135,S,07407.2267,W,15.23,1.30,200411,,,A*5B
$GPGGA,134655.002,1441.7098,S,07407.2265,W,1,05,2.5,3181.8,M,22.7,M,,0000*66
$GPGSA,M,3,09,29,27,02,25,,,,,,,,4.9,2.5,4.3*31
$GPRMC,134655.002,A,1441.7098,S,07407.2265,W,14.36,0.30,200411,,,A*57
$GPGGA,134655.999,1441.7052,S,07407.2268,W,1,05,2.5,3181.1,M,22.7,M,,0000*6F
$GPGSA,M,3,09,29,27,02,25,,,,,,,,4.9,2.5,4.3*31
$GPGSV,3,1,12,09,68,102,38,29,57,287,39,27,52,065,39,12,37,170,39*79
$GPGSV,3,2,12,02,32,109,38,25,30,218,35,15,25,001,31,14,22,235,*73
$GPGSV,3,3,12,04,05,133,31,21,04,337,,18,01,310,,01,01,021,*71
$GPRMC,134655.999,A,1441.7052,S,07407.2268,W,15.94,355.22,200411,,,A*5E
$GPGGA,134657.000,1441.7007,S,07407.2276,W,1,06,2.3,3181.1,M,22.7,M,,0000*6E
$GPGSA,M,3,09,29,27,02,25,14,,,,,,,4.2,2.3,3.5*38
$GPRMC,134657.000,A,1441.7007,S,07407.2276,W,15.43,349.63,200411,,,A*58
$GPGGA,134658.005,1441.6965,S,07407.2288,W,1,05,2.5,3180.0,M,22.7,M,,0000*6C
$GPGSA,M,3,09,29,27,25,14,,,,,,,,4.8,2.5,4.1*35
$GPRMC,134658.005,A,1441.6965,S,07407.2288,W,15.11,340.29,200411,,,A*5F
$GPGGA,134658.994,1441.6924,S,07407.2303,W,1,05,2.5,3178.9,M,22.7,M,,0000*64
$GPGSA,M,3,09,29,27,02,25,,,,,,,,4.9,2.5,4.3*31
$GPRMC,134658.994,A,1441.6924,S,07407.2303,W,16.12,337.46,200411,,,A*50
$GPGGA,134700.003,1441.6883,S,07407.2322,W,1,05,2.9,3177.4,M,22.7,M,,0000*6E
$GPGSA,M,3,09,29,27,02,14,,,,,,,,4.8,2.9,3.8*32
$GPRMC,134700.003,A,1441.6883,S,07407.2322,W,15.28,333.87,200411,,,A*57
$GPGGA,134700.998,1441.6848,S,07407.2343,W,1,06,2.3,3177.6,M,22.7,M,,0000*6E
$GPGSA,M,3,09,29,27,02,25,14,,,,,,,4.2,2.3,3.5*38
$GPGSV,3,1,12,09,68,102,38,29,57,287,37,27,52,065,37,12,37,170,39*79
$GPGSV,3,2,12,02,32,109,34,25,30,218,29,15,25,001,30,14,22,235,28*79
$GPGSV,3,3,12,04,05,133,,21,04,337,,18,01,310,,01,01,021,*73
$GPRMC,134700.998,A,1441.6848,S,07407.2343,W,14.36,330.83,200411,,,A*55
$GPGGA,134702.002,1441.6810,S,07407.2364,W,1,05,2.9,3176.6,M,22.7,M,,0000*66
$GPGSA,M,3,09,29,27,02,14,,,,,,,,4.8,2.9,3.8*32
$GPRMC,134702.002,A,1441.6810,S,07407.2364,W,15.63,332.49,200411,,,A*50
$GPGGA,134702.999,1441.6775,S,07407.2386,W,1,06,2.3,3176.2,M,22.7,M,,0000*60
$GPGSA,M,3,09,29,27,02,25,14,,,,,,,4.2,2.3,3.5*38
$GPRMC,134702.999,A,1441.6775,S,07407.2386,W,15.12,332.18,200411,,,A*59
$GPGGA,134703.999,1441.6735,S,07407.2407,W,1,04,3.3,3176.0,M,22.7,M,,0000*6A
$GPGSA,M,3,09,29,27,02,,,,,,,,,5.5,3.3,4.4*3B
$GPRMC,134703.999,A,1441.6735,S,07407.2407,W,15.65,335.22,200411,,,A*5C
$GPGGA,134705.002,1441.6703,S,07407.2426,W,1,05,2.5,3176.2,M,22.7,M,,0000*65
$GPGSA,M,3,09,29,27,02,25,,,,,,,,4.9,2.5,4.3*31
$GPRMC,134705.002,A,1441.6703,S,07407.2426,W,14.74,332.11,200411,,,A*51
$GPGGA,134705.997,1441.6666,S,07407.2446,W,1,05,2.5,3175.7,M,22.7,M,,0000*62
$GPGSA,M,3,09,29,27,02,25,,,,,,,,4.9,2.5,4.3*31
$GPGSV,3,1,12,09,68,102,39,29,57,287,38,27,52,065,38,12,37,170,39*78
$GPGSV,3,2,12,02,32,109,30,25,30,218,31,15,25,001,,14,22,235,*7D
$GPGSV,3,3,12,04,05,133,,21,04,337,,18,01,310,,01,01,021,*73
$GPRMC,134705.997,A,1441.6666,S,07407.2446,W,15.03,333.51,200411,,,A*54
$GPGGA,134707.003,1441.6624,S,07407.2468,W,1,05,2.5,3174.9,M,22.7,M,,0000*61
$GPGSA,M,3,09,29,27,25,14,,,,,,,,4.8,2.5,4.1*35
$GPRMC,134707.003,A,1441.6624,S,07407.2468,W,16.23,333.87,200411,,,A*52
$GPGGA,134707.997,1441.6590,S,07407.2490,W,1,05,2.5,3175.0,M,22.7,M,,0000*66
$GPGSA,M,3,09,29,27,25,14,,,,,,,,4.8,2.5,4.1*35
$GPRMC,134707.997,A,1441.6590,S,07407.2490,W,15.02,331.50,200411,,,A*55
$GPGGA,134709.004,1441.6558,S,07407.2510,W,1,06,2.3,3175.5,M,22.7,M,,0000*66
$GPGSA,M,3,09,29,27,02,25,14,,,,,,,4.2,2.3,3.5*38
$GPRMC,134709.004,A,1441.6558,S,07407.2510,W,14.22,333.33,200411,,,A*51
$GPGGA,134709.996,1441.6529,S,07407.2529,W,1,04,2.6,3175.7,M,22.7,M,,0000*6D
$GPGSA,M,3,09,29,27,25,,,,,,,,,5.9,2.6,5.2*31
$GPRMC,134709.996,A,1441.6529,S,07407.2529,W,13.76,334.29,200411,,,A*55
$GPGGA,134711.002,1441.6499,S,07407.2548,W,1,05,2.5,3176.4,M,22.7,M,,0000*6F
$GPGSA,M,3,09,29,27,25,14,,,,,,,,4.8,2.5,4.1*35
$GPGSV,3,1,12,09,68,102,36,29,57,287,38,27,52,065,36,12,37,170,40*77
$GPGSV,3,2,12,02,32,109,,25,30,218,32,15,25,001,25,14,22,235,32*7B
$GPGSV,3,3,12,04,05,133,,21,04,337,,18,01,310,,01,01,021,*73
$GPRMC,134711.002,A,1441.6499,S,07407.2548,W,12.31,331.60,200411,,,A*5F
$GPGGA,134711.998,1441.6469,S,07407.2565,W,1,04,3.0,3176.1,M,22.7,M,,0000*65
$GPGSA,M,3,09,29,27,14,,,,,,,,,5.2,3.0,4.2*3E
$GPRMC,134711.998,A,1441.6469,S,07407.2565,W,11.45,333.79,200411,,,A*5F
$GPGGA,134713.001,1441.6444,S,07407.2579,W,1,05,2.5,3177.8,M,22.7,M,,0000*61
$GPGSA,M,3,09,29,27,02,25,,,,,,,,4.9,2.5,4.3*31
$GPRMC,134713.001,A,1441.6444,S,07407.2579,W,11.19,331.98,200411,,,A*52
$GPGGA,134714.000,1441.6421,S,07407.2594,W,1,04,2.6,3177.6,M,22.7,M,,0000*6B
$GPGSA,M,3,09,29,27,25,,,,,,,,,5.9,2.6,5.2*31
$GPRMC,134714.000,A,1441.6421,S,07407.2594,W,9.54,330.71,200411,,,A*62
$GPGGA,134715.000,1441.6398,S,07407.2608,W,1,04,2.6,3176.9,M,22.7,M,,0000*67
$GPGSA,M,3,09,29,27,25,,,,,,,,,5.9,2.6,5.2*31
$GPRMC,134715.000,A,1441.6398,S,07407.2608,W,9.44,332.22,200411,,,A*65
$GPGGA,134716.000,1441.6375,S,07407.2619,W,1,04,2.6,3179.2,M,22.7,M,,0000*63
$GPGSA,M,3,09,29,27,25,,,,,,,,,5.9,2.6,5.2*31
$GPGSV,3,1,12,09,68,100,38,29,58,286,39,27,52,064,38,12,37,169,43*70
$GPGSV,3,2,12,02,32,109,,25,30,218,33,15,25,001,25,14,22,235,*7B
$GPGSV,3,3,12,04,05,133,,21,04,338,,18,01,310,,01,01,021,*7C
$GPRMC,134716.000,A,1441.6375,S,07407.2619,W,9.41,335.08,200411,,,A*6F
$GPGGA,134717.000,1441.6356,S,07407.2627,W,1,05,2.5,3179.7,M,22.7,M,,0000*69
$GPGSA,M,3,09,29,27,25,02,,,,,,,,4.9,2.5,4.3*31
$GPRMC,134717.000,A,1441.6356,S,07407.2627,W,9.15,334.80,200411,,,A*62
$GPGGA,134718.000,1441.6330,S,07407.2636,W,1,06,2.3,3181.0,M,22.7,M,,0000*63
$GPGSA,M,3,09,29,27,25,02,14,,,,,,,4.2,2.3,3.5*38
$GPRMC,134718.000,A,1441.6330,S,07407.2636,W,9.20,336.80,200411,,,A*69
$GPGGA,134719.000,1441.6308,S,07407.2645,W,1,06,2.3,3182.8,M,22.7,M,,0000*66
$GPGSA,M,3,09,29,27,25,02,14,,,,,,,4.2,2.3,3.5*38
$GPRMC,134719.000,A,1441.6308,S,07407.2645,W,9.15,335.47,200411,,,A*69
$GPGGA,134720.000,1441.6284,S,07407.2652,W,1,06,2.3,3184.1,M,22.7,M,,0000*60
$GPGSA,M,3,09,29,27,25,02,14,,,,,,,4.2,2.3,3.5*38
$GPRMC,134720.000,A,1441.6284,S,07407.2652,W,9.48,337.01,200411,,,A*68
$GPGGA,134721.000,1441.6260,S,07407.2659,W,1,06,2.3,3184.0,M,22.7,M,,0000*61
$GPGSA,M,3,09,29,27,25,02,14,,,,,,,4.2,2.3,3.5*38
$GPGSV,3,1,12,09,68,100,38,29,58,286,40,27,52,064,37,12,37,169,42*70
$GPGSV,3,2,12,02,32,109,33,25,30,218,35,15,25,001,22,14,22,235,35*7C
$GPGSV,3,3,12,04,05,133,24,21,04,338,,18,01,310,,01,01,021,*7A
$GPRMC,134721.000,A,1441.6260,S,07407.2659,W,9.56,336.72,200411,,,A*62
$GPGGA,134722.000,1441.6234,S,07407.2669,W,1,06,2.3,3184.5,M,22.7,M,,0000*65
$GPGSA,M,3,09,29,27,25,02,14,,,,,,,4.2,2.3,3.5*38
$GPRMC,134722.000,A,1441.6234,S,07407.2669,W,10.36,339.19,200411,,,A*5F
$GPGGA,134723.000,1441.6208,S,07407.2680,W,1,06,2.3,3186.3,M,22.7,M,,0000*68
$GPGSA,M,3,09,29,27,25,02,14,,,,,,,4.2,2.3,3.5*38
$GPRMC,134723.000,A,1441.6208,S,07407.2680,W,10.73,341.37,200411,,,A*54
$GPGGA,134724.000,1441.6184,S,07407.2693,W,1,06,2.3,3188.8,M,22.7,M,,0000*6F
$GPGSA,M,3,09,29,27,25,02,14,,,,,,,4.2,2.3,3.5*38
$GPRMC,134724.000,A,1441.6184,S,07407.2693,W,9.91,338.25,200411,,,A*6F
$GPGGA,134725.000,1441.6162,S,07407.2703,W,1,06,2.3,3188.3,M,22.7,M,,0000*65
$GPGSA,M,3,09,29,27,25,02,14,,,,,,,4.2,2.3,3.5*38
$GPRMC,134725.000,A,1441.6162,S,07407.2703,W,9.49,337.01,200411,,,A*62
$GPGGA,134726.003,1441.6135,S,07407.2714,W,1,05,2.5,3187.8,M,22.7,M,,0000*60
$GPGSA,M,3,09,29,27,02,25,,,,,,,,5.0,2.5,4.3*39
$GPGSV,3,1,12,09,68,100,36,29,58,286,37,27,52,064,37,12,37,169,37*7C
$GPGSV,3,2,12,02,32,109,33,25,30,218,31,15,25,001,22,14,22,235,*7E
$GPGSV,3,3,12,04,05,133,22,21,04,338,,18,01,310,,01,01,021,*7C
$GPRMC,134726.003,A,1441.6135,S,07407.2714,W,10.43,338.42,200411,,,A*5C
$GPGGA,134727.000,1441.6105,S,07407.2723,W,1,06,2.3,3187.4,M,22.7,M,,0000*6C
$GPGSA,M,3,09,29,27,02,25,14,,,,,,,4.2,2.3,3.5*38
$GPRMC,134727.000,A,1441.6105,S,07407.2723,W,10.30,340.49,200411,,,A*59
$GPGGA,134728.006,1441.6079,S,07407.2734,W,1,04,2.2,3187.1,M,22.7,M,,0000*6F
$GPGSA,M,3,09,29,25,14,,,,,,,,,2.4,2.2,1.0*39
$GPRMC,134728.006,A,1441.6079,S,07407.2734,W,9.73,338.12,200411,,,A*62
$GPGGA,134728.996,1441.6054,S,07407.2744,W,0,00,,3187.2,M,22.7,M,,0000*4F
$GPGSA,M,1,,,,,,,,,,,,,,,*12
$GPRMC,134728.996,V,1441.6054,S,07407.2744,W,,,200411,,,N*74
$GPGGA,134730.000,1441.6029,S,07407.2754,W,0,00,,3187.2,M,22.7,M,,0000*4B
$GPGSA,M,1,,,,,,,,,,,,,,,*12
$GPRMC,134730.000,V,1441.6029,S,07407.2754,W,,,200411,,,N*70
$GPGGA,134731.000,1441.6004,S,07407.2765,W,0,00,,3187.3,M,22.7,M,,0000*46
$GPGSA,M,1,,,,,,,,,,,,,,,*12
$GPGSV,3,1,12,09,68,100,,29,58,286,41,27,52,064,41,02,32,109,*7F
$GPGSV,3,2,12,25,30,218,,14,22,235,,12,37,169,38,15,25,001,*75
$GPGSV,3,3,12,04,05,133,,21,04,338,,18,01,311,,01,01,021,*7D
$GPRMC,134731.000,V,1441.6004,S,07407.2765,W,,,200411,,,N*7C
$GPGGA,134732.000,1441.5993,S,07407.2781,W,1,06,2.3,3189.6,M,22.7,M,,0000*68
$GPGSA,M,3,29,27,02,25,14,09,,,,,,,4.2,2.3,3.5*38
$GPRMC,134732.000,A,1441.5993,S,07407.2781,W,9.78,337.48,200411,,,A*64
$GPGGA,134733.000,1441.5966,S,07407.2796,W,1,06,2.3,3190.1,M,22.7,M,,0000*6A
$GPGSA,M,3,29,27,02,25,14,09,,,,,,,4.2,2.3,3.5*38
$GPRMC,134733.000,A,1441.5966,S,07407.2796,W,9.43,335.16,200411,,,A*68
$GPGGA,134734.000,1441.5938,S,07407.2808,W,1,06,2.3,3190.3,M,22.7,M,,0000*6C
$GPGSA,M,3,29,27,02,25,14,09,,,,,,,4.2,2.3,3.5*38
$GPRMC,134734.000,A,1441.5938,S,07407.2808,W,9.86,333.53,200411,,,A*62
$GPGGA,134735.000,1441.5914,S,07407.2827,W,1,06,2.3,3192.9,M,22.7,M,,0000*66
$GPGSA,M,3,29,27,02,25,14,09,,,,,,,4.2,2.3,3.5*38
$GPRMC,134735.000,A,1441.5914,S,07407.2827,W,10.62,333.15,200411,,,A*50
$GPGGA,134736.000,1441.5887,S,07407.2840,W,1,06,2.3,3194.5,M,22.7,M,,0000*65
$GPGSA,M,3,29,27,02,25,14,09,,,,,,,4.2,2.3,3.5*38
$GPGSV,3,1,12,09,68,100,39,29,58,286,41,27,52,064,42,02,32,109,32*77
$GPGSV,3,2,12,25,30,218,31,14,22,235,25,12,37,169,40,15,25,001,36*7A
$GPGSV,3,3,12,04,05,133,23,21,04,338,,18,01,311,,01,01,021,*7C
$GPRMC,134736.000,A,1441.5887,S,07407.2840,W,10.84,332.57,200411,,,A*56
$GPGGA,134737.000,1441.5863,S,07407.2856,W,1,05,2.5,3195.1,M,22.7,M,,0000*69
$GPGSA,M,3,29,27,02,25,09,,,,,,,,5.0,2.5,4.3*39
$GPRMC,134737.000,A,1441.5863,S,07407.2856,W,10.14,330.94,200411,,,A*5E
$GPGGA,134738.000,1441.5839,S,07407.2871,W,1,06,2.3,3195.7,M,22.7,M,,0000*6F
$GPGSA,M,3,29,27,02,25,14,09,,,,,,,4.2,2.3,3.5*38
$GPRMC,134738.000,A,1441.5839,S,07407.2871,W,9.70,330.19,200411,,,A*64
$GPGGA,134739.000,1441.5815,S,07407.2884,W,1,06,2.3,3196.0,M,22.7,M,,0000*6E
$GPGSA,M,3,29,27,02,25,14,09,,,,,,,4.2,2.3,3.5*38
$GPRMC,134739.000,A,1441.5815,S,07407.2884,W,9.67,330.54,200411,,,A*6E
$GPGGA,134740.000,1441.5792,S,07407.2897,W,1,06,2.3,3196.6,M,22.7,M,,0000*64
$GPGSA,M,3,29,27,02,25,14,09,,,,,,,4.2,2.3,3.5*38
$GPRMC,134740.000,A,1441.5792,S,07407.2897,W,9.82,330.00,200411,,,A*68
$GPGGA,134741.000,1441.5768,S,07407.2912,W,1,06,2.3,3196.6,M,22.7,M,,0000*6C
$GPGSA,M,3,29,27,02,25,14,09,,,,,,,4.2,2.3,3.5*38
$GPGSV,3,1,12,09,68,100,39,29,58,286,41,27,52,064,42,02,32,109,39*7C
$GPGSV,3,2,12,25,30,218,28,14,22,235,20,12,37,169,40,15,25,001,37*76
$GPGSV,3,3,12,04,05,133,25,21,04,338,,18,01,311,,01,01,021,*7A
$GPRMC,134741.000,A,1441.5768,S,07407.2912,W,9.73,328.24,200411,,,A*61
$GPGGA,134742.000,1441.5746,S,07407.2927,W,1,06,2.3,3196.9,M,22.7,M,,0000*6A
$GPGSA,M,3,29,27,02,25,14,09,,,,,,,4.2,2.3,3.5*38
$GPRMC,134742.000,A,1441.5746,S,07407.2927,W,9.54,327.59,200411,,,A*68
$GPGGA,134742.993,1441.5723,S,07407.2941,W,0,00,,3197.1,M,22.7,M,,0000*4B
$GPGSA,M,1,,,,,,,,,,,,,,,*12
$GPRMC,134742.993,V,1441.5723,S,07407.2941,W,,,200411,,,N*72
$GPGGA,134744.001,1441.5701,S,07407.2956,W,0,00,,3197.2,M,22.7,M,,0000*4A
$GPGSA,M,1,,,,,,,,,,,,,,,*12
$GPRMC,134744.001,V,1441.5701,S,07407.2956,W,,,200411,,,N*70
$GPGGA,134745.000,1441.5678,S,07407.2971,W,0,00,,3197.3,M,22.7,M,,0000*41
$GPGSA,M,1,,,,,,,,,,,,,,,*12
$GPRMC,134745.000,V,1441.5678,S,07407.2971,W,,,200411,,,N*7A
$GPGGA,134746.000,1441.5653,S,07407.2982,W,1,06,2.3,3200.4,M,22.7,M,,0000*65
$GPGSA,M,3,29,27,02,25,14,09,,,,,,,4.2,2.3,3.5*38
$GPGSV,3,1,12,09,68,100,37,29,58,286,40,27,52,064,41,02,32,110,35*74
$GPGSV,3,2,12,25,30,218,29,14,22,235,22,12,37,169,38,15,25,001,39*74
$GPGSV,3,3,12,04,05,133,,21,04,338,,18,01,311,,01,00,021,*7C
$GPRMC,134746.000,A,1441.5653,S,07407.2982,W,10.55,328.19,200411,,,A*54
$GPGGA,134747.000,1441.5627,S,07407.2996,W,1,06,2.3,3201.0,M,22.7,M,,0000*67
$GPGSA,M,3,29,27,02,25,14,09,,,,,,,4.2,2.3,3.5*38
$GPRMC,134747.000,A,1441.5627,S,07407.2996,W,10.90,328.31,200411,,,A*50
$GPGGA,134748.000,1441.5606,S,07407.3015,W,1,06,2.3,3201.9,M,22.7,M,,0000*61
$GPGSA,M,3,29,27,02,25,14,09,,,,,,,4.2,2.3,3.5*38
$GPRMC,134748.000,A,1441.5606,S,07407.3015,W,10.57,327.05,200411,,,A*5C
$GPGGA,134749.000,1441.5584,S,07407.3033,W,1,06,2.3,3201.6,M,22.7,M,,0000*62
$GPGSA,M,3,29,27,02,25,14,09,,,,,,,4.2,2.3,3.5*38
$GPRMC,134749.000,A,1441.5584,S,07407.3033,W,10.16,326.15,200411,,,A*55
$GPGGA,134750.000,1441.5564,S,07407.3050,W,1,06,2.3,3201.5,M,22.7,M,,0000*62
$GPGSA,M,3,29,27,02,25,14,09,,,,,,,4.2,2.3,3.5*38
$GPRMC,134750.000,A,1441.5564,S,07407.3050,W,10.27,327.04,200411,,,A*55
$GPGGA,134751.000,1441.5546,S,07407.3065,W,1,06,2.3,3202.5,M,22.7,M,,0000*66
$GPGSA,M,3,29,27,02,25,14,09,,,,,,,4.2,2.3,3.5*38
$GPGSV,3,1,12,09,68,100,39,29,58,286,41,27,52,064,24,02,32,110,30*7D
$GPGSV,3,2,12,25,30,218,29,14,22,235,31,12,37,169,38,15,25,001,23*7D
$GPGSV,3,3,12,04,05,133,26,21,04,338,,18,01,311,,01,00,021,*78
$GPRMC,134751.000,A,1441.5546,S,07407.3065,W,10.13,326.42,200411,,,A*56
$GPGGA,134752.000,1441.5521,S,07407.3082,W,1,06,2.3,3203.1,M,22.7,M,,0000*68
$GPGSA,M,3,29,27,02,25,14,09,,,,,,,4.2,2.3,3.5*38
$GPRMC,134752.000,A,1441.5521,S,07407.3082,W,10.83,332.37,200411,,,A*53
$GPGGA,134753.000,1441.5497,S,07407.3096,W,1,06,2.3,3203.7,M,22.7,M,,0000*66
$GPGSA,M,3,29,27,02,25,14,09,,,,,,,4.2,2.3,3.5*38
$GPRMC,134753.000,A,1441.5497,S,07407.3096,W,10.90,331.36,200411,,,A*5B
$GPGGA,134754.000,1441.5472,S,07407.3110,W,1,06,2.3,3204.6,M,22.7,M,,0000*63
$GPGSA,M,3,29,27,02,25,14,09,,,,,,,4.2,2.3,3.5*38
$GPRMC,134754.000,A,1441.5472,S,07407.3110,W,10.05,331.60,200411,,,A*57
$GPGGA,134755.000,1441.5449,S,07407.3125,W,1,06,2.3,3204.3,M,22.7,M,,0000*69
$GPGSA,M,3,29,27,02,25,14,09,,,,,,,4.2,2.3,3.5*38
$GPRMC,134755.000,A,1441.5449,S,07407.3125,W,9.18,332.11,200411,,,A*69
$GPGGA,134756.000,1441.5428,S,07407.3136,W,1,06,2.3,3203.8,M,22.7,M,,0000*63
$GPGSA,M,3,29,27,02,25,14,09,,,,,,,4.2,2.3,3.5*38
$GPGSV,3,1,12,09,68,100,39,29,58,286,41,27,52,064,34,02,32,110,26*7B
$GPGSV,3,2,12,25,30,218,30,14,22,235,28,12,37,169,30,15,25,001,32*75
$GPGSV,3,3,12,04,05,133,29,21,04,338,,18,01,311,,01,00,021,*77
$GPRMC,134756.000,A,1441.5428,S,07407.3136,W,8.52,334.62,200411,,,A*62
$GPGGA,134756.994,1441.5407,S,07407.3144,W,1,05,2.5,3204.3,M,22.7,M,,0000*66
$GPGSA,M,3,09,29,27,25,14,,,,,,,,4.8,2.5,4.1*35
$GPRMC,134756.994,A,1441.5407,S,07407.3144,W,8.85,342.95,200411,,,A*6D
$GPGGA,134758.000,1441.5381,S,07407.3151,W,1,04,2.6,3204.1,M,22.7,M,,0000*61
$GPGSA,M,3,09,29,27,25,,,,,,,,,5.8,2.6,5.2*30
$GPRMC,134758.000,A,1441.5381,S,07407.3151,W,9.15,347.31,200411,,,A*69
$GPGGA,134759.001,1441.5356,S,07407.3155,W,1,06,2.3,3203.4,M,22.7,M,,0000*6A
$GPGSA,M,3,09,29,27,02,25,14,,,,,,,4.2,2.3,3.5*38
$GPRMC,134759.001,A,1441.5356,S,07407.3155,W,8.95,350.49,200411,,,A*67
$GPGGA,134800.000,1441.5328,S,07407.3158,W,1,04,2.6,3202.9,M,22.7,M,,0000*67
$GPGSA,M,3,09,29,27,25,,,,,,,,,5.8,2.6,5.2*30
$GPRMC,134800.000,A,1441.5328,S,07407.3158,W,9.58,355.82,200411,,,A*63
$GPGGA,134801.001,1441.5300,S,07407.3157,W,1,06,2.3,3202.3,M,22.7,M,,0000*6F
$GPGSA,M,3,09,29,27,02,25,14,,,,,,,4.2,2.3,3.5*38
$GPGSV,3,1,12,09,68,100,38,29,58,286,38,27,52,064,35,12,37,169,37*7F
$GPGSV,3,2,12,02,32,110,31,25,30,218,39,15,25,001,28,14,22,235,21*75
$GPGSV,3,3,12,04,05,133,25,21,04,338,,18,01,311,,01,00,021,*7B
$GPRMC,134801.001,A,1441.5300,S,07407.3157,W,9.29,4.50,200411,,,A*68
$GPGGA,134802.002,1441.5273,S,07407.3152,W,1,06,2.3,3201.3,M,22.7,M,,0000*6C
$GPGSA,M,3,09,29,27,02,25,14,,,,,,,4.2,2.3,3.5*38
$GPRMC,134802.002,A,1441.5273,S,07407.3152,W,9.55,12.11,200411,,,A*51
$GPGGA,134802.999,1441.5247,S,07407.3145,W,1,06,2.3,3201.7,M,22.7,M,,0000*62
$GPGSA,M,3,09,29,27,02,25,14,,,,,,,4.2,2.3,3.5*38
$GPRMC,134802.999,A,1441.5247,S,07407.3145,W,10.38,19.45,200411,,,A*62
$GPGGA,134803.999,1441.5220,S,07407.3134,W,1,06,2.3,3200.8,M,22.7,M,,0000*6A
$GPGSA,M,3,09,29,27,02,25,14,,,,,,,4.2,2.3,3.5*38
$GPRMC,134803.999,A,1441.5220,S,07407.3134,W,9.96,24.93,200411,,,A*5D
$GPGGA,134805.007,1441.5194,S,07407.3121,W,1,06,2.3,3199.9,M,22.7,M,,0000*68
$GPGSA,M,3,09,29,27,02,25,14,,,,,,,4.2,2.3,3.5*38
$GPRMC,134805.007,A,1441.5194,S,07407.3121,W,10.21,30.04,200411,,,A*62
$GPGGA,134805.992,1441.5169,S,07407.3108,W,1,06,2.3,3199.8,M,22.7,M,,0000*65
$GPGSA,M,3,09,29,27,02,25,14,,,,,,,4.2,2.3,3.5*38
$GPGSV,3,1,12,09,68,100,36,29,58,286,34,27,52,064,38,12,37,169,32*75
$GPGSV,3,2,12,02,32,110,38,25,30,218,30,15,25,001,30,14,22,235,28*75
$GPGSV,3,3,12,04,05,133,33,21,04,338,,18,01,311,,01,00,021,*7C
$GPRMC,134805.992,A,1441.5169,S,07407.3108,W,10.16,28.19,200411,,,A*6F
$GPGGA,134807.001,1441.5142,S,07407.3094,W,1,06,2.3,3199.0,M,22.7,M,,0000*61
$GPGSA,M,3,09,29,27,02,25,14,,,,,,,4.2,2.3,3.5*38
$GPRMC,134807.001,A,1441.5142,S,07407.3094,W,10.62,29.32,200411,,,A*68
$GPGGA,134808.003,1441.5118,S,07407.3079,W,1,05,2.5,3199.2,M,22.7,M,,0000*67
$GPGSA,M,3,09,29,27,02,25,,,,,,,,5.0,2.5,4.3*39
$GPRMC,134808.003,A,1441.5118,S,07407.3079,W,10.36,33.17,200411,,,A*64
$GPGGA,134808.998,1441.5093,S,07407.3066,W,1,06,2.3,3198.5,M,22.7,M,,0000*63
$GPGSA,M,3,09,29,27,02,25,14,,,,,,,4.2,2.3,3.5*38
$GPRMC,134808.998,A,1441.5093,S,07407.3066,W,10.23,30.32,200411,,,A*63
$GPGGA,134810.004,1441.5063,S,07407.3050,W,1,06,2.3,3196.5,M,22.7,M,,0000*62
$GPGSA,M,3,09,29,27,02,25,14,,,,,,,4.2,2.3,3.5*38
$GPRMC,134810.004,A,1441.5063,S,07407.3050,W,10.97,28.39,200411,,,A*61
$GPGGA,134810.996,1441.5035,S,07407.3036,W,1,06,2.3,3195.3,M,22.7,M,,0000*66
$GPGSA,M,3,09,29,27,02,25,14,,,,,,,4.2,2.3,3.5*38
$GPGSV,3,1,12,09,68,100,35,29,58,286,32,27,52,064,38,12,37,169,33*71
$GPGSV,3,2,12,02,32,110,40,25,30,218,27,15,25,001,,14,22,235,29*7E
$GPGSV,3,3,12,04,05,133,,21,04,338,,18,01,311,,01,00,021,*7C
$GPRMC,134810.996,A,1441.5035,S,07407.3036,W,11.52,27.87,200411,,,A*62
$GPGGA,134812.002,1441.5007,S,07407.3023,W,1,06,2.3,3194.7,M,22.7,M,,0000*60
$GPGSA,M,3,09,29,27,02,25,14,,,,,,,4.2,2.3,3.5*38
$GPRMC,134812.002,A,1441.5007,S,07407.3023,W,11.10,25.87,200411,,,A*65
$GPGGA,134812.996,1441.4984,S,07407.3009,W,1,06,2.3,3194.6,M,22.7,M,,0000*6E
$GPGSA,M,3,09,29,27,02,25,14,,,,,,,4.2,2.3,3.5*38
$GPRMC,134812.996,A,1441.4984,S,07407.3009,W,10.68,30.67,200411,,,A*6E
$GPGGA,134814.000,1441.4957,S,07407.2994,W,1,06,2.3,3194.8,M,22.7,M,,0000*62
$GPGSA,M,3,09,29,27,02,25,14,,,,,,,4.2,2.3,3.5*38
