$GPGGA,133757.996,1437.4257,S,07414.0823,W,1,07,1.1,3362.8,M,22.0,M,,0000*60
$GPGSA,M,3,09,27,29,12,02,15,25,,,,,,2.7,1.1,2.5*39
$GPRMC,133757.996,A,1437.4257,S,07414.0823,W,19.19,178.37,180411,,,A*5E
$GPGGA,133759.000,1437.4309,S,07414.0818,W,1,07,1.1,3362.5,M,22.0,M,,0000*67
$GPGSA,M,3,09,27,29,12,02,15,25,,,,,,2.7,1.1,2.5*39
$GPRMC,133759.000,A,1437.4309,S,07414.0818,W,19.35,176.18,180411,,,A*59
$GPGGA,133800.000,1437.4364,S,07414.0813,W,1,07,1.1,3361.9,M,22.0,M,,0000*6B
$GPGSA,M,3,09,27,29,12,02,15,25,,,,,,2.7,1.1,2.5*39
$GPGSV,3,1,11,09,66,126,29,27,56,080,37,29,52,301,41,12,37,179,37*71
$GPGSV,3,2,11,02,33,099,37,15,33,357,37,25,28,227,40,14,18,228,34*72
$GPGSV,3,3,11,04,08,127,,26,04,020,,18,02,303,*48
$GPRMC,133800.000,A,1437.4364,S,07414.0813,W,20.26,172.33,180411,,,A*5F
$GPGGA,133801.003,1437.4419,S,07414.0802,W,1,06,1.1,3361.7,M,22.0,M,,0000*6B
$GPGSA,M,3,27,29,12,02,15,25,,,,,,,3.4,1.1,3.2*34
$GPRMC,133801.003,A,1437.4419,S,07414.0802,W,20.49,170.93,180411,,,A*51
$GPGGA,133802.000,1437.4474,S,07414.0793,W,1,06,1.1,3361.3,M,22.0,M,,0000*63
$GPGSA,M,3,27,29,12,02,15,25,,,,,,,3.4,1.1,3.2*34
$GPRMC,133802.000,A,1437.4474,S,07414.0793,W,20.28,171.39,180411,,,A*5B
$GPGGA,133802.997,1437.4531,S,07414.0784,W,1,07,1.1,3361.2,M,22.0,M,,0000*62
$GPGSA,M,3,09,27,29,12,02,15,25,,,,,,2.7,1.1,2.5*39
$GPRMC,133802.997,A,1437.4531,S,07414.0784,W,20.25,172.61,180411,,,A*59
$GPGGA,133804.003,1437.4588,S,07414.0775,W,1,06,1.1,3360.4,M,22.0,M,,0000*6A
$GPGSA,M,3,27,29,12,02,15,25,,,,,,,3.4,1.1,3.2*34
$GPRMC,133804.003,A,1437.4588,S,07414.0775,W,20.55,172.76,180411,,,A*56
$GPGGA,133805.000,1437.4641,S,07414.0769,W,1,06,1.1,3359.4,M,22.0,M,,0000*69
$GPGSA,M,3,27,29,12,02,15,25,,,,,,,3.4,1.1,3.2*34
$GPGSV,3,1,11,09,66,126,,27,56,080,37,29,52,301,40,12,37,179,37*7B
$GPGSV,3,2,11,02,33,099,36,15,33,357,38,25,28,227,41,14,18,228,37*7E
$GPGSV,3,3,11,04,08,127,,26,04,020,,18,02,303,*48
$GPRMC,133805.000,A,1437.4641,S,07414.0769,W,20.33,172.36,180411,,,A*5B
$GPGGA,133805.997,1437.4698,S,07414.0757,W,1,07,1.1,3357.5,M,22.0,M,,0000*69
$GPGSA,M,3,09,27,29,12,02,15,25,,,,,,2.7,1.1,2.5*39
$GPRMC,133805.997,A,1437.4698,S,07414.0757,W,20.31,172.75,180411,,,A*50
$GPGGA,133807.000,1437.4753,S,07414.0749,W,1,07,1.1,3356.5,M,22.0,M,,0000*64
$GPGSA,M,3,09,27,29,12,02,15,25,,,,,,2.7,1.1,2.5*39
$GPRMC,133807.000,A,1437.4753,S,07414.0749,W,20.76,174.30,180411,,,A*58
$GPGGA,133808.000,1437.4814,S,07414.0741,W,1,07,1.1,3355.3,M,22.0,M,,0000*6A
$GPGSA,M,3,09,27,29,12,02,15,25,,,,,,2.7,1.1,2.5*39
$GPRMC,133808.000,A,1437.4814,S,07414.0741,W,20.86,173.77,180411,,,A*58
$GPGGA,133809.000,1437.4869,S,07414.0734,W,1,07,1.1,3354.3,M,22.0,M,,0000*62
$GPGSA,M,3,09,27,29,12,02,15,25,,,,,,2.7,1.1,2.5*39
$GPRMC,133809.000,A,1437.4869,S,07414.0734,W,20.82,172.74,180411,,,A*57
$GPGGA,133810.000,1437.4926,S,07414.0722,W,1,07,1.1,3352.7,M,22.0,M,,0000*65
$GPGSA,M,3,09,27,29,12,02,15,25,,,,,,2.7,1.1,2.5*39
$GPGSV,3,1,11,09,66,126,30,27,56,080,37,29,52,301,40,12,37,179,39*76
$GPGSV,3,2,11,02,33,099,38,15,33,357,37,25,28,227,42,14,18,228,38*73
$GPGSV,3,3,11,04,08,127,,26,04,020,,18,02,303,*48
$GPRMC,133810.000,A,1437.4926,S,07414.0722,W,20.75,169.87,180411,,,A*5C
$GPGGA,133811.004,1437.4982,S,07414.0714,W,1,06,1.1,3352.3,M,22.0,M,,0000*6E
$GPGSA,M,3,27,29,12,02,15,25,,,,,,,3.4,1.1,3.2*34
$GPRMC,133811.004,A,1437.4982,S,07414.0714,W,20.62,172.40,180411,,,A*55
$GPGGA,133812.000,1437.5035,S,07414.0707,W,1,06,1.1,3350.6,M,22.0,M,,0000*68
$GPGSA,M,3,27,29,12,02,15,25,,,,,,,3.4,1.1,3.2*34
$GPRMC,133812.000,A,1437.5035,S,07414.0707,W,20.38,171.94,180411,,,A*51
$GPGGA,133812.998,1437.5093,S,07414.0700,W,1,06,1.1,3350.3,M,22.0,M,,0000*6E
$GPGSA,M,3,27,29,12,02,15,25,,,,,,,3.4,1.1,3.2*34
$GPRMC,133812.998,A,1437.5093,S,07414.0700,W,19.89,172.80,180411,,,A*54
$GPGGA,133813.998,1437.5148,S,07414.0694,W,1,07,1.1,3349.7,M,22.0,M,,0000*69
$GPGSA,M,3,09,27,29,12,02,15,25,,,,,,2.7,1.1,2.5*39
$GPRMC,133813.998,A,1437.5148,S,07414.0694,W,20.16,173.38,180411,,,A*50
$GPGGA,133815.002,1437.5206,S,07414.0689,W,1,06,1.1,3348.6,M,22.0,M,,0000*61
$GPGSA,M,3,27,29,12,02,15,25,,,,,,,3.4,1.1,3.2*34
$GPGSV,3,1,11,09,66,126,,27,56,080,36,29,52,301,41,12,37,179,38*74
$GPGSV,3,2,11,02,33,099,35,15,33,357,37,25,28,227,41,14,18,228,38*7D
$GPGSV,3,3,11,04,08,127,,26,04,020,,18,02,303,*48
$GPRMC,133815.002,A,1437.5206,S,07414.0689,W,20.34,173.85,180411,,,A*5F
$GPGGA,133815.998,1437.5264,S,07414.0685,W,1,07,1.1,3347.4,M,22.0,M,,0000*6F
$GPGSA,M,3,09,27,29,12,02,15,25,,,,,,2.7,1.1,2.5*39
$GPRMC,133815.998,A,1437.5264,S,07414.0685,W,20.69,177.11,180411,,,A*5C
$GPGGA,133817.003,1437.5320,S,07414.0680,W,1,07,1.1,3344.9,M,22.0,M,,0000*6C
$GPGSA,M,3,09,27,29,12,02,15,25,,,,,,2.7,1.1,2.5*39
$GPRMC,133817.003,A,1437.5320,S,07414.0680,W,20.98,180.13,180411,,,A*55
$GPGGA,133818.000,1437.5378,S,07414.0682,W,1,07,1.1,3345.2,M,22.0,M,,0000*65
$GPGSA,M,3,09,27,29,12,02,15,25,,,,,,2.7,1.1,2.5*39
$GPRMC,133818.000,A,1437.5378,S,07414.0682,W,20.62,184.66,180411,,,A*55
$GPGGA,133819.000,1437.5436,S,07414.0691,W,1,07,1.1,3344.1,M,22.0,M,,0000*69
$GPGSA,M,3,09,27,29,12,02,15,25,,,,,,2.7,1.1,2.5*39
$GPRMC,133819.000,A,1437.5436,S,07414.0691,W,21.18,190.20,180411,,,A*50
$GPGGA,133819.999,1437.5495,S,07414.0705,W,1,06,1.6,3343.3,M,22.0,M,,0000*66
$GPGSA,M,3,09,27,29,12,02,25,,,,,,,3.6,1.6,3.2*3C
$GPGSV,3,1,11,09,66,126,39,27,56,080,36,29,52,301,41,12,37,179,36*70
$GPGSV,3,2,11,02,33,099,35,15,33,357,,25,28,227,41,14,18,228,37*76
$GPGSV,3,3,11,04,08,127,,26,04,020,,18,02,303,*48
$GPRMC,133819.999,A,1437.5495,S,07414.0705,W,22.19,196.21,180411,,,A*59
$GPGGA,133820.996,1437.5557,S,07414.0722,W,1,06,1.6,3342.7,M,22.0,M,,0000*6C
$GPGSA,M,3,09,27,29,12,02,25,,,,,,,3.6,1.6,3.2*3C
$GPRMC,133820.996,A,1437.5557,S,07414.0722,W,22.14,197.79,180411,,,A*57
$GPGGA,133822.002,1437.5617,S,07414.0739,W,1,07,1.1,3342.2,M,22.0,M,,0000*64
$GPGSA,M,3,09,27,29,12,02,15,25,,,,,,2.7,1.1,2.5*39
$GPRMC,133822.002,A,1437.5617,S,07414.0739,W,21.77,196.87,180411,,,A*5A
$GPGGA,133822.998,1437.5677,S,07414.0757,W,1,06,1.6,3343.7,M,22.0,M,,0000*62
$GPGSA,M,3,09,27,29,12,02,25,,,,,,,3.6,1.6,3.2*3C
$GPRMC,133822.998,A,1437.5677,S,07414.0757,W,22.51,198.46,180411,,,A*5A
$GPGGA,133824.001,1437.5737,S,07414.0776,W,1,06,1.6,3342.4,M,22.0,M,,0000*69
$GPGSA,M,3,09,27,29,12,02,25,,,,,,,3.6,1.6,3.2*3C
$GPRMC,133824.001,A,1437.5737,S,07414.0776,W,22.68,198.78,180411,,,A*54
$GPGGA,133825.001,1437.5796,S,07414.0801,W,1,07,1.1,3342.3,M,22.0,M,,0000*6D
$GPGSA,M,3,09,27,29,12,02,15,25,,,,,,2.7,1.1,2.5*39
$GPGSV,3,1,11,09,66,126,39,27,56,080,32,29,52,301,41,12,37,179,32*70
$GPGSV,3,2,11,02,33,099,37,15,33,357,28,25,28,227,40,14,18,228,38*70
$GPGSV,3,3,11,04,08,127,,26,04,020,,18,02,303,34*4F
$GPRMC,133825.001,A,1437.5796,S,07414.0801,W,23.04,199.32,180411,,,A*55
$GPGGA,133826.000,1437.5857,S,07414.0823,W,1,07,1.1,3342.5,M,22.0,M,,0000*6B
$GPGSA,M,3,09,27,29,12,02,15,25,,,,,,2.7,1.1,2.5*39
$GPRMC,133826.000,A,1437.5857,S,07414.0823,W,23.17,199.18,180411,,,A*5F
$GPGGA,133827.000,1437.5918,S,07414.0846,W,1,07,1.1,3343.4,M,22.0,M,,0000*63
$GPGSA,M,3,09,27,29,12,02,15,25,,,,,,2.7,1.1,2.5*39
$GPRMC,133827.000,A,1437.5918,S,07414.0846,W,23.03,199.52,180411,,,A*5C
$GPGGA,133827.998,1437.5978,S,07414.0865,W,1,06,1.6,3343.3,M,22.0,M,,0000*6D
$GPGSA,M,3,09,27,29,12,02,25,,,,,,,3.6,1.6,3.2*3C
$GPRMC,133827.998,A,1437.5978,S,07414.0865,W,23.28,198.78,180411,,,A*53
$GPGGA,133829.000,1437.6039,S,07414.0891,W,1,06,1.6,3343.8,M,22.0,M,,0000*64
$GPGSA,M,3,09,27,29,12,02,25,,,,,,,3.6,1.6,3.2*3C
$GPRMC,133829.000,A,1437.6039,S,07414.0891,W,23.39,197.69,180411,,,A*5E
$GPGGA,133830.000,1437.6102,S,07414.0909,W,1,06,1.6,3343.3,M,22.0,M,,0000*6E
$GPGSA,M,3,09,27,29,12,02,25,,,,,,,3.6,1.6,3.2*3C
$GPGSV,3,1,11,09,66,126,38,27,56,080,32,29,52,301,41,12,37,179,36*75
$GPGSV,3,2,11,02,33,099,37,15,33,357,,25,28,227,41,14,18,228,39*7A
$GPGSV,3,3,11,04,08,127,,26,04,020,,18,02,303,28*42
$GPRMC,133830.000,A,1437.6102,S,07414.0909,W,23.85,196.85,180411,,,A*5B
$GPGGA,133831.004,1437.6165,S,07414.0927,W,1,06,1.6,3342.6,M,22.0,M,,0000*62
$GPGSA,M,3,09,27,29,12,02,25,,,,,,,3.6,1.6,3.2*3C
$GPRMC,133831.004,A,1437.6165,S,07414.0927,W,23.50,193.54,180411,,,A*52
$GPGGA,133831.998,1437.6231,S,07414.0941,W,1,06,1.6,3341.7,M,22.0,M,,0000*6E
$GPGSA,M,3,09,27,29,12,02,25,,,,,,,3.6,1.6,3.2*3C
$GPRMC,133831.998,A,1437.6231,S,07414.0941,W,24.06,190.50,180411,,,A*5F
$GPGGA,133832.998,1437.6297,S,07414.0956,W,1,07,1.1,3342.4,M,22.0,M,,0000*61
$GPGSA,M,3,09,27,29,12,02,15,25,,,,,,2.7,1.1,2.5*39
$GPRMC,133832.998,A,1437.6297,S,07414.0956,W,24.21,188.43,180411,,,A*58
$GPGGA,133834.000,1437.6359,S,07414.0964,W,1,07,1.1,3339.9,M,22.0,M,,0000*6C
$GPGSA,M,3,09,27,29,12,02,15,25,,,,,,2.7,1.1,2.5*39
$GPRMC,133834.000,A,1437.6359,S,07414.0964,W,24.04,186.66,180411,,,A*5A
$GPGGA,133835.002,1437.6427,S,07414.0971,W,1,07,1.1,3340.1,M,22.0,M,,0000*63
$GPGSA,M,3,09,27,29,12,02,15,25,,,,,,2.7,1.1,2.5*39
$GPGSV,3,1,11,09,66,126,38,27,56,080,37,29,52,301,40,12,37,179,37*70
$GPGSV,3,2,11,02,33,099,37,15,33,357,31,25,28,227,40,14,18,228,40*77
$GPGSV,3,3,11,04,08,127,,26,04,020,,18,02,303,*48
$GPRMC,133835.002,A,1437.6427,S,07414.0971,W,23.77,185.55,180411,,,A*53
$GPGGA,133835.998,1437.6496,S,07414.0972,W,1,07,1.1,3341.7,M,22.0,M,,0000*67
$GPGSA,M,3,09,27,29,12,02,15,25,,,,,,2.7,1.1,2.5*39
$GPRMC,133835.998,A,1437.6496,S,07414.0972,W,24.71,181.79,180411,,,A*5B
$GPGGA,133837.000,1437.6565,S,07414.0974,W,1,07,1.1,3340.5,M,22.0,M,,0000*65
$GPGSA,M,3,09,27,29,12,02,15,25,,,,,,2.7,1.1,2.5*39
$GPRMC,133837.000,A,1437.6565,S,07414.0974,W,24.57,180.04,180411,,,A*55
$GPGGA,133838.000,1437.6633,S,07414.0971,W,1,07,1.1,3339.6,M,22.0,M,,0000*62
$GPGSA,M,3,09,27,29,12,02,15,25,,,,,,2.7,1.1,2.5*39
$GPRMC,133838.000,A,1437.6633,S,07414.0971,W,24.86,176.88,180411,,,A*5E
$GPGGA,133839.002,1437.6705,S,07414.0969,W,1,07,1.1,3338.7,M,22.0,M,,0000*6C
$GPGSA,M,3,09,27,29,12,02,15,25,,,,,,2.7,1.1,2.5*39
$GPRMC,133839.002,A,1437.6705,S,07414.0969,W,25.06,175.84,180411,,,A*56
$GPGGA,133839.998,1437.6773,S,07414.0963,W,1,07,1.1,3339.5,M,22.0,M,,0000*6E
$GPGSA,M,3,09,27,29,12,02,15,25,,,,,,2.7,1.1,2.5*39
$GPGSV,3,1,11,09,66,126,31,27,56,080,37,29,52,301,41,12,37,179,37*78
$GPGSV,3,2,11,02,33,099,36,15,33,357,38,25,28,227,40,14,18,228,37*7F
$GPGSV,3,3,11,04,08,127,,26,04,020,,18,02,303,*48
$GPRMC,133839.998,A,1437.6773,S,07414.0963,W,24.29,174.18,180411,,,A*5F
$GPGGA,133841.001,1437.6839,S,07414.0955,W,1,07,1.1,3338.4,M,22.0,M,,0000*6C
$GPGSA,M,3,09,27,29,12,02,15,25,,,,,,2.7,1.1,2.5*39
$GPRMC,133841.001,A,1437.6839,S,07414.0955,W,24.34,173.44,180411,,,A*5F
$GPGGA,133841.999,1437.6907,S,07414.0946,W,1,07,1.1,3338.4,M,22.0,M,,0000*6A
$GPGSA,M,3,09,27,29,12,02,15,25,,,,,,2.7,1.1,2.5*39
$GPRMC,133841.999,A,1437.6907,S,07414.0946,W,24.11,173.95,180411,,,A*52
$GPGGA,133843.001,1437.6975,S,07414.0938,W,1,07,1.1,3337.3,M,22.0,M,,0000*64
$GPGSA,M,3,09,27,29,12,02,15,25,,,,,,2.7,1.1,2.5*39
$GPRMC,133843.001,A,1437.6975,S,07414.0938,W,24.05,173.40,180411,,,A*59
$GPGGA,133843.998,1437.7040,S,07414.0929,W,1,07,1.1,3336.9,M,22.0,M,,0000*68
$GPGSA,M,3,09,27,29,12,02,15,25,,,,,,2.7,1.1,2.5*39
$GPRMC,133843.998,A,1437.7040,S,07414.0929,W,23.51,173.22,180411,,,A*5C
$GPGGA,133845.000,1437.7107,S,07414.0921,W,1,07,1.1,3335.7,M,22.0,M,,0000*61
$GPGSA,M,3,09,27,29,12,02,15,25,,,,,,2.7,1.1,2.5*39
$GPGSV,3,1,11,09,66,126,32,27,56,080,36,29,52,301,39,12,37,179,37*75
$GPGSV,3,2,11,02,33,099,34,15,33,357,36,25,28,227,41,14,18,228,38*7D
$GPGSV,3,3,11,04,08,127,,26,04,020,,18,02,303,*48
$GPRMC,133845.000,A,1437.7107,S,07414.0921,W,24.21,171.99,180411,,,A*5A
$GPGGA,133846.000,1437.7173,S,07414.0912,W,1,07,1.1,3335.5,M,22.0,M,,0000*63
$GPGSA,M,3,09,27,29,12,02,15,25,,,,,,2.7,1.1,2.5*39
$GPRMC,133846.000,A,1437.7173,S,07414.0912,W,24.31,172.54,180411,,,A*59
$GPGGA,133847.005,1437.7235,S,07414.0901,W,1,07,1.1,3333.7,M,22.0,M,,0000*60
$GPGSA,M,3,09,27,29,12,02,15,25,,,,,,2.7,1.1,2.5*39
$GPRMC,133847.005,A,1437.7235,S,07414.0901,W,22.76,171.95,180411,,,A*55
$GPGGA,133847.998,1437.7297,S,07414.0892,W,1,07,1.1,3333.5,M,22.0,M,,0000*6C
$GPGSA,M,3,09,27,29,12,02,15,25,,,,,,2.7,1.1,2.5*39
$GPRMC,133847.998,A,1437.7297,S,07414.0892,W,22.35,170.45,180411,,,A*50
$GPGGA,133848.998,1437.7360,S,07414.0883,W,1,05,1.4,3333.2,M,22.0,M,,0000*6A
$GPGSA,M,3,27,29,12,15,25,,,,,,,,3.9,1.4,3.7*3B
$GPRMC,133848.998,A,1437.7360,S,07414.0883,W,23.08,170.94,180411,,,A*55
$GPGGA,133850.002,1437.7420,S,07414.0871,W,1,07,1.1,3331.3,M,22.0,M,,0000*63
$GPGSA,M,3,09,27,29,12,02,15,25,,,,,,2.7,1.1,2.5*39
$GPGSV,3,1,11,09,66,126,32,27,56,080,39,29,52,301,41,12,37,179,38*7A
$GPGSV,3,2,11,02,33,099,37,15,33,357,34,25,28,227,40,14,18,228,40*72
$GPGSV,3,3,11,04,08,127,,26,04,020,,18,02,303,*48
$GPRMC,133850.002,A,1437.7420,S,07414.0871,W,22.80,169.72,180411,,,A*59
$GPGGA,133851.000,1437.7480,S,07414.0857,W,1,07,1.1,3330.4,M,22.0,M,,0000*68
$GPGSA,M,3,09,27,29,12,02,15,25,,,,,,2.7,1.1,2.5*39
$GPRMC,133851.000,A,1437.7480,S,07414.0857,W,22.97,165.49,180411,,,A*56
$GPGGA,133852.000,1437.7542,S,07414.0836,W,1,07,1.1,3330.2,M,22.0,M,,0000*65
$GPGSA,M,3,09,27,29,12,02,15,25,,,,,,2.7,1.1,2.5*39
$GPRMC,133852.000,A,1437.7542,S,07414.0836,W,23.48,159.51,180411,,,A*58
$GPGGA,133852.998,1437.7606,S,07414.0809,W,1,06,1.4,3329.9,M,22.0,M,,0000*65
$GPGSA,M,3,09,27,29,12,15,25,,,,,,,3.4,1.4,3.1*39
$GPRMC,133852.998,A,1437.7606,S,07414.0809,W,24.16,156.30,180411,,,A*5B
$GPGGA,133854.000,1437.7665,S,07414.0778,W,1,06,1.4,3328.4,M,22.0,M,,0000*6B
$GPGSA,M,3,09,27,29,12,15,25,,,,,,,3.4,1.4,3.1*39
$GPRMC,133854.000,A,1437.7665,S,07414.0778,W,24.51,150.51,180411,,,A*5B
$GPGGA,133855.002,1437.7724,S,07414.0739,W,1,07,1.1,3328.7,M,22.0,M,,0000*6E
$GPGSA,M,3,09,27,29,12,02,15,25,,,,,,2.7,1.1,2.5*39
$GPGSV,3,1,11,09,66,126,41,27,56,080,38,29,52,301,39,12,37,179,40*7F
$GPGSV,3,2,11,02,33,099,28,15,33,357,38,25,28,227,40,14,18,228,41*71
$GPGSV,3,3,11,04,08,127,,26,04,020,,18,02,303,*48
$GPRMC,133855.002,A,1437.7724,S,07414.0739,W,24.83,145.42,180411,,,A*50
$GPGGA,133856.000,1437.7779,S,07414.0700,W,1,07,1.1,3328.1,M,22.0,M,,0000*6B
$GPGSA,M,3,09,27,29,12,02,15,25,,,,,,2.7,1.1,2.5*39
$GPRMC,133856.000,A,1437.7779,S,07414.0700,W,24.01,144.30,180411,,,A*5D
$GPGGA,133856.999,1437.7831,S,07414.0663,W,1,07,1.1,3327.2,M,22.0,M,,0000*69
$GPGSA,M,3,09,27,29,12,02,15,25,,,,,,2.7,1.1,2.5*39
$GPRMC,133856.999,A,1437.7831,S,07414.0663,W,22.94,144.31,180411,,,A*58
$GPGGA,133858.000,1437.7884,S,07414.0625,W,1,07,1.1,3326.4,M,22.0,M,,0000*65
$GPGSA,M,3,09,27,29,12,02,15,25,,,,,,2.7,1.1,2.5*39
$GPRMC,133858.000,A,1437.7884,S,07414.0625,W,23.81,145.16,180411,,,A*52
$GPGGA,133858.996,1437.7936,S,07414.0583,W,1,07,1.1,3323.7,M,22.0,M,,0000*62
$GPGSA,M,3,09,27,29,12,02,15,25,,,,,,2.7,1.1,2.5*39
$GPRMC,133858.996,A,1437.7936,S,07414.0583,W,23.06,144.67,180411,,,A*5B
$GPGGA,133900.000,1437.7989,S,07414.0546,W,1,07,1.1,3323.0,M,22.0,M,,0000*62
$GPGSA,M,3,09,27,29,12,02,15,25,,,,,,2.7,1.1,2.5*39
$GPGSV,3,1,11,09,66,126,41,27,56,080,38,29,52,301,38,12,37,179,37*7E
$GPGSV,3,2,11,02,33,099,30,15,33,357,29,25,28,227,38,14,18,228,36*77
$GPGSV,3,3,11,04,08,127,,26,04,020,,18,02,303,*48
$GPRMC,133900.000,A,1437.7989,S,07414.0546,W,22.14,145.50,180411,,,A*5B
$GPGGA,133901.000,1437.8038,S,07414.0512,W,1,07,1.1,3320.5,M,22.0,M,,0000*68
$GPGSA,M,3,09,27,29,12,02,15,25,,,,,,2.7,1.1,2.5*39
$GPRMC,133901.000,A,1437.8038,S,07414.0512,W,22.15,148.35,180411,,,A*58
$GPGGA,133902.000,1437.8093,S,07414.0483,W,1,07,1.1,3320.8,M,22.0,M,,0000*6E
$GPGSA,M,3,09,27,29,12,02,15,25,,,,,,2.7,1.1,2.5*39
$GPRMC,133902.000,A,1437.8093,S,07414.0483,W,22.75,153.80,180411,,,A*51
$GPGGA,133903.000,1437.8151,S,07414.0453,W,1,07,1.1,3318.4,M,22.0,M,,0000*6A
$GPGSA,M,3,09,27,29,12,02,15,25,,,,,,2.7,1.1,2.5*39
$GPRMC,133903.000,A,1437.8151,S,07414.0453,W,22.46,158.17,180411,,,A*57
$GPGGA,133904.000,1437.8209,S,07414.0436,W,1,07,1.1,3319.5,M,22.0,M,,0000*60
$GPGSA,M,3,09,27,29,12,02,15,25,,,,,,2.7,1.1,2.5*39
$GPRMC,133904.000,A,1437.8209,S,07414.0436,W,22.53,160.81,180411,,,A*5D
$GPGGA,133905.000,1437.8268,S,07414.0413,W,1,07,1.1,3319.4,M,22.0,M,,0000*60
$GPGSA,M,3,09,27,29,12,02,15,25,,,,,,2.7,1.1,2.5*39
$GPGSV,3,1,11,09,66,126,37,27,56,080,38,29,52,301,37,12,37,179,39*7E
$GPGSV,3,2,11,02,33,099,38,15,33,357,36,25,28,227,42,14,18,228,39*73
$GPGSV,3,3,11,04,08,127,,26,04,020,,18,02,303,*48
$GPRMC,133905.000,A,1437.8268,S,07414.0413,W,21.31,158.23,180411,,,A*58
$GPGGA,133906.002,1437.8324,S,07414.0392,W,1,07,1.1,3320.6,M,22.0,M,,0000*6E
$GPGSA,M,3,09,27,29,12,02,15,25,,,,,,2.7,1.1,2.5*39
$GPRMC,133906.002,A,1437.8324,S,07414.0392,W,19.81,157.44,180411,,,A*50
$GPGGA,133907.000,1437.8371,S,07414.0367,W,1,07,1.1,3318.7,M,22.0,M,,0000*6D
$GPGSA,M,3,09,27,29,12,02,15,25,,,,,,2.7,1.1,2.5*39
$GPRMC,133907.000,A,1437.8371,S,07414.0367,W,19.35,153.33,180411,,,A*52
$GPGGA,133907.998,1437.8414,S,07414.0340,W,1,06,1.3,3318.0,M,22.0,M,,0000*60
$GPGSA,M,3,09,27,12,02,15,25,,,,,,,3.1,1.3,2.9*3B
$GPRMC,133907.998,A,1437.8414,S,07414.0340,W,18.57,150.09,180411,,,A*54
$GPGGA,133909.002,1437.8457,S,07414.0311,W,1,07,1.1,3318.8,M,22.0,M,,0000*6C
$GPGSA,M,3,09,27,29,12,02,15,25,,,,,,2.7,1.1,2.5*39
$GPRMC,133909.002,A,1437.8457,S,07414.0311,W,18.53,145.91,180411,,,A*52
$GPGGA,133910.000,1437.8487,S,07414.0256,W,1,07,1.1,3318.6,M,22.0,M,,0000*67
$GPGSA,M,3,09,27,29,12,02,15,25,,,,,,2.7,1.1,2.5*39
$GPGSV,3,1,11,09,66,126,40,27,56,080,38,29,52,301,39,12,37,179,38*71
$GPGSV,3,2,11,02,33,099,39,15,33,357,36,25,28,227,41,14,18,228,38*70
$GPGSV,3,3,11,04,08,127,38,26,04,020,,18,02,303,*43
$GPRMC,133910.000,A,1437.8487,S,07414.0256,W,19.90,133.63,180411,,,A*55
$GPGGA,133911.001,1437.8512,S,07414.0210,W,1,07,1.1,3318.4,M,22.0,M,,0000*6A
$GPGSA,M,3,09,27,29,12,02,15,25,,,,,,2.7,1.1,2.5*39
$GPRMC,133911.001,A,1437.8512,S,07414.0210,W,19.39,127.09,180411,,,A*50
$GPGGA,133911.998,1437.8518,S,07414.0162,W,1,07,1.1,3318.2,M,22.0,M,,0000*69
$GPGSA,M,3,09,27,29,12,02,15,25,,,,,,2.7,1.1,2.5*39
$GPRMC,133911.998,A,1437.8518,S,07414.0162,W,17.89,117.40,180411,,,A*5E
$GPGGA,133913.001,1437.8503,S,07414.0102,W,1,07,1.1,3317.0,M,22.0,M,,0000*63
$GPGSA,M,3,09,27,29,12,02,15,25,,,,,,2.7,1.1,2.5*39
$GPRMC,133913.001,A,1437.8503,S,07414.0102,W,19.03,105.16,180411,,,A*55
$GPGGA,133913.999,1437.8504,S,07414.0034,W,1,07,1.1,3316.3,M,22.0,M,,0000*6A
$GPGSA,M,3,09,27,29,12,02,15,25,,,,,,2.7,1.1,2.5*39
$GPRMC,133913.999,A,1437.8504,S,07414.0034,W,20.48,93.68,180411,,,A*6C
$GPGGA,133914.999,1437.8503,S,07413.9966,W,1,07,1.1,3315.9,M,22.0,M,,0000*63
$GPGSA,M,3,09,27,29,12,02,15,25,,,,,,2.7,1.1,2.5*39
$GPGSV,3,1,11,09,66,126,40,27,56,080,40,29,52,301,38,12,37,179,39*7E
$GPGSV,3,2,11,02,33,099,39,15,33,357,37,25,28,227,38,14,18,228,36*71
$GPGSV,3,3,11,04,08,127,41,26,04,020,,18,02,303,*4D
$GPRMC,133914.999,A,1437.8503,S,07413.9966,W,21.11,84.82,180411,,,A*63
$GPGGA,133916.002,1437.8489,S,07413.9903,W,1,07,1.1,3315.3,M,22.0,M,,0000*60
$GPGSA,M,3,09,27,29,12,02,15,25,,,,,,2.7,1.1,2.5*39
$GPRMC,133916.002,A,1437.8489,S,07413.9903,W,21.36,81.72,180411,,,A*65
$GPGGA,133916.996,1437.8477,S,07413.9844,W,1,06,1.6,3313.4,M,22.0,M,,0000*60
$GPGSA,M,3,09,27,29,12,02,25,,,,,,,3.6,1.6,3.2*3C
$GPRMC,133916.996,A,1437.8477,S,07413.9844,W,22.42,77.99,180411,,,A*6E
$GPGGA,133918.001,1437.8456,S,07413.9793,W,1,07,1.1,3313.2,M,22.0,M,,0000*6F
$GPGSA,M,3,09,27,29,12,02,15,25,,,,,,2.7,1.1,2.5*39
$GPRMC,133918.001,A,1437.8456,S,07413.9793,W,21.87,69.72,180411,,,A*61
$GPGGA,133919.003,1437.8422,S,07413.9734,W,1,07,1.1,3315.2,M,22.0,M,,0000*64
$GPGSA,M,3,09,27,29,12,02,15,25,,,,,,2.7,1.1,2.5*39
$GPRMC,133919.003,A,1437.8422,S,07413.9734,W,22.30,64.25,180411,,,A*6C
$GPGGA,133919.997,1437.8385,S,07413.9674,W,1,07,1.1,3314.5,M,22.0,M,,0000*69
$GPGSA,M,3,09,27,29,12,02,15,25,,,,,,2.7,1.1,2.5*39
$GPGSV,3,1,11,09,66,126,41,27,56,080,38,29,52,301,38,12,37,179,40*7E
$GPGSV,3,2,11,02,33,099,41,15,33,357,33,25,28,227,39,14,18,228,34*79
$GPGSV,3,3,11,04,08,127,40,26,04,020,,18,02,303,*4C
$GPRMC,133919.997,A,1437.8385,S,07413.9674,W,23.57,60.92,180411,,,A*6F
$GPGGA,133921.000,1437.8348,S,07413.9624,W,1,07,1.1,3315.3,M,22.0,M,,0000*66
$GPGSA,M,3,09,27,29,12,02,15,25,,,,,,2.7,1.1,2.5*39
$GPRMC,133921.000,A,1437.8348,S,07413.9624,W,22.71,55.47,180411,,,A*6C
$GPGGA,133922.003,1437.8307,S,07413.9566,W,1,07,1.1,3316.0,M,22.0,M,,0000*68
$GPGSA,M,3,09,27,29,12,02,15,25,,,,,,2.7,1.1,2.5*39
$GPRMC,133922.003,A,1437.8307,S,07413.9566,W,23.18,54.25,180411,,,A*69
$GPGGA,133922.998,1437.8271,S,07413.9520,W,1,07,1.1,3315.0,M,22.0,M,,0000*62
$GPGSA,M,3,09,27,29,12,02,15,25,,,,,,2.7,1.1,2.5*39
$GPRMC,133922.998,A,1437.8271,S,07413.9520,W,22.78,53.86,180411,,,A*69
$GPGGA,133923.999,1437.8228,S,07413.9464,W,1,07,1.1,3312.5,M,22.0,M,,0000*6D
$GPGSA,M,3,09,27,29,12,02,15,25,,,,,,2.7,1.1,2.5*39
$GPRMC,133923.999,A,1437.8228,S,07413.9464,W,22.09,52.12,180411,,,A*6E
$GPGGA,133925.002,1437.8180,S,07413.9409,W,1,07,1.1,3310.6,M,22.0,M,,0000*6B
$GPGSA,M,3,09,27,29,12,02,15,25,,,,,,2.7,1.1,2.5*39
$GPGSV,3,1,11,09,66,126,41,27,56,080,39,29,52,301,38,12,37,179,40*7F
$GPGSV,3,2,11,02,33,099,41,15,33,357,37,25,28,227,37,14,18,228,37*70
$GPGSV,3,3,11,04,08,127,40,26,04,020,,18,02,303,*4C
$GPRMC,133925.002,A,1437.8180,S,07413.9409,W,21.53,53.95,180411,,,A*6B
$GPGGA,133925.997,1437.8145,S,07413.9364,W,1,07,1.1,3309.0,M,22.0,M,,0000*65
$GPGSA,M,3,09,27,29,12,02,15,25,,,,,,2.7,1.1,2.5*39
$GPRMC,133925.997,A,1437.8145,S,07413.9364,W,21.84,53.60,180411,,,A*6B
$GPGGA,133927.000,1437.8114,S,07413.9312,W,1,07,1.1,3309.0,M,22.0,M,,0000*65
$GPGSA,M,3,09,27,29,12,02,15,25,,,,,,2.7,1.1,2.5*39
$GPRMC,133927.000,A,1437.8114,S,07413.9312,W,21.06,54.40,180411,,,A*64
$GPGGA,133928.000,1437.8080,S,07413.9261,W,1,07,1.1,3307.2,M,22.0,M,,0000*6F
$GPGSA,M,3,09,27,29,12,02,15,25,,,,,,2.7,1.1,2.5*39
$GPRMC,133928.000,A,1437.8080,S,07413.9261,W,21.91,55.18,180411,,,A*60
$GPGGA,133929.000,1437.8044,S,07413.9212,W,1,07,1.1,3306.8,M,22.0,M,,0000*69
$GPGSA,M,3,09,27,29,12,02,15,25,,,,,,2.7,1.1,2.5*39
$GPRMC,133929.000,A,1437.8044,S,07413.9212,W,20.17,55.81,180411,,,A*62
$GPGGA,133929.999,1437.8009,S,07413.9165,W,1,06,1.3,3304.4,M,22.0,M,,0000*67
$GPGSA,M,3,09,27,29,12,02,15,,,,,,,3.1,1.3,2.8*36
$GPGSV,3,1,11,09,66,126,41,27,56,080,39,29,52,301,35,12,37,179,41*73
$GPGSV,3,2,11,02,33,099,36,15,33,357,36,25,28,227,,14,18,228,35*77
$GPGSV,3,3,11,04,08,127,40,26,04,020,,18,02,303,*4C
$GPRMC,133929.999,A,1437.8009,S,07413.9165,W,19.31,58.04,180411,,,A*6F
$GPGGA,133931.002,1437.7977,S,07413.9124,W,1,07,1.1,3303.3,M,22.0,M,,0000*6C
$GPGSA,M,3,09,27,29,12,02,15,25,,,,,,2.7,1.1,2.5*39
$GPRMC,133931.002,A,1437.7977,S,07413.9124,W,17.96,56.17,180411,,,A*68
$GPGGA,133931.998,1437.7959,S,07413.9081,W,1,07,1.1,3303.1,M,22.0,M,,0000*66
$GPGSA,M,3,09,27,29,12,02,15,25,,,,,,2.7,1.1,2.5*39
$GPRMC,133931.998,A,1437.7959,S,07413.9081,W,17.96,65.49,180411,,,A*6B
$GPGGA,133933.000,1437.7952,S,07413.9042,W,1,07,1.1,3302.5,M,22.0,M,,0000*6D
$GPGSA,M,3,09,27,29,12,02,15,25,,,,,,2.7,1.1,2.5*39
$GPRMC,133933.000,A,1437.7952,S,07413.9042,W,16.39,70.88,180411,,,A*68
$GPGGA,133934.000,1437.7940,S,07413.9005,W,1,07,1.1,3300.2,M,22.0,M,,0000*6F
$GPGSA,M,3,09,27,29,12,02,15,25,,,,,,2.7,1.1,2.5*39
$GPRMC,133934.000,A,1437.7940,S,07413.9005,W,15.06,72.09,180411,,,A*6B
$GPGGA,133935.000,1437.7949,S,07413.8976,W,1,07,1.1,3299.4,M,22.0,M,,0000*6C
$GPGSA,M,3,09,27,29,12,02,15,25,,,,,,2.7,1.1,2.5*39
$GPGSV,3,1,11,09,66,126,41,27,56,080,40,29,52,301,31,12,37,179,41*79
$GPGSV,3,2,11,02,33,099,37,15,33,357,33,25,28,227,37,14,18,228,33*71
$GPGSV,3,3,11,04,08,127,39,26,04,020,,18,02,303,*42
$GPRMC,133935.000,A,1437.7949,S,07413.8976,W,12.02,81.88,180411,,,A*69
$GPGGA,133936.000,1437.7958,S,07413.8936,W,1,07,1.1,3298.5,M,22.0,M,,0000*6B
$GPGSA,M,3,09,27,29,12,02,15,25,,,,,,2.7,1.1,2.5*39
$GPRMC,133936.000,A,1437.7958,S,07413.8936,W,12.84,90.31,180411,,,A*62
$GPGGA,133937.000,1437.8008,S,07413.8883,W,1,07,1.1,3299.8,M,22.0,M,,0000*6A
$GPGSA,M,3,09,27,29,12,02,15,25,,,,,,2.7,1.1,2.5*39
$GPRMC,133937.000,A,1437.8008,S,07413.8883,W,16.16,106.39,180411,,,A*56
$GPGGA,133938.002,1437.8032,S,07413.8826,W,1,07,1.1,3297.3,M,22.0,M,,0000*64
$GPGSA,M,3,09,27,29,12,02,15,25,,,,,,2.7,1.1,2.5*39
$GPRMC,133938.002,A,1437.8032,S,07413.8826,W,19.48,105.91,180411,,,A*58
$GPGGA,133938.998,1437.8052,S,07413.8765,W,1,07,1.1,3295.9,M,22.0,M,,0000*68
$GPGSA,M,3,09,27,29,12,02,15,25,,,,,,2.7,1.1,2.5*39
$GPRMC,133938.998,A,1437.8052,S,07413.8765,W,20.21,101.83,180411,,,A*5E
$GPGGA,133940.000,1437.8064,S,07413.8708,W,1,07,1.1,3295.2,M,22.0,M,,0000*6A
$GPGSA,M,3,09,27,29,12,02,15,25,,,,,,2.7,1.1,2.5*39
$GPGSV,3,1,11,09,66,126,38,27,56,080,41,29,52,301,39,12,37,179,38*70
$GPGSV,3,2,11,02,33,099,39,15,33,357,31,25,28,227,39,14,18,228,35*75
$GPGSV,3,3,11,04,08,127,41,26,04,020,,18,02,303,*4D
$GPRMC,133940.000,A,1437.8064,S,07413.8708,W,19.85,100.82,180411,,,A*53
$GPGGA,133940.998,1437.8072,S,07413.8644,W,1,07,1.1,3296.5,M,22.0,M,,0000*68
$GPGSA,M,3,09,27,29,12,02,15,25,,,,,,2.7,1.1,2.5*39
$GPRMC,133940.998,A,1437.8072,S,07413.8644,W,20.43,97.67,180411,,,A*61
$GPGGA,133942.000,1437.8071,S,07413.8585,W,1,06,1.3,3295.1,M,22.0,M,,0000*6B
$GPGSA,M,3,09,27,12,02,15,25,,,,,,,3.1,1.3,2.8*3A
$GPRMC,133942.000,A,1437.8071,S,07413.8585,W,20.27,93.49,180411,,,A*6C
$GPGGA,133943.002,1437.8082,S,07413.8533,W,1,07,1.1,3294.0,M,22.0,M,,0000*6A
$GPGSA,M,3,09,27,29,12,02,15,25,,,,,,2.7,1.1,2.5*39
$GPRMC,133943.002,A,1437.8082,S,07413.8533,W,18.63,95.72,180411,,,A*6B
$GPGGA,133944.000,1437.8073,S,07413.8480,W,1,07,1.1,3295.0,M,22.0,M,,0000*69
$GPGSA,M,3,09,27,29,12,02,15,25,,,,,,2.7,1.1,2.5*39
$GPRMC,133944.000,A,1437.8073,S,07413.8480,W,16.72,90.84,180411,,,A*6B
$GPGGA,133944.998,1437.8057,S,07413.8418,W,1,07,1.1,3294.6,M,22.0,M,,0000*61
$GPGSA,M,3,09,27,29,12,02,15,25,,,,,,2.7,1.1,2.5*39
$GPGSV,3,1,11,09,66,126,40,27,56,080,40,29,52,301,36,12,37,179,40*7E
$GPGSV,3,2,11,02,33,099,40,15,33,357,33,25,28,227,39,14,18,228,*7F
$GPGSV,3,3,11,04,08,127,39,26,04,020,,18,02,303,*42
$GPRMC,133944.998,A,1437.8057,S,07413.8418,W,16.95,84.73,180411,,,A*60
$GPGGA,133946.002,1437.7982,S,07413.8384,W,1,07,1.1,3293.3,M,22.0,M,,0000*67
$GPGSA,M,3,09,27,29,12,02,15,25,,,,,,2.7,1.1,2.5*39
$GPRMC,133946.002,A,1437.7982,S,07413.8384,W,16.79,59.67,180411,,,A*63
$GPGGA,133947.000,1437.7921,S,07413.8358,W,1,07,1.1,3294.0,M,22.0,M,,0000*68
$GPGSA,M,3,09,27,29,12,02,15,25,,,,,,2.7,1.1,2.5*39
$GPRMC,133947.000,A,1437.7921,S,07413.8358,W,18.02,44.19,180411,,,A*6F
$GPGGA,133948.000,1437.7864,S,07413.8335,W,1,07,1.1,3291.6,M,22.0,M,,0000*6F
$GPGSA,M,3,09,27,29,12,02,15,25,,,,,,2.7,1.1,2.5*39
$GPRMC,133948.000,A,1437.7864,S,07413.8335,W,20.84,34.35,180411,,,A*67
$GPGGA,133949.000,1437.7807,S,07413.8306,W,1,07,1.1,3291.7,M,22.0,M,,0000*6A
$GPGSA,M,3,09,27,29,12,02,15,25,,,,,,2.7,1.1,2.5*39
$GPRMC,133949.000,A,1437.7807,S,07413.8306,W,20.68,29.74,180411,,,A*68
$GPGGA,133949.999,1437.7746,S,07413.8276,W,1,07,1.1,3291.2,M,22.0,M,,0000*6A
$GPGSA,M,3,09,27,29,12,02,15,25,,,,,,2.7,1.1,2.5*39
$GPGSV,3,1,11,09,66,126,40,27,56,080,41,29,52,301,38,12,37,179,29*7E
$GPGSV,3,2,11,02,33,099,40,15,33,357,30,25,28,227,36,14,18,228,28*79
$GPGSV,3,3,11,04,08,127,38,26,04,020,,18,02,303,*43
$GPRMC,133949.999,A,1437.7746,S,07413.8276,W,22.23,29.37,180411,,,A*67
$GPGGA,133951.003,1437.7688,S,07413.8243,W,1,07,1.1,3289.4,M,22.0,M,,0000*63
$GPGSA,M,3,09,27,29,12,02,15,25,,,,,,2.7,1.1,2.5*39
$GPRMC,133951.003,A,1437.7688,S,07413.8243,W,22.91,27.30,180411,,,A*61
$GPGGA,133951.999,1437.7631,S,07413.8212,W,1,07,1.1,3287.7,M,22.0,M,,0000*62
$GPGSA,M,3,09,27,29,12,02,15,25,,,,,,2.7,1.1,2.5*39
$GPRMC,133951.999,A,1437.7631,S,07413.8212,W,21.84,27.81,180411,,,A*60
$GPGGA,133952.996,1437.7592,S,07413.8177,W,1,07,1.1,3286.1,M,22.0,M,,0000*63
$GPGSA,M,3,09,27,29,12,02,15,25,,,,,,2.7,1.1,2.4*38
$GPRMC,133952.996,A,1437.7592,S,07413.8177,W,20.71,29.52,180411,,,A*6D
$GPGGA,133954.003,1437.7530,S,07413.8152,W,1,07,1.1,3284.7,M,22.0,M,,0000*6B
$GPGSA,M,3,09,27,29,12,02,15,25,,,,,,2.7,1.1,2.4*38
$GPRMC,133954.003,A,1437.7530,S,07413.8152,W,21.25,34.31,180411,,,A*68
$GPGGA,133954.999,1437.7488,S,07413.8123,W,1,06,1.6,3284.2,M,22.0,M,,0000*66
$GPGSA,M,3,09,27,29,12,02,25,,,,,,,3.6,1.6,3.2*3C
$GPGSV,3,1,11,09,66,126,41,27,56,080,39,29,52,301,37,12,37,179,40*70
$GPGSV,3,2,11,02,33,099,40,15,33,357,,25,28,227,40,14,18,228,28*7B
$GPGSV,3,3,11,04,08,127,40,26,04,020,,18,02,303,*4C
$GPRMC,133954.999,A,1437.7488,S,07413.8123,W,21.16,37.26,180411,,,A*63
$GPGGA,133955.997,1437.7442,S,07413.8085,W,1,07,1.1,3283.4,M,22.0,M,,0000*65
$GPGSA,M,3,09,27,29,12,02,15,25,,,,,,2.7,1.1,2.4*38
$GPRMC,133955.997,A,1437.7442,S,07413.8085,W,23.17,39.69,180411,,,A*61
$GPGGA,133957.003,1437.7385,S,07413.8048,W,1,07,1.1,3282.4,M,22.0,M,,0000*6F
$GPGSA,M,3,09,27,29,12,02,15,25,,,,,,2.7,1.1,2.4*38
$GPRMC,133957.003,A,1437.7385,S,07413.8048,W,23.20,38.97,180411,,,A*6E
$GPGGA,133958.000,1437.7338,S,07413.8009,W,1,07,1.1,3282.9,M,22.0,M,,0000*6D
$GPGSA,M,3,09,27,29,12,02,15,25,,,,,,2.7,1.1,2.4*38
$GPRMC,133958.000,A,1437.7338,S,07413.8009,W,21.94,39.98,180411,,,A*62
$GPGGA,133958.997,1437.7295,S,07413.7969,W,1,07,1.1,3281.9,M,22.0,M,,0000*6F
$GPGSA,M,3,09,27,29,12,02,15,25,,,,,,2.7,1.1,2.4*38
$GPRMC,133958.997,A,1437.7295,S,07413.7969,W,21.68,42.17,180411,,,A*6B
$GPGGA,134000.003,1437.7257,S,07413.7917,W,1,07,1.1,3282.7,M,22.0,M,,0000*62
$GPGSA,M,3,09,27,29,12,02,15,25,,,,,,2.7,1.1,2.4*38
$GPGSV,3,1,11,09,66,126,37,27,56,080,40,29,52,301,36,12,37,179,40*7E
$GPGSV,3,2,11,02,33,099,35,15,33,357,33,25,28,227,32,14,18,228,32*77
$GPGSV,3,3,11,04,08,127,33,26,04,020,,18,02,303,*48
$GPRMC,134000.003,A,1437.7257,S,07413.7917,W,20.88,47.52,180411,,,A*60
$GPGGA,134000.997,1437.7242,S,07413.7861,W,1,07,1.1,3282.6,M,22.0,M,,0000*63
$GPGSA,M,3,09,27,29,12,02,15,25,,,,,,2.7,1.1,2.4*38
$GPRMC,134000.997,A,1437.7242,S,07413.7861,W,19.37,57.86,180411,,,A*66
$GPGGA,134002.000,1437.7219,S,07413.7802,W,1,07,1.1,3282.7,M,22.0,M,,0000*6C
$GPGSA,M,3,09,27,29,12,02,15,25,,,,,,2.7,1.1,2.4*38
$GPRMC,134002.000,A,1437.7219,S,07413.7802,W,19.71,60.59,180411,,,A*6C
$GPGGA,134003.000,1437.7202,S,07413.7749,W,1,07,1.1,3282.9,M,22.0,M,,0000*69
$GPGSA,M,3,09,27,29,12,02,15,25,,,,,,2.7,1.1,2.4*38
$GPRMC,134003.000,A,1437.7202,S,07413.7749,W,20.19,59.58,180411,,,A*68
$GPGGA,134004.002,1437.7181,S,07413.7689,W,1,07,1.1,3283.4,M,22.0,M,,0000*65
$GPGSA,M,3,09,27,29,12,02,15,25,,,,,,2.7,1.1,2.4*38
$GPRMC,134004.002,A,1437.7181,S,07413.7689,W,20.69,61.50,180411,,,A*6C
$GPGGA,134005.000,1437.7169,S,07413.7626,W,1,07,1.1,3282.5,M,22.0,M,,0000*65
$GPGSA,M,3,09,27,29,12,02,15,25,,,,,,2.7,1.1,2.4*38
$GPGSV,3,1,12,09,67,122,37,27,55,077,41,29,53,299,36,12,37,178,37*72
$GPGSV,3,2,12,02,33,101,34,15,32,358,34,25,28,225,29,14,18,229,22*74
$GPGSV,3,3,12,04,08,128,36,26,03,021,,18,02,305,,21,00,335,*77
$GPRMC,134005.000,A,1437.7169,S,07413.7626,W,20.75,65.62,180411,,,A*64
$GPGGA,134006.001,1437.7153,S,07413.7555,W,1,07,1.1,3281.0,M,22.0,M,,0000*6F
$GPGSA,M,3,09,27,29,12,02,15,25,,,,,,2.7,1.1,2.4*38
$GPRMC,134006.001,A,1437.7153,S,07413.7555,W,22.73,68.65,180411,,,A*66
$GPGGA,134006.997,1437.7134,S,07413.7487,W,1,07,1.1,3281.8,M,22.0,M,,0000*6E
$GPGSA,M,3,09,27,29,12,02,15,25,,,,,,2.7,1.1,2.4*38
$GPRMC,134006.997,A,1437.7134,S,07413.7487,W,21.50,71.25,180411,,,A*61
$GPGGA,134008.000,1437.7115,S,07413.7430,W,1,07,1.1,3282.5,M,22.0,M,,0000*66
$GPGSA,M,3,09,27,29,12,02,15,25,,,,,,2.7,1.1,2.4*38
$GPRMC,134008.000,A,1437.7115,S,07413.7430,W,22.77,73.87,180411,,,A*6B
$GPGGA,134009.002,1437.7108,S,07413.7355,W,1,07,1.1,3283.8,M,22.0,M,,0000*61
$GPGSA,M,3,09,27,29,12,02,15,25,,,,,,2.7,1.1,2.4*38
$GPRMC,134009.002,A,1437.7108,S,07413.7355,W,23.08,73.72,180411,,,A*63
$GPGGA,134010.000,1437.7091,S,07413.7289,W,1,07,1.1,3283.8,M,22.0,M,,0000*6A
$GPGSA,M,3,09,27,29,12,02,15,25,,,,,,2.7,1.1,2.4*38
$GPGSV,3,1,12,09,67,122,40,27,55,077,40,29,53,299,35,12,37,178,40*70
$GPGSV,3,2,12,02,33,101,41,15,32,358,37,25,28,225,31,14,18,229,28*76
$GPGSV,3,3,12,04,08,128,39,26,03,021,,18,02,305,,21,00,335,*78
$GPRMC,134010.000,A,1437.7091,S,07413.7289,W,23.10,74.56,180411,,,A*60
$GPGGA,134011.000,1437.7076,S,07413.7226,W,1,07,1.1,3283.9,M,22.0,M,,0000*66
$GPGSA,M,3,09,27,29,12,02,15,25,,,,,,2.7,1.1,2.4*38
$GPRMC,134011.000,A,1437.7076,S,07413.7226,W,22.12,74.79,180411,,,A*63
$GPGGA,134012.000,1437.7058,S,07413.7164,W,1,07,1.1,3283.0,M,22.0,M,,0000*65
$GPGSA,M,3,09,27,29,12,02,15,25,,,,,,2.7,1.1,2.4*38
$GPRMC,134012.000,A,1437.7058,S,07413.7164,W,22.34,73.53,180411,,,A*62
$GPGGA,134013.000,1437.7041,S,07413.7100,W,1,07,1.1,3284.9,M,22.0,M,,0000*60
$GPGSA,M,3,09,27,29,12,02,15,25,,,,,,2.7,1.1,2.4*38
$GPRMC,134013.000,A,1437.7041,S,07413.7100,W,21.17,73.86,180411,,,A*63
$GPGGA,134013.999,1437.7028,S,07413.7041,W,1,07,1.1,3286.0,M,22.0,M,,0000*69
$GPGSA,M,3,09,27,29,12,02,15,25,,,,,,2.7,1.1,2.4*38
$GPRMC,134013.999,A,1437.7028,S,07413.7041,W,20.71,72.67,180411,,,A*6E
$GPGGA,134014.999,1437.7015,S,07413.6982,W,1,07,1.1,3288.2,M,22.0,M,,0000*6B
$GPGSA,M,3,09,27,29,12,02,15,25,,,,,,2.7,1.1,2.4*38
$GPGSV,3,1,12,09,67,122,41,27,55,077,41,29,53,299,33,12,37,178,42*74
$GPGSV,3,2,12,02,33,101,41,15,32,358,38,25,28,225,31,14,18,229,30*70
$GPGSV,3,3,12,04,08,128,41,26,03,021,,18,02,305,,21,00,335,*77
$GPRMC,134014.999,A,1437.7015,S,07413.6982,W,20.28,70.90,180411,,,A*66
$GPGGA,134015.998,1437.7002,S,07413.6923,W,1,06,1.3,3290.6,M,22.0,M,,0000*68
$GPGSA,M,3,09,27,29,12,02,15,,,,,,,3.1,1.3,2.8*36
$GPRMC,134015.998,A,1437.7002,S,07413.6923,W,21.18,67.58,180411,,,A*6B
$GPGGA,134017.002,1437.6977,S,07413.6860,W,1,07,1.1,3289.9,M,22.0,M,,0000*68
$GPGSA,M,3,09,27,29,12,02,15,25,,,,,,2.7,1.1,2.4*38
$GPRMC,134017.002,A,1437.6977,S,07413.6860,W,21.90,64.53,180411,,,A*67
$GPGGA,134017.998,1437.6956,S,07413.6810,W,1,06,1.3,3289.8,M,22.0,M,,0000*64
$GPGSA,M,3,09,27,29,12,02,15,,,,,,,3.1,1.3,2.8*36
$GPRMC,134017.998,A,1437.6956,S,07413.6810,W,19.90,63.53,180411,,,A*65
$GPGGA,134019.001,1437.6924,S,07413.6763,W,1,07,1.1,3290.0,M,22.0,M,,0000*6E
$GPGSA,M,3,09,27,29,12,02,15,25,,,,,,2.7,1.1,2.4*38
$GPRMC,134019.001,A,1437.6924,S,07413.6763,W,19.61,59.50,180411,,,A*68
$GPGGA,134020.000,1437.6908,S,07413.6714,W,1,07,1.1,3291.1,M,22.0,M,,0000*6B
$GPGSA,M,3,09,27,29,12,02,15,25,,,,,,2.7,1.1,2.4*38
$GPGSV,3,1,12,09,67,122,41,27,55,077,41,29,53,299,38,12,37,178,36*7C
$GPGSV,3,2,12,02,33,101,40,15,32,358,32,25,28,225,37,14,18,229,35*78
$GPGSV,3,3,12,04,08,128,41,26,03,021,,18,02,305,,21,00,335,*77
$GPRMC,134020.000,A,1437.6908,S,07413.6714,W,16.84,61.30,180411,,,A*64
$GPGGA,134021.000,1437.6846,S,07413.6690,W,1,07,1.1,3289.6,M,22.0,M,,0000*62
$GPGSA,M,3,09,27,29,12,02,15,25,,,,,,2.7,1.1,2.4*38
$GPRMC,134021.000,A,1437.6846,S,07413.6690,W,18.66,45.03,180411,,,A*67
$GPGGA,134022.000,1437.6824,S,07413.6652,W,1,07,1.1,3289.2,M,22.0,M,,0000*6F
$GPGSA,M,3,09,27,29,12,02,15,25,,,,,,2.7,1.1,2.4*38
$GPRMC,134022.000,A,1437.6824,S,07413.6652,W,18.67,48.08,180411,,,A*69
$GPGGA,134023.000,1437.6768,S,07413.6623,W,1,07,1.1,3289.6,M,22.0,M,,0000*6B
$GPGSA,M,3,09,27,29,12,02,15,25,,,,,,2.7,1.1,2.4*38
$GPRMC,134023.000,A,1437.6768,S,07413.6623,W,19.98,41.46,180411,,,A*6B
$GPGGA,134023.999,1437.6700,S,07413.6600,W,1,06,1.6,3291.6,M,22.0,M,,0000*62
$GPGSA,M,3,09,27,29,12,02,25,,,,,,,3.6,1.6,3.3*3D
$GPRMC,134023.999,A,1437.6700,S,07413.6600,W,21.83,34.20,180411,,,A*6E
$GPGGA,134025.000,1437.6627,S,07413.6574,W,1,07,1.1,3291.7,M,22.0,M,,0000*6E
$GPGSA,M,3,09,27,29,12,02,15,25,,,,,,2.7,1.1,2.4*38
$GPGSV,3,1,12,09,67,122,39,27,55,077,40,29,53,299,37,12,37,178,35*7E
$GPGSV,3,2,12,02,33,101,40,15,32,358,34,25,28,225,36,14,18,229,30*7A
$GPGSV,3,3,12,04,08,128,39,26,03,021,,18,02,305,,21,00,335,*78
$GPRMC,134025.000,A,1437.6627,S,07413.6574,W,24.23,32.56,180411,,,A*6D
$GPGGA,134026.000,1437.6564,S,07413.6535,W,1,07,1.1,3291.4,M,22.0,M,,0000*6F
$GPGSA,M,3,09,27,29,12,02,15,25,,,,,,2.7,1.1,2.4*38
$GPRMC,134026.000,A,1437.6564,S,07413.6535,W,24.71,34.74,180411,,,A*6E
$GPGGA,134027.000,1437.6508,S,07413.6495,W,1,07,1.1,3292.5,M,22.0,M,,0000*6D
$GPGSA,M,3,09,27,29,12,02,15,25,,,,,,2.7,1.1,2.4*38
$GPRMC,134027.000,A,1437.6508,S,07413.6495,W,25.34,33.42,180411,,,A*6C
$GPGGA,134027.998,1437.6456,S,07413.6441,W,1,06,1.6,3293.0,M,22.0,M,,0000*64
$GPGSA,M,3,09,27,29,12,02,25,,,,,,,3.6,1.6,3.3*3D
$GPRMC,134027.998,A,1437.6456,S,07413.6441,W,24.24,40.24,180411,,,A*63
$GPGGA,134029.002,1437.6411,S,07413.6379,W,1,07,1.1,3293.2,M,22.0,M,,0000*6B
$GPGSA,M,3,09,27,29,12,02,15,25,,,,,,2.7,1.1,2.4*38
$GPRMC,134029.002,A,1437.6411,S,07413.6379,W,24.11,42.66,180411,,,A*6A
$GPGGA,134030.000,1437.6357,S,07413.6330,W,1,07,1.1,3295.2,M,22.0,M,,0000*6F
$GPGSA,M,3,09,27,29,12,02,15,25,,,,,,2.7,1.1,2.4*38
$GPGSV,3,1,12,09,67,122,41,27,55,077,41,29,53,299,38,12,37,178,39*73
$GPGSV,3,2,12,02,33,101,41,15,32,358,30,25,28,225,41,14,18,229,34*7B
$GPGSV,3,3,12,04,08,128,38,26,03,021,,18,02,305,,21,00,335,*79
$GPRMC,134030.000,A,1437.6357,S,07413.6330,W,23.70,43.02,180411,,,A*6B
$GPGGA,134031.000,1437.6301,S,07413.6274,W,1,07,1.1,3293.0,M,22.0,M,,0000*68
$GPGSA,M,3,09,27,29,12,02,15,25,,,,,,2.7,1.1,2.4*38
$GPRMC,134031.000,A,1437.6301,S,07413.6274,W,23.96,44.55,180411,,,A*65
$GPGGA,134032.000,1437.6236,S,07413.6224,W,1,07,1.1,3290.6,M,22.0,M,,0000*6E
$GPGSA,M,3,09,27,29,12,02,15,25,,,,,,2.7,1.1,2.4*38
$GPRMC,134032.000,A,1437.6236,S,07413.6224,W,24.47,43.11,180411,,,A*6A
$GPGGA,134032.998,1437.6189,S,07413.6175,W,1,06,1.6,3289.5,M,22.0,M,,0000*6B
$GPGSA,M,3,09,27,29,12,02,25,,,,,,,3.6,1.6,3.3*3D
$GPRMC,134032.998,A,1437.6189,S,07413.6175,W,24.19,42.29,180411,,,A*63
$GPGGA,134034.000,1437.6137,S,07413.6131,W,1,06,1.6,3290.3,M,22.0,M,,0000*6E
$GPGSA,M,3,09,27,29,12,02,25,,,,,,,3.6,1.6,3.3*3D
$GPRMC,134034.000,A,1437.6137,S,07413.6131,W,24.07,40.72,180411,,,A*6B
$GPGGA,134035.002,1437.6081,S,07413.6086,W,1,07,1.1,3289.6,M,22.0,M,,0000*67
$GPGSA,M,3,09,27,29,12,02,15,25,,,,,,2.7,1.1,2.4*38
$GPGSV,3,1,12,09,67,122,41,27,55,077,40,29,53,299,37,12,37,178,39*7D
$GPGSV,3,2,12,02,33,101,40,15,32,358,20,25,28,225,38,14,18,229,30*71
$GPGSV,3,3,12,04,08,128,36,26,03,021,,18,02,305,,21,00,335,*77
$GPRMC,134035.002,A,1437.6081,S,07413.6086,W,24.15,42.17,180411,,,A*6B
$GPGGA,134036.000,1437.6034,S,07413.6040,W,1,07,1.1,3288.8,M,22.0,M,,0000*6D
$GPGSA,M,3,09,27,29,12,02,15,25,,,,,,2.7,1.1,2.4*38
$GPRMC,134036.000,A,1437.6034,S,07413.6040,W,24.54,45.84,180411,,,A*66
$GPGGA,134037.000,1437.5984,S,07413.5987,W,1,07,1.1,3290.0,M,22.0,M,,0000*6D
$GPGSA,M,3,09,27,29,12,02,15,25,,,,,,2.7,1.1,2.4*38
$GPRMC,134037.000,A,1437.5984,S,07413.5987,W,23.93,47.82,180411,,,A*6F
$GPGGA,134038.000,1437.5940,S,07413.5937,W,1,07,1.1,3289.8,M,22.0,M,,0000*61
$GPGSA,M,3,09,27,29,12,02,15,25,,,,,,2.7,1.1,2.4*38
$GPRMC,134038.000,A,1437.5940,S,07413.5937,W,23.40,53.63,180411,,,A*67
$GPGGA,134038.998,1437.5890,S,07413.5886,W,1,07,1.1,3288.7,M,22.0,M,,0000*60
$GPGSA,M,3,09,27,29,12,02,15,25,,,,,,2.7,1.1,2.4*38
$GPRMC,134038.998,A,1437.5890,S,07413.5886,W,24.82,57.89,180411,,,A*61
$GPGGA,134040.000,1437.5851,S,07413.5830,W,1,06,1.3,3289.2,M,22.0,M,,0000*60
$GPGSA,M,3,09,27,29,12,02,15,,,,,,,3.1,1.3,2.8*36
$GPGSV,3,1,12,09,67,122,41,27,55,077,41,29,53,299,36,12,37,178,41*72
$GPGSV,3,2,12,02,33,101,41,15,32,358,36,25,28,225,,14,18,229,34*78
$GPGSV,3,3,12,04,08,128,28,26,03,021,,18,02,305,,21,00,335,*78
$GPRMC,134040.000,A,1437.5851,S,07413.5830,W,23.65,61.45,180411,,,A*6D
$GPGGA,134041.002,1437.5811,S,07413.5777,W,1,07,1.1,3287.7,M,22.0,M,,0000*63
$GPGSA,M,3,09,27,29,12,02,15,25,,,,,,2.7,1.1,2.4*38
$GPRMC,134041.002,A,1437.5811,S,07413.5777,W,21.83,60.31,180411,,,A*6E
$GPGGA,134041.998,1437.5775,S,07413.5721,W,1,07,1.1,3287.8,M,22.0,M,,0000*68
$GPGSA,M,3,09,27,29,12,02,15,25,,,,,,2.7,1.1,2.4*38
$GPRMC,134041.998,A,1437.5775,S,07413.5721,W,22.09,54.41,180411,,,A*6B
$GPGGA,134043.000,1437.5732,S,07413.5674,W,1,06,1.6,3287.6,M,22.0,M,,0000*68
$GPGSA,M,3,09,27,29,12,02,25,,,,,,,3.6,1.6,3.3*3D
$GPRMC,134043.000,A,1437.5732,S,07413.5674,W,22.19,50.12,180411,,,A*60
$GPGGA,134044.000,1437.5688,S,07413.5626,W,1,07,1.1,3288.1,M,22.0,M,,0000*66
$GPGSA,M,3,09,27,29,12,02,15,25,,,,,,2.7,1.1,2.4*38
$GPRMC,134044.000,A,1437.5688,S,07413.5626,W,22.70,44.16,180411,,,A*6E
$GPGGA,134045.001,1437.5636,S,07413.5581,W,1,07,1.1,3290.0,M,22.0,M,,0000*65
$GPGSA,M,3,09,27,29,12,02,15,25,,,,,,2.7,1.1,2.4*38
$GPGSV,3,1,12,09,67,122,41,27,55,077,40,29,53,299,38,12,37,178,40*7C
$GPGSV,3,2,12,02,33,101,41,15,32,358,38,25,28,225,38,14,18,229,26*7E
$GPGSV,3,3,12,04,08,128,,26,03,021,,18,02,305,,21,00,335,*72
$GPRMC,134045.001,A,1437.5636,S,07413.5581,W,24.04,39.57,180411,,,A*6F
$GPGGA,134046.001,1437.5583,S,07413.5539,W,1,07,1.1,3288.4,M,22.0,M,,0000*65
$GPGSA,M,3,09,27,29,12,02,15,25,,,,,,2.7,1.1,2.4*38
$GPRMC,134046.001,A,1437.5583,S,07413.5539,W,24.82,34.97,180411,,,A*6D
$GPGGA,134046.998,1437.5524,S,07413.5503,W,1,07,1.1,3288.6,M,22.0,M,,0000*6A
$GPGSA,M,3,09,27,29,12,02,15,25,,,,,,2.7,1.1,2.4*38
$GPRMC,134046.998,A,1437.5524,S,07413.5503,W,25.34,32.35,180411,,,A*62
$GPGGA,134048.003,1437.5462,S,07413.5466,W,1,06,1.6,3289.7,M,22.0,M,,0000*68
$GPGSA,M,3,09,27,29,12,02,25,,,,,,,3.6,1.6,3.3*3D
$GPRMC,134048.003,A,1437.5462,S,07413.5466,W,24.71,32.27,180411,,,A*65
$GPGGA,134048.997,1437.5406,S,07413.5428,W,1,07,1.1,3288.6,M,22.0,M,,0000*62
$GPGSA,M,3,09,27,29,12,02,15,25,,,,,,2.7,1.1,2.4*38
$GPRMC,134048.997,A,1437.5406,S,07413.5428,W,25.28,29.66,180411,,,A*6B
$GPGGA,134050.000,1437.5346,S,07413.5395,W,1,07,1.1,3287.6,M,22.0,M,,0000*61
$GPGSA,M,3,09,27,29,12,02,15,25,,,,,,2.7,1.1,2.4*38
$GPGSV,3,1,12,09,67,122,41,27,55,077,40,29,53,299,37,12,37,178,36*72
$GPGSV,3,2,12,02,33,101,39,15,32,358,29,25,28,225,35,14,18,229,28*72
$GPGSV,3,3,12,04,08,128,,26,03,021,,18,02,305,,21,00,335,*72
$GPRMC,134050.000,A,1437.5346,S,07413.5395,W,23.85,31.19,180411,,,A*67
$GPGGA,134051.000,1437.5296,S,07413.5360,W,1,07,1.1,3288.2,M,22.0,M,,0000*6D
$GPGSA,M,3,09,27,29,12,02,15,25,,,,,,2.7,1.1,2.4*38
$GPRMC,134051.000,A,1437.5296,S,07413.5360,W,22.70,31.16,180411,,,A*64
$GPGGA,134052.000,1437.5240,S,07413.5329,W,1,07,1.1,3288.1,M,22.0,M,,0000*6B
$GPGSA,M,3,09,27,29,12,02,15,25,,,,,,2.7,1.1,2.4*38
$GPRMC,134052.000,A,1437.5240,S,07413.5329,W,22.98,27.73,180411,,,A*63
$GPGGA,134053.000,1437.5185,S,07413.5301,W,1,07,1.1,3286.8,M,22.0,M,,0000*6D
$GPGSA,M,3,09,27,29,12,02,15,25,,,,,,2.7,1.1,2.4*38
$GPRMC,134053.000,A,1437.5185,S,07413.5301,W,21.90,22.24,180411,,,A*6E
$GPGGA,134054.000,1437.5127,S,07413.5283,W,1,07,1.1,3286.5,M,22.0,M,,0000*64
$GPGSA,M,3,09,27,29,12,02,15,25,,,,,,2.7,1.1,2.4*38
$GPRMC,134054.000,A,1437.5127,S,07413.5283,W,21.24,14.75,180411,,,A*64
$GPGGA,134055.000,1437.5069,S,07413.5271,W,1,07,1.1,3286.1,M,22.0,M,,0000*67
$GPGSA,M,3,09,27,29,12,02,15,25,,,,,,2.7,1.1,2.4*38
$GPGSV,3,1,12,09,67,122,41,27,55,077,41,29,53,299,39,12,37,178,35*7E
$GPGSV,3,2,12,02,33,101,40,15,32,358,38,25,28,225,34,14,18,229,31*75
$GPGSV,3,3,12,04,08,128,,26,03,021,,18,02,305,,21,00,335,*72
$GPRMC,134055.000,A,1437.5069,S,07413.5271,W,21.11,10.14,180411,,,A*66
$GPGGA,134056.000,1437.5008,S,07413.5262,W,1,07,1.1,3284.9,M,22.0,M,,0000*6B
$GPGSA,M,3,09,27,29,12,02,15,25,,,,,,2.7,1.1,2.4*38
$GPRMC,134056.000,A,1437.5008,S,07413.5262,W,21.77,6.33,180411,,,A*52
$GPGGA,134057.002,1437.4950,S,07413.5257,W,1,07,1.1,3284.2,M,22.0,M,,0000*60
$GPGSA,M,3,09,27,29,12,02,15,25,,,,,,2.7,1.1,2.4*38
$GPRMC,134057.002,A,1437.4950,S,07413.5257,W,19.61,1.94,180411,,,A*54
$GPGGA,134057.998,1437.4898,S,07413.5251,W,1,07,1.1,3282.6,M,22.0,M,,0000*6B
$GPGSA,M,3,09,27,29,12,02,15,25,,,,,,2.7,1.1,2.4*38
$GPRMC,134057.998,A,1437.4898,S,07413.5251,W,17.63,5.85,180411,,,A*55
$GPGGA,134058.999,1437.4847,S,07413.5242,W,1,06,1.3,3282.3,M,22.0,M,,0000*63
$GPGSA,M,3,09,27,29,12,02,15,,,,,,,3.1,1.3,2.8*36
$GPRMC,134058.999,A,1437.4847,S,07413.5242,W,18.43,11.34,180411,,,A*69
$GPGGA,134100.000,1437.4798,S,07413.5235,W,1,06,1.6,3280.9,M,22.0,M,,0000*66
$GPGSA,M,3,09,27,29,12,02,25,,,,,,,3.6,1.6,3.3*3D
$GPGSV,3,1,12,09,67,122,40,27,55,077,40,29,53,299,39,12,37,178,36*7D
$GPGSV,3,2,12,02,33,101,40,15,32,358,,25,28,225,38,14,18,229,*70
$GPGSV,3,3,12,04,08,128,,26,03,021,,18,02,305,,21,00,335,*72
$GPRMC,134100.000,A,1437.4798,S,07413.5235,W,18.62,13.20,180411,,,A*65
$GPGGA,134101.000,1437.4749,S,07413.5222,W,1,07,1.1,3281.8,M,22.0,M,,0000*6B
$GPGSA,M,3,09,27,29,12,02,15,25,,,,,,2.7,1.1,2.4*38
$GPRMC,134101.000,A,1437.4749,S,07413.5222,W,18.12,14.13,180411,,,A*6E
$GPGGA,134102.000,1437.4704,S,07413.5203,W,1,07,1.1,3280.2,M,22.0,M,,0000*69
$GPGSA,M,3,09,27,29,12,02,15,25,,,,,,2.7,1.1,2.4*38
$GPRMC,134102.000,A,1437.4704,S,07413.5203,W,16.60,17.56,180411,,,A*6E
$GPGGA,134103.002,1437.4666,S,07413.5180,W,1,06,1.3,3278.0,M,22.0,M,,0000*61
$GPGSA,M,3,09,27,29,12,02,15,,,,,,,3.1,1.3,2.8*36
$GPRMC,134103.002,A,1437.4666,S,07413.5180,W,15.78,23.00,180411,,,A*6E
$GPGGA,134104.000,1437.4641,S,07413.5130,W,1,06,1.3,3277.7,M,22.0,M,,0000*62
$GPGSA,M,3,09,27,29,12,02,15,,,,,,,3.1,1.3,2.8*36
$GPRMC,134104.000,A,1437.4641,S,07413.5130,W,16.82,39.96,180411,,,A*67
$GPGGA,134104.998,1437.4620,S,07413.5086,W,1,07,1.1,3277.0,M,22.0,M,,0000*65
$GPGSA,M,3,09,27,29,12,02,15,25,,,,,,2.7,1.1,2.4*38
$GPGSV,3,1,12,09,67,122,41,27,55,077,39,29,53,299,38,12,37,178,40*72
$GPGSV,3,2,12,02,33,101,41,15,32,358,34,25,28,225,38,14,18,229,31*74
$GPGSV,3,3,12,04,08,128,,26,03,021,,18,02,305,,21,00,335,*72
$GPRMC,134104.998,A,1437.4620,S,07413.5086,W,17.99,53.66,180411,,,A*6C
$GPGGA,134106.002,1437.4591,S,07413.5045,W,1,06,1.6,3277.5,M,22.0,M,,0000*68
$GPGSA,M,3,09,27,29,12,02,25,,,,,,,3.7,1.6,3.3*3C
$GPRMC,134106.002,A,1437.4591,S,07413.5045,W,19.52,45.26,180411,,,A*68
$GPGGA,134106.998,1437.4560,S,07413.4994,W,1,07,1.1,3276.5,M,22.0,M,,0000*6F
$GPGSA,M,3,09,27,29,12,02,15,25,,,,,,2.7,1.1,2.4*38
$GPRMC,134106.998,A,1437.4560,S,07413.4994,W,19.87,39.14,180411,,,A*6A
$GPGGA,134107.999,1437.4511,S,07413.4960,W,1,07,1.1,3275.5,M,22.0,M,,0000*61
$GPGSA,M,3,09,27,29,12,02,15,25,,,,,,2.7,1.1,2.4*38
$GPRMC,134107.999,A,1437.4511,S,07413.4960,W,21.03,37.37,180411,,,A*6F
$GPGGA,134108.999,1437.4470,S,07413.4917,W,1,07,1.1,3276.0,M,22.0,M,,0000*6E
$GPGSA,M,3,09,27,29,12,02,15,25,,,,,,2.7,1.1,2.4*38
$GPRMC,134108.999,A,1437.4470,S,07413.4917,W,21.87,33.65,180411,,,A*69
$GPGGA,134109.999,1437.4422,S,07413.4880,W,1,07,1.1,3275.1,M,22.0,M,,0000*65
$GPGSA,M,3,09,27,29,12,02,15,25,,,,,,2.7,1.1,2.4*38
$GPGSV,3,1,12,09,67,122,41,27,55,077,41,29,53,299,38,12,37,178,36*7C
$GPGSV,3,2,12,02,33,101,39,15,32,358,29,25,28,225,33,14,18,229,25*79
$GPGSV,3,3,12,04,08,128,,26,03,021,,18,02,305,,21,00,335,*72
$GPRMC,134109.999,A,1437.4422,S,07413.4880,W,22.04,31.56,180411,,,A*6A
$GPGGA,134110.999,1437.4377,S,07413.4843,W,1,07,1.1,3275.4,M,22.0,M,,0000*60
$GPGSA,M,3,09,27,29,12,02,15,25,,,,,,2.7,1.1,2.4*38
$GPRMC,134110.999,A,1437.4377,S,07413.4843,W,22.49,30.62,180411,,,A*65
$GPGGA,134111.999,1437.4328,S,07413.4813,W,1,07,1.1,3275.1,M,22.0,M,,0000*6B
$GPGSA,M,3,09,27,29,12,02,15,25,,,,,,2.7,1.1,2.4*38
$GPRMC,134111.999,A,1437.4328,S,07413.4813,W,21.61,30.20,180411,,,A*64
$GPGGA,134112.999,1437.4279,S,07413.4778,W,1,07,1.1,3275.4,M,22.0,M,,0000*6A
$GPGSA,M,3,09,27,29,12,02,15,25,,,,,,2.7,1.1,2.4*38
$GPRMC,134112.999,A,1437.4279,S,07413.4778,W,21.57,29.18,180411,,,A*66
$GPGGA,134113.999,1437.4235,S,07413.4753,W,1,07,1.1,3275.4,M,22.0,M,,0000*6A
$GPGSA,M,3,09,27,29,12,02,15,25,,,,,,2.7,1.1,2.4*38
$GPRMC,134113.999,A,1437.4235,S,07413.4753,W,20.11,28.01,180411,,,A*6C
$GPGGA,134115.002,1437.4181,S,07413.4727,W,1,06,1.2,3274.7,M,22.0,M,,0000*68
$GPGSA,M,3,09,27,29,02,15,25,,,,,,,2.7,1.2,2.4*38
$GPGSV,3,1,12,09,67,122,41,27,55,077,41,29,53,299,40,12,37,178,*76
$GPGSV,3,2,12,02,33,101,40,15,32,358,37,25,28,225,34,14,18,229,34*7F
$GPGSV,3,3,12,04,08,128,,26,03,021,,18,02,305,,21,00,335,*72
$GPRMC,134115.002,A,1437.4181,S,07413.4727,W,21.49,24.34,180411,,,A*68
$GPGGA,134115.997,1437.4123,S,07413.4710,W,1,07,1.1,3273.5,M,22.0,M,,0000*66
$GPGSA,M,3,09,27,29,12,02,15,25,,,,,,2.7,1.1,2.4*38
$GPRMC,134115.997,A,1437.4123,S,07413.4710,W,20.85,19.42,180411,,,A*6F
$GPGGA,134117.000,1437.4071,S,07413.4688,W,1,07,1.1,3273.2,M,22.0,M,,0000*62
$GPGSA,M,3,09,27,29,12,02,15,25,,,,,,2.7,1.1,2.4*38
$GPRMC,134117.000,A,1437.4071,S,07413.4688,W,19.48,16.35,180411,,,A*68
$GPGGA,134118.002,1437.4011,S,07413.4680,W,1,07,1.1,3274.8,M,22.0,M,,0000*6C
$GPGSA,M,3,09,27,29,12,02,15,25,,,,,,2.7,1.1,2.4*38
$GPRMC,134118.002,A,1437.4011,S,07413.4680,W,20.66,13.07,180411,,,A*69
$GPGGA,134118.998,1437.3958,S,07413.4673,W,1,07,1.1,3275.8,M,22.0,M,,0000*68
$GPGSA,M,3,09,27,29,12,02,15,25,,,,,,2.6,1.1,2.4*39
$GPRMC,134118.998,A,1437.3958,S,07413.4673,W,19.73,10.95,180411,,,A*6A
$GPGGA,134120.000,1437.3901,S,07413.4666,W,1,07,1.1,3275.3,M,22.0,M,,0000*68
$GPGSA,M,3,09,27,29,12,02,15,25,,,,,,2.6,1.1,2.4*39
$GPGSV,3,1,12,09,67,122,40,27,55,077,40,29,53,299,38,12,37,178,37*7D
$GPGSV,3,2,12,02,33,101,40,15,32,358,38,25,28,225,36,14,18,229,32*74
$GPGSV,3,3,12,04,08,128,,26,03,021,,18,02,305,,21,00,335,*72
$GPRMC,134120.000,A,1437.3901,S,07413.4666,W,19.21,8.48,180411,,,A*5F
$GPGGA,134121.000,1437.3852,S,07413.4659,W,1,07,1.1,3275.7,M,22.0,M,,0000*66
$GPGSA,M,3,09,27,29,12,02,15,25,,,,,,2.6,1.1,2.4*39
$GPRMC,134121.000,A,1437.3852,S,07413.4659,W,18.62,6.42,180411,,,A*57
$GPGGA,134122.000,1437.3810,S,07413.4649,W,1,07,1.1,3276.5,M,22.0,M,,0000*63
$GPGSA,M,3,09,27,29,12,02,15,25,,,,,,2.6,1.1,2.4*39
$GPRMC,134122.000,A,1437.3810,S,07413.4649,W,17.21,4.24,180411,,,A*59
$GPGGA,134123.000,1437.3770,S,07413.4638,W,1,07,1.1,3276.3,M,22.0,M,,0000*6B
$GPGSA,M,3,09,27,29,12,02,15,25,,,,,,2.6,1.1,2.4*39
$GPRMC,134123.000,A,1437.3770,S,07413.4638,W,15.63,6.19,180411,,,A*5F
$GPGGA,134124.000,1437.3721,S,07413.4636,W,1,07,1.1,3276.1,M,22.0,M,,0000*64
$GPGSA,M,3,09,27,29,12,02,15,25,,,,,,2.6,1.1,2.4*39
$GPRMC,134124.000,A,1437.3721,S,07413.4636,W,14.64,11.18,180411,,,A*63
$GPGGA,134125.000,1437.3687,S,07413.4626,W,1,07,1.1,3276.0,M,22.0,M,,0000*68
$GPGSA,M,3,09,27,29,12,02,15,25,,,,,,2.6,1.1,2.4*39
$GPGSV,3,1,12,09,67,122,40,27,55,077,41,29,53,299,41,12,37,178,37*72
$GPGSV,3,2,12,02,33,101,38,15,32,358,38,25,28,225,33,14,18,229,23*7E
$GPGSV,3,3,12,04,08,128,,26,03,021,,18,02,305,,21,00,335,*72
$GPRMC,134125.000,A,1437.3687,S,07413.4626,W,13.83,19.73,180411,,,A*65
$GPGGA,134126.000,1437.3652,S,07413.4609,W,1,07,1.1,3275.8,M,22.0,M,,0000*65
$GPGSA,M,3,09,27,29,12,02,15,25,,,,,,2.6,1.1,2.4*39
$GPRMC,134126.000,A,1437.3652,S,07413.4609,W,13.89,25.60,180411,,,A*64
$GPGGA,134127.001,1437.3621,S,07413.4585,W,1,06,1.6,3273.5,M,22.0,M,,0000*6B
$GPGSA,M,3,09,27,29,12,02,25,,,,,,,3.7,1.6,3.3*3C
$GPRMC,134127.001,A,1437.3621,S,07413.4585,W,14.57,33.65,180411,,,A*61
$GPGGA,134127.999,1437.3588,S,07413.4558,W,1,07,1.1,3273.4,M,22.0,M,,0000*64
$GPGSA,M,3,09,27,29,12,02,15,25,,,,,,2.6,1.1,2.4*39
$GPRMC,134127.999,A,1437.3588,S,07413.4558,W,15.22,39.05,180411,,,A*66
$GPGGA,134128.999,1437.3565,S,07413.4531,W,1,07,1.1,3272.2,M,22.0,M,,0000*60
$GPGSA,M,3,09,27,29,12,02,15,25,,,,,,2.6,1.1,2.4*39
$GPRMC,134128.999,A,1437.3565,S,07413.4531,W,13.92,43.86,180411,,,A*6E
$GPGGA,134129.999,1437.3546,S,07413.4496,W,1,07,1.1,3272.3,M,22.0,M,,0000*6D
$GPGSA,M,3,09,27,29,12,02,15,25,,,,,,2.6,1.1,2.4*39
$GPGSV,3,1,12,09,67,122,41,27,55,077,38,29,53,299,39,12,37,178,40*72
$GPGSV,3,2,12,02,33,101,38,15,32,358,37,25,28,225,40,14,18,229,37*70
$GPGSV,3,3,12,04,08,128,,26,03,021,,18,02,305,,21,00,335,*72
$GPRMC,134129.999,A,1437.3546,S,07413.4496,W,13.39,50.17,180411,,,A*69
$GPGGA,134131.001,1437.3526,S,07413.4465,W,1,06,1.4,3271.7,M,22.0,M,,0000*65
$GPGSA,M,3,09,27,29,12,15,25,,,,,,,3.2,1.4,2.9*36
$GPRMC,134131.001,A,1437.3526,S,07413.4465,W,12.59,52.86,180411,,,A*6F
$GPGGA,134131.998,1437.3564,S,07413.4431,W,1,07,1.1,3271.3,M,22.0,M,,0000*6B
$GPGSA,M,3,09,27,29,12,02,15,25,,,,,,2.6,1.1,2.4*39
$GPRMC,134131.998,A,1437.3564,S,07413.4431,W,8.86,85.89,180411,,,A*5D
$GPGGA,134133.000,1437.3625,S,07413.4397,W,1,07,1.1,3271.2,M,22.0,M,,0000*6D
$GPGSA,M,3,09,27,29,12,02,15,25,,,,,,2.6,1.1,2.4*39
$GPRMC,134133.000,A,1437.3625,S,07413.4397,W,10.08,126.85,180411,,,A*51
$GPGGA,134134.000,1437.3656,S,07413.4373,W,1,07,1.1,3271.7,M,22.0,M,,0000*61
$GPGSA,M,3,09,27,29,12,02,15,25,,,,,,2.6,1.1,2.4*39
$GPRMC,134134.000,A,1437.3656,S,07413.4373,W,10.90,136.23,180411,,,A*54
$GPGGA,134135.000,1437.3684,S,07413.4340,W,1,07,1.1,3270.6,M,22.0,M,,0000*6F
$GPGSA,M,3,09,27,29,12,02,15,25,,,,,,2.6,1.1,2.4*39
$GPGSV,3,1,12,09,67,122,39,27,55,077,39,29,53,299,37,12,37,178,40*72
$GPGSV,3,2,12,02,33,101,35,15,32,358,34,25,28,225,41,14,18,229,37*7F
$GPGSV,3,3,12,04,08,128,,26,03,021,,18,02,305,,21,00,335,*72
$GPRMC,134135.000,A,1437.3684,S,07413.4340,W,12.48,135.81,180411,,,A*56
$GPGGA,134136.000,1437.3724,S,07413.4320,W,1,07,1.1,3269.5,M,22.0,M,,0000*6A
$GPGSA,M,3,09,27,29,12,02,15,25,,,,,,2.6,1.1,2.4*39
$GPRMC,134136.000,A,1437.3724,S,07413.4320,W,13.33,145.77,180411,,,A*5B
$GPGGA,134137.000,1437.3800,S,07413.4296,W,1,07,1.1,3271.7,M,22.0,M,,0000*65
$GPGSA,M,3,09,27,29,12,02,15,25,,,,,,2.6,1.1,2.4*39
$GPRMC,134137.000,A,1437.3800,S,07413.4296,W,17.86,155.25,180411,,,A*53
$GPGGA,134138.001,1437.3842,S,07413.4274,W,1,07,1.1,3270.8,M,22.0,M,,0000*6F
$GPGSA,M,3,09,27,29,12,02,15,25,,,,,,2.6,1.1,2.4*39
$GPRMC,134138.001,A,1437.3842,S,07413.4274,W,17.28,151.62,180411,,,A*54
$GPGGA,134138.999,1437.3903,S,07413.4244,W,1,07,1.1,3271.8,M,22.0,M,,0000*61
$GPGSA,M,3,09,27,29,12,02,15,25,,,,,,2.6,1.1,2.4*39
$GPRMC,134138.999,A,1437.3903,S,07413.4244,W,16.76,146.50,180411,,,A*56
$GPGGA,134139.999,1437.3937,S,07413.4220,W,1,07,1.1,3270.3,M,22.0,M,,0000*6F
$GPGSA,M,3,09,27,29,12,02,15,25,,,,,,2.6,1.1,2.4*39
$GPGSV,3,1,12,09,67,122,41,27,55,077,40,29,53,299,36,12,37,178,41*73
$GPGSV,3,2,12,02,33,101,31,15,32,358,36,25,28,225,39,14,18,229,41*77
$GPGSV,3,3,12,04,08,128,,26,03,021,,18,02,305,,21,00,335,*72
$GPRMC,134139.999,A,1437.3937,S,07413.4220,W,16.15,139.38,180411,,,A*51
$GPGGA,134140.998,1437.3976,S,07413.4191,W,1,07,1.1,3271.9,M,22.0,M,,0000*67
$GPGSA,M,3,09,27,29,12,02,15,25,,,,,,2.6,1.1,2.4*39
$GPRMC,134140.998,A,1437.3976,S,07413.4191,W,16.48,137.75,180411,,,A*5D
$GPGGA,134142.000,1437.4009,S,07413.4151,W,1,07,1.1,3272.1,M,22.0,M,,0000*6C
$GPGSA,M,3,09,27,29,12,02,15,25,,,,,,2.6,1.1,2.4*39
$GPRMC,134142.000,A,1437.4009,S,07413.4151,W,18.09,132.11,180411,,,A*51
$GPGGA,134143.001,1437.4046,S,07413.4105,W,1,07,1.1,3273.0,M,22.0,M,,0000*66
$GPGSA,M,3,09,27,29,12,02,15,25,,,,,,2.6,1.1,2.4*39
$GPRMC,134143.001,A,1437.4046,S,07413.4105,W,17.83,129.59,180411,,,A*50
$GPGGA,134144.003,1437.4074,S,07413.4054,W,1,07,1.1,3272.6,M,22.0,M,,0000*60
$GPGSA,M,3,09,27,29,12,02,15,25,,,,,,2.6,1.1,2.4*39
$GPRMC,134144.003,A,1437.4074,S,07413.4054,W,17.66,122.53,180411,,,A*5B
$GPGGA,134144.996,1437.4104,S,07413.4006,W,1,07,1.1,3273.4,M,22.0,M,,0000*67
$GPGSA,M,3,09,27,29,12,02,15,25,,,,,,2.6,1.1,2.4*39
$GPGSV,3,1,12,09,67,122,40,27,55,077,39,29,53,299,38,12,37,178,38*7C
$GPGSV,3,2,12,02,33,101,38,15,32,358,36,25,28,225,41,14,18,229,37*70
$GPGSV,3,3,12,04,08,128,,26,03,021,,18,02,305,,21,00,335,*72
$GPRMC,134144.996,A,1437.4104,S,07413.4006,W,19.70,119.11,180411,,,A*58
$GPGGA,134146.001,1437.4105,S,07413.3948,W,1,07,1.1,3274.4,M,22.0,M,,0000*60
$GPGSA,M,3,09,27,29,12,02,15,25,,,,,,2.6,1.1,2.4*39
$GPRMC,134146.001,A,1437.4105,S,07413.3948,W,18.75,108.66,180411,,,A*5C
$GPGGA,134147.003,1437.4089,S,07413.3879,W,1,07,1.1,3275.4,M,22.0,M,,0000*64
$GPGSA,M,3,09,27,29,12,02,15,25,,,,,,2.6,1.1,2.4*39
$GPRMC,134147.003,A,1437.4089,S,07413.3879,W,20.57,93.36,180411,,,A*64
$GPGGA,134147.996,1437.4086,S,07413.3811,W,1,07,1.1,3273.0,M,22.0,M,,0000*62
$GPGSA,M,3,09,27,29,12,02,15,25,,,,,,2.6,1.1,2.4*39
$GPRMC,134147.996,A,1437.4086,S,07413.3811,W,20.41,92.09,180411,,,A*6A
$GPGGA,134149.004,1437.4075,S,07413.3747,W,1,07,1.1,3273.8,M,22.0,M,,0000*66
$GPGSA,M,3,09,27,29,12,02,15,25,,,,,,2.6,1.1,2.4*39
$GPRMC,134149.004,A,1437.4075,S,07413.3747,W,21.66,90.49,180411,,,A*64
$GPGGA,134149.996,1437.4087,S,07413.3688,W,1,07,1.1,3273.9,M,22.0,M,,0000*6A
$GPGSA,M,3,09,27,29,12,02,15,25,,,,,,2.6,1.1,2.4*39
$GPGSV,3,1,12,09,67,122,39,27,55,077,41,29,53,299,37,12,37,178,41*7C
$GPGSV,3,2,12,02,33,101,38,15,32,358,38,25,28,225,41,14,18,229,35*7C
$GPGSV,3,3,12,04,08,128,,26,03,021,,18,02,305,,21,00,335,*72
$GPRMC,134149.996,A,1437.4087,S,07413.3688,W,21.93,85.81,180411,,,A*63
$GPGGA,134151.000,1437.4080,S,07413.3624,W,1,07,1.1,3273.5,M,22.0,M,,0000*68
$GPGSA,M,3,09,27,29,12,02,15,25,,,,,,2.6,1.1,2.4*39
$GPRMC,134151.000,A,1437.4080,S,07413.3624,W,20.96,84.78,180411,,,A*6E
$GPGGA,134152.004,1437.4076,S,07413.3562,W,1,07,1.1,3272.7,M,22.0,M,,0000*64
$GPGSA,M,3,09,27,29,12,02,15,25,,,,,,2.6,1.1,2.4*39
$GPRMC,134152.004,A,1437.4076,S,07413.3562,W,20.17,80.52,180411,,,A*64
$GPGGA,134152.996,1437.4067,S,07413.3510,W,1,07,1.1,3271.8,M,22.0,M,,0000*6F
$GPGSA,M,3,09,27,29,12,02,15,25,,,,,,2.6,1.1,2.4*39
$GPRMC,134152.996,A,1437.4067,S,07413.3510,W,19.37,76.93,180411,,,A*6F
$GPGGA,134154.002,1437.4051,S,07413.3459,W,1,06,1.6,3273.8,M,22.0,M,,0000*60
$GPGSA,M,3,09,27,29,12,02,25,,,,,,,3.7,1.6,3.3*3C
$GPRMC,134154.002,A,1437.4051,S,07413.3459,W,19.28,73.94,180411,,,A*68
$GPGGA,134155.000,1437.4036,S,07413.3408,W,1,06,1.6,3274.9,M,22.0,M,,0000*60
$GPGSA,M,3,09,27,29,12,02,25,,,,,,,3.7,1.6,3.3*3C
$GPGSV,3,1,12,09,67,122,39,27,55,077,41,29,53,299,32,12,37,178,39*76
$GPGSV,3,2,12,02,33,101,41,15,32,358,,25,28,225,34,14,18,229,30*7E
$GPGSV,3,3,12,04,08,128,,26,03,021,,18,02,305,,21,00,335,*72
$GPRMC,134155.000,A,1437.4036,S,07413.3408,W,17.61,74.57,180411,,,A*65
$GPGGA,134155.998,1437.4026,S,07413.3362,W,1,07,1.1,3274.8,M,22.0,M,,0000*65
$GPGSA,M,3,09,27,29,12,02,15,25,,,,,,2.6,1.1,2.4*39
$GPRMC,134155.998,A,1437.4026,S,07413.3362,W,16.73,72.56,180411,,,A*62
$GPGGA,134157.000,1437.4020,S,07413.3313,W,1,07,1.1,3274.2,M,22.0,M,,0000*65
$GPGSA,M,3,09,27,29,12,02,15,25,,,,,,2.6,1.1,2.4*39
$GPRMC,134157.000,A,1437.4020,S,07413.3313,W,15.52,77.73,180411,,,A*6A
$GPGGA,134158.004,1437.4011,S,07413.3267,W,1,07,1.1,3275.6,M,22.0,M,,0000*6B
$GPGSA,M,3,09,27,29,12,02,15,25,,,,,,2.6,1.1,2.4*39
$GPRMC,134158.004,A,1437.4011,S,07413.3267,W,15.23,79.16,180411,,,A*6A
$GPGGA,134158.996,1437.4006,S,07413.3228,W,1,07,1.1,3277.4,M,22.0,M,,0000*64
$GPGSA,M,3,09,27,29,12,02,15,25,,,,,,2.6,1.1,2.4*39
$GPRMC,134158.996,A,1437.4006,S,07413.3228,W,13.90,81.41,180411,,,A*6E
$GPGGA,134200.000,1437.3996,S,07413.3192,W,1,07,1.1,3275.7,M,22.0,M,,0000*68
$GPGSA,M,3,09,27,29,12,02,15,25,,,,,,2.6,1.1,2.4*39
$GPGSV,3,1,12,09,67,122,39,27,55,077,40,29,53,299,34,12,37,178,41*7E
$GPGSV,3,2,12,02,33,101,27,15,32,358,34,25,28,225,41,14,18,229,40*7C
$GPGSV,3,3,12,04,08,128,,26,03,021,,18,02,305,,21,00,335,*72
$GPRMC,134200.000,A,1437.3996,S,07413.3192,W,13.07,81.23,180411,,,A*69
$GPGGA,134201.002,1437.4005,S,07413.3159,W,1,06,1.4,3276.0,M,22.0,M,,0000*68
$GPGSA,M,3,09,27,29,12,15,25,,,,,,,3.2,1.4,2.9*36
$GPRMC,134201.002,A,1437.4005,S,07413.3159,W,11.43,89.88,180411,,,A*62
$GPGGA,134202.007,1437.4047,S,07413.3132,W,1,07,1.1,3276.0,M,22.0,M,,0000*61
$GPGSA,M,3,09,27,29,12,02,15,25,,,,,,2.6,1.1,2.4*39
$GPRMC,134202.007,A,1437.4047,S,07413.3132,W,11.78,118.55,180411,,,A*5E
$GPGGA,134202.991,1437.4070,S,07413.3106,W,1,07,1.1,3276.8,M,22.0,M,,0000*6C
$GPGSA,M,3,09,27,29,12,02,15,25,,,,,,2.6,1.1,2.4*39
$GPRMC,134202.991,A,1437.4070,S,07413.3106,W,10.81,129.89,180411,,,A*5F
$GPGGA,134204.000,1437.4112,S,07413.3085,W,1,07,1.1,3276.9,M,22.0,M,,0000*65
$GPGSA,M,3,09,27,29,12,02,15,25,,,,,,2.6,1.1,2.4*39
$GPRMC,134204.000,A,1437.4112,S,07413.3085,W,12.73,140.57,180411,,,A*54
$GPGGA,134205.002,1437.4169,S,07413.3068,W,1,07,1.1,3279.6,M,22.0,M,,0000*69
$GPGSA,M,3,09,27,29,12,02,15,25,,,,,,2.6,1.1,2.4*39
$GPGSV,3,1,12,09,67,122,37,27,55,077,40,29,53,299,39,12,37,178,41*7D
$GPGSV,3,2,12,02,33,101,38,15,32,358,37,25,28,225,40,14,18,229,38*7F
$GPGSV,3,3,12,04,08,128,,26,03,021,,18,02,305,,21,00,335,*72
$GPRMC,134205.002,A,1437.4169,S,07413.3068,W,15.57,153.16,180411,,,A*5E
$GPGGA,134205.998,1437.4204,S,07413.3048,W,1,07,1.1,3279.5,M,22.0,M,,0000*6A
$GPGSA,M,3,09,27,29,12,02,15,25,,,,,,2.6,1.1,2.4*39
$GPRMC,134205.998,A,1437.4204,S,07413.3048,W,15.92,157.23,180411,,,A*55
$GPGGA,134207.000,1437.4268,S,07413.3045,W,1,07,1.1,3275.3,M,22.0,M,,0000*6D
$GPGSA,M,3,09,27,29,12,02,15,25,,,,,,2.6,1.1,2.4*39
$GPRMC,134207.000,A,1437.4268,S,07413.3045,W,16.34,166.55,180411,,,A*54
$GPGGA,134208.000,1437.4316,S,07413.3028,W,1,07,1.1,3274.7,M,22.0,M,,0000*64
$GPGSA,M,3,09,27,29,12,02,15,25,,,,,,2.6,1.1,2.4*39
$GPRMC,134208.000,A,1437.4316,S,07413.3028,W,16.80,165.17,180411,,,A*52
$GPGGA,134209.000,1437.4369,S,07413.3057,W,1,07,1.1,3272.5,M,22.0,M,,0000*61
