$GPGGA,203329.000,3254.3626,S,06849.1538,W,1,04,7.0,730.4,M,29.6,M,,0000*59
$GPGSA,M,3,22,11,24,18,,,,,,,,,7.6,7.0,3.0*34
$GPGSV,3,1,12,03,79,334,11,06,67,026,,19,61,221,14,22,53,137,26*7E
$GPGSV,3,2,12,14,40,064,,11,21,242,30,16,19,339,,32,19,313,*72
$GPGSV,3,3,12,18,18,133,32,24,13,256,24,30,04,355,,21,00,090,*77
$GPRMC,203329.000,A,3254.3626,S,06849.1538,W,1.31,10.60,080511,,,A*5C
$GPGGA,203330.000,3254.3624,S,06849.1538,W,1,04,7.0,730.9,M,29.6,M,,0000*5E
$GPGSA,M,3,22,11,24,18,,,,,,,,,7.6,7.0,3.0*34
$GPRMC,203330.000,A,3254.3624,S,06849.1538,W,1.09,13.95,080511,,,A*54
$GPGGA,203331.000,3254.3612,S,06849.1537,W,1,05,3.4,731.8,M,29.6,M,,0000*54
$GPGSA,M,3,22,11,24,03,18,,,,,,,,4.5,3.4,3.0*37
$GPRMC,203331.000,A,3254.3612,S,06849.1537,W,1.00,13.70,080511,,,A*5D
$GPGGA,203332.000,3254.3606,S,06849.1537,W,1,05,3.4,732.5,M,29.6,M,,0000*5C
$GPGSA,M,3,22,11,24,03,18,,,,,,,,4.5,3.4,3.0*37
$GPRMC,203332.000,A,3254.3606,S,06849.1537,W,0.56,18.11,080511,,,A*55
$GPGGA,203333.000,3254.3602,S,06849.1536,W,1,05,3.4,733.2,M,29.6,M,,0000*5E
$GPGSA,M,3,22,11,24,03,18,,,,,,,,4.5,3.4,3.0*37
$GPRMC,203333.000,A,3254.3602,S,06849.1536,W,0.26,33.43,080511,,,A*58
$GPGGA,203334.000,3254.3602,S,06849.1537,W,1,05,3.4,733.8,M,29.6,M,,0000*52
$GPGSA,M,3,22,11,24,03,18,,,,,,,,4.5,3.4,3.0*37
$GPGSV,3,1,12,03,79,334,14,06,67,026,,19,61,221,15,22,53,137,27*7B
$GPGSV,3,2,12,14,40,064,,11,21,242,32,16,19,339,,32,19,313,*70
$GPGSV,3,3,12,18,18,133,34,24,13,256,26,30,04,355,,21,00,090,*73
$GPRMC,203334.000,A,3254.3602,S,06849.1537,W,0.08,131.94,080511,,,A*6B
$GPGGA,203335.000,3254.3604,S,06849.1538,W,1,04,7.0,734.7,M,29.6,M,,0000*53
$GPGSA,M,3,22,11,24,18,,,,,,,,,7.6,7.0,3.0*34
$GPRMC,203335.000,A,3254.3604,S,06849.1538,W,0.03,137.35,080511,,,A*65
$GPGGA,203336.000,3254.3594,S,06849.1537,W,1,05,3.4,735.4,M,29.6,M,,0000*56
$GPGSA,M,3,22,11,24,03,18,,,,,,,,4.5,3.4,3.0*37
$GPRMC,203336.000,A,3254.3594,S,06849.1537,W,0.78,9.75,080511,,,A*67
$GPGGA,203337.000,3254.3589,S,06849.1537,W,1,05,3.4,736.1,M,29.6,M,,0000*5D
$GPGSA,M,3,22,11,24,03,18,,,,,,,,4.5,3.4,3.0*37
$GPRMC,203337.000,A,3254.3589,S,06849.1537,W,1.45,9.72,080511,,,A*62
$GPGGA,203338.000,3254.3594,S,06849.1538,W,1,05,3.4,737.0,M,29.6,M,,0000*51
$GPGSA,M,3,22,11,24,03,18,,,,,,,,4.5,3.4,3.0*37
$GPRMC,203338.000,A,3254.3594,S,06849.1538,W,1.54,10.11,080511,,,A*53
$GPGGA,203339.000,3254.3598,S,06849.1540,W,1,05,3.4,737.7,M,29.6,M,,0000*54
$GPGSA,M,3,22,11,24,03,18,,,,,,,,4.5,3.4,3.0*37
$GPGSV,3,1,12,03,79,334,15,06,67,026,,19,61,221,14,22,53,137,28*74
$GPGSV,3,2,12,14,40,064,,11,21,242,32,16,19,339,,32,19,313,*70
$GPGSV,3,3,12,18,18,133,34,24,13,256,27,30,04,355,,21,00,090,*72
$GPRMC,203339.000,A,3254.3598,S,06849.1540,W,1.71,8.08,080511,,,A*67
$GPGGA,203340.000,3254.3596,S,06849.1540,W,1,05,3.4,738.3,M,29.6,M,,0000*5F
$GPGSA,M,3,22,11,24,03,18,,,,,,,,4.5,3.4,3.0*37
$GPRMC,203340.000,A,3254.3596,S,06849.1540,W,2.08,8.04,080511,,,A*66
$GPGGA,203341.000,3254.3592,S,06849.1540,W,1,04,7.0,738.8,M,29.6,M,,0000*50
$GPGSA,M,3,22,11,24,18,,,,,,,,,7.6,7.0,3.0*34
$GPRMC,203341.000,A,3254.3592,S,06849.1540,W,1.96,7.95,080511,,,A*60
$GPGGA,203342.000,3254.3586,S,06849.1538,W,1,05,6.8,737.9,M,29.6,M,,0000*5F
$GPGSA,M,3,22,11,24,18,19,,,,,,,,7.1,6.8,2.1*32
$GPRMC,203342.000,A,3254.3586,S,06849.1538,W,0.87,7.81,080511,,,A*6D
$GPGGA,203343.000,3254.3597,S,06849.1540,W,1,06,2.5,738.0,M,29.6,M,,0000*5D
$GPGSA,M,3,22,11,24,03,18,19,,,,,,,3.2,2.5,2.0*3E
$GPRMC,203343.000,A,3254.3597,S,06849.1540,W,0.69,19.53,080511,,,A*53
$GPGGA,203344.000,3254.3589,S,06849.1537,W,1,05,6.8,736.3,M,29.6,M,,0000*52
$GPGSA,M,3,22,11,24,18,19,,,,,,,,7.1,6.8,2.1*32
$GPGSV,3,1,12,03,79,334,16,06,67,026,,19,61,221,13,22,53,137,29*71
$GPGSV,3,2,12,14,40,064,17,11,21,242,33,16,19,339,,32,19,313,*77
$GPGSV,3,3,12,18,18,133,34,24,13,256,26,30,04,355,,21,00,090,*73
$GPRMC,203344.000,A,3254.3589,S,06849.1537,W,0.63,21.26,080511,,,A*58
$GPGGA,203345.000,3254.3586,S,06849.1534,W,1,06,2.5,733.9,M,29.6,M,,0000*5A
$GPGSA,M,3,22,11,24,03,18,19,,,,,,,3.2,2.5,2.0*3E
$GPRMC,203345.000,A,3254.3586,S,06849.1534,W,0.55,28.19,080511,,,A*55
$GPGGA,203346.000,3254.3594,S,06849.1537,W,1,06,2.5,734.7,M,29.6,M,,0000*50
$GPGSA,M,3,22,11,24,03,18,19,,,,,,,3.2,2.5,2.0*3E
$GPRMC,203346.000,A,3254.3594,S,06849.1537,W,0.71,21.50,080511,,,A*54
$GPGGA,203347.000,3254.3595,S,06849.1540,W,1,05,6.8,735.3,M,29.6,M,,0000*5F
$GPGSA,M,3,22,11,24,18,19,,,,,,,,7.1,6.8,2.1*32
$GPRMC,203347.000,A,3254.3595,S,06849.1540,W,0.80,18.19,080511,,,A*5D
$GPGGA,203348.000,3254.3593,S,06849.1540,W,1,04,7.0,735.2,M,29.6,M,,0000*5F
$GPGSA,M,3,22,11,24,18,,,,,,,,,7.6,7.0,3.0*34
$GPRMC,203348.000,A,3254.3593,S,06849.1540,W,0.15,48.11,080511,,,A*55
$GPGGA,203349.000,3254.3591,S,06849.1541,W,1,04,7.0,735.0,M,29.6,M,,0000*5F
$GPGSA,M,3,22,11,24,18,,,,,,,,,7.6,7.0,3.0*34
$GPGSV,3,1,12,03,78,335,17,06,66,026,,19,61,221,14,22,53,137,29*76
$GPGSV,3,2,12,14,41,064,17,11,22,242,33,32,19,312,,16,19,339,*74
$GPGSV,3,3,12,18,17,133,34,24,13,255,26,30,04,355,,21,00,090,*7F
$GPRMC,203349.000,A,3254.3591,S,06849.1541,W,0.20,46.31,080511,,,A*5D
$GPGGA,203350.000,3254.3588,S,06849.1541,W,1,04,7.0,734.8,M,29.6,M,,0000*56
$GPGSA,M,3,22,11,24,18,,,,,,,,,7.6,7.0,3.0*34
$GPRMC,203350.000,A,3254.3588,S,06849.1541,W,0.97,14.09,080511,,,A*5D
$GPGGA,203351.000,3254.3583,S,06849.1542,W,1,04,7.0,734.6,M,29.6,M,,0000*51
$GPGSA,M,3,22,11,24,18,,,,,,,,,7.6,7.0,3.0*34
$GPRMC,203351.000,A,3254.3583,S,06849.1542,W,1.25,9.61,080511,,,A*6E
$GPGGA,203352.000,3254.3579,S,06849.1542,W,1,04,7.0,734.3,M,29.6,M,,0000*52
$GPGSA,M,3,22,11,24,18,,,,,,,,,7.6,7.0,3.0*34
$GPRMC,203352.000,A,3254.3579,S,06849.1542,W,0.83,15.50,080511,,,A*5A
$GPGGA,203353.000,3254.3589,S,06849.1542,W,1,05,3.4,733.7,M,29.6,M,,0000*5E
$GPGSA,M,3,22,11,24,03,18,,,,,,,,4.5,3.4,3.0*37
$GPRMC,203353.000,A,3254.3589,S,06849.1542,W,0.85,22.29,080511,,,A*58
$GPGGA,203354.000,3254.3594,S,06849.1543,W,1,05,3.4,733.6,M,29.6,M,,0000*55
$GPGSA,M,3,22,11,24,03,18,,,,,,,,4.5,3.4,3.0*37
$GPGSV,3,1,12,03,78,335,19,06,66,026,,19,61,221,16,22,53,137,29*7A
$GPGSV,3,2,12,14,41,064,16,11,22,242,33,32,19,312,,16,19,339,*75
$GPGSV,3,3,12,18,17,133,34,24,13,255,25,30,04,355,,21,00,090,*7C
$GPRMC,203354.000,A,3254.3594,S,06849.1543,W,0.72,26.42,080511,,,A*53
$GPGGA,203355.000,3254.3593,S,06849.1545,W,1,07,1.4,734.6,M,29.6,M,,0000*52
$GPGSA,M,3,22,14,11,24,03,18,19,,,,,,2.1,1.4,1.6*3E
$GPRMC,203355.000,A,3254.3593,S,06849.1545,W,1.62,11.05,080511,,,A*54
$GPGGA,203356.000,3254.3604,S,06849.1548,W,1,07,1.4,735.8,M,29.6,M,,0000*5E
$GPGSA,M,3,22,14,11,24,03,18,19,,,,,,2.1,1.4,1.6*3E
$GPRMC,203356.000,A,3254.3604,S,06849.1548,W,1.74,12.77,080511,,,A*56
$GPGGA,203357.000,3254.3617,S,06849.1552,W,1,06,1.6,737.1,M,29.6,M,,0000*5E
$GPGSA,M,3,22,14,11,24,03,18,,,,,,,2.5,1.6,1.9*3F
$GPRMC,203357.000,A,3254.3617,S,06849.1552,W,0.83,19.52,080511,,,A*5B
$GPGGA,203358.000,3254.3627,S,06849.1554,W,1,06,1.6,737.5,M,29.6,M,,0000*50
$GPGSA,M,3,22,14,11,24,03,18,,,,,,,2.5,1.6,1.9*3F
$GPRMC,203358.000,A,3254.3627,S,06849.1554,W,1.02,19.67,080511,,,A*5F
$GPGGA,203359.000,3254.3633,S,06849.1556,W,1,08,1.3,738.5,M,29.6,M,,0000*52
$GPGSA,M,3,22,14,11,06,24,03,18,19,,,,,2.0,1.3,1.5*3D
$GPGSV,3,1,12,03,78,335,20,06,66,026,17,19,61,221,18,22,53,137,29*78
$GPGSV,3,2,12,14,41,064,15,11,22,242,33,32,19,312,,16,19,339,*76
$GPGSV,3,3,12,18,17,133,34,24,13,255,25,30,04,355,,21,00,090,*7C
$GPRMC,203359.000,A,3254.3633,S,06849.1556,W,1.21,16.93,080511,,,A*5C
$GPGGA,203400.000,3254.3624,S,06849.1552,W,1,07,1.4,737.6,M,29.6,M,,0000*5F
$GPGSA,M,3,22,14,11,24,03,18,19,,,,,,2.1,1.4,1.6*3E
$GPRMC,203400.000,A,3254.3624,S,06849.1552,W,1.71,17.90,080511,,,A*52
$GPGGA,203401.000,3254.3627,S,06849.1553,W,1,08,1.3,738.3,M,29.6,M,,0000*5E
$GPGSA,M,3,22,14,11,06,24,03,18,19,,,,,2.0,1.3,1.5*3D
$GPRMC,203401.000,A,3254.3627,S,06849.1553,W,1.76,16.78,080511,,,A*51
$GPGGA,203402.000,3254.3618,S,06849.1550,W,1,07,1.4,737.8,M,29.6,M,,0000*5E
$GPGSA,M,3,22,14,11,24,03,18,19,,,,,,2.1,1.4,1.6*3E
$GPRMC,203402.000,A,3254.3618,S,06849.1550,W,1.92,15.14,080511,,,A*5E
$GPGGA,203403.000,3254.3613,S,06849.1547,W,1,08,1.3,736.4,M,29.6,M,,0000*57
$GPGSA,M,3,22,14,11,06,24,03,18,19,,,,,2.0,1.3,1.5*3D
$GPRMC,203403.000,A,3254.3613,S,06849.1547,W,1.94,16.52,080511,,,A*55
$GPGGA,203404.000,3254.3610,S,06849.1546,W,1,07,1.4,736.6,M,29.6,M,,0000*58
$GPGSA,M,3,22,14,11,24,03,18,19,,,,,,2.1,1.4,1.6*3E
$GPGSV,3,1,12,03,78,335,20,06,66,026,16,19,61,221,19,22,53,137,30*70
$GPGSV,3,2,12,14,41,065,14,11,22,242,33,32,19,312,,16,19,340,*78
$GPGSV,3,3,12,18,17,133,34,24,13,255,26,30,04,355,,21,00,090,*7F
$GPRMC,203404.000,A,3254.3610,S,06849.1546,W,2.38,14.61,080511,,,A*57
$GPGGA,203405.000,3254.3606,S,06849.1543,W,1,08,1.3,735.9,M,29.6,M,,0000*5F
$GPGSA,M,3,22,14,11,06,24,03,18,19,,,,,2.0,1.3,1.5*3D
$GPRMC,203405.000,A,3254.3606,S,06849.1543,W,1.69,15.88,080511,,,A*55
$GPGGA,203406.000,3254.3600,S,06849.1541,W,1,07,1.4,735.4,M,29.6,M,,0000*5D
$GPGSA,M,3,22,14,11,24,03,18,19,,,,,,2.1,1.4,1.6*3E
$GPRMC,203406.000,A,3254.3600,S,06849.1541,W,1.72,19.18,080511,,,A*5D
$GPGGA,203407.000,3254.3598,S,06849.1540,W,1,08,1.3,735.0,M,29.6,M,,0000*53
$GPGSA,M,3,22,14,11,06,24,03,18,19,,,,,2.0,1.3,1.5*3D
$GPRMC,203407.000,A,3254.3598,S,06849.1540,W,1.29,22.12,080511,,,A*53
$GPGGA,203408.000,3254.3599,S,06849.1540,W,1,07,1.4,735.3,M,29.6,M,,0000*56
$GPGSA,M,3,22,14,11,24,03,18,19,,,,,,2.1,1.4,1.6*3E
$GPRMC,203408.000,A,3254.3599,S,06849.1540,W,1.38,14.95,080511,,,A*57
$GPGGA,203409.000,3254.3600,S,06849.1541,W,1,08,1.3,735.8,M,29.6,M,,0000*56
$GPGSA,M,3,22,14,11,06,24,03,18,19,,,,,2.0,1.3,1.5*3D
$GPGSV,3,1,12,03,78,335,21,06,66,026,14,19,61,221,20,22,53,137,30*79
$GPGSV,3,2,12,14,41,065,13,11,22,242,33,32,19,312,,16,19,340,*7F
$GPGSV,3,3,12,18,17,133,34,24,13,255,26,30,04,355,,21,00,090,*7F
$GPRMC,203409.000,A,3254.3600,S,06849.1541,W,0.88,21.28,080511,,,A*5E
$GPGGA,203410.000,3254.3605,S,06849.1542,W,1,07,1.4,736.2,M,29.6,M,,0000*59
$GPGSA,M,3,22,14,11,24,03,18,19,,,,,,2.1,1.4,1.6*3E
$GPRMC,203410.000,A,3254.3605,S,06849.1542,W,0.41,29.19,080511,,,A*5F
$GPGGA,203411.000,3254.3606,S,06849.1541,W,1,06,2.5,735.8,M,29.6,M,,0000*52
$GPGSA,M,3,22,11,24,03,18,19,,,,,,,3.2,2.5,2.0*3E
$GPRMC,203411.000,A,3254.3606,S,06849.1541,W,0.30,33.91,080511,,,A*53
$GPGGA,203412.000,3254.3609,S,06849.1540,W,1,06,2.5,734.9,M,29.6,M,,0000*5F
$GPGSA,M,3,22,11,24,03,18,19,,,,,,,3.2,2.5,2.0*3E
$GPRMC,203412.000,A,3254.3609,S,06849.1540,W,0.34,162.00,080511,,,A*67
$GPGGA,203413.000,3254.3614,S,06849.1540,W,1,06,2.5,734.8,M,29.6,M,,0000*53
$GPGSA,M,3,22,11,24,03,18,19,,,,,,,3.2,2.5,2.0*3E
$GPRMC,203413.000,A,3254.3614,S,06849.1540,W,0.24,36.29,080511,,,A*50
$GPGGA,203414.000,3254.3618,S,06849.1540,W,1,06,2.5,734.5,M,29.6,M,,0000*55
$GPGSA,M,3,22,11,24,03,18,19,,,,,,,3.2,2.5,2.0*3E
$GPGSV,3,1,12,03,78,335,21,06,66,026,,19,61,221,22,22,53,137,31*7F
$GPGSV,3,2,12,14,41,065,,11,22,242,33,32,19,312,,16,19,340,*7D
$GPGSV,3,3,12,18,17,133,34,24,13,255,26,30,04,355,,21,00,090,*7F
$GPRMC,203414.000,A,3254.3618,S,06849.1540,W,0.50,19.00,080511,,,A*5E
$GPGGA,203415.000,3254.3622,S,06849.1541,W,1,06,2.5,735.0,M,29.6,M,,0000*58
$GPGSA,M,3,22,11,24,03,18,19,,,,,,,3.2,2.5,2.0*3E
$GPRMC,203415.000,A,3254.3622,S,06849.1541,W,0.76,16.41,080511,,,A*59
$GPGGA,203416.000,3254.3627,S,06849.1542,W,1,06,2.5,735.7,M,29.6,M,,0000*5A
$GPGSA,M,3,22,11,24,03,18,19,,,,,,,3.2,2.5,2.0*3E
$GPRMC,203416.000,A,3254.3627,S,06849.1542,W,0.15,160.16,080511,,,A*6B
$GPGGA,203417.000,3254.3642,S,06849.1545,W,1,06,2.5,736.3,M,29.6,M,,0000*58
$GPGSA,M,3,22,11,24,03,18,19,,,,,,,3.2,2.5,2.0*3E
$GPRMC,203417.000,A,3254.3642,S,06849.1545,W,1.46,184.51,080511,,,A*60
$GPGGA,203418.000,3254.3650,S,06849.1547,W,1,06,2.5,736.6,M,29.6,M,,0000*53
$GPGSA,M,3,22,11,24,03,18,19,,,,,,,3.2,2.5,2.0*3E
$GPRMC,203418.000,A,3254.3650,S,06849.1547,W,0.86,186.36,080511,,,A*60
$GPGGA,203419.000,3254.3656,S,06849.1547,W,1,06,2.5,736.2,M,29.6,M,,0000*50
$GPGSA,M,3,22,11,24,03,18,19,,,,,,,3.2,2.5,2.0*3E
$GPGSV,3,1,12,03,78,336,20,06,66,026,,19,61,221,23,22,52,137,31*7D
$GPGSV,3,2,12,14,41,065,,11,22,242,34,32,19,312,,16,18,340,*7B
$GPGSV,3,3,12,18,17,133,34,24,13,255,26,30,04,355,,21,00,090,*7F
$GPRMC,203419.000,A,3254.3656,S,06849.1547,W,0.71,180.90,080511,,,A*65
$GPGGA,203420.000,3254.3661,S,06849.1548,W,1,06,2.5,736.7,M,29.6,M,,0000*54
$GPGSA,M,3,22,11,24,03,18,19,,,,,,,3.2,2.5,2.0*3E
$GPRMC,203420.000,A,3254.3661,S,06849.1548,W,0.05,135.24,080511,,,A*66
$GPGGA,203421.000,3254.3688,S,06849.1553,W,1,06,2.5,737.2,M,29.6,M,,0000*5C
$GPGSA,M,3,22,11,24,03,18,19,,,,,,,3.2,2.5,2.0*3E
$GPRMC,203421.000,A,3254.3688,S,06849.1553,W,1.85,186.60,080511,,,A*6B
$GPGGA,203422.000,3254.3693,S,06849.1551,W,1,06,2.5,735.9,M,29.6,M,,0000*5E
$GPGSA,M,3,22,11,24,03,18,19,,,,,,,3.2,2.5,2.0*3E
$GPRMC,203422.000,A,3254.3693,S,06849.1551,W,2.27,186.00,080511,,,A*6D
$GPGGA,203423.000,3254.3683,S,06849.1549,W,1,06,2.5,735.6,M,29.6,M,,0000*58
$GPGSA,M,3,22,11,24,03,18,19,,,,,,,3.2,2.5,2.0*3E
$GPRMC,203423.000,A,3254.3683,S,06849.1549,W,0.46,178.57,080511,,,A*62
$GPGGA,203424.000,3254.3682,S,06849.1548,W,1,06,2.5,734.8,M,29.6,M,,0000*50
$GPGSA,M,3,22,11,24,03,18,19,,,,,,,3.2,2.5,2.0*3E
$GPGSV,3,1,12,03,78,336,19,06,66,026,,19,61,221,24,22,52,137,31*70
$GPGSV,3,2,12,14,41,065,,11,22,242,34,32,19,312,,16,18,340,*7B
$GPGSV,3,3,12,18,17,133,34,24,13,255,26,30,04,355,,21,00,090,*7F
$GPRMC,203424.000,A,3254.3682,S,06849.1548,W,0.37,174.34,080511,,,A*6A
$GPGGA,203425.000,3254.3669,S,06849.1544,W,1,06,2.5,733.9,M,29.6,M,,0000*5E
$GPGSA,M,3,22,11,24,03,18,19,,,,,,,3.2,2.5,2.0*3E
$GPRMC,203425.000,A,3254.3669,S,06849.1544,W,0.62,19.71,080511,,,A*59
$GPGGA,203426.000,3254.3673,S,06849.1544,W,1,06,2.5,733.4,M,29.6,M,,0000*5B
$GPGSA,M,3,22,11,24,03,18,19,,,,,,,3.2,2.5,2.0*3E
$GPRMC,203426.000,A,3254.3673,S,06849.1544,W,0.28,157.56,080511,,,A*61
$GPGGA,203427.000,3254.3673,S,06849.1544,W,1,05,6.9,733.5,M,29.6,M,,0000*50
$GPGSA,M,3,22,11,24,18,19,,,,,,,,7.2,6.9,2.1*30
$GPRMC,203427.000,A,3254.3673,S,06849.1544,W,0.39,22.51,080511,,,A*54
$GPGGA,203428.000,3254.3689,S,06849.1548,W,1,06,2.5,734.6,M,29.6,M,,0000*59
$GPGSA,M,3,22,11,24,03,18,19,,,,,,,3.2,2.5,2.0*3E
$GPRMC,203428.000,A,3254.3689,S,06849.1548,W,0.29,25.52,080511,,,A*57
$GPGGA,203429.000,3254.3690,S,06849.1548,W,1,05,6.9,735.0,M,29.6,M,,0000*5C
$GPGSA,M,3,22,11,24,18,19,,,,,,,,7.2,6.9,2.1*30
$GPGSV,3,1,12,03,78,336,19,06,66,026,,19,61,221,24,22,52,137,31*70
$GPGSV,3,2,12,14,41,065,,11,22,242,34,32,19,312,,16,18,340,*7B
$GPGSV,3,3,12,18,17,133,34,24,13,255,26,30,04,355,,21,00,090,*7F
$GPRMC,203429.000,A,3254.3690,S,06849.1548,W,0.15,35.44,080511,,,A*57
$GPGGA,203430.000,3254.3710,S,06849.1552,W,1,06,2.5,735.7,M,29.6,M,,0000*5A
$GPGSA,M,3,22,11,24,03,18,19,,,,,,,3.2,2.5,2.0*3E
$GPRMC,203430.000,A,3254.3710,S,06849.1552,W,1.13,183.66,080511,,,A*66
$GPGGA,203431.000,3254.3722,S,06849.1554,W,1,07,1.7,736.2,M,29.6,M,,0000*5A
$GPGSA,M,3,22,06,11,24,03,18,19,,,,,,2.5,1.7,1.8*34
$GPRMC,203431.000,A,3254.3722,S,06849.1554,W,1.83,187.03,080511,,,A*6E
$GPGGA,203432.000,3254.3741,S,06849.1560,W,1,07,1.7,737.7,M,29.6,M,,0000*5F
$GPGSA,M,3,22,06,11,24,03,18,19,,,,,,2.5,1.7,1.8*34
$GPRMC,203432.000,A,3254.3741,S,06849.1560,W,2.20,187.72,080511,,,A*63
$GPGGA,203433.000,3254.3747,S,06849.1561,W,1,07,1.7,737.9,M,29.6,M,,0000*57
$GPGSA,M,3,22,06,11,24,03,18,19,,,,,,2.5,1.7,1.8*34
$GPRMC,203433.000,A,3254.3747,S,06849.1561,W,2.41,189.56,080511,,,A*6A
$GPGGA,203434.000,3254.3753,S,06849.1561,W,1,07,1.7,737.3,M,29.6,M,,0000*5F
$GPGSA,M,3,22,06,11,24,03,18,19,,,,,,2.5,1.7,1.8*34
$GPGSV,3,1,12,03,78,336,18,06,66,026,16,19,61,221,24,22,52,137,31*76
$GPGSV,3,2,12,14,41,065,,11,22,242,34,32,19,312,,16,18,340,*7B
$GPGSV,3,3,12,18,17,133,35,24,13,255,26,30,04,355,,21,00,090,*7E
$GPRMC,203434.000,A,3254.3753,S,06849.1561,W,1.28,186.98,080511,,,A*69
$GPGGA,203435.000,3254.3756,S,06849.1562,W,1,07,1.7,737.9,M,29.6,M,,0000*52
$GPGSA,M,3,22,06,11,24,03,18,19,,,,,,2.5,1.7,1.8*34
$GPRMC,203435.000,A,3254.3756,S,06849.1562,W,0.08,51.35,080511,,,A*51
$GPGGA,203436.000,3254.3754,S,06849.1562,W,1,07,1.7,738.6,M,29.6,M,,0000*53
$GPGSA,M,3,22,06,11,24,03,18,19,,,,,,2.5,1.7,1.8*34
$GPRMC,203436.000,A,3254.3754,S,06849.1562,W,1.18,12.31,080511,,,A*53
$GPGGA,203437.000,3254.3745,S,06849.1561,W,1,07,1.7,738.5,M,29.6,M,,0000*52
$GPGSA,M,3,22,06,11,24,03,18,19,,,,,,2.5,1.7,1.8*34
$GPRMC,203437.000,A,3254.3745,S,06849.1561,W,0.76,13.54,080511,,,A*5A
$GPGGA,203438.000,3254.3747,S,06849.1560,W,1,07,1.7,738.1,M,29.6,M,,0000*5A
$GPGSA,M,3,22,06,11,24,03,18,19,,,,,,2.5,1.7,1.8*34
$GPRMC,203438.000,A,3254.3747,S,06849.1560,W,0.36,179.83,080511,,,A*65
$GPGGA,203439.000,3254.3751,S,06849.1562,W,1,05,6.9,739.0,M,29.6,M,,0000*55
$GPGSA,M,3,22,11,24,18,19,,,,,,,,7.3,6.9,2.1*31
$GPGSV,3,1,12,03,78,336,17,06,66,026,16,19,61,221,23,22,52,137,31*7E
$GPGSV,3,2,12,14,41,065,,11,22,242,34,32,19,312,,16,18,340,*7B
$GPGSV,3,3,12,18,17,133,35,24,13,255,26,30,04,355,,21,00,090,*7E
$GPRMC,203439.000,A,3254.3751,S,06849.1562,W,0.27,174.28,080511,,,A*6D
$GPGGA,203440.000,3254.3753,S,06849.1564,W,1,06,1.5,740.2,M,29.6,M,,0000*5B
$GPGSA,M,3,22,11,14,24,18,19,,,,,,,2.3,1.5,1.8*30
$GPRMC,203440.000,A,3254.3753,S,06849.1564,W,0.21,34.19,080511,,,A*56
$GPGGA,203441.000,3254.3764,S,06849.1569,W,1,06,1.5,742.5,M,29.6,M,,0000*56
$GPGSA,M,3,22,11,14,24,18,19,,,,,,,2.3,1.5,1.8*30
$GPRMC,203441.000,A,3254.3764,S,06849.1569,W,0.20,12.85,080511,,,A*5E
$GPGGA,203442.000,3254.3762,S,06849.1566,W,1,07,1.4,741.6,M,29.6,M,,0000*5C
$GPGSA,M,3,22,11,14,24,03,18,19,,,,,,2.1,1.4,1.6*3E
$GPRMC,203442.000,A,3254.3762,S,06849.1566,W,0.18,162.54,080511,,,A*65
$GPGGA,203443.000,3254.3763,S,06849.1566,W,1,05,7.0,741.6,M,29.6,M,,0000*5C
$GPGSA,M,3,22,11,24,18,19,,,,,,,,7.3,7.0,2.1*39
$GPRMC,203443.000,A,3254.3763,S,06849.1566,W,0.65,182.49,080511,,,A*6D
$GPGGA,203444.000,3254.3755,S,06849.1562,W,1,07,1.3,740.1,M,29.6,M,,0000*5B
$GPGSA,M,3,22,06,11,14,24,18,19,,,,,,2.2,1.3,1.7*3E
$GPGSV,3,1,12,03,78,336,16,06,66,026,16,19,61,221,22,22,52,137,32*7D
$GPGSV,3,2,12,14,41,065,16,11,22,242,34,32,19,312,,16,18,340,*7C
$GPGSV,3,3,12,18,17,133,35,24,13,255,26,30,04,355,,21,00,090,*7E
$GPRMC,203444.000,A,3254.3755,S,06849.1562,W,0.71,177.59,080511,,,A*65
$GPGGA,203445.000,3254.3759,S,06849.1561,W,1,08,1.3,739.7,M,29.6,M,,0000*52
$GPGSA,M,3,22,06,11,14,24,03,18,19,,,,,2.0,1.3,1.6*3E
$GPRMC,203445.000,A,3254.3759,S,06849.1561,W,0.16,175.08,080511,,,A*6C
$GPGGA,203446.000,3254.3771,S,06849.1564,W,1,08,1.3,740.0,M,29.6,M,,0000*57
$GPGSA,M,3,22,06,11,14,24,03,18,19,,,,,2.0,1.3,1.6*3E
$GPRMC,203446.000,A,3254.3771,S,06849.1564,W,0.60,187.57,080511,,,A*66
$GPGGA,203447.000,3254.3782,S,06849.1567,W,1,08,1.3,740.8,M,29.6,M,,0000*51
$GPGSA,M,3,22,06,11,14,24,03,18,19,,,,,2.0,1.3,1.6*3E
$GPRMC,203447.000,A,3254.3782,S,06849.1567,W,0.30,179.33,080511,,,A*6E
$GPGGA,203448.000,3254.3785,S,06849.1569,W,1,06,2.5,741.5,M,29.6,M,,0000*50
$GPGSA,M,3,22,11,24,03,18,19,,,,,,,3.2,2.5,2.0*3E
$GPRMC,203448.000,A,3254.3785,S,06849.1569,W,0.72,187.88,080511,,,A*6F
$GPGGA,203449.000,3254.3787,S,06849.1570,W,1,08,1.3,742.0,M,29.6,M,,0000*56
$GPGSA,M,3,22,06,11,14,24,03,18,19,,,,,2.0,1.3,1.6*3E
$GPGSV,3,1,12,03,78,337,15,06,66,025,15,19,62,221,22,22,52,137,32*7C
$GPGSV,3,2,12,14,41,065,16,11,22,242,34,32,19,312,,16,18,340,*7C
$GPGSV,3,3,12,18,17,133,35,24,13,255,26,30,04,355,,21,00,090,*7E
$GPRMC,203449.000,A,3254.3787,S,06849.1570,W,0.62,188.70,080511,,,A*6D
$GPGGA,203450.000,3254.3789,S,06849.1574,W,1,08,1.3,743.3,M,29.6,M,,0000*56
$GPGSA,M,3,22,06,11,14,24,03,18,19,,,,,2.0,1.3,1.6*3E
$GPRMC,203450.000,A,3254.3789,S,06849.1574,W,0.06,293.19,080511,,,A*6B
$GPGGA,203451.000,3254.3789,S,06849.1575,W,1,06,2.5,744.5,M,29.6,M,,0000*5C
$GPGSA,M,3,22,11,24,03,18,19,,,,,,,3.2,2.5,2.0*3E
$GPRMC,203451.000,A,3254.3789,S,06849.1575,W,0.27,12.17,080511,,,A*5D
$GPGGA,203452.000,3254.3784,S,06849.1574,W,1,06,2.5,744.4,M,29.6,M,,0000*52
$GPGSA,M,3,22,11,24,03,18,19,,,,,,,3.2,2.5,2.0*3E
$GPRMC,203452.000,A,3254.3784,S,06849.1574,W,0.78,9.93,080511,,,A*6E
$GPGGA,203453.000,3254.3790,S,06849.1575,W,1,07,1.3,745.2,M,29.6,M,,0000*54
$GPGSA,M,3,22,06,11,14,24,18,19,,,,,,2.2,1.3,1.7*3E
$GPRMC,203453.000,A,3254.3790,S,06849.1575,W,0.02,169.30,080511,,,A*68
$GPGGA,203454.000,3254.3792,S,06849.1574,W,1,07,1.3,744.8,M,29.6,M,,0000*5B
$GPGSA,M,3,22,06,11,14,24,18,19,,,,,,2.2,1.3,1.7*3E
$GPGSV,3,1,12,03,78,337,,06,66,025,15,19,62,221,22,22,52,137,32*78
$GPGSV,3,2,12,14,41,065,17,11,22,242,33,32,19,312,,16,18,340,*7A
$GPGSV,3,3,12,18,17,133,34,24,13,255,25,30,04,355,,21,00,090,*7C
$GPRMC,203454.000,A,3254.3792,S,06849.1574,W,0.17,143.79,080511,,,A*6D
$GPGGA,203455.000,3254.3795,S,06849.1576,W,1,07,1.3,745.2,M,29.6,M,,0000*54
$GPGSA,M,3,22,06,11,14,24,18,19,,,,,,2.2,1.3,1.7*3E
$GPRMC,203455.000,A,3254.3795,S,06849.1576,W,0.19,281.31,080511,,,A*66
$GPGGA,203456.000,3254.3796,S,06849.1578,W,1,07,1.3,745.6,M,29.6,M,,0000*5E
$GPGSA,M,3,22,06,11,14,24,18,19,,,,,,2.2,1.3,1.7*3E
$GPRMC,203456.000,A,3254.3796,S,06849.1578,W,0.38,352.17,080511,,,A*60
$GPGGA,203457.000,3254.3790,S,06849.1578,W,1,07,1.3,745.0,M,29.6,M,,0000*5F
$GPGSA,M,3,22,06,11,14,24,18,19,,,,,,2.2,1.3,1.7*3E
$GPRMC,203457.000,A,3254.3790,S,06849.1578,W,0.11,76.67,080511,,,A*5E
$GPGGA,203458.000,3254.3792,S,06849.1578,W,1,07,1.3,745.1,M,29.6,M,,0000*53
$GPGSA,M,3,22,06,11,14,24,18,19,,,,,,2.2,1.3,1.7*3E
$GPRMC,203458.000,A,3254.3792,S,06849.1578,W,0.26,183.84,080511,,,A*61
$GPGGA,203459.000,3254.3796,S,06849.1580,W,1,07,1.3,745.5,M,29.6,M,,0000*55
$GPGSA,M,3,22,06,11,14,24,18,19,,,,,,2.2,1.3,1.7*3E
$GPGSV,3,1,12,03,78,337,,06,66,025,15,19,62,221,22,22,52,137,33*79
$GPGSV,3,2,12,14,41,065,18,11,22,242,33,32,19,312,,16,18,340,*75
$GPGSV,3,3,12,18,17,133,34,24,13,255,25,30,04,355,,21,00,090,*7C
$GPRMC,203459.000,A,3254.3796,S,06849.1580,W,0.15,164.66,080511,,,A*66
$GPGGA,203500.000,3254.3795,S,06849.1579,W,1,07,1.3,745.6,M,29.6,M,,0000*5E
$GPGSA,M,3,22,06,11,14,24,18,19,,,,,,2.2,1.3,1.7*3E
$GPRMC,203500.000,A,3254.3795,S,06849.1579,W,0.11,171.17,080511,,,A*68
$GPGGA,203501.000,3254.3795,S,06849.1579,W,1,07,1.3,745.5,M,29.6,M,,0000*5C
$GPGSA,M,3,22,06,11,14,24,18,19,,,,,,2.2,1.3,1.7*3E
$GPRMC,203501.000,A,3254.3795,S,06849.1579,W,0.71,188.13,080511,,,A*6D
$GPGGA,203502.000,3254.3801,S,06849.1581,W,1,07,1.3,746.5,M,29.6,M,,0000*59
$GPGSA,M,3,22,06,11,14,24,18,19,,,,,,2.2,1.3,1.7*3E
$GPRMC,203502.000,A,3254.3801,S,06849.1581,W,1.21,192.31,080511,,,A*64
$GPGGA,203503.000,3254.3803,S,06849.1582,W,1,05,7.0,746.3,M,29.6,M,,0000*58
$GPGSA,M,3,22,11,24,18,19,,,,,,,,7.3,7.0,2.1*39
$GPRMC,203503.000,A,3254.3803,S,06849.1582,W,1.15,192.51,080511,,,A*65
$GPGGA,203504.000,3254.3802,S,06849.1582,W,1,07,1.3,746.1,M,29.6,M,,0000*5B
$GPGSA,M,3,22,06,11,14,24,18,19,,,,,,2.2,1.3,1.7*3E
$GPGSV,3,1,12,03,78,337,,06,66,025,14,19,62,221,22,22,52,137,33*78
$GPGSV,3,2,12,14,41,065,19,11,22,242,33,32,19,312,,16,18,340,*74
$GPGSV,3,3,12,18,17,133,34,24,13,255,25,30,04,355,,21,00,090,*7C
$GPRMC,203504.000,A,3254.3802,S,06849.1582,W,0.66,188.23,080511,,,A*68
$GPGGA,203505.000,3254.3803,S,06849.1580,W,1,05,7.0,745.0,M,29.6,M,,0000*5C
$GPGSA,M,3,22,11,24,18,19,,,,,,,,7.3,7.0,2.1*39
$GPRMC,203505.000,A,3254.3803,S,06849.1580,W,0.58,180.85,080511,,,A*63
$GPGGA,203506.000,3254.3800,S,06849.1578,W,1,07,1.3,744.1,M,29.6,M,,0000*5C
$GPGSA,M,3,22,06,11,14,24,18,19,,,,,,2.2,1.3,1.7*3E
$GPRMC,203506.000,A,3254.3800,S,06849.1578,W,0.40,181.20,080511,,,A*63
$GPGGA,203507.000,3254.3795,S,06849.1577,W,1,07,1.3,744.6,M,29.6,M,,0000*56
$GPGSA,M,3,22,06,11,14,24,18,19,,,,,,2.2,1.3,1.7*3E
$GPRMC,203507.000,A,3254.3795,S,06849.1577,W,0.18,151.17,080511,,,A*6A
$GPGGA,203508.000,3254.3788,S,06849.1577,W,1,07,1.3,743.9,M,29.6,M,,0000*5D
$GPGSA,M,3,22,06,11,14,24,18,19,,,,,,2.2,1.3,1.7*3E
$GPRMC,203508.000,A,3254.3788,S,06849.1577,W,0.15,171.70,080511,,,A*67
$GPGGA,203509.000,3254.3785,S,06849.1577,W,1,08,1.3,743.8,M,29.6,M,,0000*5F
$GPGSA,M,3,22,06,11,14,24,03,18,19,,,,,2.1,1.3,1.6*3F
$GPGSV,3,1,12,03,78,337,15,06,66,025,13,19,62,221,22,22,52,137,33*7B
$GPGSV,3,2,12,14,41,065,19,11,22,242,33,32,19,312,,16,18,340,*74
$GPGSV,3,3,12,18,17,133,34,24,13,255,24,30,04,355,,21,00,090,*7D
$GPRMC,203509.000,A,3254.3785,S,06849.1577,W,0.46,150.63,080511,,,A*6C
$GPGGA,203510.000,3254.3784,S,06849.1578,W,1,06,1.5,743.6,M,29.6,M,,0000*5F
$GPGSA,M,3,22,11,14,24,18,19,,,,,,,2.3,1.5,1.8*30
$GPRMC,203510.000,A,3254.3784,S,06849.1578,W,0.51,170.52,080511,,,A*6C
$GPGGA,203511.000,3254.3781,S,06849.1578,W,1,08,1.3,743.7,M,29.6,M,,0000*52
$GPGSA,M,3,22,06,11,14,24,03,18,19,,,,,2.1,1.3,1.6*3F
$GPRMC,203511.000,A,3254.3781,S,06849.1578,W,0.84,180.67,080511,,,A*69
$GPGGA,203512.000,3254.3780,S,06849.1580,W,1,08,1.3,743.0,M,29.6,M,,0000*50
$GPGSA,M,3,22,06,11,14,24,03,18,19,,,,,2.1,1.3,1.6*3F
$GPRMC,203512.000,A,3254.3780,S,06849.1580,W,1.07,195.45,080511,,,A*62
$GPGGA,203513.000,3254.3778,S,06849.1579,W,1,08,1.3,742.0,M,29.6,M,,0000*51
$GPGSA,M,3,22,06,11,14,24,03,18,19,,,,,2.1,1.3,1.6*3F
$GPRMC,203513.000,A,3254.3778,S,06849.1579,W,0.59,188.57,080511,,,A*67
$GPGGA,203514.000,3254.3780,S,06849.1579,W,1,08,1.3,741.1,M,29.6,M,,0000*53
$GPGSA,M,3,22,06,11,14,24,03,18,19,,,,,2.1,1.3,1.6*3F
$GPGSV,3,1,12,03,78,337,15,06,66,025,14,19,62,221,22,22,52,137,33*7C
$GPGSV,3,2,12,14,41,065,19,11,22,242,33,32,19,312,,16,18,340,*74
$GPGSV,3,3,12,18,17,133,34,24,13,255,23,30,04,355,,21,00,090,*7A
$GPRMC,203514.000,A,3254.3780,S,06849.1579,W,0.68,156.01,080511,,,A*65
$GPGGA,203515.000,3254.3783,S,06849.1580,W,1,08,1.3,740.9,M,29.6,M,,0000*5E
$GPGSA,M,3,22,06,11,14,24,03,18,19,,,,,2.1,1.3,1.6*3F
$GPRMC,203515.000,A,3254.3783,S,06849.1580,W,1.48,180.63,080511,,,A*6D
$GPGGA,203516.000,3254.3781,S,06849.1579,W,1,08,1.3,739.6,M,29.6,M,,0000*58
$GPGSA,M,3,22,06,11,14,24,03,18,19,,,,,2.1,1.3,1.6*3F
$GPRMC,203516.000,A,3254.3781,S,06849.1579,W,1.37,176.66,080511,,,A*6E
$GPGGA,203517.000,3254.3781,S,06849.1580,W,1,08,1.3,739.1,M,29.6,M,,0000*58
$GPGSA,M,3,22,06,11,14,24,03,18,19,,,,,2.1,1.3,1.6*3F
$GPRMC,203517.000,A,3254.3781,S,06849.1580,W,0.49,168.11,080511,,,A*6E
$GPGGA,203518.000,3254.3783,S,06849.1580,W,1,08,1.3,737.9,M,29.6,M,,0000*53
$GPGSA,M,3,22,06,11,14,24,03,18,19,,,,,2.1,1.3,1.6*3F
$GPRMC,203518.000,A,3254.3783,S,06849.1580,W,0.58,164.11,080511,,,A*6F
$GPGGA,203519.000,3254.3780,S,06849.1576,W,1,08,1.3,736.6,M,29.6,M,,0000*56
$GPGSA,M,3,22,06,11,14,24,03,18,19,,,,,2.1,1.3,1.6*3F
$GPGSV,3,1,12,03,78,337,15,06,66,025,13,19,62,221,21,22,52,137,33*78
$GPGSV,3,2,12,14,41,065,19,11,22,242,33,32,20,312,,16,18,340,*7E
$GPGSV,3,3,12,18,17,133,33,24,13,255,22,30,04,356,,21,00,090,*7F
$GPRMC,203519.000,A,3254.3780,S,06849.1576,W,0.13,61.87,080511,,,A*50
$GPGGA,203520.000,3254.3781,S,06849.1577,W,1,08,1.3,735.9,M,29.6,M,,0000*50
$GPGSA,M,3,22,06,11,14,24,03,18,19,,,,,2.1,1.3,1.6*3F
$GPRMC,203520.000,A,3254.3781,S,06849.1577,W,1.10,188.92,080511,,,A*6A
$GPGGA,203521.000,3254.3780,S,06849.1579,W,1,08,1.3,736.3,M,29.6,M,,0000*57
$GPGSA,M,3,22,06,11,14,24,03,18,19,,,,,2.1,1.3,1.6*3F
$GPRMC,203521.000,A,3254.3780,S,06849.1579,W,0.67,181.00,080511,,,A*67
$GPGGA,203522.000,3254.3773,S,06849.1578,W,1,08,1.3,735.5,M,29.6,M,,0000*5C
$GPGSA,M,3,22,06,11,14,24,03,18,19,,,,,2.1,1.3,1.6*3F
$GPRMC,203522.000,A,3254.3773,S,06849.1578,W,0.60,158.72,080511,,,A*6F
$GPGGA,203523.000,3254.3769,S,06849.1578,W,1,08,1.3,736.0,M,29.6,M,,0000*50
$GPGSA,M,3,22,06,11,14,24,03,18,19,,,,,2.1,1.3,1.6*3F
$GPRMC,203523.000,A,3254.3769,S,06849.1578,W,0.46,123.69,080511,,,A*67
$GPGGA,203524.000,3254.3773,S,06849.1580,W,1,06,1.8,736.2,M,29.6,M,,0000*5C
$GPGSA,M,3,22,06,11,24,18,19,,,,,,,2.6,1.8,1.9*3A
$GPGSV,3,1,12,03,78,337,16,06,66,025,12,19,62,221,20,22,52,137,33*7B
$GPGSV,3,2,12,14,41,065,18,11,22,242,32,32,20,312,,16,18,340,*7E
$GPGSV,3,3,12,18,17,133,33,24,13,255,22,30,04,356,,21,00,090,*7F
$GPRMC,203524.000,A,3254.3773,S,06849.1580,W,0.70,184.16,080511,,,A*6C
$GPGGA,203525.000,3254.3774,S,06849.1581,W,1,06,1.8,736.8,M,29.6,M,,0000*51
$GPGSA,M,3,22,06,11,24,18,19,,,,,,,2.6,1.8,1.9*3A
$GPRMC,203525.000,A,3254.3774,S,06849.1581,W,0.13,317.69,080511,,,A*6E
$GPGGA,203526.000,3254.3776,S,06849.1579,W,1,08,1.3,735.7,M,29.6,M,,0000*5E
$GPGSA,M,3,22,06,11,14,24,03,18,19,,,,,2.1,1.3,1.6*3F
$GPRMC,203526.000,A,3254.3776,S,06849.1579,W,0.27,5.36,080511,,,A*65
$GPGGA,203527.000,3254.3773,S,06849.1578,W,1,08,1.3,735.8,M,29.6,M,,0000*54
$GPGSA,M,3,22,06,11,14,24,03,18,19,,,,,2.1,1.3,1.6*3F
$GPRMC,203527.000,A,3254.3773,S,06849.1578,W,0.81,2.38,080511,,,A*65
$GPGGA,203528.000,3254.3764,S,06849.1575,W,1,08,1.3,735.2,M,29.6,M,,0000*5A
$GPGSA,M,3,22,06,11,14,24,03,18,19,,,,,2.1,1.3,1.6*3F
$GPRMC,203528.000,A,3254.3764,S,06849.1575,W,1.21,17.59,080511,,,A*59
$GPGGA,203529.000,3254.3761,S,06849.1574,W,1,08,1.3,735.7,M,29.6,M,,0000*5A
$GPGSA,M,3,22,06,11,14,24,03,18,19,,,,,2.1,1.3,1.6*3F
$GPGSV,3,1,12,03,78,337,16,06,66,025,13,19,62,221,19,22,52,137,33*70
$GPGSV,3,2,12,14,41,065,17,11,22,242,32,32,20,312,,16,18,340,*71
$GPGSV,3,3,12,18,17,133,33,24,13,255,21,30,04,356,,21,00,090,*7C
$GPRMC,203529.000,A,3254.3761,S,06849.1574,W,1.01,22.86,080511,,,A*5A
$GPGGA,203530.000,3254.3755,S,06849.1573,W,1,08,1.3,736.3,M,29.6,M,,0000*55
$GPGSA,M,3,22,06,11,14,24,03,18,19,,,,,2.1,1.3,1.6*3F
$GPRMC,203530.000,A,3254.3755,S,06849.1573,W,0.42,61.94,080511,,,A*50
$GPGGA,203531.000,3254.3752,S,06849.1573,W,1,08,1.3,737.2,M,29.6,M,,0000*53
$GPGSA,M,3,22,06,11,14,24,03,18,19,,,,,2.1,1.3,1.6*3F
$GPRMC,203531.000,A,3254.3752,S,06849.1573,W,0.50,25.28,080511,,,A*52
$GPGGA,203532.000,3254.3750,S,06849.1574,W,1,07,1.3,737.2,M,29.6,M,,0000*5A
$GPGSA,M,3,22,06,11,14,24,18,19,,,,,,2.2,1.3,1.7*3E
$GPRMC,203532.000,A,3254.3750,S,06849.1574,W,0.29,185.43,080511,,,A*6C
$GPGGA,203533.000,3254.3753,S,06849.1577,W,1,07,1.3,738.2,M,29.6,M,,0000*54
$GPGSA,M,3,22,06,11,14,24,18,19,,,,,,2.2,1.3,1.7*3E
$GPRMC,203533.000,A,3254.3753,S,06849.1577,W,0.49,190.40,080511,,,A*6C
$GPGGA,203534.000,3254.3756,S,06849.1577,W,1,07,1.3,738.8,M,29.6,M,,0000*5C
$GPGSA,M,3,22,06,11,14,24,18,19,,,,,,2.2,1.3,1.7*3E
$GPGSV,3,1,12,03,78,337,16,06,66,025,14,19,62,221,18,22,52,137,33*76
$GPGSV,3,2,12,14,41,065,16,11,22,242,32,32,20,312,,16,18,340,*70
$GPGSV,3,3,12,18,17,133,33,24,13,255,21,30,04,356,,21,00,090,*7C
$GPRMC,203534.000,A,3254.3756,S,06849.1577,W,0.57,162.08,080511,,,A*60
$GPGGA,203535.000,3254.3757,S,06849.1576,W,1,07,1.3,739.1,M,29.6,M,,0000*55
$GPGSA,M,3,22,06,11,14,24,18,19,,,,,,2.2,1.3,1.7*3E
$GPRMC,203535.000,A,3254.3757,S,06849.1576,W,0.62,176.25,080511,,,A*6D
$GPGGA,203536.000,3254.3757,S,06849.1575,W,1,07,1.3,739.5,M,29.6,M,,0000*51
$GPGSA,M,3,22,06,11,14,24,18,19,,,,,,2.2,1.3,1.7*3E
$GPRMC,203536.000,A,3254.3757,S,06849.1575,W,0.74,160.64,080511,,,A*68
$GPGGA,203537.000,3254.3760,S,06849.1575,W,1,05,7.1,740.4,M,29.6,M,,0000*5D
$GPGSA,M,3,22,11,24,18,19,,,,,,,,7.4,7.1,2.1*3F
$GPRMC,203537.000,A,3254.3760,S,06849.1575,W,1.11,182.57,080511,,,A*63
$GPGGA,203538.000,3254.3756,S,06849.1576,W,1,08,1.3,740.8,M,29.6,M,,0000*51
$GPGSA,M,3,22,06,11,14,24,03,18,19,,,,,2.1,1.3,1.6*3F
$GPRMC,203538.000,A,3254.3756,S,06849.1576,W,1.33,189.97,080511,,,A*6D
$GPGGA,203539.000,3254.3755,S,06849.1576,W,1,05,2.2,741.8,M,29.6,M,,0000*5D
$GPGSA,M,3,22,06,11,24,18,,,,,,,,3.6,2.2,2.8*38
$GPGSV,3,1,12,03,78,337,15,06,66,025,13,19,62,221,17,22,52,137,33*7D
$GPGSV,3,2,12,14,41,065,16,11,22,242,31,32,20,312,,16,18,340,*73
$GPGSV,3,3,12,18,17,133,33,24,13,255,21,30,04,356,,21,00,090,*7C
$GPRMC,203539.000,A,3254.3755,S,06849.1576,W,1.35,183.09,080511,,,A*64
$GPGGA,203540.000,3254.3754,S,06849.1576,W,1,05,2.2,742.4,M,29.6,M,,0000*5D
$GPGSA,M,3,22,06,11,24,18,,,,,,,,3.6,2.2,2.8*38
$GPRMC,203540.000,A,3254.3754,S,06849.1576,W,1.59,191.92,080511,,,A*60
$GPGGA,203541.000,3254.3759,S,06849.1578,W,1,05,2.2,742.8,M,29.6,M,,0000*53
$GPGSA,M,3,22,06,11,24,18,,,,,,,,3.6,2.2,2.8*38
$GPRMC,203541.000,A,3254.3759,S,06849.1578,W,1.40,200.13,080511,,,A*68
$GPGGA,203542.000,3254.3759,S,06849.1579,W,1,05,2.2,743.2,M,29.6,M,,0000*5A
$GPGSA,M,3,22,06,11,24,18,,,,,,,,3.6,2.2,2.8*38
$GPRMC,203542.000,A,3254.3759,S,06849.1579,W,1.28,195.63,080511,,,A*6C
$GPGGA,203543.000,3254.3762,S,06849.1580,W,1,05,2.2,743.9,M,29.6,M,,0000*5E
$GPGSA,M,3,22,06,11,24,18,,,,,,,,3.6,2.2,2.8*38
$GPRMC,203543.000,A,3254.3762,S,06849.1580,W,1.66,181.70,080511,,,A*6E
$GPGGA,203544.000,3254.3765,S,06849.1578,W,1,07,1.5,743.6,M,29.6,M,,0000*50
$GPGSA,M,3,22,06,11,14,24,03,18,,,,,,2.5,1.5,2.0*30
$GPGSV,3,1,12,03,78,337,14,06,66,025,14,19,62,221,16,22,52,137,32*7B
$GPGSV,3,2,12,14,41,065,15,11,22,242,31,32,20,312,,16,18,340,*70
$GPGSV,3,3,12,18,17,133,33,24,13,255,21,30,04,356,,21,00,090,*7C
$GPRMC,203544.000,A,3254.3765,S,06849.1578,W,1.51,177.97,080511,,,A*6D
$GPGGA,203545.000,3254.3760,S,06849.1575,W,1,06,1.5,742.8,M,29.6,M,,0000*57
$GPGSA,M,3,22,06,11,14,24,18,,,,,,,2.8,1.5,2.3*3D
$GPRMC,203545.000,A,3254.3760,S,06849.1575,W,0.88,182.64,080511,,,A*67
$GPGGA,203546.000,3254.3761,S,06849.1576,W,1,05,2.2,742.7,M,29.6,M,,0000*5E
$GPGSA,M,3,22,06,11,24,18,,,,,,,,3.6,2.2,2.8*38
$GPRMC,203546.000,A,3254.3761,S,06849.1576,W,1.21,189.37,080511,,,A*69
$GPGGA,203547.000,3254.3764,S,06849.1576,W,1,05,2.2,742.6,M,29.6,M,,0000*5B
$GPGSA,M,3,22,06,11,24,18,,,,,,,,3.6,2.2,2.8*38
$GPRMC,203547.000,A,3254.3764,S,06849.1576,W,1.31,188.59,080511,,,A*65
$GPGGA,203548.000,3254.3769,S,06849.1578,W,1,05,2.2,742.2,M,29.6,M,,0000*53
$GPGSA,M,3,22,06,11,24,18,,,,,,,,3.6,2.2,2.8*38
$GPRMC,203548.000,A,3254.3769,S,06849.1578,W,1.36,193.41,080511,,,A*6D
$GPGGA,203549.000,3254.3770,S,06849.1579,W,1,05,2.2,741.8,M,29.6,M,,0000*52
$GPGSA,M,3,22,06,11,24,18,,,,,,,,3.6,2.2,2.8*38
$GPGSV,3,1,12,03,78,338,,06,65,025,15,19,62,221,16,22,52,137,32*73
$GPGSV,3,2,12,14,41,066,15,11,22,241,31,32,20,312,,16,18,340,*70
$GPGSV,3,3,12,18,17,133,33,24,14,255,19,30,04,356,,21,00,090,*70
$GPRMC,203549.000,A,3254.3770,S,06849.1579,W,0.46,195.22,080511,,,A*60
$GPGGA,203550.000,3254.3763,S,06849.1576,W,1,07,1.3,739.6,M,29.6,M,,0000*56
$GPGSA,M,3,22,06,11,14,24,18,19,,,,,,2.2,1.3,1.7*3E
$GPRMC,203550.000,A,3254.3763,S,06849.1576,W,0.57,34.19,080511,,,A*57
$GPGGA,203551.000,3254.3758,S,06849.1576,W,1,04,7.2,738.9,M,29.6,M,,0000*55
$GPGSA,M,3,22,11,24,18,,,,,,,,,7.8,7.2,3.0*38
$GPRMC,203551.000,A,3254.3758,S,06849.1576,W,0.72,36.49,080511,,,A*5E
$GPGGA,203552.000,3254.3747,S,06849.1573,W,1,06,1.5,737.3,M,29.6,M,,0000*5B
$GPGSA,M,3,22,11,14,24,18,19,,,,,,,2.3,1.5,1.8*30
$GPRMC,203552.000,A,3254.3747,S,06849.1573,W,0.92,23.06,080511,,,A*57
$GPGGA,203553.000,3254.3737,S,06849.1570,W,1,06,1.5,736.1,M,29.6,M,,0000*5D
$GPGSA,M,3,22,11,14,24,18,19,,,,,,,2.3,1.5,1.8*30
$GPRMC,203553.000,A,3254.3737,S,06849.1570,W,0.28,66.70,080511,,,A*53
$GPGGA,203554.000,3254.3732,S,06849.1568,W,1,06,1.5,735.5,M,29.6,M,,0000*51
$GPGSA,M,3,22,11,14,24,18,19,,,,,,,2.3,1.5,1.8*30
$GPGSV,3,1,12,03,78,338,,06,65,025,16,19,62,221,15,22,52,137,32*73
$GPGSV,3,2,12,14,41,066,16,11,22,241,31,32,20,312,,16,18,340,*73
$GPGSV,3,3,12,18,17,133,33,24,14,255,18,30,04,356,,21,00,090,*71
$GPRMC,203554.000,A,3254.3732,S,06849.1568,W,0.29,137.00,080511,,,A*6B
$GPGGA,203555.000,3254.3730,S,06849.1568,W,1,06,1.5,735.3,M,29.6,M,,0000*54
$GPGSA,M,3,22,11,14,24,18,19,,,,,,,2.3,1.5,1.8*30
$GPRMC,203555.000,A,3254.3730,S,06849.1568,W,0.31,142.45,080511,,,A*62
$GPGGA,203556.000,3254.3730,S,06849.1568,W,1,06,1.5,735.2,M,29.6,M,,0000*56
$GPGSA,M,3,22,11,14,24,18,19,,,,,,,2.3,1.5,1.8*30
$GPRMC,203556.000,A,3254.3730,S,06849.1568,W,0.60,173.81,080511,,,A*6F
$GPGGA,203557.000,3254.3729,S,06849.1567,W,1,07,1.4,734.8,M,29.6,M,,0000*5B
$GPGSA,M,3,22,11,14,24,03,18,19,,,,,,2.1,1.4,1.6*3E
$GPRMC,203557.000,A,3254.3729,S,06849.1567,W,0.08,342.82,080511,,,A*64
$GPGGA,203558.000,3254.3732,S,06849.1569,W,1,06,1.6,735.5,M,29.6,M,,0000*5F
$GPGSA,M,3,22,11,14,24,03,18,,,,,,,2.5,1.6,2.0*35
$GPRMC,203558.000,A,3254.3732,S,06849.1569,W,0.28,205.01,080511,,,A*64
$GPGGA,203559.000,3254.3736,S,06849.1571,W,1,07,1.4,737.4,M,29.6,M,,0000*53
$GPGSA,M,3,22,11,14,24,03,18,19,,,,,,2.1,1.4,1.6*3E
$GPGSV,3,1,12,03,78,338,16,06,65,025,17,19,62,221,17,22,52,137,32*77
$GPGSV,3,2,12,14,41,066,16,11,22,241,31,32,20,312,,16,18,340,*73
$GPGSV,3,3,12,18,17,133,33,24,14,255,18,30,04,356,,21,00,090,*71
$GPRMC,203559.000,A,3254.3736,S,06849.1571,W,0.43,175.02,080511,,,A*62
$GPGGA,203600.000,3254.3745,S,06849.1574,W,1,07,1.4,739.8,M,29.6,M,,0000*5F
$GPGSA,M,3,22,11,14,24,03,18,19,,,,,,2.1,1.4,1.6*3E
$GPRMC,203600.000,A,3254.3745,S,06849.1574,W,0.46,175.39,080511,,,A*61
$GPGGA,203601.000,3254.3745,S,06849.1573,W,1,07,1.4,739.8,M,29.6,M,,0000*59
$GPGSA,M,3,22,11,14,24,03,18,19,,,,,,2.1,1.4,1.6*3E
$GPRMC,203601.000,A,3254.3745,S,06849.1573,W,0.29,5.27,080511,,,A*67
$GPGGA,203602.000,3254.3748,S,06849.1572,W,1,07,1.4,738.9,M,29.6,M,,0000*56
$GPGSA,M,3,22,11,14,24,03,18,19,,,,,,2.1,1.4,1.6*3E
$GPRMC,203602.000,A,3254.3748,S,06849.1572,W,0.16,229.12,080511,,,A*6E
$GPGGA,203603.000,3254.3757,S,06849.1573,W,1,07,1.4,739.8,M,29.6,M,,0000*58
$GPGSA,M,3,22,11,14,24,03,18,19,,,,,,2.1,1.4,1.6*3E
$GPRMC,203603.000,A,3254.3757,S,06849.1573,W,1.16,197.18,080511,,,A*6D
$GPGGA,203604.000,3254.3766,S,06849.1575,W,1,08,1.3,740.4,M,29.6,M,,0000*51
$GPGSA,M,3,22,06,11,14,24,03,18,19,,,,,2.1,1.3,1.6*3F
$GPGSV,3,1,12,03,78,338,17,06,65,025,17,19,62,221,22,22,52,137,32*70
$GPGSV,3,2,12,14,41,066,16,11,22,241,31,32,20,312,,16,18,340,*73
$GPGSV,3,3,12,18,17,133,33,24,14,255,18,30,04,356,,21,00,090,*71
$GPRMC,203604.000,A,3254.3766,S,06849.1575,W,0.96,199.04,080511,,,A*64
$GPGGA,203605.000,3254.3772,S,06849.1577,W,1,08,1.3,741.0,M,29.6,M,,0000*52
$GPGSA,M,3,22,06,11,14,24,03,18,19,,,,,2.1,1.3,1.6*3F
$GPRMC,203605.000,A,3254.3772,S,06849.1577,W,0.66,211.98,080511,,,A*6B
$GPGGA,203606.000,3254.3774,S,06849.1580,W,1,08,1.3,742.0,M,29.6,M,,0000*5C
$GPGSA,M,3,22,06,11,14,24,03,18,19,,,,,2.1,1.3,1.6*3F
$GPRMC,203606.000,A,3254.3774,S,06849.1580,W,0.23,292.02,080511,,,A*6F
$GPGGA,203607.000,3254.3776,S,06849.1582,W,1,08,1.3,742.3,M,29.6,M,,0000*5E
$GPGSA,M,3,22,06,11,14,24,03,18,19,,,,,2.1,1.3,1.6*3F
$GPRMC,203607.000,A,3254.3776,S,06849.1582,W,0.21,283.44,080511,,,A*6E
$GPGGA,203608.000,3254.3779,S,06849.1583,W,1,08,1.3,743.0,M,29.6,M,,0000*5D
$GPGSA,M,3,22,06,11,14,24,03,18,19,,,,,2.1,1.3,1.6*3F
$GPRMC,203608.000,A,3254.3779,S,06849.1583,W,0.64,172.90,080511,,,A*6A
$GPGGA,203609.000,3254.3782,S,06849.1583,W,1,08,1.3,744.4,M,29.6,M,,0000*5B
$GPGSA,M,3,22,06,11,14,24,03,18,19,,,,,2.1,1.3,1.6*3F
$GPGSV,3,1,12,03,78,338,17,06,65,025,17,19,62,221,22,22,52,137,32*70
$GPGSV,3,2,12,14,41,066,17,11,22,241,31,32,20,312,,16,18,340,*72
$GPGSV,3,3,12,18,17,133,34,24,14,255,19,30,04,356,,21,00,090,*77
$GPRMC,203609.000,A,3254.3782,S,06849.1583,W,0.91,175.12,080511,,,A*68
$GPGGA,203610.000,3254.3786,S,06849.1583,W,1,08,1.3,744.9,M,29.6,M,,0000*5A
$GPGSA,M,3,22,06,11,14,24,03,18,19,,,,,2.1,1.3,1.6*3F
$GPRMC,203610.000,A,3254.3786,S,06849.1583,W,1.15,173.77,080511,,,A*6C
$GPGGA,203611.000,3254.3788,S,06849.1582,W,1,08,1.3,744.9,M,29.6,M,,0000*54
$GPGSA,M,3,22,06,11,14,24,03,18,19,,,,,2.1,1.3,1.6*3F
$GPRMC,203611.000,A,3254.3788,S,06849.1582,W,0.41,128.27,080511,,,A*69
$GPGGA,203612.000,3254.3794,S,06849.1584,W,1,08,1.3,746.1,M,29.6,M,,0000*56
$GPGSA,M,3,22,06,11,14,24,03,18,19,,,,,2.1,1.3,1.6*3F
$GPRMC,203612.000,A,3254.3794,S,06849.1584,W,0.56,168.07,080511,,,A*61
$GPGGA,203613.000,3254.3798,S,06849.1584,W,1,08,1.3,747.0,M,29.6,M,,0000*5B
$GPGSA,M,3,22,06,11,14,24,03,18,19,,,,,2.1,1.3,1.6*3F
$GPRMC,203613.000,A,3254.3798,S,06849.1584,W,1.23,188.51,080511,,,A*62
$GPGGA,203614.000,3254.3797,S,06849.1585,W,1,06,1.8,748.3,M,29.6,M,,0000*5B
$GPGSA,M,3,22,06,11,24,18,19,,,,,,,2.6,1.8,1.9*3A
$GPGSV,3,1,12,03,78,338,18,06,65,025,17,19,62,221,22,22,52,137,32*7F
$GPGSV,3,2,12,14,41,066,18,11,22,241,31,32,20,312,,16,18,340,*7D
$GPGSV,3,3,12,18,17,133,34,24,14,255,20,30,04,356,,21,00,090,*7D
$GPRMC,203614.000,A,3254.3797,S,06849.1585,W,1.01,179.47,080511,,,A*62
$GPGGA,203615.000,3254.3800,S,06849.1585,W,1,05,7.2,749.0,M,29.6,M,,0000*56
$GPGSA,M,3,22,11,24,18,19,,,,,,,,7.5,7.2,2.2*3E
$GPRMC,203615.000,A,3254.3800,S,06849.1585,W,1.17,177.29,080511,,,A*63
$GPGGA,203616.000,3254.3796,S,06849.1585,W,1,07,1.7,749.8,M,29.6,M,,0000*5C
$GPGSA,M,3,22,06,11,24,03,18,19,,,,,,2.5,1.7,1.8*34
$GPRMC,203616.000,A,3254.3796,S,06849.1585,W,0.33,167.78,080511,,,A*62
$GPGGA,203617.000,3254.3798,S,06849.1585,W,1,05,7.2,750.7,M,29.6,M,,0000*55
$GPGSA,M,3,22,11,24,18,19,,,,,,,,7.5,7.2,2.2*3E
$GPRMC,203617.000,A,3254.3798,S,06849.1585,W,0.49,189.81,080511,,,A*66
$GPGGA,203618.000,3254.3805,S,06849.1586,W,1,08,1.3,751.2,M,29.6,M,,0000*5C
$GPGSA,M,3,22,06,11,14,24,03,18,19,,,,,2.1,1.3,1.6*3F
$GPRMC,203618.000,A,3254.3805,S,06849.1586,W,1.62,192.25,080511,,,A*6D
$GPGGA,203619.000,3254.3806,S,06849.1586,W,1,08,1.3,751.4,M,29.6,M,,0000*58
$GPGSA,M,3,22,06,11,14,24,03,18,19,,,,,2.1,1.3,1.6*3F
$GPGSV,3,1,12,03,78,338,17,06,65,025,15,19,62,221,22,22,52,137,32*72
$GPGSV,3,2,12,14,41,066,18,11,22,241,31,32,20,312,,16,18,340,*7D
$GPGSV,3,3,12,18,17,133,34,24,14,255,20,30,04,356,,21,00,090,*7D
$GPRMC,203619.000,A,3254.3806,S,06849.1586,W,0.12,205.89,080511,,,A*62
$GPGGA,203620.000,3254.3802,S,06849.1585,W,1,08,1.3,751.7,M,29.6,M,,0000*56
$GPGSA,M,3,22,06,11,14,24,03,18,19,,,,,2.1,1.3,1.6*3F
$GPRMC,203620.000,A,3254.3802,S,06849.1585,W,0.26,82.79,080511,,,A*5A
$GPGGA,203621.000,3254.3793,S,06849.1581,W,1,08,1.3,750.7,M,29.6,M,,0000*55
$GPGSA,M,3,22,06,11,14,24,03,18,19,,,,,2.1,1.3,1.6*3F
$GPRMC,203621.000,A,3254.3793,S,06849.1581,W,0.40,93.13,080511,,,A*54
$GPGGA,203622.000,3254.3792,S,06849.1578,W,1,08,1.3,750.8,M,29.6,M,,0000*5E
$GPGSA,M,3,22,06,11,14,24,03,18,19,,,,,2.1,1.3,1.6*3F
$GPRMC,203622.000,A,3254.3792,S,06849.1578,W,0.54,87.93,080511,,,A*58
$GPGGA,203623.000,3254.3787,S,06849.1577,W,1,08,1.3,751.1,M,29.6,M,,0000*5C
$GPGSA,M,3,22,06,11,14,24,03,18,19,,,,,2.1,1.3,1.6*3F
$GPRMC,203623.000,A,3254.3787,S,06849.1577,W,0.35,65.92,080511,,,A*58
$GPGGA,203624.000,3254.3789,S,06849.1576,W,1,07,1.3,752.0,M,29.6,M,,0000*59
$GPGSA,M,3,22,06,11,14,24,18,19,,,,,,2.2,1.3,1.7*3E
$GPGSV,3,1,12,03,78,338,17,06,65,025,16,19,62,221,22,22,52,137,32*71
$GPGSV,3,2,12,14,41,066,17,11,22,241,30,32,20,312,,16,18,340,*73
$GPGSV,3,3,12,18,17,133,34,24,14,255,20,30,04,356,,21,00,090,*7D
$GPRMC,203624.000,A,3254.3789,S,06849.1576,W,0.30,149.92,080511,,,A*6A
$GPGGA,203625.000,3254.3791,S,06849.1578,W,1,07,1.3,752.8,M,29.6,M,,0000*57
$GPGSA,M,3,22,06,11,14,24,18,19,,,,,,2.2,1.3,1.7*3E
$GPRMC,203625.000,A,3254.3791,S,06849.1578,W,0.44,203.78,080511,,,A*66
$GPGGA,203626.000,3254.3791,S,06849.1580,W,1,08,1.3,753.4,M,29.6,M,,0000*51
$GPGSA,M,3,22,06,11,14,24,03,18,19,,,,,2.1,1.3,1.6*3F
$GPRMC,203626.000,A,3254.3791,S,06849.1580,W,0.68,210.59,080511,,,A*6D
$GPGGA,203627.000,3254.3789,S,06849.1583,W,1,08,1.3,754.5,M,29.6,M,,0000*5C
$GPGSA,M,3,22,06,11,14,24,03,18,19,,,,,2.1,1.3,1.6*3F
$GPRMC,203627.000,A,3254.3789,S,06849.1583,W,0.82,207.15,080511,,,A*6C
$GPGGA,203628.000,3254.3800,S,06849.1584,W,1,07,1.3,755.3,M,29.6,M,,0000*52
$GPGSA,M,3,22,06,11,14,24,18,19,,,,,,2.2,1.3,1.7*3E
$GPRMC,203628.000,A,3254.3800,S,06849.1584,W,1.35,193.31,080511,,,A*6F
$GPGGA,203629.000,3254.3806,S,06849.1586,W,1,07,1.3,755.8,M,29.6,M,,0000*5C
$GPGSA,M,3,22,06,11,14,24,18,19,,,,,,2.2,1.3,1.7*3E
$GPGSV,3,1,12,03,78,338,18,06,65,025,17,19,62,221,22,22,52,137,32*7F
$GPGSV,3,2,12,14,41,066,16,11,22,241,30,32,20,312,,16,18,340,*72
$GPGSV,3,3,12,18,17,133,34,24,14,255,20,30,04,356,,21,00,090,*7D
$GPRMC,203629.000,A,3254.3806,S,06849.1586,W,1.46,193.59,080511,,,A*60
$GPGGA,203630.000,3254.3807,S,06849.1586,W,1,08,1.3,756.9,M,29.6,M,,0000*58
$GPGSA,M,3,22,06,11,14,24,03,18,19,,,,,2.1,1.3,1.6*3F
$GPRMC,203630.000,A,3254.3807,S,06849.1586,W,1.11,186.36,080511,,,A*66
$GPGGA,203631.000,3254.3812,S,06849.1586,W,1,08,1.3,757.6,M,29.6,M,,0000*53
$GPGSA,M,3,22,06,11,14,24,03,18,19,,,,,2.1,1.3,1.6*3F
$GPRMC,203631.000,A,3254.3812,S,06849.1586,W,0.65,178.03,080511,,,A*66
$GPGGA,203632.000,3254.3810,S,06849.1585,W,1,08,1.3,758.4,M,29.6,M,,0000*5C
$GPGSA,M,3,22,06,11,14,24,03,18,19,,,,,2.1,1.3,1.6*3F
$GPRMC,203632.000,A,3254.3810,S,06849.1585,W,0.27,218.95,080511,,,A*68
$GPGGA,203633.000,3254.3815,S,06849.1585,W,1,08,1.3,759.0,M,29.6,M,,0000*5D
$GPGSA,M,3,22,06,11,14,24,03,18,19,,,,,2.1,1.3,1.6*3F
$GPRMC,203633.000,A,3254.3815,S,06849.1585,W,0.77,195.67,080511,,,A*62
$GPGGA,203634.000,3254.3814,S,06849.1586,W,1,08,1.3,759.5,M,29.6,M,,0000*5D
$GPGSA,M,3,22,06,11,14,24,03,18,19,,,,,2.1,1.3,1.6*3F
$GPGSV,3,1,12,03,78,338,18,06,65,025,18,19,62,221,22,22,52,137,32*70
$GPGSV,3,2,12,14,41,066,15,11,22,241,29,32,20,312,,16,18,340,*79
$GPGSV,3,3,12,18,17,133,34,24,14,255,20,30,04,356,,21,00,090,*7D
$GPRMC,203634.000,A,3254.3814,S,06849.1586,W,1.06,193.73,080511,,,A*63
$GPGGA,203635.000,3254.3811,S,06849.1586,W,1,08,1.3,760.1,M,29.6,M,,0000*57
$GPGSA,M,3,22,06,11,14,24,03,18,19,,,,,2.1,1.3,1.6*3F
$GPRMC,203635.000,A,3254.3811,S,06849.1586,W,0.90,169.75,080511,,,A*6A
$GPGGA,203636.000,3254.3813,S,06849.1588,W,1,06,1.6,760.8,M,29.6,M,,0000*5A
$GPGSA,M,3,22,11,14,24,18,19,,,,,,,2.4,1.6,1.8*34
$GPRMC,203636.000,A,3254.3813,S,06849.1588,W,0.77,178.48,080511,,,A*62
$GPGGA,203637.000,3254.3811,S,06849.1588,W,1,06,1.6,760.4,M,29.6,M,,0000*55
$GPGSA,M,3,22,11,14,24,18,19,,,,,,,2.4,1.6,1.8*34
$GPRMC,203637.000,A,3254.3811,S,06849.1588,W,0.53,172.70,080511,,,A*66
$GPGGA,203638.000,3254.3810,S,06849.1589,W,1,06,1.6,760.5,M,29.6,M,,0000*5B
$GPGSA,M,3,22,11,14,24,18,19,,,,,,,2.4,1.6,1.8*34
$GPRMC,203638.000,A,3254.3810,S,06849.1589,W,0.14,137.89,080511,,,A*6D
$GPGGA,203639.000,3254.3807,S,06849.1591,W,1,08,1.3,760.8,M,29.6,M,,0000*53
$GPGSA,M,3,22,06,11,14,24,03,18,19,,,,,2.1,1.3,1.6*3F
$GPGSV,3,1,12,03,78,338,17,06,65,025,17,19,62,221,22,22,52,137,32*70
$GPGSV,3,2,12,14,41,066,13,11,22,241,29,32,20,312,,16,18,340,*7F
$GPGSV,3,3,12,18,17,133,35,24,14,255,20,30,04,356,,21,00,090,*7C
$GPRMC,203639.000,A,3254.3807,S,06849.1591,W,0.63,6.85,080511,,,A*6C
$GPGGA,203640.000,3254.3807,S,06849.1591,W,1,08,1.3,761.0,M,29.6,M,,0000*54
$GPGSA,M,3,22,06,11,14,24,03,18,19,,,,,2.1,1.3,1.6*3F
$GPRMC,203640.000,A,3254.3807,S,06849.1591,W,0.41,46.18,080511,,,A*52
$GPGGA,203641.000,3254.3814,S,06849.1593,W,1,07,1.7,762.0,M,29.6,M,,0000*5D
$GPGSA,M,3,22,06,11,24,03,18,19,,,,,,2.5,1.7,1.8*34
$GPRMC,203641.000,A,3254.3814,S,06849.1593,W,0.81,190.41,080511,,,A*69
$GPGGA,203642.000,3254.3821,S,06849.1597,W,1,07,1.7,762.7,M,29.6,M,,0000*5B
$GPGSA,M,3,22,06,11,24,03,18,19,,,,,,2.5,1.7,1.8*34
$GPRMC,203642.000,A,3254.3821,S,06849.1597,W,0.24,214.93,080511,,,A*67
$GPGGA,203643.000,3254.3814,S,06849.1597,W,1,07,1.7,762.7,M,29.6,M,,0000*5C
$GPGSA,M,3,22,06,11,24,03,18,19,,,,,,2.5,1.7,1.8*34
$GPRMC,203643.000,A,3254.3814,S,06849.1597,W,0.60,357.79,080511,,,A*62
$GPGGA,203644.000,3254.3813,S,06849.1599,W,1,06,1.7,763.1,M,29.6,M,,0000*54
$GPGSA,M,3,22,06,11,24,18,19,,,,,,,2.6,1.7,1.9*35
$GPGSV,3,1,12,03,78,338,17,06,65,025,17,19,62,221,22,22,52,137,31*73
$GPGSV,3,2,12,14,41,066,,11,22,241,28,32,20,312,,16,18,340,*7C
$GPGSV,3,3,12,18,17,133,35,24,14,255,20,30,04,356,,21,00,090,*7C
$GPRMC,203644.000,A,3254.3813,S,06849.1599,W,0.30,4.68,080511,,,A*6C
$GPGGA,203645.000,3254.3813,S,06849.1601,W,1,06,1.7,763.3,M,29.6,M,,0000*55
$GPGSA,M,3,22,06,11,24,18,19,,,,,,,2.6,1.7,1.9*35
$GPRMC,203645.000,A,3254.3813,S,06849.1601,W,0.40,172.57,080511,,,A*64
$GPGGA,203646.000,3254.3809,S,06849.1601,W,1,07,1.7,763.7,M,29.6,M,,0000*58
$GPGSA,M,3,22,06,11,24,03,18,19,,,,,,2.5,1.7,1.8*34
$GPRMC,203646.000,A,3254.3809,S,06849.1601,W,0.40,137.76,080511,,,A*6E
$GPGGA,203647.000,3254.3805,S,06849.1601,W,1,07,1.7,764.0,M,29.6,M,,0000*55
$GPGSA,M,3,22,06,11,24,03,18,19,,,,,,2.5,1.7,1.8*34
$GPRMC,203647.000,A,3254.3805,S,06849.1601,W,0.53,123.26,080511,,,A*61
$GPGGA,203648.000,3254.3806,S,06849.1602,W,1,07,1.7,764.4,M,29.6,M,,0000*5E
$GPGSA,M,3,22,06,11,24,03,18,19,,,,,,2.5,1.7,1.8*34
$GPRMC,203648.000,A,3254.3806,S,06849.1602,W,0.93,192.65,080511,,,A*6F
$GPGGA,203649.000,3254.3803,S,06849.1603,W,1,07,1.7,764.9,M,29.6,M,,0000*56
$GPGSA,M,3,22,06,11,24,03,18,19,,,,,,2.5,1.7,1.8*34
$GPGSV,3,1,11,03,77,339,18,06,65,025,16,19,62,222,23,22,51,137,31*71
$GPGSV,3,2,11,14,41,066,,11,22,241,27,32,20,312,,16,18,340,*70
$GPGSV,3,3,11,18,16,133,35,24,14,254,20,30,03,356,*42
$GPRMC,203649.000,A,3254.3803,S,06849.1603,W,0.95,185.60,080511,,,A*6F
$GPGGA,203650.000,3254.3812,S,06849.1604,W,1,07,1.7,765.4,M,29.6,M,,0000*55
$GPGSA,M,3,22,06,11,24,03,18,19,,,,,,2.5,1.7,1.8*34
$GPRMC,203650.000,A,3254.3812,S,06849.1604,W,0.97,172.80,080511,,,A*64
$GPGGA,203651.000,3254.3815,S,06849.1607,W,1,07,1.7,765.6,M,29.6,M,,0000*52
$GPGSA,M,3,22,06,11,24,03,18,19,,,,,,2.5,1.7,1.8*34
$GPRMC,203651.000,A,3254.3815,S,06849.1607,W,0.23,106.17,080511,,,A*63
$GPGGA,203652.000,3254.3818,S,06849.1608,W,1,06,2.4,765.4,M,29.6,M,,0000*50
$GPGSA,M,3,22,11,24,03,18,19,,,,,,,3.1,2.4,2.0*3C
$GPRMC,203652.000,A,3254.3818,S,06849.1608,W,0.32,205.66,080511,,,A*64
$GPGGA,203653.000,3254.3820,S,06849.1610,W,1,06,2.4,764.7,M,29.6,M,,0000*51
$GPGSA,M,3,22,11,24,03,18,19,,,,,,,3.1,2.4,2.0*3C
$GPRMC,203653.000,A,3254.3820,S,06849.1610,W,0.44,342.28,080511,,,A*6E
$GPGGA,203654.000,3254.3819,S,06849.1613,W,1,06,2.4,764.0,M,29.6,M,,0000*58
$GPGSA,M,3,22,11,24,03,18,19,,,,,,,3.1,2.4,2.0*3C
$GPGSV,3,1,11,03,77,339,20,06,65,025,15,19,62,222,24,22,51,137,30*7F
$GPGSV,3,2,11,14,41,066,,11,22,241,26,32,20,312,,16,18,340,*71
$GPGSV,3,3,11,18,16,133,35,24,14,254,19,30,03,356,*48
$GPRMC,203654.000,A,3254.3819,S,06849.1613,W,0.25,287.38,080511,,,A*6E
$GPGGA,203655.000,3254.3821,S,06849.1615,W,1,07,1.7,762.2,M,29.6,M,,0000*51
$GPGSA,M,3,22,06,11,24,03,18,19,,,,,,2.5,1.7,1.8*34
$GPRMC,203655.000,A,3254.3821,S,06849.1615,W,0.99,203.23,080511,,,A*63
$GPGGA,203656.000,3254.3824,S,06849.1620,W,1,07,1.7,761.6,M,29.6,M,,0000*56
$GPGSA,M,3,22,06,11,24,03,18,19,,,,,,2.5,1.7,1.8*34
$GPRMC,203656.000,A,3254.3824,S,06849.1620,W,1.04,207.14,080511,,,A*66
$GPGGA,203657.000,3254.3828,S,06849.1622,W,1,07,1.7,760.6,M,29.6,M,,0000*58
$GPGSA,M,3,22,06,11,24,03,18,19,,,,,,2.5,1.7,1.8*34
$GPRMC,203657.000,A,3254.3828,S,06849.1622,W,0.47,180.29,080511,,,A*6D
$GPGGA,203658.000,3254.3833,S,06849.1624,W,1,06,2.4,759.8,M,29.6,M,,0000*5E
$GPGSA,M,3,22,11,24,03,18,19,,,,,,,3.1,2.4,2.0*3C
$GPRMC,203658.000,A,3254.3833,S,06849.1624,W,0.72,182.71,080511,,,A*67
$GPGGA,203659.000,3254.3836,S,06849.1625,W,1,06,2.4,758.4,M,29.6,M,,0000*56
$GPGSA,M,3,22,11,24,03,18,19,,,,,,,3.1,2.4,2.0*3C
$GPGSV,3,1,11,03,77,339,22,06,65,025,15,19,62,222,25,22,51,137,30*7C
$GPGSV,3,2,11,14,41,066,,11,22,241,25,32,20,312,,16,18,340,*72
$GPGSV,3,3,11,18,16,133,35,24,14,254,19,30,03,356,*48
$GPRMC,203659.000,A,3254.3836,S,06849.1625,W,0.17,216.38,080511,,,A*62
$GPGGA,203700.000,3254.3843,S,06849.1627,W,1,06,2.4,757.3,M,29.6,M,,0000*53
$GPGSA,M,3,22,11,24,03,18,19,,,,,,,3.1,2.4,2.0*3C
$GPRMC,203700.000,A,3254.3843,S,06849.1627,W,0.53,220.75,080511,,,A*63
$GPGGA,203701.000,3254.3837,S,06849.1626,W,1,06,2.4,756.4,M,29.6,M,,0000*56
$GPGSA,M,3,22,11,24,03,18,19,,,,,,,3.1,2.4,2.0*3C
$GPRMC,203701.000,A,3254.3837,S,06849.1626,W,0.77,209.19,080511,,,A*67
$GPGGA,203702.000,3254.3832,S,06849.1624,W,1,07,1.7,755.5,M,29.6,M,,0000*51
$GPGSA,M,3,22,06,11,24,03,18,19,,,,,,2.5,1.7,1.8*34
$GPRMC,203702.000,A,3254.3832,S,06849.1624,W,1.08,193.23,080511,,,A*63
$GPGGA,203703.000,3254.3839,S,06849.1624,W,1,07,1.7,755.5,M,29.6,M,,0000*5B
$GPGSA,M,3,22,06,11,24,03,18,19,,,,,,2.5,1.7,1.8*34
$GPRMC,203703.000,A,3254.3839,S,06849.1624,W,1.30,188.61,080511,,,A*6E
$GPGGA,203704.000,3254.3834,S,06849.1622,W,1,07,1.7,754.9,M,29.6,M,,0000*5A
$GPGSA,M,3,22,06,11,24,03,18,19,,,,,,2.5,1.7,1.8*34
$GPGSV,3,1,11,03,77,339,23,06,65,025,16,19,62,222,26,22,51,137,30*7D
$GPGSV,3,2,11,14,41,066,,11,22,241,25,32,20,312,,16,18,340,*72
$GPGSV,3,3,11,18,16,133,35,24,14,254,19,30,03,356,*48
$GPRMC,203704.000,A,3254.3834,S,06849.1622,W,0.28,219.75,080511,,,A*64
$GPGGA,203705.000,3254.3828,S,06849.1619,W,1,07,1.7,754.5,M,29.6,M,,0000*52
$GPGSA,M,3,22,06,11,24,03,18,19,,,,,,2.5,1.7,1.8*34
$GPRMC,203705.000,A,3254.3828,S,06849.1619,W,1.18,15.52,080511,,,A*59
$GPGGA,203706.000,3254.3821,S,06849.1615,W,1,07,1.7,754.2,M,29.6,M,,0000*53
$GPGSA,M,3,22,06,11,24,03,18,19,,,,,,2.5,1.7,1.8*34
$GPRMC,203706.000,A,3254.3821,S,06849.1615,W,1.51,17.84,080511,,,A*5B
$GPGGA,203707.000,3254.3804,S,06849.1610,W,1,07,1.7,752.9,M,29.6,M,,0000*5D
$GPGSA,M,3,22,06,11,24,03,18,19,,,,,,2.5,1.7,1.8*34
$GPRMC,203707.000,A,3254.3804,S,06849.1610,W,2.09,19.18,080511,,,A*5D
$GPGGA,203708.000,3254.3795,S,06849.1604,W,1,07,1.7,753.0,M,29.6,M,,0000*58
$GPGSA,M,3,22,06,11,24,03,18,19,,,,,,2.5,1.7,1.8*34
$GPRMC,203708.000,A,3254.3795,S,06849.1604,W,2.29,14.17,080511,,,A*50
$GPGGA,203709.000,3254.3785,S,06849.1600,W,1,07,1.7,752.9,M,29.6,M,,0000*54
$GPGSA,M,3,22,06,11,24,03,18,19,,,,,,2.5,1.7,1.8*34
$GPGSV,3,1,11,03,77,339,22,06,65,025,15,19,62,222,27,22,51,137,30*7E
$GPGSV,3,2,11,14,41,066,,11,22,241,24,32,20,312,,16,18,340,*73
$GPGSV,3,3,11,18,16,133,35,24,14,254,20,30,03,356,*42
$GPRMC,203709.000,A,3254.3785,S,06849.1600,W,2.26,10.61,080511,,,A*5E
$GPGGA,203710.000,3254.3769,S,06849.1598,W,1,07,1.7,751.6,M,29.6,M,,0000*50
$GPGSA,M,3,22,06,11,24,03,18,19,,,,,,2.5,1.7,1.8*34
$GPRMC,203710.000,A,3254.3769,S,06849.1598,W,2.60,6.83,080511,,,A*6F
$GPGGA,203711.000,3254.3757,S,06849.1593,W,1,07,1.7,751.5,M,29.6,M,,0000*54
$GPGSA,M,3,22,06,11,24,03,18,19,,,,,,2.5,1.7,1.8*34
$GPRMC,203711.000,A,3254.3757,S,06849.1593,W,2.70,6.38,080511,,,A*69
$GPGGA,203712.000,3254.3750,S,06849.1590,W,1,07,1.7,751.7,M,29.6,M,,0000*51
$GPGSA,M,3,22,06,11,24,03,18,19,,,,,,2.5,1.7,1.8*34
$GPRMC,203712.000,A,3254.3750,S,06849.1590,W,2.72,11.11,080511,,,A*51
$GPGGA,203713.000,3254.3741,S,06849.1588,W,1,07,1.7,751.6,M,29.6,M,,0000*58
$GPGSA,M,3,22,06,11,24,03,18,19,,,,,,2.5,1.7,1.8*34
$GPRMC,203713.000,A,3254.3741,S,06849.1588,W,1.88,11.54,080511,,,A*5E
$GPGGA,203714.000,3254.3726,S,06849.1586,W,1,07,1.7,750.2,M,29.6,M,,0000*55
$GPGSA,M,3,22,06,11,24,03,18,19,,,,,,2.5,1.7,1.8*34
$GPGSV,3,1,11,03,77,339,17,06,65,025,15,19,62,222,27,22,51,137,30*78
$GPGSV,3,2,11,14,41,066,,11,22,241,23,32,20,312,,16,18,340,*74
$GPGSV,3,3,11,18,16,133,35,24,14,254,20,30,03,356,*42
$GPRMC,203714.000,A,3254.3726,S,06849.1586,W,2.22,14.94,080511,,,A*5C
$GPGGA,203715.000,3254.3713,S,06849.1583,W,1,06,1.7,749.1,M,29.6,M,,0000*5D
$GPGSA,M,3,22,06,11,24,18,19,,,,,,,2.6,1.7,1.9*35
$GPRMC,203715.000,A,3254.3713,S,06849.1583,W,2.03,14.12,080511,,,A*53
$GPGGA,203716.000,3254.3705,S,06849.1581,W,1,06,1.7,748.3,M,29.6,M,,0000*58
$GPGSA,M,3,22,06,11,24,18,19,,,,,,,2.6,1.7,1.9*35
$GPRMC,203716.000,A,3254.3705,S,06849.1581,W,1.96,21.20,080511,,,A*5D
$GPGGA,203717.000,3254.3709,S,06849.1584,W,1,06,1.7,748.1,M,29.6,M,,0000*52
$GPGSA,M,3,22,06,11,24,18,19,,,,,,,2.6,1.7,1.9*35
$GPRMC,203717.000,A,3254.3709,S,06849.1584,W,0.61,345.79,080511,,,A*61
$GPGGA,203718.000,3254.3713,S,06849.1585,W,1,06,1.7,748.2,M,29.6,M,,0000*54
$GPGSA,M,3,22,06,11,24,18,19,,,,,,,2.6,1.7,1.9*35
$GPRMC,203718.000,A,3254.3713,S,06849.1585,W,0.32,262.11,080511,,,A*68
$GPGGA,203719.000,3254.3717,S,06849.1589,W,1,06,1.7,747.4,M,29.6,M,,0000*54
$GPGSA,M,3,22,06,11,24,18,19,,,,,,,2.6,1.7,1.9*35
$GPGSV,3,1,11,03,77,339,16,06,65,025,15,19,62,222,28,22,51,137,29*7E
$GPGSV,3,2,11,14,41,066,,11,22,241,22,32,20,312,,16,18,340,*75
$GPGSV,3,3,11,18,16,133,35,24,14,254,20,30,03,356,*42
$GPRMC,203719.000,A,3254.3717,S,06849.1589,W,0.73,227.22,080511,,,A*65
$GPGGA,203720.000,3254.3721,S,06849.1593,W,1,06,1.7,747.0,M,29.6,M,,0000*54
$GPGSA,M,3,22,06,11,24,18,19,,,,,,,2.6,1.7,1.9*35
$GPRMC,203720.000,A,3254.3721,S,06849.1593,W,0.10,353.10,080511,,,A*67
$GPGGA,203721.000,3254.3731,S,06849.1595,W,1,06,1.7,747.5,M,29.6,M,,0000*57
$GPGSA,M,3,22,06,11,24,18,19,,,,,,,2.6,1.7,1.9*35
$GPRMC,203721.000,A,3254.3731,S,06849.1595,W,0.62,41.99,080511,,,A*55
$GPGGA,203722.000,3254.3724,S,06849.1593,W,1,07,1.7,747.4,M,29.6,M,,0000*56
$GPGSA,M,3,22,06,11,24,03,18,19,,,,,,2.5,1.7,1.8*34
$GPRMC,203722.000,A,3254.3724,S,06849.1593,W,1.00,16.58,080511,,,A*5E
$GPGGA,203723.000,3254.3712,S,06849.1589,W,1,07,1.7,746.8,M,29.6,M,,0000*54
$GPGSA,M,3,22,06,11,24,03,18,19,,,,,,2.5,1.7,1.8*34
$GPRMC,203723.000,A,3254.3712,S,06849.1589,W,1.80,23.77,080511,,,A*52
$GPGGA,203724.000,3254.3711,S,06849.1588,W,1,07,1.7,746.5,M,29.6,M,,0000*5C
$GPGSA,M,3,22,06,11,24,03,18,19,,,,,,2.5,1.7,1.8*34
$GPGSV,3,1,11,03,77,339,18,06,65,025,16,19,62,222,28,22,51,137,29*73
$GPGSV,3,2,11,14,41,066,,11,22,241,21,32,20,312,,16,18,340,*76
$GPGSV,3,3,11,18,16,133,35,24,14,254,19,30,03,356,*48
$GPRMC,203724.000,A,3254.3711,S,06849.1588,W,0.62,19.31,080511,,,A*51
$GPGGA,203725.000,3254.3716,S,06849.1590,W,1,08,1.3,746.7,M,29.6,M,,0000*5A
$GPGSA,M,3,22,06,11,14,24,03,18,19,,,,,2.1,1.3,1.6*3F
$GPRMC,203725.000,A,3254.3716,S,06849.1590,W,0.43,26.63,080511,,,A*56
$GPGGA,203726.000,3254.3727,S,06849.1595,W,1,08,1.3,747.6,M,29.6,M,,0000*5E
$GPGSA,M,3,22,06,11,14,24,03,18,19,,,,,2.1,1.3,1.6*3F
$GPRMC,203726.000,A,3254.3727,S,06849.1595,W,0.38,21.00,080511,,,A*5C
$GPGGA,203727.000,3254.3737,S,06849.1599,W,1,08,1.3,747.6,M,29.6,M,,0000*52
$GPGSA,M,3,22,06,11,14,24,03,18,19,,,,,2.1,1.3,1.6*3F
$GPRMC,203727.000,A,3254.3737,S,06849.1599,W,0.54,23.48,080511,,,A*54
$GPGGA,203728.000,3254.3743,S,06849.1600,W,1,08,1.3,748.5,M,29.6,M,,0000*51
$GPGSA,M,3,22,06,11,14,24,03,18,19,,,,,2.1,1.3,1.6*3F
$GPRMC,203728.000,A,3254.3743,S,06849.1600,W,0.59,180.28,080511,,,A*68
$GPGGA,203729.000,3254.3755,S,06849.1602,W,1,08,1.3,747.9,M,29.6,M,,0000*56
$GPGSA,M,3,22,06,11,14,24,03,18,19,,,,,2.1,1.3,1.6*3F
$GPGSV,3,1,11,03,77,339,24,06,65,025,16,19,62,222,28,22,51,137,28*7D
$GPGSV,3,2,11,14,41,066,20,11,22,241,21,32,20,312,,16,18,340,*74
$GPGSV,3,3,11,18,16,133,35,24,14,254,19,30,03,356,*48
$GPRMC,203729.000,A,3254.3755,S,06849.1602,W,0.66,177.48,080511,,,A*6E
$GPGGA,203730.000,3254.3767,S,06849.1604,W,1,08,1.3,748.7,M,29.6,M,,0000*58
$GPGSA,M,3,22,06,11,14,24,03,18,19,,,,,2.1,1.3,1.6*3F
$GPRMC,203730.000,A,3254.3767,S,06849.1604,W,0.57,130.21,080511,,,A*6F
$GPGGA,203731.000,3254.3771,S,06849.1603,W,1,08,1.3,749.1,M,29.6,M,,0000*5E
$GPGSA,M,3,22,06,11,14,24,03,18,19,,,,,2.1,1.3,1.6*3F
$GPRMC,203731.000,A,3254.3771,S,06849.1603,W,0.95,164.84,080511,,,A*6E
$GPGGA,203732.000,3254.3777,S,06849.1604,W,1,08,1.3,748.0,M,29.6,M,,0000*5C
$GPGSA,M,3,22,06,11,14,24,03,18,19,,,,,2.1,1.3,1.6*3F
$GPRMC,203732.000,A,3254.3777,S,06849.1604,W,0.62,172.91,080511,,,A*67
$GPGGA,203733.000,3254.3777,S,06849.1602,W,1,08,1.3,746.7,M,29.6,M,,0000*52
$GPGSA,M,3,22,06,11,14,24,03,18,19,,,,,2.1,1.3,1.6*3F
$GPRMC,203733.000,A,3254.3777,S,06849.1602,W,0.50,199.01,080511,,,A*6D
$GPGGA,203734.000,3254.3777,S,06849.1602,W,1,08,1.3,745.5,M,29.6,M,,0000*54
$GPGSA,M,3,22,06,11,14,24,03,18,19,,,,,2.1,1.3,1.6*3F
$GPGSV,3,1,11,03,77,339,25,06,65,025,16,19,62,222,28,22,51,137,28*7C
$GPGSV,3,2,11,14,41,066,19,11,22,241,20,32,20,312,,16,18,340,*7F
$GPGSV,3,3,11,18,16,133,35,24,14,254,18,30,03,356,*49
$GPRMC,203734.000,A,3254.3777,S,06849.1602,W,0.83,191.34,080511,,,A*6A
$GPGGA,203735.000,3254.3786,S,06849.1602,W,1,08,1.3,745.7,M,29.6,M,,0000*59
$GPGSA,M,3,22,06,11,14,24,03,18,19,,,,,2.1,1.3,1.6*3F
$GPRMC,203735.000,A,3254.3786,S,06849.1602,W,1.51,176.50,080511,,,A*60
$GPGGA,203736.000,3254.3802,S,06849.1603,W,1,08,1.3,747.4,M,29.6,M,,0000*59
$GPGSA,M,3,22,06,11,14,24,03,18,19,,,,,2.1,1.3,1.6*3F
$GPRMC,203736.000,A,3254.3802,S,06849.1603,W,2.36,176.98,080511,,,A*67
$GPGGA,203737.000,3254.3814,S,06849.1606,W,1,08,1.3,748.0,M,29.6,M,,0000*51
$GPGSA,M,3,22,06,11,14,24,03,18,19,,,,,2.1,1.3,1.6*3F
$GPRMC,203737.000,A,3254.3814,S,06849.1606,W,2.03,180.15,080511,,,A*6E
$GPGGA,203738.000,3254.3820,S,06849.1607,W,1,08,1.3,748.2,M,29.6,M,,0000*5A
$GPGSA,M,3,22,06,11,14,24,03,18,19,,,,,2.1,1.3,1.6*3F
$GPRMC,203738.000,A,3254.3820,S,06849.1607,W,0.88,189.16,080511,,,A*6C
$GPGGA,203739.000,3254.3821,S,06849.1610,W,1,07,1.7,747.8,M,29.6,M,,0000*52
$GPGSA,M,3,22,06,11,24,03,18,19,,,,,,2.5,1.7,1.8*34
$GPGSV,3,1,11,03,77,339,25,06,65,025,16,19,62,222,27,22,51,137,27*7C
$GPGSV,3,2,11,14,41,066,19,11,22,241,20,32,20,312,,16,18,340,*7F
$GPGSV,3,3,11,18,16,133,35,24,14,254,19,30,03,356,*48
$GPRMC,203739.000,A,3254.3821,S,06849.1610,W,1.28,190.42,080511,,,A*68
$GPGGA,203740.000,3254.3824,S,06849.1614,W,1,08,1.3,747.2,M,29.6,M,,0000*5C
$GPGSA,M,3,22,06,11,14,24,03,18,19,,,,,2.1,1.3,1.6*3F
$GPRMC,203740.000,A,3254.3824,S,06849.1614,W,0.99,197.15,080511,,,A*69
$GPGGA,203741.000,3254.3825,S,06849.1616,W,1,08,1.3,747.7,M,29.6,M,,0000*5B
$GPGSA,M,3,22,06,11,14,24,03,18,19,,,,,2.1,1.3,1.6*3F
