$GPGGA,172858.001,3347.4495,S,06903.8573,W,1,09,1.0,958.6,M,28.9,M,,0000*50
$GPGSA,M,3,30,21,18,16,06,22,29,03,31,,,,1.8,1.0,1.5*30
$GPRMC,172858.001,A,3347.4495,S,06903.8573,W,29.12,190.01,090511,,,A*56
$GPGGA,172859.001,3347.4578,S,06903.8590,W,1,09,1.0,958.8,M,28.9,M,,0000*50
$GPGSA,M,3,30,21,18,16,06,22,29,03,31,,,,1.8,1.0,1.5*30
$GPRMC,172859.001,A,3347.4578,S,06903.8590,W,29.08,190.55,090511,,,A*52
$GPGGA,172859.997,3347.4657,S,06903.8606,W,1,09,1.0,958.2,M,28.9,M,,0000*5E
$GPGSA,M,3,30,21,18,16,06,22,29,03,31,,,,1.8,1.0,1.5*30
$GPRMC,172859.997,A,3347.4657,S,06903.8606,W,29.07,189.33,090511,,,A*51
$GPGGA,172901.002,3347.4737,S,06903.8624,W,1,09,1.0,957.6,M,28.9,M,,0000*5B
$GPGSA,M,3,30,21,18,16,06,22,29,03,31,,,,1.8,1.0,1.5*30
$GPGSV,3,1,11,30,67,262,39,21,60,147,40,18,51,037,39,16,47,229,39*72
$GPGSV,3,2,11,06,31,234,37,22,29,000,39,29,23,089,35,03,20,237,39*7C
$GPGSV,3,3,11,31,12,324,37,25,10,028,29,15,02,095,18*4D
$GPRMC,172901.002,A,3347.4737,S,06903.8624,W,28.57,191.14,090511,,,A*57
$GPGGA,172901.999,3347.4817,S,06903.8642,W,1,09,1.0,957.5,M,28.9,M,,0000*5E
$GPGSA,M,3,30,21,18,16,06,22,29,03,31,,,,1.8,1.0,1.5*30
$GPRMC,172901.999,A,3347.4817,S,06903.8642,W,29.10,190.00,090511,,,A*57
$GPGGA,172902.999,3347.4897,S,06903.8656,W,1,08,1.0,956.6,M,28.9,M,,0000*53
$GPGSA,M,3,30,21,18,16,06,22,29,31,,,,,2.0,1.0,1.7*3A
$GPRMC,172902.999,A,3347.4897,S,06903.8656,W,28.84,188.80,090511,,,A*54
$GPGGA,172904.003,3347.4980,S,06903.8670,W,1,09,1.0,956.2,M,28.9,M,,0000*59
$GPGSA,M,3,30,21,18,16,06,22,29,03,31,,,,1.8,1.0,1.5*30
$GPRMC,172904.003,A,3347.4980,S,06903.8670,W,29.38,188.92,090511,,,A*5E
$GPGGA,172904.999,3347.5061,S,06903.8686,W,1,09,1.0,955.8,M,28.9,M,,0000*54
$GPGSA,M,3,30,21,18,16,06,22,29,03,31,,,,1.8,1.0,1.5*30
$GPRMC,172904.999,A,3347.5061,S,06903.8686,W,29.13,190.39,090511,,,A*5B
$GPGGA,172906.000,3347.5140,S,06903.8703,W,1,09,1.0,956.0,M,28.9,M,,0000*5A
$GPGSA,M,3,30,21,18,16,06,22,29,03,31,,,,1.8,1.0,1.5*30
$GPGSV,3,1,11,30,68,266,38,21,59,146,39,18,52,039,38,16,48,230,40*78
$GPGSV,3,2,11,06,33,233,37,22,31,000,39,29,23,088,37,03,21,236,37*7D
$GPGSV,3,3,11,31,11,325,39,25,09,028,26,15,03,096,31*4F
$GPRMC,172906.000,A,3347.5140,S,06903.8703,W,29.04,189.64,090511,,,A*58
$GPGGA,172907.000,3347.5220,S,06903.8719,W,1,09,1.0,955.8,M,28.9,M,,0000*5E
$GPGSA,M,3,30,21,18,16,06,22,29,03,31,,,,1.8,1.0,1.5*30
$GPRMC,172907.000,A,3347.5220,S,06903.8719,W,28.84,189.74,090511,,,A*5F
$GPGGA,172908.002,3347.5299,S,06903.8732,W,1,08,1.0,955.2,M,28.9,M,,0000*53
$GPGSA,M,3,30,21,18,16,06,22,29,31,,,,,2.0,1.0,1.7*3A
$GPRMC,172908.002,A,3347.5299,S,06903.8732,W,28.89,189.58,090511,,,A*5A
$GPGGA,172908.998,3347.5379,S,06903.8751,W,1,09,1.0,955.5,M,28.9,M,,0000*55
$GPGSA,M,3,30,21,18,16,06,22,29,03,31,,,,1.8,1.0,1.5*30
$GPRMC,172908.998,A,3347.5379,S,06903.8751,W,28.90,190.04,090511,,,A*53
$GPGGA,172910.000,3347.5458,S,06903.8769,W,1,09,1.0,955.4,M,28.9,M,,0000*5A
$GPGSA,M,3,30,21,18,16,06,22,29,03,31,,,,1.8,1.0,1.5*30
$GPRMC,172910.000,A,3347.5458,S,06903.8769,W,29.12,190.70,090511,,,A*55
$GPGGA,172911.002,3347.5539,S,06903.8788,W,1,09,1.0,955.5,M,28.9,M,,0000*51
$GPGSA,M,3,30,21,18,16,06,22,29,03,31,,,,1.8,1.0,1.5*30
$GPGSV,3,1,11,30,68,266,39,21,59,146,40,18,52,039,38,16,48,230,40*77
$GPGSV,3,2,11,06,33,233,38,22,31,000,39,29,23,088,37,03,21,236,37*72
$GPGSV,3,3,11,31,11,325,38,25,09,028,26,15,03,096,*4C
$GPRMC,172911.002,A,3347.5539,S,06903.8788,W,29.09,190.49,090511,,,A*5F
$GPGGA,172911.997,3347.5618,S,06903.8807,W,1,09,1.0,955.4,M,28.9,M,,0000*5D
$GPGSA,M,3,30,21,18,16,06,22,29,03,31,,,,1.8,1.0,1.5*30
$GPRMC,172911.997,A,3347.5618,S,06903.8807,W,29.25,191.16,090511,,,A*57
$GPGGA,172913.002,3347.5698,S,06903.8825,W,1,09,1.0,955.4,M,28.9,M,,0000*52
$GPGSA,M,3,30,21,18,16,06,22,29,03,31,,,,1.8,1.0,1.5*30
$GPRMC,172913.002,A,3347.5698,S,06903.8825,W,29.69,190.46,090511,,,A*54
$GPGGA,172913.999,3347.5779,S,06903.8845,W,1,09,1.0,956.3,M,28.9,M,,0000*55
$GPGSA,M,3,30,21,18,16,06,22,29,03,31,,,,1.8,1.0,1.5*30
$GPRMC,172913.999,A,3347.5779,S,06903.8845,W,29.47,190.48,090511,,,A*55
$GPGGA,172915.001,3347.5860,S,06903.8862,W,1,09,1.0,955.7,M,28.9,M,,0000*5E
$GPGSA,M,3,30,21,18,16,06,22,29,03,31,,,,1.8,1.0,1.5*30
$GPRMC,172915.001,A,3347.5860,S,06903.8862,W,29.25,191.64,090511,,,A*52
$GPGGA,172916.002,3347.5940,S,06903.8882,W,1,09,1.0,955.6,M,28.9,M,,0000*52
$GPGSA,M,3,30,21,18,16,06,22,29,03,31,,,,1.8,1.0,1.5*30
$GPGSV,3,1,11,30,68,266,37,21,59,146,39,18,52,039,39,16,48,230,40*76
$GPGSV,3,2,11,06,33,233,38,22,31,000,40,29,23,088,36,03,21,236,37*7D
$GPGSV,3,3,11,31,11,325,37,25,09,028,,15,03,096,35*41
$GPRMC,172916.002,A,3347.5940,S,06903.8882,W,29.63,189.87,090511,,,A*59
$GPGGA,172916.998,3347.6018,S,06903.8900,W,1,09,1.0,956.5,M,28.9,M,,0000*54
$GPGSA,M,3,30,21,18,16,06,22,29,03,31,,,,1.8,1.0,1.5*30
$GPRMC,172916.998,A,3347.6018,S,06903.8900,W,29.34,191.61,090511,,,A*5C
$GPGGA,172917.999,3347.6097,S,06903.8920,W,1,09,1.0,956.7,M,28.9,M,,0000*53
$GPGSA,M,3,30,21,18,16,06,22,29,03,31,,,,1.8,1.0,1.5*30
$GPRMC,172917.999,A,3347.6097,S,06903.8920,W,29.39,191.49,090511,,,A*5E
$GPGGA,172919.002,3347.6179,S,06903.8940,W,1,09,1.0,957.1,M,28.9,M,,0000*56
$GPGSA,M,3,30,21,18,16,06,22,29,03,31,,,,1.8,1.0,1.5*30
$GPRMC,172919.002,A,3347.6179,S,06903.8940,W,29.79,191.05,090511,,,A*50
$GPGGA,172919.999,3347.6260,S,06903.8960,W,1,09,1.0,956.9,M,28.9,M,,0000*5D
$GPGSA,M,3,30,21,18,16,06,22,29,03,31,,,,1.8,1.0,1.5*30
$GPRMC,172919.999,A,3347.6260,S,06903.8960,W,29.44,190.56,090511,,,A*5B
$GPGGA,172920.999,3347.6341,S,06903.8978,W,1,09,1.0,957.0,M,28.9,M,,0000*54
$GPGSA,M,3,30,21,18,16,06,22,29,03,31,,,,1.8,1.0,1.5*30
$GPGSV,3,1,11,30,68,266,38,21,59,146,40,18,52,039,38,16,48,230,40*76
$GPGSV,3,2,11,06,33,233,38,22,31,000,39,29,23,088,34,03,21,236,36*70
$GPGSV,3,3,11,31,11,325,36,25,09,028,23,15,03,096,33*47
$GPRMC,172920.999,A,3347.6341,S,06903.8978,W,29.72,190.53,090511,,,A*5A
$GPGGA,172921.999,3347.6426,S,06903.8996,W,1,09,1.0,956.5,M,28.9,M,,0000*57
$GPGSA,M,3,30,21,18,16,06,22,29,03,31,,,,1.8,1.0,1.5*30
$GPRMC,172921.999,A,3347.6426,S,06903.8996,W,29.98,189.57,090511,,,A*55
$GPGGA,172922.999,3347.6509,S,06903.9013,W,1,09,1.0,956.5,M,28.9,M,,0000*5D
$GPGSA,M,3,30,21,18,16,06,22,29,03,31,,,,1.8,1.0,1.5*30
$GPRMC,172922.999,A,3347.6509,S,06903.9013,W,29.86,190.07,090511,,,A*5D
$GPGGA,172924.001,3347.6594,S,06903.9029,W,1,09,1.0,955.9,M,28.9,M,,0000*51
$GPGSA,M,3,30,21,18,16,06,22,29,03,31,,,,1.8,1.0,1.5*30
$GPRMC,172924.001,A,3347.6594,S,06903.9029,W,30.04,189.81,090511,,,A*5A
$GPGGA,172925.001,3347.6681,S,06903.9046,W,1,09,1.0,954.7,M,28.9,M,,0000*51
$GPGSA,M,3,30,21,18,16,06,22,29,03,31,,,,1.8,1.0,1.5*30
$GPRMC,172925.001,A,3347.6681,S,06903.9046,W,30.75,189.80,090511,,,A*52
$GPGGA,172926.000,3347.6763,S,06903.9063,W,1,09,1.0,954.7,M,28.9,M,,0000*59
$GPGSA,M,3,30,21,18,16,06,22,29,03,31,,,,1.8,1.0,1.5*30
$GPGSV,3,1,11,30,68,266,38,21,59,146,41,18,52,039,39,16,48,230,39*78
$GPGSV,3,2,11,06,33,233,38,22,31,000,39,29,23,088,33,03,21,236,40*76
$GPGSV,3,3,11,31,11,325,35,25,09,028,,15,03,096,35*43
$GPRMC,172926.000,A,3347.6763,S,06903.9063,W,29.85,188.52,090511,,,A*53
$GPGGA,172927.000,3347.6847,S,06903.9078,W,1,09,1.0,954.4,M,28.9,M,,0000*58
$GPGSA,M,3,30,21,18,16,06,22,29,03,31,,,,1.8,1.0,1.5*30
$GPRMC,172927.000,A,3347.6847,S,06903.9078,W,29.66,189.60,090511,,,A*5C
$GPGGA,172928.002,3347.6930,S,06903.9096,W,1,09,1.0,954.2,M,28.9,M,,0000*52
$GPGSA,M,3,30,21,18,16,06,22,29,03,31,,,,1.8,1.0,1.5*30
$GPRMC,172928.002,A,3347.6930,S,06903.9096,W,29.98,190.43,090511,,,A*58
$GPGGA,172929.003,3347.7013,S,06903.9112,W,1,09,1.0,953.6,M,28.9,M,,0000*55
$GPGSA,M,3,30,21,18,16,06,22,29,03,31,,,,1.8,1.0,1.5*30
$GPRMC,172929.003,A,3347.7013,S,06903.9112,W,29.90,189.30,090511,,,A*58
$GPGGA,172929.997,3347.7095,S,06903.9127,W,1,09,1.0,953.7,M,28.9,M,,0000*58
$GPGSA,M,3,30,21,18,16,06,22,29,03,31,,,,1.8,1.0,1.5*30
$GPRMC,172929.997,A,3347.7095,S,06903.9127,W,29.55,189.12,090511,,,A*5D
$GPGGA,172931.000,3347.7177,S,06903.9143,W,1,09,1.0,954.2,M,28.9,M,,0000*5B
$GPGSA,M,3,30,21,18,16,06,22,29,03,31,,,,1.8,1.0,1.5*30
$GPGSV,3,1,11,30,68,266,38,21,59,146,40,18,52,039,39,16,48,230,38*78
$GPGSV,3,2,11,06,33,233,40,22,31,000,37,29,23,088,37,03,21,236,40*73
$GPGSV,3,3,11,31,11,325,37,25,09,028,29,15,03,096,32*4D
$GPRMC,172931.000,A,3347.7177,S,06903.9143,W,29.55,187.60,090511,,,A*57
$GPGGA,172931.998,3347.7259,S,06903.9156,W,1,09,1.0,954.1,M,28.9,M,,0000*5B
$GPGSA,M,3,30,21,18,16,06,22,29,03,31,,,,1.8,1.0,1.5*30
$GPRMC,172931.998,A,3347.7259,S,06903.9156,W,29.56,187.61,090511,,,A*56
$GPGGA,172933.001,3347.7338,S,06903.9175,W,1,09,1.0,955.0,M,28.9,M,,0000*57
$GPGSA,M,3,30,21,18,16,06,22,29,03,31,,,,1.8,1.0,1.5*30
$GPRMC,172933.001,A,3347.7338,S,06903.9175,W,29.06,189.60,090511,,,A*50
$GPGGA,172934.002,3347.7419,S,06903.9190,W,1,09,1.0,955.8,M,28.9,M,,0000*54
$GPGSA,M,3,30,21,18,16,06,22,29,03,31,,,,1.8,1.0,1.5*30
$GPRMC,172934.002,A,3347.7419,S,06903.9190,W,29.20,189.22,090511,,,A*59
$GPGGA,172934.999,3347.7499,S,06903.9208,W,1,09,1.0,956.5,M,28.9,M,,0000*5B
$GPGSA,M,3,30,21,18,16,06,22,29,03,31,,,,1.8,1.0,1.5*30
$GPRMC,172934.999,A,3347.7499,S,06903.9208,W,30.60,187.93,090511,,,A*50
$GPGGA,172936.000,3347.7582,S,06903.9224,W,1,09,1.0,957.4,M,28.9,M,,0000*55
$GPGSA,M,3,30,21,18,16,06,22,29,03,31,,,,1.8,1.0,1.5*30
$GPGSV,3,1,11,30,68,266,38,21,59,146,40,18,52,039,39,16,48,230,39*79
$GPGSV,3,2,11,06,33,233,39,22,31,000,37,29,23,088,38,03,21,236,38*7D
$GPGSV,3,3,11,31,11,325,39,25,09,028,30,15,03,096,31*48
$GPRMC,172936.000,A,3347.7582,S,06903.9224,W,29.79,188.49,090511,,,A*56
$GPGGA,172937.001,3347.7667,S,06903.9238,W,1,09,1.0,957.2,M,28.9,M,,0000*56
$GPGSA,M,3,30,21,18,16,06,22,29,03,31,,,,1.8,1.0,1.5*30
$GPRMC,172937.001,A,3347.7667,S,06903.9238,W,29.81,188.26,090511,,,A*5D
$GPGGA,172938.002,3347.7750,S,06903.9251,W,1,09,1.0,956.5,M,28.9,M,,0000*56
$GPGSA,M,3,30,21,18,16,06,22,29,03,31,,,,1.8,1.0,1.5*30
$GPRMC,172938.002,A,3347.7750,S,06903.9251,W,30.64,188.14,090511,,,A*59
$GPGGA,172938.998,3347.7833,S,06903.9268,W,1,09,1.0,957.3,M,28.9,M,,0000*5B
$GPGSA,M,3,30,21,18,16,06,22,29,03,31,,,,1.8,1.0,1.5*30
$GPRMC,172938.998,A,3347.7833,S,06903.9268,W,30.21,188.28,090511,,,A*5D
$GPGGA,172940.000,3347.7917,S,06903.9281,W,1,09,1.0,957.4,M,28.9,M,,0000*5B
$GPGSA,M,3,30,21,18,16,06,22,29,03,31,,,,1.8,1.0,1.5*30
$GPRMC,172940.000,A,3347.7917,S,06903.9281,W,30.67,188.58,090511,,,A*5F
$GPGGA,172941.001,3347.8000,S,06903.9296,W,1,09,1.0,957.2,M,28.9,M,,0000*5B
$GPGSA,M,3,30,21,18,16,06,22,29,03,31,,,,1.8,1.0,1.5*30
$GPGSV,3,1,11,30,68,266,37,21,59,146,41,18,52,039,39,16,48,230,40*79
$GPGSV,3,2,11,06,33,233,38,22,31,000,37,29,23,088,34,03,21,236,36*7E
$GPGSV,3,3,11,31,11,325,37,25,09,028,27,15,03,096,22*42
$GPRMC,172941.001,A,3347.8000,S,06903.9296,W,30.06,188.83,090511,,,A*58
$GPGGA,172942.001,3347.8080,S,06903.9314,W,1,09,1.0,958.9,M,28.9,M,,0000*5F
$GPGSA,M,3,30,21,18,16,06,22,29,03,31,,,,1.8,1.0,1.5*30
$GPRMC,172942.001,A,3347.8080,S,06903.9314,W,30.31,189.85,090511,,,A*5B
$GPGGA,172943.002,3347.8163,S,06903.9329,W,1,09,1.0,958.5,M,28.9,M,,0000*53
$GPGSA,M,3,30,21,18,16,06,22,29,03,31,,,,1.8,1.0,1.5*30
$GPRMC,172943.002,A,3347.8163,S,06903.9329,W,29.86,189.48,090511,,,A*5E
$GPGGA,172944.000,3347.8245,S,06903.9343,W,1,09,1.0,958.6,M,28.9,M,,0000*5E
$GPGSA,M,3,30,21,18,16,06,22,29,03,31,,,,1.8,1.0,1.5*30
$GPRMC,172944.000,A,3347.8245,S,06903.9343,W,29.93,188.09,090511,,,A*50
$GPGGA,172944.999,3347.8327,S,06903.9360,W,1,09,1.0,958.6,M,28.9,M,,0000*53
$GPGSA,M,3,30,21,18,16,06,22,29,03,31,,,,1.8,1.0,1.5*30
$GPRMC,172944.999,A,3347.8327,S,06903.9360,W,30.22,189.42,090511,,,A*51
$GPGGA,172946.000,3347.8410,S,06903.9374,W,1,09,1.0,958.0,M,28.9,M,,0000*58
$GPGSA,M,3,30,21,18,16,06,22,29,03,31,,,,1.8,1.0,1.5*30
$GPGSV,3,1,11,30,68,266,39,21,59,146,41,18,52,039,40,16,48,230,40*79
$GPGSV,3,2,11,06,33,233,39,22,31,000,39,29,23,088,38,03,21,236,38*73
$GPGSV,3,3,11,31,11,325,40,25,09,028,28,15,03,096,28*47
$GPRMC,172946.000,A,3347.8410,S,06903.9374,W,29.97,188.79,090511,,,A*53
$GPGGA,172946.999,3347.8494,S,06903.9389,W,1,09,1.0,957.6,M,28.9,M,,0000*56
$GPGSA,M,3,30,21,18,16,06,22,29,03,31,,,,1.8,1.0,1.5*30
$GPRMC,172946.999,A,3347.8494,S,06903.9389,W,30.51,188.46,090511,,,A*5A
$GPGGA,172948.000,3347.8577,S,06903.9403,W,1,09,1.0,957.5,M,28.9,M,,0000*5B
$GPGSA,M,3,30,21,18,16,06,22,29,03,31,,,,1.8,1.0,1.5*30
$GPRMC,172948.000,A,3347.8577,S,06903.9403,W,30.22,189.12,090511,,,A*50
$GPGGA,172949.001,3347.8661,S,06903.9417,W,1,09,1.0,956.7,M,28.9,M,,0000*59
$GPGSA,M,3,30,21,18,16,06,22,29,03,31,,,,1.8,1.0,1.5*30
$GPRMC,172949.001,A,3347.8661,S,06903.9417,W,29.66,188.57,090511,,,A*59
$GPGGA,172950.000,3347.8744,S,06903.9428,W,1,09,1.0,956.7,M,28.9,M,,0000*5A
$GPGSA,M,3,30,21,18,16,06,22,29,03,31,,,,1.8,1.0,1.5*30
$GPRMC,172950.000,A,3347.8744,S,06903.9428,W,30.45,187.65,090511,,,A*5D
$GPGGA,172951.001,3347.8827,S,06903.9441,W,1,09,1.0,955.9,M,28.9,M,,0000*52
$GPGSA,M,3,30,21,18,16,06,22,29,03,31,,,,1.8,1.0,1.5*30
$GPGSV,3,1,11,30,68,266,38,21,59,146,41,18,52,039,39,16,48,230,39*78
$GPGSV,3,2,11,06,33,233,39,22,31,000,38,29,23,088,37,03,21,236,38*7D
$GPGSV,3,3,11,31,11,325,39,25,09,028,31,15,03,096,26*4F
$GPRMC,172951.001,A,3347.8827,S,06903.9441,W,29.50,190.37,090511,,,A*55
$GPGGA,172952.002,3347.8910,S,06903.9457,W,1,09,1.0,955.9,M,28.9,M,,0000*50
$GPGSA,M,3,30,21,18,16,06,22,29,03,31,,,,1.8,1.0,1.5*30
$GPRMC,172952.002,A,3347.8910,S,06903.9457,W,29.79,189.30,090511,,,A*53
$GPGGA,172953.001,3347.8993,S,06903.9472,W,1,09,1.0,955.4,M,28.9,M,,0000*53
$GPGSA,M,3,30,21,18,16,06,22,29,03,31,,,,1.8,1.0,1.5*30
$GPRMC,172953.001,A,3347.8993,S,06903.9472,W,30.37,188.28,090511,,,A*57
$GPGGA,172953.999,3347.9077,S,06903.9486,W,1,08,1.1,955.8,M,28.9,M,,0000*5E
$GPGSA,M,3,30,21,18,16,06,29,03,31,,,,,1.9,1.1,1.5*30
$GPRMC,172953.999,A,3347.9077,S,06903.9486,W,31.36,187.61,090511,,,A*54
$GPGGA,172954.998,3347.9162,S,06903.9500,W,1,09,1.0,955.7,M,28.9,M,,0000*5D
$GPGSA,M,3,30,21,18,16,06,22,29,03,31,,,,1.8,1.0,1.5*30
$GPRMC,172954.998,A,3347.9162,S,06903.9500,W,30.66,188.35,090511,,,A*52
$GPGGA,172955.999,3347.9246,S,06903.9515,W,1,09,1.0,955.6,M,28.9,M,,0000*5D
$GPGSA,M,3,30,21,18,16,06,22,29,03,31,,,,1.8,1.0,1.5*30
$GPGSV,3,1,11,30,68,266,37,21,59,146,41,18,52,039,41,16,48,230,40*76
$GPGSV,3,2,11,06,33,233,39,22,31,000,38,29,23,088,37,03,21,236,37*72
$GPGSV,3,3,11,31,11,325,38,25,09,028,31,15,03,096,*4A
$GPRMC,172955.999,A,3347.9246,S,06903.9515,W,30.33,188.60,090511,,,A*53
$GPGGA,172957.000,3347.9332,S,06903.9528,W,1,09,1.0,955.3,M,28.9,M,,0000*5F
$GPGSA,M,3,30,21,18,16,06,22,29,03,31,,,,1.8,1.0,1.5*30
$GPRMC,172957.000,A,3347.9332,S,06903.9528,W,30.53,187.59,090511,,,A*57
$GPGGA,172958.000,3347.9415,S,06903.9540,W,1,09,1.0,955.3,M,28.9,M,,0000*5C
$GPGSA,M,3,30,21,18,16,06,22,29,03,31,,,,1.8,1.0,1.5*30
$GPRMC,172958.000,A,3347.9415,S,06903.9540,W,30.03,188.41,090511,,,A*57
$GPGGA,172959.000,3347.9497,S,06903.9554,W,1,09,1.0,954.8,M,28.9,M,,0000*58
$GPGSA,M,3,30,21,18,16,06,22,29,03,31,,,,1.8,1.0,1.5*30
$GPRMC,172959.000,A,3347.9497,S,06903.9554,W,30.04,187.98,090511,,,A*55
$GPGGA,173000.000,3347.9581,S,06903.9568,W,1,09,1.0,955.6,M,28.9,M,,0000*5A
$GPGSA,M,3,30,21,18,16,06,22,29,03,31,,,,1.8,1.0,1.5*30
$GPRMC,173000.000,A,3347.9581,S,06903.9568,W,30.31,188.69,090511,,,A*5F
$GPGGA,173001.000,3347.9664,S,06903.9582,W,1,09,1.0,956.2,M,28.9,M,,0000*50
$GPGSA,M,3,30,21,18,16,06,22,29,03,31,,,,1.8,1.0,1.5*30
$GPGSV,3,1,11,30,68,266,38,21,59,146,41,18,52,039,40,16,48,230,41*79
$GPGSV,3,2,11,06,33,233,39,22,31,000,38,29,23,088,37,03,21,236,38*7D
$GPGSV,3,3,11,31,11,325,36,25,09,028,29,15,03,096,*4D
$GPRMC,173001.000,A,3347.9664,S,06903.9582,W,30.26,187.72,090511,,,A*51
$GPGGA,173002.001,3347.9748,S,06903.9598,W,1,09,1.0,956.3,M,28.9,M,,0000*57
$GPGSA,M,3,30,21,18,16,06,22,29,03,31,,,,1.8,1.0,1.5*30
$GPRMC,173002.001,A,3347.9748,S,06903.9598,W,30.24,188.92,090511,,,A*54
$GPGGA,173003.002,3347.9834,S,06903.9612,W,1,09,1.0,956.4,M,28.9,M,,0000*57
$GPGSA,M,3,30,21,18,16,06,22,29,03,31,,,,1.8,1.0,1.5*30
$GPRMC,173003.002,A,3347.9834,S,06903.9612,W,31.02,188.13,090511,,,A*5F
$GPGGA,173003.999,3347.9919,S,06903.9624,W,1,09,1.0,956.0,M,28.9,M,,0000*53
$GPGSA,M,3,30,21,18,16,06,22,29,03,31,,,,1.8,1.0,1.5*30
$GPRMC,173003.999,A,3347.9919,S,06903.9624,W,30.44,187.30,090511,,,A*52
$GPGGA,173005.000,3348.0003,S,06903.9635,W,1,09,1.0,955.2,M,28.9,M,,0000*59
$GPGSA,M,3,30,21,18,16,06,22,29,03,31,,,,1.8,1.0,1.5*30
$GPRMC,173005.000,A,3348.0003,S,06903.9635,W,30.95,188.19,090511,,,A*51
$GPGGA,173006.001,3348.0087,S,06903.9650,W,1,09,1.0,956.0,M,28.9,M,,0000*55
$GPGSA,M,3,30,21,18,16,06,22,29,03,31,,,,1.8,1.0,1.5*30
$GPGSV,3,1,11,30,68,266,38,21,59,146,41,18,52,039,39,16,48,230,41*77
$GPGSV,3,2,11,06,33,233,39,22,31,000,38,29,23,088,35,03,21,236,39*7E
$GPGSV,3,3,11,31,11,325,33,25,09,028,,15,03,096,*43
$GPRMC,173006.001,A,3348.0087,S,06903.9650,W,31.03,187.55,090511,,,A*55
$GPGGA,173007.000,3348.0174,S,06903.9663,W,1,09,1.0,954.8,M,28.9,M,,0000*52
$GPGSA,M,3,30,21,18,16,06,22,29,03,31,,,,1.8,1.0,1.5*30
$GPRMC,173007.000,A,3348.0174,S,06903.9663,W,30.58,188.11,090511,,,A*58
$GPGGA,173008.001,3348.0255,S,06903.9680,W,1,09,1.0,955.3,M,28.9,M,,0000*5B
$GPGSA,M,3,30,21,18,16,06,22,29,03,31,,,,1.8,1.0,1.5*30
$GPRMC,173008.001,A,3348.0255,S,06903.9680,W,30.59,189.96,090511,,,A*54
$GPGGA,173009.001,3348.0340,S,06903.9698,W,1,09,1.0,954.9,M,28.9,M,,0000*5D
$GPGSA,M,3,30,21,18,16,06,22,29,03,31,,,,1.8,1.0,1.5*30
$GPRMC,173009.001,A,3348.0340,S,06903.9698,W,30.50,189.47,090511,,,A*5C
$GPGGA,173010.002,3348.0425,S,06903.9714,W,1,09,1.0,954.8,M,28.9,M,,0000*56
$GPGSA,M,3,30,21,18,16,06,22,29,03,31,,,,1.8,1.0,1.5*30
$GPRMC,173010.002,A,3348.0425,S,06903.9714,W,31.01,188.70,090511,,,A*56
$GPGGA,173011.001,3348.0510,S,06903.9729,W,1,09,1.0,955.1,M,28.9,M,,0000*55
$GPGSA,M,3,30,21,18,16,06,22,29,03,31,,,,1.8,1.0,1.5*30
$GPGSV,3,1,11,30,68,266,38,21,59,146,40,18,52,039,40,16,48,230,39*77
$GPGSV,3,2,11,06,33,233,38,22,31,000,38,29,23,088,36,03,21,236,37*72
$GPGSV,3,3,11,31,11,325,40,25,09,028,32,15,03,096,*46
$GPRMC,173011.001,A,3348.0510,S,06903.9729,W,30.77,187.89,090511,,,A*54
$GPGGA,173012.001,3348.0595,S,06903.9744,W,1,09,1.0,954.5,M,28.9,M,,0000*55
$GPGSA,M,3,30,21,18,16,06,22,29,03,31,,,,1.8,1.0,1.5*30
$GPRMC,173012.001,A,3348.0595,S,06903.9744,W,30.49,188.40,090511,,,A*56
$GPGGA,173012.998,3348.0679,S,06903.9758,W,1,09,1.0,954.3,M,28.9,M,,0000*56
$GPGSA,M,3,30,21,18,16,06,22,29,03,31,,,,1.8,1.0,1.5*30
$GPRMC,173012.998,A,3348.0679,S,06903.9758,W,30.54,187.81,090511,,,A*5D
$GPGGA,173014.001,3348.0762,S,06903.9774,W,1,09,1.0,954.9,M,28.9,M,,0000*56
$GPGSA,M,3,30,21,18,16,06,22,29,03,31,,,,1.8,1.0,1.5*30
$GPRMC,173014.001,A,3348.0762,S,06903.9774,W,30.20,188.22,090511,,,A*52
$GPGGA,173015.002,3348.0845,S,06903.9788,W,1,09,1.0,955.0,M,28.9,M,,0000*55
$GPGSA,M,3,30,21,18,16,06,22,29,03,31,,,,1.8,1.0,1.5*30
$GPRMC,173015.002,A,3348.0845,S,06903.9788,W,30.30,187.94,090511,,,A*5A
$GPGGA,173015.999,3348.0928,S,06903.9804,W,1,09,1.0,956.0,M,28.9,M,,0000*5C
$GPGSA,M,3,30,21,18,16,06,22,29,03,31,,,,1.8,1.0,1.5*30
$GPGSV,3,1,11,30,68,266,37,21,59,146,40,18,52,039,39,16,48,230,40*78
$GPGSV,3,2,11,06,33,233,38,22,31,000,39,29,23,088,36,03,21,236,37*73
$GPGSV,3,3,11,31,11,325,38,25,09,028,26,15,03,096,24*4A
$GPRMC,173015.999,A,3348.0928,S,06903.9804,W,31.03,187.36,090511,,,A*59
$GPGGA,173016.999,3348.1011,S,06903.9817,W,1,09,1.0,956.1,M,28.9,M,,0000*5E
$GPGSA,M,3,30,21,18,16,06,22,29,03,31,,,,1.8,1.0,1.5*30
$GPRMC,173016.999,A,3348.1011,S,06903.9817,W,30.31,188.51,090511,,,A*54
$GPGGA,173018.003,3348.1095,S,06903.9828,W,1,09,1.0,955.3,M,28.9,M,,0000*5B
$GPGSA,M,3,30,21,18,16,06,22,29,03,31,,,,1.8,1.0,1.5*30
$GPRMC,173018.003,A,3348.1095,S,06903.9828,W,30.12,187.98,090511,,,A*5B
$GPGGA,173018.995,3348.1179,S,06903.9842,W,1,09,1.0,954.5,M,28.9,M,,0000*55
$GPGSA,M,3,30,21,18,16,06,22,29,03,31,,,,1.8,1.0,1.5*30
$GPRMC,173018.995,A,3348.1179,S,06903.9842,W,30.34,187.78,090511,,,A*58
$GPGGA,173020.001,3348.1263,S,06903.9853,W,1,09,1.0,953.6,M,28.9,M,,0000*56
$GPGSA,M,3,30,21,18,16,06,22,29,03,31,,,,1.8,1.0,1.5*30
$GPRMC,173020.001,A,3348.1263,S,06903.9853,W,29.78,187.84,090511,,,A*5C
$GPGGA,173021.000,3348.1346,S,06903.9867,W,1,09,1.0,954.2,M,28.9,M,,0000*54
$GPGSA,M,3,30,21,18,16,06,22,29,03,31,,,,1.8,1.0,1.5*30
$GPGSV,3,1,11,30,68,266,37,21,59,146,40,18,52,039,40,16,48,230,41*77
$GPGSV,3,2,11,06,33,233,38,22,31,000,39,29,23,088,37,03,21,236,37*72
$GPGSV,3,3,11,31,11,325,39,25,09,028,30,15,03,096,*4A
$GPRMC,173021.000,A,3348.1346,S,06903.9867,W,30.83,187.59,090511,,,A*51
$GPGGA,173022.001,3348.1430,S,06903.9880,W,1,09,1.0,953.8,M,28.9,M,,0000*54
$GPGSA,M,3,30,21,18,16,06,22,29,03,31,,,,1.8,1.0,1.5*30
$GPRMC,173022.001,A,3348.1430,S,06903.9880,W,30.31,188.63,090511,,,A*53
$GPGGA,173023.001,3348.1511,S,06903.9899,W,1,09,1.0,954.4,M,28.9,M,,0000*54
$GPGSA,M,3,30,21,18,16,06,22,29,03,31,,,,1.8,1.0,1.5*30
$GPRMC,173023.001,A,3348.1511,S,06903.9899,W,29.39,190.02,090511,,,A*56
$GPGGA,173024.003,3348.1595,S,06903.9917,W,1,09,1.0,953.9,M,28.9,M,,0000*50
$GPGSA,M,3,30,21,18,16,06,22,29,03,31,,,,1.8,1.0,1.5*30
$GPRMC,173024.003,A,3348.1595,S,06903.9917,W,30.71,189.67,090511,,,A*57
$GPGGA,173024.998,3348.1681,S,06903.9931,W,1,09,1.0,953.8,M,28.9,M,,0000*58
$GPGSA,M,3,30,21,18,16,06,22,29,03,31,,,,1.8,1.0,1.5*30
$GPRMC,173024.998,A,3348.1681,S,06903.9931,W,30.25,187.95,090511,,,A*5C
$GPGGA,173026.000,3348.1765,S,06903.9944,W,1,09,1.0,953.9,M,28.9,M,,0000*5A
$GPGSA,M,3,30,21,18,16,06,22,29,03,31,,,,1.8,1.0,1.5*30
$GPGSV,3,1,11,30,68,266,38,21,59,146,39,18,52,039,40,16,48,230,39*79
$GPGSV,3,2,11,06,33,233,38,22,31,000,38,29,23,088,35,03,21,236,37*71
$GPGSV,3,3,11,31,11,325,39,25,09,028,,15,03,096,29*42
$GPRMC,173026.000,A,3348.1765,S,06903.9944,W,30.57,188.32,090511,,,A*58
$GPGGA,173027.000,3348.1850,S,06903.9958,W,1,09,1.0,953.5,M,28.9,M,,0000*53
$GPGSA,M,3,30,21,18,16,06,22,29,03,31,,,,1.8,1.0,1.5*30
$GPRMC,173027.000,A,3348.1850,S,06903.9958,W,30.57,187.75,090511,,,A*51
$GPGGA,173028.004,3348.1933,S,06903.9971,W,1,09,1.0,953.8,M,28.9,M,,0000*5A
$GPGSA,M,3,30,21,18,16,06,22,29,03,31,,,,1.8,1.0,1.5*30
$GPRMC,173028.004,A,3348.1933,S,06903.9971,W,30.19,187.92,090511,,,A*56
$GPGGA,173029.007,3348.2017,S,06903.9987,W,1,06,2.5,953.6,M,28.9,M,,0000*5A
$GPGSA,M,3,21,18,16,06,03,31,,,,,,,4.9,2.5,4.2*38
$GPRMC,173029.007,A,3348.2017,S,06903.9987,W,30.20,189.75,090511,,,A*5C
$GPGGA,173029.992,3348.2098,S,06904.0004,W,0,00,,953.6,M,28.9,M,,0000*7A
$GPGSA,M,1,,,,,,,,,,,,,,,*12
$GPRMC,173029.992,V,3348.2098,S,06904.0004,W,,,090511,,,N*79
$GPGGA,173031.000,3348.2182,S,06904.0021,W,0,00,,953.5,M,28.9,M,,0000*7F
$GPGSA,M,1,,,,,,,,,,,,,,,*12
$GPRMC,173031.000,V,3348.2182,S,06904.0021,W,,,090511,,,N*7F
$GPGGA,173032.000,3348.2265,S,06904.0038,W,0,00,,953.4,M,28.9,M,,0000*7F
$GPGSA,M,1,,,,,,,,,,,,,,,*12
$GPRMC,173032.000,V,3348.2265,S,06904.0038,W,,,090511,,,N*7E
$GPGGA,173033.000,3348.2354,S,06904.0068,W,1,09,1.0,952.9,M,28.9,M,,0000*53
$GPGSA,M,3,21,18,31,30,03,16,06,22,29,,,,1.8,1.0,1.5*30
$GPRMC,173033.000,A,3348.2354,S,06904.0068,W,30.45,187.75,090511,,,A*5F
$GPGGA,173034.000,3348.2428,S,06904.0087,W,1,09,1.0,955.8,M,28.9,M,,0000*5F
$GPGSA,M,3,21,18,31,30,03,16,06,22,29,,,,1.8,1.0,1.5*30
$GPRMC,173034.000,A,3348.2428,S,06904.0087,W,30.53,188.32,090511,,,A*5E
$GPGGA,173035.000,3348.2507,S,06904.0102,W,1,09,1.0,957.6,M,28.9,M,,0000*52
$GPGSA,M,3,21,18,31,30,03,16,06,22,29,,,,1.8,1.0,1.5*30
$GPGSV,3,1,11,30,68,268,40,21,58,145,45,18,53,040,45,16,49,231,44*71
$GPGSV,3,2,11,06,33,232,42,22,31,000,41,29,22,088,36,03,21,236,40*71
$GPGSV,3,3,11,31,11,325,44,25,08,028,25,15,03,097,24*42
$GPRMC,173035.000,A,3348.2507,S,06904.0102,W,30.51,188.31,090511,,,A*5E
$GPGGA,173036.000,3348.2587,S,06904.0119,W,1,09,1.0,958.7,M,28.9,M,,0000*5D
$GPGSA,M,3,21,18,31,30,03,16,06,22,29,,,,1.8,1.0,1.5*30
$GPRMC,173036.000,A,3348.2587,S,06904.0119,W,30.47,188.35,090511,,,A*5C
$GPGGA,173037.000,3348.2669,S,06904.0135,W,1,09,1.0,959.7,M,28.9,M,,0000*50
$GPGSA,M,3,21,18,31,30,03,16,06,22,29,,,,1.8,1.0,1.5*30
$GPRMC,173037.000,A,3348.2669,S,06904.0135,W,30.43,188.24,090511,,,A*54
$GPGGA,173038.000,3348.2752,S,06904.0149,W,1,09,1.0,959.9,M,28.9,M,,0000*53
$GPGSA,M,3,21,18,31,30,03,16,06,22,29,,,,1.8,1.0,1.5*30
$GPRMC,173038.000,A,3348.2752,S,06904.0149,W,30.40,188.18,090511,,,A*55
$GPGGA,173039.000,3348.2835,S,06904.0164,W,1,09,1.0,960.5,M,28.9,M,,0000*55
$GPGSA,M,3,21,18,31,30,03,16,06,22,29,,,,1.8,1.0,1.5*30
$GPRMC,173039.000,A,3348.2835,S,06904.0164,W,30.27,188.33,090511,,,A*5D
$GPGGA,173040.000,3348.2916,S,06904.0179,W,1,09,1.0,961.1,M,28.9,M,,0000*52
$GPGSA,M,3,21,18,31,30,03,16,06,22,29,,,,1.8,1.0,1.5*30
$GPGSV,3,1,11,30,68,268,40,21,58,145,45,18,53,040,45,16,49,231,44*71
$GPGSV,3,2,11,06,33,232,42,22,31,000,41,29,22,088,37,03,21,236,39*7E
$GPGSV,3,3,11,31,11,325,44,25,08,028,26,15,03,097,25*40
$GPRMC,173040.000,A,3348.2916,S,06904.0179,W,30.17,188.35,090511,,,A*5A
$GPGGA,173041.000,3348.2998,S,06904.0194,W,1,09,1.0,961.6,M,28.9,M,,0000*51
$GPGSA,M,3,21,18,31,30,03,16,06,22,29,,,,1.8,1.0,1.5*30
$GPRMC,173041.000,A,3348.2998,S,06904.0194,W,30.07,188.45,090511,,,A*58
$GPGGA,173042.000,3348.3080,S,06904.0210,W,1,09,1.0,961.8,M,28.9,M,,0000*52
$GPGSA,M,3,21,18,31,30,03,16,06,22,29,,,,1.8,1.0,1.5*30
$GPRMC,173042.000,A,3348.3080,S,06904.0210,W,29.88,188.56,090511,,,A*58
$GPGGA,173043.000,3348.3162,S,06904.0225,W,1,09,1.0,962.0,M,28.9,M,,0000*53
$GPGSA,M,3,21,18,31,30,03,16,06,22,29,,,,1.8,1.0,1.5*30
$GPRMC,173043.000,A,3348.3162,S,06904.0225,W,29.93,188.50,090511,,,A*5E
$GPGGA,173044.001,3348.3244,S,06904.0240,W,1,08,1.0,962.2,M,28.9,M,,0000*52
$GPGSA,M,3,30,21,18,16,06,22,29,31,,,,,2.0,1.0,1.7*3A
$GPRMC,173044.001,A,3348.3244,S,06904.0240,W,29.98,188.69,090511,,,A*5D
$GPGGA,173044.989,3348.3326,S,06904.0253,W,1,09,1.0,962.3,M,28.9,M,,0000*5C
$GPGSA,M,3,30,21,18,16,06,22,29,03,31,,,,1.8,1.0,1.5*30
$GPRMC,173044.989,A,3348.3326,S,06904.0253,W,30.26,186.87,090511,,,A*50
$GPGGA,173046.000,3348.3412,S,06904.0267,W,1,09,1.0,962.3,M,28.9,M,,0000*51
$GPGSA,M,3,30,21,18,16,06,22,29,03,31,,,,1.8,1.0,1.5*30
$GPGSV,3,1,11,30,68,268,38,21,58,145,41,18,53,040,40,16,49,231,40*7B
$GPGSV,3,2,11,06,33,232,39,22,31,000,37,29,22,088,34,03,21,236,37*7E
$GPGSV,3,3,11,31,11,325,29,25,08,028,24,15,03,097,28*44
$GPRMC,173046.000,A,3348.3412,S,06904.0267,W,30.65,188.07,090511,,,A*5C
$GPGGA,173047.000,3348.3498,S,06904.0280,W,1,09,1.0,962.4,M,28.9,M,,0000*5C
$GPGSA,M,3,30,21,18,16,06,22,29,03,31,,,,1.8,1.0,1.5*30
$GPRMC,173047.000,A,3348.3498,S,06904.0280,W,31.28,187.27,090511,,,A*53
$GPGGA,173048.000,3348.3584,S,06904.0295,W,1,09,1.0,962.5,M,28.9,M,,0000*5A
$GPGSA,M,3,30,21,18,16,06,22,29,03,31,,,,1.8,1.0,1.5*30
$GPRMC,173048.000,A,3348.3584,S,06904.0295,W,31.08,189.08,090511,,,A*55
$GPGGA,173048.998,3348.3668,S,06904.0310,W,1,09,1.0,962.6,M,28.9,M,,0000*5C
$GPGSA,M,3,30,21,18,16,06,22,29,03,31,,,,1.8,1.0,1.5*30
$GPRMC,173048.998,A,3348.3668,S,06904.0310,W,30.09,188.96,090511,,,A*56
$GPGGA,173050.002,3348.3752,S,06904.0325,W,1,09,1.0,962.7,M,28.9,M,,0000*50
$GPGSA,M,3,30,21,18,16,06,22,29,03,31,,,,1.8,1.0,1.5*30
$GPRMC,173050.002,A,3348.3752,S,06904.0325,W,30.29,188.51,090511,,,A*52
$GPGGA,173051.002,3348.3836,S,06904.0339,W,1,09,1.0,962.6,M,28.9,M,,0000*50
$GPGSA,M,3,30,21,18,16,06,22,29,03,31,,,,1.8,1.0,1.5*30
$GPGSV,3,1,11,30,68,268,37,21,58,145,40,18,53,040,40,16,49,231,40*75
$GPGSV,3,2,11,06,33,232,38,22,31,000,38,29,22,088,37,03,21,236,37*73
$GPGSV,3,3,11,31,11,325,39,25,08,028,26,15,03,097,*4D
$GPRMC,173051.002,A,3348.3836,S,06904.0339,W,30.36,188.64,090511,,,A*5B
$GPGGA,173051.996,3348.3920,S,06904.0354,W,1,09,1.0,962.1,M,28.9,M,,0000*5E
$GPGSA,M,3,30,21,18,16,06,22,29,03,31,,,,1.8,1.0,1.5*30
$GPRMC,173051.996,A,3348.3920,S,06904.0354,W,30.66,189.54,090511,,,A*55
$GPGGA,173053.002,3348.4005,S,06904.0370,W,1,09,1.0,961.5,M,28.9,M,,0000*50
$GPGSA,M,3,30,21,18,16,06,22,29,03,31,,,,1.8,1.0,1.5*30
$GPRMC,173053.002,A,3348.4005,S,06904.0370,W,30.22,189.48,090511,,,A*51
$GPGGA,173054.000,3348.4090,S,06904.0383,W,1,09,1.0,961.1,M,28.9,M,,0000*51
$GPGSA,M,3,30,21,18,16,06,22,29,03,31,,,,1.8,1.0,1.5*30
$GPRMC,173054.000,A,3348.4090,S,06904.0383,W,30.73,185.96,090511,,,A*5F
$GPGGA,173055.000,3348.4175,S,06904.0394,W,1,09,1.0,960.8,M,28.8,M,,0000*55
$GPGSA,M,3,30,21,18,16,06,22,29,03,31,,,,1.8,1.0,1.5*30
$GPRMC,173055.000,A,3348.4175,S,06904.0394,W,30.75,187.90,090511,,,A*50
$GPGGA,173056.000,3348.4260,S,06904.0407,W,1,09,1.0,960.6,M,28.8,M,,0000*52
$GPGSA,M,3,30,21,18,16,06,22,29,03,31,,,,1.8,1.0,1.5*30
$GPGSV,3,1,11,30,68,268,37,21,58,145,41,18,53,040,40,16,49,231,39*7A
$GPGSV,3,2,11,06,33,232,37,22,31,000,39,29,22,088,38,03,21,236,36*73
$GPGSV,3,3,11,31,11,325,39,25,08,028,26,15,03,097,27*48
$GPRMC,173056.000,A,3348.4260,S,06904.0407,W,30.67,187.87,090511,,,A*5C
$GPGGA,173057.003,3348.4344,S,06904.0422,W,1,09,1.0,960.6,M,28.8,M,,0000*50
$GPGSA,M,3,30,21,18,16,06,22,29,03,31,,,,1.8,1.0,1.5*30
$GPRMC,173057.003,A,3348.4344,S,06904.0422,W,30.07,188.01,090511,,,A*59
$GPGGA,173057.997,3348.4429,S,06904.0434,W,1,09,1.0,960.0,M,28.8,M,,0000*59
$GPGSA,M,3,30,21,18,16,06,22,29,03,31,,,,1.8,1.0,1.5*30
$GPRMC,173057.997,A,3348.4429,S,06904.0434,W,30.57,186.74,090511,,,A*5F
$GPGGA,173058.998,3348.4514,S,06904.0445,W,1,09,1.0,959.7,M,28.8,M,,0000*5D
$GPGSA,M,3,30,21,18,16,06,22,29,03,31,,,,1.8,1.0,1.5*30
$GPRMC,173058.998,A,3348.4514,S,06904.0445,W,30.91,186.05,090511,,,A*5A
$GPGGA,173100.000,3348.4600,S,06904.0456,W,1,09,1.0,959.2,M,28.8,M,,0000*58
$GPGSA,M,3,30,21,18,16,06,22,29,03,31,,,,1.8,1.0,1.5*30
$GPRMC,173100.000,A,3348.4600,S,06904.0456,W,30.40,187.41,090511,,,A*57
$GPGGA,173101.000,3348.4683,S,06904.0467,W,1,09,1.0,959.0,M,28.8,M,,0000*52
$GPGSA,M,3,30,21,18,16,06,22,29,03,31,,,,1.8,1.0,1.5*30
$GPGSV,3,1,11,30,68,268,37,21,58,145,40,18,53,040,41,16,49,231,41*75
$GPGSV,3,2,11,06,33,232,38,22,31,000,38,29,22,088,36,03,21,236,36*73
$GPGSV,3,3,11,31,11,325,38,25,08,028,,15,03,097,29*43
$GPRMC,173101.000,A,3348.4683,S,06904.0467,W,29.78,186.82,090511,,,A*52
$GPGGA,173102.001,3348.4765,S,06904.0481,W,1,09,1.0,958.9,M,28.8,M,,0000*59
$GPGSA,M,3,30,21,18,16,06,22,29,03,31,,,,1.8,1.0,1.5*30
$GPRMC,173102.001,A,3348.4765,S,06904.0481,W,29.93,189.25,090511,,,A*56
$GPGGA,173103.001,3348.4848,S,06904.0496,W,1,09,1.0,958.6,M,28.8,M,,0000*51
$GPGSA,M,3,30,21,18,16,06,22,29,03,31,,,,1.8,1.0,1.5*30
$GPRMC,173103.001,A,3348.4848,S,06904.0496,W,29.99,188.50,090511,,,A*58
$GPGGA,173104.001,3348.4930,S,06904.0510,W,1,09,1.0,958.7,M,28.8,M,,0000*56
$GPGSA,M,3,30,21,18,16,06,22,29,03,31,,,,1.8,1.0,1.5*30
$GPRMC,173104.001,A,3348.4930,S,06904.0510,W,29.46,187.06,090511,,,A*50
$GPGGA,173105.001,3348.5011,S,06904.0523,W,1,09,1.0,958.8,M,28.8,M,,0000*53
$GPGSA,M,3,30,21,18,16,06,22,29,03,31,,,,1.8,1.0,1.5*30
$GPRMC,173105.001,A,3348.5011,S,06904.0523,W,29.42,188.03,090511,,,A*54
$GPGGA,173106.000,3348.5092,S,06904.0537,W,1,09,1.0,958.9,M,28.8,M,,0000*5E
$GPGSA,M,3,30,21,18,16,06,22,29,03,31,,,,1.8,1.0,1.5*30
$GPGSV,3,1,11,30,68,268,37,21,58,145,41,18,53,040,41,16,49,231,41*74
$GPGSV,3,2,11,06,33,232,39,22,31,000,38,29,22,088,38,03,21,236,34*7E
$GPGSV,3,3,11,31,11,325,38,25,08,028,,15,03,097,25*4F
$GPRMC,173106.000,A,3348.5092,S,06904.0537,W,29.62,188.00,090511,,,A*59
$GPGGA,173107.000,3348.5174,S,06904.0550,W,1,09,1.0,958.5,M,28.8,M,,0000*5B
$GPGSA,M,3,30,21,18,16,06,22,29,03,31,,,,1.8,1.0,1.5*30
$GPRMC,173107.000,A,3348.5174,S,06904.0550,W,29.57,187.77,090511,,,A*59
$GPGGA,173108.001,3348.5254,S,06904.0567,W,1,09,1.0,959.7,M,28.8,M,,0000*53
$GPGSA,M,3,30,21,18,16,06,22,29,03,31,,,,1.8,1.0,1.5*30
$GPRMC,173108.001,A,3348.5254,S,06904.0567,W,29.56,188.57,090511,,,A*5E
$GPGGA,173109.003,3348.5334,S,06904.0583,W,1,09,1.0,960.4,M,28.8,M,,0000*54
$GPGSA,M,3,30,21,18,16,06,22,29,03,31,,,,1.8,1.0,1.5*30
$GPRMC,173109.003,A,3348.5334,S,06904.0583,W,29.10,187.65,090511,,,A*5C
$GPGGA,173109.999,3348.5414,S,06904.0596,W,1,09,1.0,961.2,M,28.8,M,,0000*58
$GPGSA,M,3,30,21,18,16,06,22,29,03,31,,,,1.8,1.0,1.5*30
$GPRMC,173109.999,A,3348.5414,S,06904.0596,W,29.82,187.28,090511,,,A*55
$GPGGA,173111.000,3348.5497,S,06904.0608,W,1,09,1.0,961.6,M,28.8,M,,0000*53
$GPGSA,M,3,30,21,18,16,06,22,29,03,31,,,,1.8,1.0,1.5*30
$GPGSV,3,1,11,30,68,268,37,21,58,145,41,18,53,040,40,16,49,231,38*7B
$GPGSV,3,2,11,06,33,232,29,22,31,000,39,29,22,088,35,03,21,236,31*76
$GPGSV,3,3,11,31,11,325,38,25,08,028,28,15,03,097,30*41
$GPRMC,173111.000,A,3348.5497,S,06904.0608,W,29.59,186.45,090511,,,A*56
$GPGGA,173111.999,3348.5580,S,06904.0618,W,1,09,1.0,961.2,M,28.8,M,,0000*58
$GPGSA,M,3,30,21,18,16,06,22,29,03,31,,,,1.8,1.0,1.5*30
$GPRMC,173111.999,A,3348.5580,S,06904.0618,W,30.18,185.38,090511,,,A*5D
$GPGGA,173113.000,3348.5662,S,06904.0630,W,1,09,1.0,961.8,M,28.8,M,,0000*5C
$GPGSA,M,3,30,21,18,16,06,22,29,03,31,,,,1.8,1.0,1.5*30
$GPRMC,173113.000,A,3348.5662,S,06904.0630,W,30.04,187.14,090511,,,A*52
$GPGGA,173114.000,3348.5744,S,06904.0643,W,1,09,1.0,962.3,M,28.8,M,,0000*52
$GPGSA,M,3,30,21,18,16,06,22,29,03,31,,,,1.8,1.0,1.5*30
$GPRMC,173114.000,A,3348.5744,S,06904.0643,W,30.02,187.37,090511,,,A*53
$GPGGA,173115.000,3348.5828,S,06904.0659,W,1,09,1.0,962.4,M,28.8,M,,0000*5A
$GPGSA,M,3,30,21,18,16,06,22,29,03,31,,,,1.8,1.0,1.5*30
$GPRMC,173115.000,A,3348.5828,S,06904.0659,W,29.98,190.04,090511,,,A*51
$GPGGA,173116.000,3348.5909,S,06904.0676,W,1,09,1.0,962.8,M,28.8,M,,0000*5A
$GPGSA,M,3,30,21,18,16,06,22,29,03,31,,,,1.8,1.0,1.5*30
$GPGSV,3,1,11,30,68,268,38,21,58,145,40,18,53,040,39,16,49,231,39*7A
$GPGSV,3,2,11,06,33,232,39,22,31,000,39,29,22,088,33,03,21,236,38*78
$GPGSV,3,3,11,31,11,325,31,25,08,028,24,15,03,097,25*40
$GPRMC,173116.000,A,3348.5909,S,06904.0676,W,30.00,188.81,090511,,,A*50
$GPGGA,173116.999,3348.5989,S,06904.0692,W,1,09,1.0,963.5,M,28.8,M,,0000*5D
$GPGSA,M,3,30,21,18,16,06,22,29,03,31,,,,1.8,1.0,1.5*30
$GPRMC,173116.999,A,3348.5989,S,06904.0692,W,29.73,188.41,090511,,,A*5B
$GPGGA,173118.002,3348.6070,S,06904.0704,W,1,08,1.0,963.1,M,28.8,M,,0000*5F
$GPGSA,M,3,30,21,18,16,22,29,03,31,,,,,1.8,1.0,1.5*36
$GPRMC,173118.002,A,3348.6070,S,06904.0704,W,28.93,187.11,090511,,,A*59
$GPGGA,173118.999,3348.6151,S,06904.0712,W,1,09,1.0,963.1,M,28.8,M,,0000*50
$GPGSA,M,3,30,21,18,16,06,22,29,03,31,,,,1.8,1.0,1.5*30
$GPRMC,173118.999,A,3348.6151,S,06904.0712,W,28.94,184.23,090511,,,A*52
$GPGGA,173120.000,3348.6231,S,06904.0725,W,1,09,1.0,962.8,M,28.8,M,,0000*5B
$GPGSA,M,3,30,21,18,16,06,22,29,03,31,,,,1.8,1.0,1.5*30
$GPRMC,173120.000,A,3348.6231,S,06904.0725,W,29.59,188.48,090511,,,A*50
$GPGGA,173121.000,3348.6313,S,06904.0739,W,1,09,1.0,962.6,M,28.8,M,,0000*58
$GPGSA,M,3,30,21,18,16,06,22,29,03,31,,,,1.8,1.0,1.5*30
$GPGSV,3,1,11,30,68,268,37,21,58,145,39,18,53,040,38,16,49,231,39*7A
$GPGSV,3,2,11,06,33,232,38,22,31,000,38,29,22,088,37,03,21,236,37*73
$GPGSV,3,3,11,31,11,325,35,25,08,028,19,15,03,097,29*46
$GPRMC,173121.000,A,3348.6313,S,06904.0739,W,30.12,188.94,090511,,,A*5B
$GPGGA,173122.000,3348.6396,S,06904.0749,W,1,09,1.0,962.6,M,28.8,M,,0000*51
$GPGSA,M,3,30,21,18,16,06,22,29,03,31,,,,1.8,1.0,1.5*30
$GPRMC,173122.000,A,3348.6396,S,06904.0749,W,29.91,186.47,090511,,,A*51
$GPGGA,173123.000,3348.6480,S,06904.0761,W,1,09,1.0,962.9,M,28.8,M,,0000*55
$GPGSA,M,3,30,21,18,16,06,22,29,03,31,,,,1.8,1.0,1.5*30
$GPRMC,173123.000,A,3348.6480,S,06904.0761,W,30.31,187.87,090511,,,A*55
$GPGGA,173123.998,3348.6562,S,06904.0774,W,1,09,1.0,963.1,M,28.8,M,,0000*5D
$GPGSA,M,3,30,21,18,16,06,22,29,03,31,,,,1.8,1.0,1.5*30
$GPRMC,173123.998,A,3348.6562,S,06904.0774,W,30.04,189.61,090511,,,A*54
$GPGGA,173125.002,3348.6645,S,06904.0789,W,1,09,1.0,962.8,M,28.8,M,,0000*5D
$GPGSA,M,3,30,21,18,16,06,22,29,03,31,,,,1.8,1.0,1.5*30
$GPRMC,173125.002,A,3348.6645,S,06904.0789,W,30.07,190.74,090511,,,A*53
$GPGGA,173126.002,3348.6729,S,06904.0805,W,1,09,1.0,962.9,M,28.8,M,,0000*5F
$GPGSA,M,3,30,21,18,16,06,22,29,03,31,,,,1.8,1.0,1.5*30
$GPGSV,3,1,11,30,68,268,37,21,58,145,41,18,53,040,40,16,49,231,39*7A
$GPGSV,3,2,11,06,33,232,36,22,31,000,38,29,22,088,34,03,21,236,32*7B
$GPGSV,3,3,11,31,11,325,36,25,08,028,27,15,03,097,*43
$GPRMC,173126.002,A,3348.6729,S,06904.0805,W,30.87,187.33,090511,,,A*5D
$GPGGA,173126.998,3348.6813,S,06904.0816,W,1,09,1.0,963.5,M,28.8,M,,0000*5C
$GPGSA,M,3,30,21,18,16,06,22,29,03,31,,,,1.8,1.0,1.5*30
$GPRMC,173126.998,A,3348.6813,S,06904.0816,W,31.03,185.87,090511,,,A*53
$GPGGA,173127.998,3348.6897,S,06904.0828,W,1,09,1.0,963.2,M,28.8,M,,0000*5B
$GPGSA,M,3,30,21,18,16,06,22,29,03,31,,,,1.8,1.0,1.5*30
$GPRMC,173127.998,A,3348.6897,S,06904.0828,W,30.43,186.40,090511,,,A*5E
$GPGGA,173129.000,3348.6980,S,06904.0842,W,1,09,1.0,964.5,M,28.8,M,,0000*56
$GPGSA,M,3,30,21,18,16,06,22,29,03,31,,,,1.8,1.0,1.5*30
$GPRMC,173129.000,A,3348.6980,S,06904.0842,W,30.02,188.79,090511,,,A*52
$GPGGA,173130.001,3348.7063,S,06904.0860,W,1,09,1.0,965.3,M,28.8,M,,0000*5D
$GPGSA,M,3,30,21,18,16,06,22,29,03,31,,,,1.8,1.0,1.5*30
$GPRMC,173130.001,A,3348.7063,S,06904.0860,W,29.24,190.04,090511,,,A*51
$GPGGA,173131.001,3348.7143,S,06904.0874,W,1,09,1.0,965.3,M,28.8,M,,0000*5A
$GPGSA,M,3,30,21,18,16,06,22,29,03,31,,,,1.8,1.0,1.5*30
$GPGSV,3,1,11,30,68,268,37,21,58,145,41,18,53,040,39,16,49,231,38*75
$GPGSV,3,2,11,06,33,232,38,22,31,000,39,29,22,088,33,03,21,236,37*76
$GPGSV,3,3,11,31,11,325,38,25,08,028,28,15,03,097,27*47
$GPRMC,173131.001,A,3348.7143,S,06904.0874,W,29.28,187.61,090511,,,A*5F
$GPGGA,173132.000,3348.7224,S,06904.0889,W,1,09,1.0,966.5,M,28.8,M,,0000*5D
$GPGSA,M,3,30,21,18,16,06,22,29,03,31,,,,1.8,1.0,1.5*30
$GPRMC,173132.000,A,3348.7224,S,06904.0889,W,29.53,188.17,090511,,,A*5F
$GPGGA,173133.001,3348.7305,S,06904.0904,W,1,09,1.0,966.1,M,28.8,M,,0000*5F
$GPGSA,M,3,30,21,18,16,06,22,29,03,31,,,,1.8,1.0,1.5*30
$GPRMC,173133.001,A,3348.7305,S,06904.0904,W,29.62,189.55,090511,,,A*5C
$GPGGA,173134.000,3348.7386,S,06904.0919,W,1,09,1.0,965.7,M,28.8,M,,0000*5B
$GPGSA,M,3,30,21,18,16,06,22,29,03,31,,,,1.8,1.0,1.5*30
$GPRMC,173134.000,A,3348.7386,S,06904.0919,W,29.84,188.63,090511,,,A*51
$GPGGA,173135.001,3348.7468,S,06904.0935,W,1,09,1.0,966.0,M,28.8,M,,0000*56
$GPGSA,M,3,30,21,18,16,06,22,29,03,31,,,,1.8,1.0,1.5*30
$GPRMC,173135.001,A,3348.7468,S,06904.0935,W,29.09,188.36,090511,,,A*5D
$GPGGA,173136.001,3348.7548,S,06904.0948,W,1,09,1.0,965.3,M,28.8,M,,0000*5C
$GPGSA,M,3,30,21,18,16,06,22,29,03,31,,,,1.8,1.0,1.5*30
$GPGSV,3,1,11,30,68,268,38,21,58,145,41,18,53,040,39,16,49,231,38*7A
$GPGSV,3,2,11,06,33,232,39,22,31,000,38,29,22,088,38,03,21,236,37*7D
$GPGSV,3,3,11,31,11,325,38,25,08,028,,15,03,097,30*4B
$GPRMC,173136.001,A,3348.7548,S,06904.0948,W,29.20,188.91,090511,,,A*51
$GPGGA,173137.000,3348.7628,S,06904.0963,W,1,09,1.0,965.5,M,28.8,M,,0000*56
$GPGSA,M,3,30,21,18,16,06,22,29,03,31,,,,1.8,1.0,1.5*30
$GPRMC,173137.000,A,3348.7628,S,06904.0963,W,29.66,188.90,090511,,,A*5E
$GPGGA,173138.001,3348.7708,S,06904.0978,W,1,09,1.0,965.3,M,28.8,M,,0000*57
$GPGSA,M,3,30,21,18,16,06,22,29,03,31,,,,1.8,1.0,1.5*30
$GPRMC,173138.001,A,3348.7708,S,06904.0978,W,29.15,189.79,090511,,,A*5B
$GPGGA,173139.000,3348.7789,S,06904.0994,W,1,09,1.0,966.2,M,28.8,M,,0000*5E
$GPGSA,M,3,30,21,18,16,06,22,29,03,31,,,,1.8,1.0,1.5*30
$GPRMC,173139.000,A,3348.7789,S,06904.0994,W,30.01,187.03,090511,,,A*5E
$GPGGA,173140.001,3348.7873,S,06904.1005,W,1,09,1.0,965.4,M,28.8,M,,0000*5E
$GPGSA,M,3,30,21,18,16,06,22,29,03,31,,,,1.8,1.0,1.5*30
$GPRMC,173140.001,A,3348.7873,S,06904.1005,W,29.71,189.51,090511,,,A*5D
$GPGGA,173141.001,3348.7952,S,06904.1023,W,1,09,1.0,966.1,M,28.8,M,,0000*5F
$GPGSA,M,3,30,21,18,16,06,22,29,03,31,,,,1.8,1.0,1.5*30
$GPGSV,3,1,11,30,68,268,37,21,58,145,40,18,53,040,40,16,49,231,40*75
$GPGSV,3,2,11,06,33,232,34,22,31,000,39,29,22,088,33,03,21,236,34*79
$GPGSV,3,3,11,31,11,325,38,25,08,028,28,15,03,097,24*44
$GPRMC,173141.001,A,3348.7952,S,06904.1023,W,29.42,188.47,090511,,,A*5C
$GPGGA,173142.003,3348.8034,S,06904.1038,W,1,09,1.0,966.4,M,28.8,M,,0000*57
$GPGSA,M,3,30,21,18,16,06,22,29,03,31,,,,1.8,1.0,1.5*30
$GPRMC,173142.003,A,3348.8034,S,06904.1038,W,30.18,188.10,090511,,,A*54
$GPGGA,173142.999,3348.8115,S,06904.1053,W,1,09,1.0,967.0,M,28.8,M,,0000*57
$GPGSA,M,3,30,21,18,16,06,22,29,03,31,,,,1.8,1.0,1.5*30
$GPRMC,173142.999,A,3348.8115,S,06904.1053,W,30.32,186.98,090511,,,A*57
$GPGGA,173143.999,3348.8198,S,06904.1068,W,1,09,1.0,966.8,M,28.8,M,,0000*52
$GPGSA,M,3,30,21,18,16,06,22,29,03,31,,,,1.8,1.0,1.5*30
$GPRMC,173143.999,A,3348.8198,S,06904.1068,W,30.92,189.07,090511,,,A*58
$GPGGA,173145.002,3348.8282,S,06904.1083,W,1,09,1.0,966.9,M,28.8,M,,0000*53
$GPGSA,M,3,30,21,18,16,06,22,29,03,31,,,,1.8,1.0,1.5*30
$GPRMC,173145.002,A,3348.8282,S,06904.1083,W,29.88,187.80,090511,,,A*5A
$GPGGA,173145.998,3348.8363,S,06904.1094,W,1,09,1.0,966.6,M,28.8,M,,0000*5E
$GPGSA,M,3,30,21,18,16,06,22,29,03,31,,,,1.8,1.0,1.5*30
$GPGSV,3,1,11,30,68,268,36,21,58,145,42,18,53,040,40,16,49,231,37*76
$GPGSV,3,2,11,06,33,232,29,22,31,000,40,29,22,088,34,03,21,236,32*7A
$GPGSV,3,3,11,31,11,325,37,25,08,028,26,15,03,097,26*47
$GPRMC,173145.998,A,3348.8363,S,06904.1094,W,29.29,186.57,090511,,,A*58
$GPGGA,173147.000,3348.8445,S,06904.1107,W,1,09,1.0,967.0,M,28.8,M,,0000*5B
$GPGSA,M,3,30,21,18,16,06,22,29,03,31,,,,1.8,1.0,1.5*30
$GPRMC,173147.000,A,3348.8445,S,06904.1107,W,30.43,186.35,090511,,,A*5A
$GPGGA,173148.002,3348.8528,S,06904.1121,W,1,09,1.0,967.0,M,28.8,M,,0000*58
$GPGSA,M,3,30,21,18,16,06,22,29,03,31,,,,1.8,1.0,1.5*30
$GPRMC,173148.002,A,3348.8528,S,06904.1121,W,29.65,188.57,090511,,,A*5F
$GPGGA,173148.996,3348.8608,S,06904.1134,W,1,09,1.0,967.7,M,28.8,M,,0000*5E
$GPGSA,M,3,30,21,18,16,06,22,29,03,31,,,,1.8,1.0,1.5*30
$GPRMC,173148.996,A,3348.8608,S,06904.1134,W,29.52,185.60,090511,,,A*53
$GPGGA,173150.003,3348.8689,S,06904.1148,W,1,09,1.0,967.6,M,28.8,M,,0000*51
$GPGSA,M,3,30,21,18,16,06,22,29,03,31,,,,1.8,1.0,1.5*30
$GPRMC,173150.003,A,3348.8689,S,06904.1148,W,29.26,188.99,090511,,,A*55
$GPGGA,173151.001,3348.8772,S,06904.1161,W,1,09,1.0,966.3,M,28.8,M,,0000*58
$GPGSA,M,3,30,21,18,16,06,22,29,03,31,,,,1.8,1.0,1.5*30
$GPGSV,3,1,11,30,68,268,37,21,58,145,40,18,53,040,39,16,49,231,39*75
$GPGSV,3,2,11,06,33,232,36,22,31,000,39,29,22,088,33,03,21,236,35*7A
$GPGSV,3,3,11,31,11,325,36,25,08,028,,15,03,097,28*4C
$GPRMC,173151.001,A,3348.8772,S,06904.1161,W,29.99,186.48,090511,,,A*5E
$GPGGA,173151.999,3348.8853,S,06904.1172,W,1,09,1.0,966.0,M,28.8,M,,0000*5D
$GPGSA,M,3,30,21,18,16,06,22,29,03,31,,,,1.8,1.0,1.5*30
$GPRMC,173151.999,A,3348.8853,S,06904.1172,W,28.90,186.37,090511,,,A*58
$GPGGA,173153.002,3348.8936,S,06904.1182,W,1,09,1.0,965.4,M,28.8,M,,0000*5E
$GPGSA,M,3,30,21,18,16,06,22,29,03,31,,,,1.8,1.0,1.5*30
$GPRMC,173153.002,A,3348.8936,S,06904.1182,W,29.29,184.96,090511,,,A*56
$GPGGA,173154.000,3348.9018,S,06904.1193,W,1,09,1.0,964.4,M,28.8,M,,0000*5E
$GPGSA,M,3,30,21,18,16,06,22,29,03,31,,,,1.8,1.0,1.5*30
$GPRMC,173154.000,A,3348.9018,S,06904.1193,W,29.10,188.07,090511,,,A*59
$GPGGA,173155.000,3348.9098,S,06904.1206,W,1,09,1.0,964.1,M,28.8,M,,0000*5D
$GPGSA,M,3,30,21,18,16,06,22,29,03,31,,,,1.8,1.0,1.5*30
$GPRMC,173155.000,A,3348.9098,S,06904.1206,W,29.03,190.81,090511,,,A*5A
$GPGGA,173155.998,3348.9176,S,06904.1224,W,1,09,1.0,964.8,M,28.8,M,,0000*5D
$GPGSA,M,3,30,21,18,16,06,22,29,03,31,,,,1.8,1.0,1.5*30
$GPGSV,3,1,11,30,68,268,38,21,58,145,39,18,53,040,39,16,49,231,41*7B
$GPGSV,3,2,11,06,33,232,39,22,31,000,39,29,22,088,32,03,21,236,36*77
$GPGSV,3,3,11,31,11,325,38,25,08,028,,15,03,097,*48
$GPRMC,173155.998,A,3348.9176,S,06904.1224,W,29.10,188.70,090511,,,A*56
$GPGGA,173157.002,3348.9258,S,06904.1238,W,1,09,1.0,965.0,M,28.8,M,,0000*5E
$GPGSA,M,3,30,21,18,16,06,22,29,03,31,,,,1.8,1.0,1.5*30
$GPRMC,173157.002,A,3348.9258,S,06904.1238,W,29.50,188.73,090511,,,A*5B
$GPGGA,173157.997,3348.9336,S,06904.1256,W,1,09,1.0,965.9,M,28.8,M,,0000*53
$GPGSA,M,3,30,21,18,16,06,22,29,03,31,,,,1.8,1.0,1.5*30
$GPRMC,173157.997,A,3348.9336,S,06904.1256,W,29.21,189.16,090511,,,A*5B
$GPGGA,173159.003,3348.9417,S,06904.1272,W,1,09,1.0,965.9,M,28.8,M,,0000*5B
$GPGSA,M,3,30,21,18,16,06,22,29,03,31,,,,1.8,1.0,1.5*30
$GPRMC,173159.003,A,3348.9417,S,06904.1272,W,29.28,188.14,090511,,,A*59
$GPGGA,173159.997,3348.9498,S,06904.1286,W,1,09,1.0,965.8,M,28.8,M,,0000*52
$GPGSA,M,3,30,21,18,16,06,22,29,03,31,,,,1.8,1.0,1.5*30
$GPRMC,173159.997,A,3348.9498,S,06904.1286,W,28.85,186.97,090511,,,A*52
$GPGGA,173200.999,3348.9578,S,06904.1300,W,1,09,1.0,966.0,M,28.8,M,,0000*58
$GPGSA,M,3,30,21,18,16,06,22,29,03,31,,,,1.8,1.0,1.5*30
$GPGSV,3,1,11,30,68,268,37,21,58,145,40,18,53,040,39,16,49,231,36*7A
$GPGSV,3,2,11,06,33,232,37,22,31,000,39,29,22,088,34,03,21,236,33*7A
$GPGSV,3,3,11,31,11,325,36,25,08,028,,15,03,097,30*45
$GPRMC,173200.999,A,3348.9578,S,06904.1300,W,29.66,186.30,090511,,,A*52
$GPGGA,173202.000,3348.9660,S,06904.1311,W,1,09,1.0,965.3,M,28.8,M,,0000*59
$GPGSA,M,3,30,21,18,16,06,22,29,03,31,,,,1.8,1.0,1.5*30
$GPRMC,173202.000,A,3348.9660,S,06904.1311,W,28.38,188.37,090511,,,A*50
$GPGGA,173203.001,3348.9741,S,06904.1328,W,1,09,1.0,965.4,M,28.8,M,,0000*56
$GPGSA,M,3,30,21,18,16,06,22,29,03,31,,,,1.8,1.0,1.5*30
$GPRMC,173203.001,A,3348.9741,S,06904.1328,W,29.27,190.86,090511,,,A*54
$GPGGA,173204.001,3348.9821,S,06904.1347,W,1,09,1.0,966.2,M,28.8,M,,0000*54
$GPGSA,M,3,30,21,18,16,06,22,29,03,31,,,,1.8,1.0,1.5*30
$GPRMC,173204.001,A,3348.9821,S,06904.1347,W,29.01,188.88,090511,,,A*50
$GPGGA,173205.002,3348.9903,S,06904.1362,W,1,09,1.0,966.0,M,28.8,M,,0000*52
$GPGSA,M,3,30,21,18,16,06,22,03,29,31,,,,1.8,1.0,1.5*30
$GPRMC,173205.002,A,3348.9903,S,06904.1362,W,29.64,189.87,090511,,,A*59
$GPGGA,173205.999,3348.9985,S,06904.1376,W,1,09,1.0,965.1,M,28.8,M,,0000*50
$GPGSA,M,3,30,21,18,16,06,22,03,29,31,,,,1.8,1.0,1.5*30
$GPGSV,3,1,11,30,68,270,36,21,57,145,41,18,53,040,40,16,50,232,39*76
$GPGSV,3,2,11,06,34,232,35,22,32,000,39,03,22,236,32,29,22,087,34*71
$GPGSV,3,3,11,31,10,326,38,25,08,028,26,15,03,097,23*4F
$GPRMC,173205.999,A,3348.9985,S,06904.1376,W,29.46,188.46,090511,,,A*55
$GPGGA,173207.000,3349.0068,S,06904.1391,W,1,09,1.0,965.7,M,28.8,M,,0000*56
$GPGSA,M,3,30,21,18,16,06,22,03,29,31,,,,1.8,1.0,1.5*30
$GPRMC,173207.000,A,3349.0068,S,06904.1391,W,30.67,187.32,090511,,,A*52
$GPGGA,173208.000,3349.0152,S,06904.1402,W,1,09,1.0,965.1,M,28.8,M,,0000*5A
$GPGSA,M,3,30,21,18,16,06,22,03,29,31,,,,1.8,1.0,1.5*30
$GPRMC,173208.000,A,3349.0152,S,06904.1402,W,30.24,188.13,090511,,,A*53
$GPGGA,173208.999,3349.0235,S,06904.1416,W,1,09,1.0,964.4,M,28.8,M,,0000*50
$GPGSA,M,3,30,21,18,16,06,22,03,29,31,,,,1.8,1.0,1.5*30
$GPRMC,173208.999,A,3349.0235,S,06904.1416,W,30.05,187.54,090511,,,A*52
$GPGGA,173210.001,3349.0318,S,06904.1430,W,1,09,1.0,964.1,M,28.8,M,,0000*5E
$GPGSA,M,3,30,21,18,16,06,22,03,29,31,,,,1.8,1.0,1.5*30
$GPRMC,173210.001,A,3349.0318,S,06904.1430,W,30.02,188.40,090511,,,A*54
$GPGGA,173211.001,3349.0402,S,06904.1446,W,1,09,1.0,963.8,M,28.8,M,,0000*5C
$GPGSA,M,3,30,21,18,16,06,22,03,29,31,,,,1.8,1.0,1.5*30
$GPGSV,3,1,11,30,68,270,27,21,57,145,38,18,53,040,40,16,50,232,40*76
$GPGSV,3,2,11,06,34,232,39,22,32,000,39,03,22,236,38,29,22,087,32*71
$GPGSV,3,3,11,31,10,326,35,25,08,028,31,15,03,097,33*45
$GPRMC,173211.001,A,3349.0402,S,06904.1446,W,30.15,187.47,090511,,,A*56
$GPGGA,173212.003,3349.0486,S,06904.1462,W,1,09,1.0,964.3,M,28.8,M,,0000*5B
$GPGSA,M,3,30,21,18,16,06,22,03,29,31,,,,1.8,1.0,1.5*30
$GPRMC,173212.003,A,3349.0486,S,06904.1462,W,29.92,187.89,090511,,,A*58
$GPGGA,173212.998,3349.0567,S,06904.1475,W,1,09,1.0,964.6,M,28.8,M,,0000*5D
$GPGSA,M,3,30,21,18,16,06,22,03,29,31,,,,1.8,1.0,1.5*30
$GPRMC,173212.998,A,3349.0567,S,06904.1475,W,29.56,188.31,090511,,,A*5F
$GPGGA,173214.000,3349.0651,S,06904.1489,W,1,09,1.0,964.5,M,28.8,M,,0000*55
$GPGSA,M,3,30,21,18,16,06,22,03,29,31,,,,1.8,1.0,1.5*30
$GPRMC,173214.000,A,3349.0651,S,06904.1489,W,30.20,189.53,090511,,,A*58
$GPGGA,173214.999,3349.0732,S,06904.1507,W,1,09,1.0,966.1,M,28.8,M,,0000*59
$GPGSA,M,3,30,21,18,16,06,22,03,29,31,,,,1.8,1.0,1.5*30
$GPRMC,173214.999,A,3349.0732,S,06904.1507,W,30.03,188.88,090511,,,A*54
$GPGGA,173216.000,3349.0814,S,06904.1520,W,1,09,1.0,966.4,M,28.8,M,,0000*59
$GPGSA,M,3,30,21,18,16,06,22,03,29,31,,,,1.8,1.0,1.5*30
$GPGSV,3,1,11,30,68,270,37,21,57,145,41,18,53,040,40,16,50,232,39*77
$GPGSV,3,2,11,06,34,232,39,22,32,000,38,03,22,236,37,29,22,087,28*74
$GPGSV,3,3,11,31,10,326,39,25,08,028,,15,03,097,30*48
$GPRMC,173216.000,A,3349.0814,S,06904.1520,W,29.66,188.34,090511,,,A*5D
$GPGGA,173217.003,3349.0897,S,06904.1536,W,1,09,1.0,966.5,M,28.8,M,,0000*56
$GPGSA,M,3,30,21,18,16,06,22,03,29,31,,,,1.8,1.0,1.5*30
$GPRMC,173217.003,A,3349.0897,S,06904.1536,W,30.25,188.29,090511,,,A*50
$GPGGA,173218.000,3349.0981,S,06904.1550,W,1,09,1.0,966.2,M,28.8,M,,0000*5B
$GPGSA,M,3,30,21,18,16,06,22,03,29,31,,,,1.8,1.0,1.5*30
$GPRMC,173218.000,A,3349.0981,S,06904.1550,W,30.37,187.66,090511,,,A*5D
$GPGGA,173219.000,3349.1064,S,06904.1564,W,1,09,1.0,966.4,M,28.8,M,,0000*58
$GPGSA,M,3,30,21,18,16,06,22,03,29,31,,,,1.8,1.0,1.5*30
$GPRMC,173219.000,A,3349.1064,S,06904.1564,W,29.87,188.89,090511,,,A*55
$GPGGA,173219.997,3349.1148,S,06904.1580,W,1,08,1.6,965.8,M,28.8,M,,0000*52
$GPGSA,M,3,30,21,18,16,06,22,03,31,,,,,2.8,1.6,2.3*3B
$GPRMC,173219.997,A,3349.1148,S,06904.1580,W,29.79,188.61,090511,,,A*50
$GPGGA,173221.003,3349.1231,S,06904.1594,W,1,09,1.0,966.1,M,28.8,M,,0000*58
$GPGSA,M,3,30,21,18,16,06,22,03,29,31,,,,1.8,1.0,1.5*30
$GPGSV,3,1,11,30,68,270,37,21,57,145,41,18,53,040,38,16,50,232,40*76
$GPGSV,3,2,11,06,34,232,38,22,32,000,39,03,22,236,38,29,22,087,34*76
$GPGSV,3,3,11,31,10,326,37,25,08,028,,15,03,097,28*4F
$GPRMC,173221.003,A,3349.1231,S,06904.1594,W,30.27,188.19,090511,,,A*5B
$GPGGA,173222.000,3349.1314,S,06904.1608,W,1,09,1.0,966.0,M,28.8,M,,0000*59
$GPGSA,M,3,30,21,18,16,06,22,03,29,31,,,,1.8,1.0,1.5*30
$GPRMC,173222.000,A,3349.1314,S,06904.1608,W,29.91,187.69,090511,,,A*56
$GPGGA,173223.000,3349.1398,S,06904.1621,W,1,09,1.0,965.5,M,28.8,M,,0000*51
$GPGSA,M,3,30,21,18,16,06,22,03,29,31,,,,1.8,1.0,1.5*30
$GPRMC,173223.000,A,3349.1398,S,06904.1621,W,29.34,187.41,090511,,,A*5D
$GPGGA,173224.000,3349.1480,S,06904.1636,W,1,09,1.0,966.5,M,28.8,M,,0000*5D
$GPGSA,M,3,30,21,18,16,06,22,03,29,31,,,,1.8,1.0,1.5*30
$GPRMC,173224.000,A,3349.1480,S,06904.1636,W,29.90,188.57,090511,,,A*54
$GPGGA,173225.000,3349.1561,S,06904.1649,W,1,09,1.0,966.8,M,28.8,M,,0000*57
$GPGSA,M,3,30,21,18,16,06,22,03,29,31,,,,1.8,1.0,1.5*30
$GPRMC,173225.000,A,3349.1561,S,06904.1649,W,30.19,187.12,090511,,,A*54
$GPGGA,173225.998,3349.1646,S,06904.1660,W,1,09,1.0,966.3,M,28.8,M,,0000*59
$GPGSA,M,3,30,21,18,16,06,22,03,29,31,,,,1.8,1.0,1.5*30
$GPGSV,3,1,11,30,68,270,37,21,57,145,41,18,53,040,41,16,50,232,40*78
$GPGSV,3,2,11,06,34,232,36,22,32,000,39,03,22,236,37,29,22,087,29*7B
$GPGSV,3,3,11,31,10,326,38,25,08,028,,15,03,097,*4A
$GPRMC,173225.998,A,3349.1646,S,06904.1660,W,30.02,188.83,090511,,,A*5C
$GPGGA,173227.000,3349.1729,S,06904.1676,W,1,09,1.0,966.8,M,28.8,M,,0000*57
$GPGSA,M,3,30,21,18,16,06,22,03,29,31,,,,1.8,1.0,1.5*30
$GPRMC,173227.000,A,3349.1729,S,06904.1676,W,30.03,188.07,090511,,,A*54
$GPGGA,173227.998,3349.1810,S,06904.1689,W,1,09,1.0,967.3,M,28.8,M,,0000*50
$GPGSA,M,3,30,21,18,16,06,22,03,29,31,,,,1.8,1.0,1.5*30
$GPRMC,173227.998,A,3349.1810,S,06904.1689,W,29.07,187.98,090511,,,A*5C
$GPGGA,173229.002,3349.1893,S,06904.1704,W,1,09,1.0,967.2,M,28.8,M,,0000*5A
$GPGSA,M,3,30,21,18,16,06,22,03,29,31,,,,1.8,1.0,1.5*30
$GPRMC,173229.002,A,3349.1893,S,06904.1704,W,30.29,187.95,090511,,,A*5E
$GPGGA,173230.002,3349.1978,S,06904.1720,W,1,09,1.0,966.6,M,28.8,M,,0000*55
$GPGSA,M,3,30,21,18,16,06,22,03,29,31,,,,1.8,1.0,1.5*30
$GPRMC,173230.002,A,3349.1978,S,06904.1720,W,30.13,187.77,090511,,,A*51
$GPGGA,173230.997,3349.2061,S,06904.1735,W,1,09,1.0,966.2,M,28.8,M,,0000*52
$GPGSA,M,3,30,21,18,16,06,22,03,29,31,,,,1.8,1.0,1.5*30
$GPGSV,3,1,11,30,68,270,37,21,57,145,41,18,53,040,39,16,50,232,40*77
$GPGSV,3,2,11,06,34,232,36,22,32,000,40,03,22,236,36,29,22,087,31*7D
$GPGSV,3,3,11,31,10,326,37,25,08,028,27,15,03,097,31*42
$GPRMC,173230.997,A,3349.2061,S,06904.1735,W,29.85,189.15,090511,,,A*5F
$GPGGA,173232.003,3349.2145,S,06904.1749,W,1,09,1.0,966.6,M,28.8,M,,0000*5C
$GPGSA,M,3,30,21,18,16,06,22,03,29,31,,,,1.8,1.0,1.5*30
$GPRMC,173232.003,A,3349.2145,S,06904.1749,W,29.70,187.43,090511,,,A*52
$GPGGA,173232.997,3349.2225,S,06904.1764,W,1,09,1.0,966.9,M,28.8,M,,0000*5D
$GPGSA,M,3,30,21,18,16,06,22,03,29,31,,,,1.8,1.0,1.5*30
$GPRMC,173232.997,A,3349.2225,S,06904.1764,W,29.71,184.40,090511,,,A*5D
$GPGGA,173234.003,3349.2306,S,06904.1778,W,1,09,1.0,968.0,M,28.8,M,,0000*55
$GPGSA,M,3,30,21,18,16,06,22,03,29,31,,,,1.8,1.0,1.5*30
$GPRMC,173234.003,A,3349.2306,S,06904.1778,W,29.75,187.33,090511,,,A*51
$GPGGA,173234.999,3349.2389,S,06904.1795,W,1,08,1.1,968.2,M,28.8,M,,0000*59
$GPGSA,M,3,30,21,18,16,06,03,29,31,,,,,1.9,1.1,1.5*30
$GPRMC,173234.999,A,3349.2389,S,06904.1795,W,30.81,190.02,090511,,,A*58
$GPGGA,173236.000,3349.2472,S,06904.1811,W,1,09,1.0,968.9,M,28.8,M,,0000*59
$GPGSA,M,3,30,21,18,16,06,22,03,29,31,,,,1.8,1.0,1.5*30
$GPGSV,3,1,11,30,68,270,38,21,57,145,40,18,53,040,38,16,50,232,39*76
$GPGSV,3,2,11,06,34,232,35,22,32,000,39,03,22,236,35,29,22,087,36*74
$GPGSV,3,3,11,31,10,326,36,25,08,028,,15,03,097,26*40
$GPRMC,173236.000,A,3349.2472,S,06904.1811,W,30.31,186.83,090511,,,A*56
$GPGGA,173237.000,3349.2555,S,06904.1826,W,1,09,1.0,968.9,M,28.8,M,,0000*58
$GPGSA,M,3,30,21,18,16,06,22,03,29,31,,,,1.8,1.0,1.5*30
$GPRMC,173237.000,A,3349.2555,S,06904.1826,W,31.09,187.01,090511,,,A*56
$GPGGA,173238.000,3349.2639,S,06904.1840,W,1,09,1.0,970.1,M,28.8,M,,0000*5F
$GPGSA,M,3,30,21,18,16,06,22,03,29,31,,,,1.8,1.0,1.5*30
$GPRMC,173238.000,A,3349.2639,S,06904.1840,W,30.33,187.36,090511,,,A*5C
$GPGGA,173238.997,3349.2721,S,06904.1853,W,1,09,1.0,970.3,M,28.8,M,,0000*50
$GPGSA,M,3,30,21,18,16,06,22,03,29,31,,,,1.8,1.0,1.5*30
$GPRMC,173238.997,A,3349.2721,S,06904.1853,W,29.96,187.38,090511,,,A*58
$GPGGA,173240.001,3349.2802,S,06904.1871,W,1,09,1.0,971.2,M,28.8,M,,0000*57
$GPGSA,M,3,30,21,18,16,06,22,03,29,31,,,,1.8,1.0,1.5*30
$GPRMC,173240.001,A,3349.2802,S,06904.1871,W,30.05,188.73,090511,,,A*5D
$GPGGA,173241.001,3349.2882,S,06904.1890,W,1,09,1.0,971.3,M,28.8,M,,0000*50
$GPGSA,M,3,30,21,18,16,06,22,03,29,31,,,,1.8,1.0,1.5*30
$GPGSV,3,1,11,30,68,270,38,21,57,145,39,18,53,040,41,16,50,232,38*77
$GPGSV,3,2,11,06,34,232,33,22,32,000,40,03,22,236,32,29,22,087,35*78
$GPGSV,3,3,11,31,10,326,37,25,08,028,23,15,03,097,25*43
$GPRMC,173241.001,A,3349.2882,S,06904.1890,W,29.41,190.02,090511,,,A*5C
$GPGGA,173242.003,3349.2963,S,06904.1910,W,1,09,1.0,972.6,M,28.8,M,,0000*50
$GPGSA,M,3,30,21,18,16,06,22,03,29,31,,,,1.8,1.0,1.5*30
$GPRMC,173242.003,A,3349.2963,S,06904.1910,W,29.61,187.78,090511,,,A*53
$GPGGA,173242.998,3349.3043,S,06904.1923,W,1,09,1.0,972.7,M,28.8,M,,0000*50
$GPGSA,M,3,30,21,18,16,06,22,03,29,31,,,,1.8,1.0,1.5*30
$GPRMC,173242.998,A,3349.3043,S,06904.1923,W,29.48,187.36,090511,,,A*53
$GPGGA,173244.002,3349.3123,S,06904.1942,W,1,09,1.0,973.3,M,28.8,M,,0000*59
$GPGSA,M,3,30,21,18,16,06,22,03,29,31,,,,1.8,1.0,1.5*30
$GPRMC,173244.002,A,3349.3123,S,06904.1942,W,29.61,190.00,090511,,,A*57
$GPGGA,173244.998,3349.3207,S,06904.1962,W,1,09,1.0,974.3,M,28.8,M,,0000*53
$GPGSA,M,3,30,21,18,16,06,22,03,29,31,,,,1.8,1.0,1.5*30
$GPRMC,173244.998,A,3349.3207,S,06904.1962,W,30.01,189.76,090511,,,A*5D
$GPGGA,173246.002,3349.3290,S,06904.1979,W,1,09,1.0,974.3,M,28.8,M,,0000*5F
$GPGSA,M,3,30,21,18,16,06,22,03,29,31,,,,1.8,1.0,1.5*30
$GPGSV,3,1,11,30,68,270,38,21,57,145,40,18,53,040,40,16,50,232,38*78
$GPGSV,3,2,11,06,34,232,34,22,32,000,40,03,22,236,28,29,22,087,33*72
$GPGSV,3,3,11,31,10,326,36,25,08,028,27,15,03,097,*41
$GPRMC,173246.002,A,3349.3290,S,06904.1979,W,30.28,189.94,090511,,,A*56
$GPGGA,173246.997,3349.3372,S,06904.1996,W,1,09,1.0,974.6,M,28.8,M,,0000*53
$GPGSA,M,3,30,21,18,16,06,22,03,29,31,,,,1.8,1.0,1.5*30
$GPRMC,173246.997,A,3349.3372,S,06904.1996,W,29.28,187.32,090511,,,A*55
$GPGGA,173248.001,3349.3453,S,06904.2005,W,1,09,1.0,974.4,M,28.8,M,,0000*5D
$GPGSA,M,3,30,21,18,16,06,22,03,29,31,,,,1.8,1.0,1.5*30
$GPRMC,173248.001,A,3349.3453,S,06904.2005,W,28.29,185.42,090511,,,A*5C
$GPGGA,173249.001,3349.3534,S,06904.2016,W,1,09,1.0,973.8,M,28.8,M,,0000*55
$GPGSA,M,3,30,21,18,16,06,22,03,29,31,,,,1.8,1.0,1.5*30
$GPRMC,173249.001,A,3349.3534,S,06904.2016,W,29.51,187.72,090511,,,A*50
$GPGGA,173250.003,3349.3616,S,06904.2029,W,1,09,1.0,973.1,M,28.8,M,,0000*59
$GPGSA,M,3,30,21,18,16,06,22,03,29,31,,,,1.8,1.0,1.5*30
$GPRMC,173250.003,A,3349.3616,S,06904.2029,W,29.40,185.82,090511,,,A*58
$GPGGA,173250.998,3349.3697,S,06904.2037,W,1,09,1.0,973.6,M,28.8,M,,0000*53
$GPGSA,M,3,30,21,18,16,06,22,03,29,31,,,,1.8,1.0,1.5*30
$GPGSV,3,1,11,30,68,270,37,21,57,145,41,18,53,040,39,16,50,232,38*78
$GPGSV,3,2,11,06,34,232,34,22,32,000,40,03,22,236,33,29,22,087,30*7B
$GPGSV,3,3,11,31,10,326,34,25,08,028,27,15,03,097,30*40
$GPRMC,173250.998,A,3349.3697,S,06904.2037,W,29.81,186.87,090511,,,A*5E
$GPGGA,173252.000,3349.3781,S,06904.2047,W,1,09,1.0,973.3,M,28.8,M,,0000*5D
$GPGSA,M,3,30,21,18,16,06,22,03,29,31,,,,1.8,1.0,1.5*30
$GPRMC,173252.000,A,3349.3781,S,06904.2047,W,30.23,186.04,090511,,,A*5E
$GPGGA,173253.002,3349.3865,S,06904.2059,W,1,09,1.0,972.9,M,28.8,M,,0000*5F
$GPGSA,M,3,30,21,18,16,06,22,03,29,31,,,,1.8,1.0,1.5*30
$GPRMC,173253.002,A,3349.3865,S,06904.2059,W,30.05,187.36,090511,,,A*53
$GPGGA,173254.000,3349.3950,S,06904.2069,W,1,09,1.0,972.1,M,28.8,M,,0000*56
$GPGSA,M,3,30,21,18,16,06,22,03,29,31,,,,1.8,1.0,1.5*30
$GPRMC,173254.000,A,3349.3950,S,06904.2069,W,29.67,186.68,090511,,,A*54
$GPGGA,173255.000,3349.4033,S,06904.2080,W,1,09,1.0,971.5,M,28.8,M,,0000*5C
$GPGSA,M,3,30,21,18,16,06,22,03,29,31,,,,1.8,1.0,1.5*30
$GPRMC,173255.000,A,3349.4033,S,06904.2080,W,29.54,186.83,090511,,,A*5C
$GPGGA,173256.000,3349.4116,S,06904.2092,W,1,09,1.0,971.4,M,28.8,M,,0000*5B
$GPGSA,M,3,30,21,18,16,06,22,03,29,31,,,,1.8,1.0,1.5*30
$GPGSV,3,1,11,30,68,270,36,21,57,145,42,18,53,040,39,16,50,232,39*7B
$GPGSV,3,2,11,06,34,232,37,22,32,000,39,03,22,236,34,29,22,087,34*75
$GPGSV,3,3,11,31,10,326,33,25,08,028,,15,03,097,29*4A
$GPRMC,173256.000,A,3349.4116,S,06904.2092,W,29.57,187.60,090511,,,A*55
$GPGGA,173257.000,3349.4198,S,06904.2105,W,1,09,1.0,971.3,M,28.8,M,,0000*54
$GPGSA,M,3,30,21,18,16,06,22,03,29,31,,,,1.8,1.0,1.5*30
$GPRMC,173257.000,A,3349.4198,S,06904.2105,W,29.54,187.14,090511,,,A*5D
$GPGGA,173258.000,3349.4279,S,06904.2122,W,1,09,1.0,972.2,M,28.8,M,,0000*50
$GPGSA,M,3,30,21,18,16,06,22,03,29,31,,,,1.8,1.0,1.5*30
$GPRMC,173258.000,A,3349.4279,S,06904.2122,W,29.67,189.13,090511,,,A*52
$GPGGA,173259.000,3349.4360,S,06904.2138,W,1,09,1.0,972.8,M,28.8,M,,0000*59
$GPGSA,M,3,30,21,18,16,06,22,03,29,31,,,,1.8,1.0,1.5*30
$GPRMC,173259.000,A,3349.4360,S,06904.2138,W,29.63,188.24,090511,,,A*50
$GPGGA,173259.997,3349.4441,S,06904.2155,W,1,09,1.0,973.0,M,28.8,M,,0000*58
$GPGSA,M,3,30,21,18,16,06,22,03,29,31,,,,1.8,1.0,1.5*30
$GPRMC,173259.997,A,3349.4441,S,06904.2155,W,29.25,188.11,090511,,,A*5C
$GPGGA,173301.003,3349.4523,S,06904.2170,W,1,09,1.0,972.1,M,28.8,M,,0000*52
$GPGSA,M,3,30,21,18,16,06,22,03,29,31,,,,1.8,1.0,1.5*30
$GPGSV,3,1,11,30,68,270,37,21,57,145,40,18,53,040,39,16,50,232,39*78
$GPGSV,3,2,11,06,34,232,36,22,32,000,39,03,22,236,37,29,22,087,30*73
$GPGSV,3,3,11,31,10,326,31,25,08,028,25,15,03,097,*44
$GPRMC,173301.003,A,3349.4523,S,06904.2170,W,29.12,187.49,090511,,,A*50
$GPGGA,173301.996,3349.4605,S,06904.2183,W,1,09,1.0,972.0,M,28.8,M,,0000*5D
$GPGSA,M,3,30,21,18,16,06,22,03,29,31,,,,1.8,1.0,1.5*30
$GPRMC,173301.996,A,3349.4605,S,06904.2183,W,30.31,186.49,090511,,,A*56
$GPGGA,173303.001,3349.4689,S,06904.2198,W,1,09,1.0,971.2,M,28.8,M,,0000*57
$GPGSA,M,3,30,21,18,16,06,22,03,29,31,,,,1.8,1.0,1.5*30
$GPRMC,173303.001,A,3349.4689,S,06904.2198,W,29.70,189.51,090511,,,A*56
$GPGGA,173304.001,3349.4772,S,06904.2211,W,1,09,1.0,969.9,M,28.8,M,,0000*55
$GPGSA,M,3,30,21,18,16,06,22,03,29,31,,,,1.8,1.0,1.5*30
$GPRMC,173304.001,A,3349.4772,S,06904.2211,W,29.35,188.09,090511,,,A*5B
$GPGGA,173305.001,3349.4853,S,06904.2230,W,1,09,1.0,970.1,M,28.8,M,,0000*5B
$GPGSA,M,3,30,21,18,16,06,22,03,29,31,,,,1.8,1.0,1.5*30
$GPRMC,173305.001,A,3349.4853,S,06904.2230,W,28.96,189.70,090511,,,A*52
$GPGGA,173306.000,3349.4935,S,06904.2245,W,1,08,1.1,969.7,M,28.8,M,,0000*54
$GPGSA,M,3,30,21,18,16,06,22,03,29,,,,,2.1,1.1,1.8*34
$GPGSV,3,1,11,30,68,270,38,21,57,145,40,18,53,040,40,16,50,232,38*78
$GPGSV,3,2,11,06,34,232,39,22,32,000,40,03,22,236,36,29,22,087,37*74
