$GPGGA,082029.000,1926.9267,S,06958.0580,W,1,08,0.9,1076.6,M,35.0,M,,0000*6A
$GPGSA,M,3,10,05,27,28,26,15,17,08,,,,,2.0,0.9,1.8*39
$GPRMC,082029.000,A,1926.9267,S,06958.0580,W,0.20,68.39,010511,,,A*5B
$GPGGA,082030.000,1926.9267,S,06958.0579,W,1,08,0.9,1076.1,M,35.0,M,,0000*63
$GPGSA,M,3,10,05,27,28,26,15,17,08,,,,,2.0,0.9,1.8*39
$GPRMC,082030.000,A,1926.9267,S,06958.0579,W,0.11,66.49,010511,,,A*5E
$GPGGA,082031.000,1926.9268,S,06958.0578,W,1,08,0.9,1075.7,M,35.0,M,,0000*69
$GPGSA,M,3,10,05,27,28,26,15,17,08,,,,,2.0,0.9,1.8*39
$GPRMC,082031.000,A,1926.9268,S,06958.0578,W,0.07,57.31,010511,,,A*5B
$GPGGA,082032.000,1926.9268,S,06958.0578,W,1,08,0.9,1075.4,M,35.0,M,,0000*69
$GPGSA,M,3,10,05,27,28,26,15,17,08,,,,,2.0,0.9,1.8*39
$GPGSV,3,1,12,05,50,309,28,26,49,193,26,28,46,149,28,17,37,056,26*75
$GPGSV,3,2,12,10,24,005,30,08,20,130,26,15,19,217,30,27,15,249,28*79
$GPGSV,3,3,12,09,08,257,25,02,03,339,,07,03,109,,12,02,318,*73
$GPRMC,082032.000,A,1926.9268,S,06958.0578,W,0.08,37.06,010511,,,A*55
$GPGGA,082033.000,1926.9268,S,06958.0577,W,1,08,0.9,1075.2,M,35.0,M,,0000*61
$GPGSA,M,3,10,05,27,28,26,15,17,08,,,,,2.0,0.9,1.8*39
$GPRMC,082033.000,A,1926.9268,S,06958.0577,W,0.19,57.79,010511,,,A*55
$GPGGA,082034.000,1926.9268,S,06958.0577,W,1,08,0.9,1074.7,M,35.0,M,,0000*62
$GPGSA,M,3,10,05,27,28,26,15,17,08,,,,,2.0,0.9,1.8*39
$GPRMC,082034.000,A,1926.9268,S,06958.0577,W,0.24,99.05,010511,,,A*55
$GPGGA,082035.000,1926.9269,S,06958.0576,W,1,08,0.9,1074.3,M,35.0,M,,0000*67
$GPGSA,M,3,10,05,27,28,26,15,17,08,,,,,2.0,0.9,1.8*39
$GPRMC,082035.000,A,1926.9269,S,06958.0576,W,0.29,88.16,010511,,,A*5B
$GPGGA,082036.000,1926.9269,S,06958.0575,W,1,08,0.9,1074.0,M,35.0,M,,0000*64
$GPGSA,M,3,10,05,27,28,26,15,17,08,,,,,2.0,0.9,1.8*39
$GPRMC,082036.000,A,1926.9269,S,06958.0575,W,0.08,50.82,010511,,,A*50
$GPGGA,082037.000,1926.9269,S,06958.0575,W,1,08,0.9,1073.8,M,35.0,M,,0000*6A
$GPGSA,M,3,10,05,27,28,26,15,17,08,,,,,2.0,0.9,1.8*39
$GPGSV,3,1,12,05,50,309,28,26,49,193,26,28,46,149,28,17,37,056,25*76
$GPGSV,3,2,12,10,24,005,30,08,20,130,26,15,19,217,30,27,15,249,28*79
$GPGSV,3,3,12,09,08,257,25,02,03,339,,07,03,109,,12,02,318,*73
$GPRMC,082037.000,A,1926.9269,S,06958.0575,W,0.17,47.70,010511,,,A*54
$GPGGA,082038.000,1926.9269,S,06958.0574,W,1,08,0.9,1073.5,M,35.0,M,,0000*69
$GPGSA,M,3,10,05,27,28,26,15,17,08,,,,,2.0,0.9,1.8*39
$GPRMC,082038.000,A,1926.9269,S,06958.0574,W,0.23,39.22,010511,,,A*53
$GPGGA,082039.000,1926.9268,S,06958.0574,W,1,08,0.9,1073.3,M,35.0,M,,0000*6F
$GPGSA,M,3,10,05,27,28,26,15,17,08,,,,,2.0,0.9,1.8*39
$GPRMC,082039.000,A,1926.9268,S,06958.0574,W,0.19,7.06,010511,,,A*61
$GPGGA,082040.000,1926.9270,S,06958.0571,W,1,08,0.9,1073.9,M,35.0,M,,0000*67
$GPGSA,M,3,10,05,27,28,26,15,17,08,,,,,2.0,0.9,1.8*39
$GPRMC,082040.000,A,1926.9270,S,06958.0571,W,0.19,38.05,010511,,,A*5C
$GPGGA,082041.000,1926.9271,S,06958.0570,W,1,08,0.9,1073.9,M,35.0,M,,0000*66
$GPGSA,M,3,10,05,27,28,26,15,17,08,,,,,2.0,0.9,1.8*39
$GPRMC,082041.000,A,1926.9271,S,06958.0570,W,0.14,102.04,010511,,,A*69
$GPGGA,082042.000,1926.9271,S,06958.0570,W,1,08,0.9,1073.8,M,35.0,M,,0000*64
$GPGSA,M,3,10,05,27,28,26,15,17,08,,,,,2.0,0.9,1.8*39
$GPGSV,3,1,12,05,50,309,28,26,49,193,26,28,46,149,28,17,37,056,25*76
$GPGSV,3,2,12,10,24,005,30,08,20,130,26,15,19,217,30,27,15,249,28*79
$GPGSV,3,3,12,09,08,257,25,02,03,339,,07,03,109,,12,02,318,*73
$GPRMC,082042.000,A,1926.9271,S,06958.0570,W,0.04,359.44,010511,,,A*63
$GPGGA,082043.000,1926.9272,S,06958.0573,W,1,08,0.9,1074.6,M,35.0,M,,0000*6C
$GPGSA,M,3,10,05,27,28,26,15,17,08,,,,,2.0,0.9,1.8*39
$GPRMC,082043.000,A,1926.9272,S,06958.0573,W,0.39,254.68,010511,,,A*6E
$GPGGA,082044.000,1926.9271,S,06958.0576,W,1,08,0.9,1074.4,M,35.0,M,,0000*6F
$GPGSA,M,3,10,05,27,28,26,15,17,08,,,,,2.0,0.9,1.8*39
$GPRMC,082044.000,A,1926.9271,S,06958.0576,W,0.04,186.52,010511,,,A*64
$GPGGA,082045.000,1926.9272,S,06958.0576,W,1,08,0.9,1074.5,M,35.0,M,,0000*6C
$GPGSA,M,3,10,05,27,28,26,15,17,08,,,,,2.0,0.9,1.8*39
$GPRMC,082045.000,A,1926.9272,S,06958.0576,W,0.06,347.40,010511,,,A*68
$GPGGA,082046.000,1926.9272,S,06958.0576,W,1,08,0.9,1074.7,M,35.0,M,,0000*6D
$GPGSA,M,3,10,05,27,28,26,15,17,08,,,,,2.0,0.9,1.8*39
$GPRMC,082046.000,A,1926.9272,S,06958.0576,W,0.06,62.96,010511,,,A*54
$GPGGA,082047.000,1926.9273,S,06958.0576,W,1,08,0.9,1074.9,M,35.0,M,,0000*63
$GPGSA,M,3,10,05,27,28,26,15,17,08,,,,,2.0,0.9,1.8*39
$GPGSV,3,1,12,05,50,309,28,26,49,193,26,28,46,149,28,17,37,056,25*76
$GPGSV,3,2,12,10,24,005,29,08,20,130,26,15,19,217,30,27,15,249,28*71
$GPGSV,3,3,12,09,08,257,25,02,03,339,,07,03,109,,12,02,318,*73
$GPRMC,082047.000,A,1926.9273,S,06958.0576,W,0.08,115.22,010511,,,A*64
$GPGGA,082048.000,1926.9274,S,06958.0575,W,1,08,0.9,1075.2,M,35.0,M,,0000*62
$GPGSA,M,3,10,05,27,28,26,15,17,08,,,,,2.0,0.9,1.8*39
$GPRMC,082048.000,A,1926.9274,S,06958.0575,W,0.11,109.77,010511,,,A*6A
$GPGGA,082049.000,1926.9274,S,06958.0575,W,1,08,0.9,1075.3,M,35.0,M,,0000*62
$GPGSA,M,3,10,05,27,28,26,15,17,08,,,,,2.0,0.9,1.8*39
$GPRMC,082049.000,A,1926.9274,S,06958.0575,W,0.07,43.97,010511,,,A*5D
$GPGGA,082050.000,1926.9274,S,06958.0575,W,1,08,0.9,1075.4,M,35.0,M,,0000*6D
$GPGSA,M,3,10,05,27,28,26,15,17,08,,,,,2.0,0.9,1.8*39
$GPRMC,082050.000,A,1926.9274,S,06958.0575,W,0.11,42.85,010511,,,A*50
$GPGGA,082051.000,1926.9273,S,06958.0577,W,1,08,0.9,1076.6,M,35.0,M,,0000*68
$GPGSA,M,3,10,05,27,28,26,15,17,08,,,,,2.0,0.9,1.8*39
$GPRMC,082051.000,A,1926.9273,S,06958.0577,W,0.09,70.41,010511,,,A*54
$GPGGA,082052.000,1926.9273,S,06958.0578,W,1,08,0.9,1077.0,M,35.0,M,,0000*63
$GPGSA,M,3,10,05,27,28,26,15,17,08,,,,,2.0,0.9,1.8*39
$GPGSV,3,1,12,05,50,309,28,26,49,193,26,28,46,149,28,17,37,056,25*76
$GPGSV,3,2,12,10,24,005,29,08,20,130,26,15,19,217,30,27,15,249,28*71
$GPGSV,3,3,12,09,08,257,24,02,03,339,,07,03,109,,12,02,318,*72
$GPRMC,082052.000,A,1926.9273,S,06958.0578,W,0.32,309.28,010511,,,A*62
$GPGGA,082053.000,1926.9273,S,06958.0578,W,1,08,0.9,1077.2,M,35.0,M,,0000*60
$GPGSA,M,3,10,05,27,28,26,15,17,08,,,,,2.0,0.9,1.8*39
$GPRMC,082053.000,A,1926.9273,S,06958.0578,W,0.12,320.93,010511,,,A*6A
$GPGGA,082054.000,1926.9273,S,06958.0579,W,1,08,0.9,1077.3,M,35.0,M,,0000*67
$GPGSA,M,3,10,05,27,28,26,15,17,08,,,,,2.0,0.9,1.8*39
$GPRMC,082054.000,A,1926.9273,S,06958.0579,W,0.04,1.53,010511,,,A*67
$GPGGA,082055.000,1926.9273,S,06958.0578,W,1,08,0.9,1077.2,M,35.0,M,,0000*66
$GPGSA,M,3,10,05,27,28,26,15,17,08,,,,,2.0,0.9,1.8*39
$GPRMC,082055.000,A,1926.9273,S,06958.0578,W,0.52,114.02,010511,,,A*65
$GPGGA,082056.000,1926.9273,S,06958.0579,W,1,08,0.9,1076.8,M,35.0,M,,0000*6F
$GPGSA,M,3,10,05,27,28,26,15,17,08,,,,,2.0,0.9,1.8*39
$GPRMC,082056.000,A,1926.9273,S,06958.0579,W,0.23,102.54,010511,,,A*65
$GPGGA,082057.000,1926.9273,S,06958.0579,W,1,08,0.9,1076.5,M,35.0,M,,0000*63
$GPGSA,M,3,10,05,27,28,26,15,17,08,,,,,2.0,0.9,1.8*39
$GPGSV,3,1,12,05,50,309,27,26,49,193,26,28,46,149,27,17,37,056,25*76
$GPGSV,3,2,12,10,24,005,29,08,20,130,25,15,19,217,30,27,15,249,27*7D
$GPGSV,3,3,12,09,08,257,24,02,03,339,,07,03,109,,12,02,318,*72
$GPRMC,082057.000,A,1926.9273,S,06958.0579,W,0.17,115.11,010511,,,A*64
$GPGGA,082058.000,1926.9273,S,06958.0579,W,1,08,0.9,1076.4,M,35.0,M,,0000*6D
$GPGSA,M,3,10,05,27,28,26,15,17,08,,,,,2.0,0.9,1.8*39
$GPRMC,082058.000,A,1926.9273,S,06958.0579,W,0.02,309.20,010511,,,A*62
$GPGGA,082059.000,1926.9272,S,06958.0580,W,1,08,0.9,1076.2,M,35.0,M,,0000*6D
$GPGSA,M,3,10,05,27,28,26,15,17,08,,,,,2.0,0.9,1.8*39
$GPRMC,082059.000,A,1926.9272,S,06958.0580,W,0.17,305.31,010511,,,A*6C
$GPGGA,082100.000,1926.9272,S,06958.0581,W,1,08,0.9,1076.1,M,35.0,M,,0000*62
$GPGSA,M,3,10,05,27,28,26,15,17,08,,,,,2.0,0.9,1.8*39
$GPRMC,082100.000,A,1926.9272,S,06958.0581,W,0.08,35.06,010511,,,A*5A
$GPGGA,082101.000,1926.9272,S,06958.0581,W,1,08,0.9,1076.0,M,35.0,M,,0000*62
$GPGSA,M,3,10,05,27,28,26,15,17,08,,,,,2.0,0.9,1.8*39
$GPRMC,082101.000,A,1926.9272,S,06958.0581,W,0.14,128.42,010511,,,A*6B
$GPGGA,082102.000,1926.9272,S,06958.0582,W,1,08,0.9,1076.0,M,35.0,M,,0000*62
$GPGSA,M,3,10,05,27,28,26,15,17,08,,,,,2.0,0.9,1.8*39
$GPGSV,3,1,12,05,50,309,27,26,49,193,26,28,46,149,27,17,37,056,24*77
$GPGSV,3,2,12,10,24,005,29,08,20,130,25,15,19,217,30,27,15,249,27*7D
$GPGSV,3,3,12,09,08,257,24,02,03,339,,07,03,109,,12,02,318,*72
$GPRMC,082102.000,A,1926.9272,S,06958.0582,W,0.04,344.42,010511,,,A*62
$GPGGA,082103.000,1926.9271,S,06958.0583,W,1,08,0.9,1076.0,M,35.0,M,,0000*61
$GPGSA,M,3,10,05,27,28,26,15,17,08,,,,,2.0,0.9,1.8*39
$GPRMC,082103.000,A,1926.9271,S,06958.0583,W,0.08,339.04,010511,,,A*65
$GPGGA,082104.000,1926.9271,S,06958.0584,W,1,08,0.9,1076.1,M,35.0,M,,0000*60
$GPGSA,M,3,10,05,27,28,26,15,17,08,,,,,2.0,0.9,1.8*39
$GPRMC,082104.000,A,1926.9271,S,06958.0584,W,0.14,354.00,010511,,,A*67
$GPGGA,082105.000,1926.9271,S,06958.0584,W,1,08,0.9,1076.3,M,35.0,M,,0000*63
$GPGSA,M,3,10,05,27,28,26,15,17,08,,,,,2.0,0.9,1.8*39
$GPRMC,082105.000,A,1926.9271,S,06958.0584,W,0.15,5.47,010511,,,A*63
$GPGGA,082106.000,1926.9271,S,06958.0584,W,1,08,0.9,1076.6,M,35.0,M,,0000*65
$GPGSA,M,3,10,05,27,28,26,15,17,08,,,,,2.0,0.9,1.8*39
$GPRMC,082106.000,A,1926.9271,S,06958.0584,W,0.09,63.76,010511,,,A*5F
$GPGGA,082107.000,1926.9270,S,06958.0585,W,1,08,0.9,1076.6,M,35.0,M,,0000*64
$GPGSA,M,3,10,05,27,28,26,15,17,08,,,,,2.0,0.9,1.8*39
$GPGSV,3,1,12,05,50,309,27,26,49,193,26,28,46,149,27,17,37,056,25*76
$GPGSV,3,2,12,10,24,005,30,08,20,130,26,15,19,217,30,27,15,249,28*79
$GPGSV,3,3,12,09,08,257,25,02,03,339,,07,03,109,,12,02,318,*73
$GPRMC,082107.000,A,1926.9270,S,06958.0585,W,0.03,333.36,010511,,,A*66
$GPGGA,082108.000,1926.9270,S,06958.0585,W,1,08,0.9,1075.7,M,35.0,M,,0000*69
$GPGSA,M,3,10,05,27,28,26,15,17,08,,,,,2.0,0.9,1.8*39
$GPRMC,082108.000,A,1926.9270,S,06958.0585,W,0.30,80.39,010511,,,A*5D
$GPGGA,082109.000,1926.9268,S,06958.0586,W,1,08,0.9,1075.7,M,35.0,M,,0000*62
$GPGSA,M,3,10,05,27,28,26,15,17,08,,,,,2.0,0.9,1.8*39
$GPRMC,082109.000,A,1926.9268,S,06958.0586,W,0.24,46.04,010511,,,A*57
$GPGGA,082110.000,1926.9268,S,06958.0586,W,1,08,0.9,1076.0,M,35.0,M,,0000*6E
$GPGSA,M,3,10,05,27,28,26,15,17,08,,,,,2.0,0.9,1.8*39
$GPRMC,082110.000,A,1926.9268,S,06958.0586,W,0.15,46.18,010511,,,A*50
$GPGGA,082111.000,1926.9268,S,06958.0586,W,1,08,0.9,1076.1,M,35.0,M,,0000*6E
$GPGSA,M,3,10,05,27,28,26,15,17,08,,,,,2.0,0.9,1.8*39
$GPRMC,082111.000,A,1926.9268,S,06958.0586,W,0.08,41.75,010511,,,A*51
$GPGGA,082112.000,1926.9268,S,06958.0584,W,1,08,0.9,1076.5,M,35.0,M,,0000*6B
$GPGSA,M,3,10,05,27,28,26,15,17,08,,,,,2.0,0.9,1.8*39
$GPGSV,3,1,12,05,50,309,27,26,49,193,26,28,46,149,27,17,37,056,24*77
$GPGSV,3,2,12,10,24,005,30,08,20,130,26,15,19,217,30,27,15,249,27*76
$GPGSV,3,3,12,09,08,257,24,02,03,339,,07,03,109,,12,02,318,*72
$GPRMC,082112.000,A,1926.9268,S,06958.0584,W,0.35,50.33,010511,,,A*5C
$GPGGA,082113.000,1926.9268,S,06958.0583,W,1,08,0.9,1076.8,M,35.0,M,,0000*60
$GPGSA,M,3,10,05,27,28,26,15,17,08,,,,,2.0,0.9,1.8*39
$GPRMC,082113.000,A,1926.9268,S,06958.0583,W,0.14,67.62,010511,,,A*59
$GPGGA,082114.000,1926.9268,S,06958.0582,W,1,08,0.9,1076.9,M,35.0,M,,0000*67
$GPGSA,M,3,10,05,27,28,26,15,17,08,,,,,2.0,0.9,1.8*39
$GPRMC,082114.000,A,1926.9268,S,06958.0582,W,0.08,14.09,010511,,,A*5B
$GPGGA,082115.000,1926.9268,S,06958.0582,W,1,08,0.9,1076.9,M,35.0,M,,0000*66
$GPGSA,M,3,10,05,27,28,26,15,17,08,,,,,2.0,0.9,1.8*39
$GPRMC,082115.000,A,1926.9268,S,06958.0582,W,0.08,46.31,010511,,,A*56
$GPGGA,082116.000,1926.9268,S,06958.0582,W,1,08,0.9,1076.9,M,35.0,M,,0000*65
$GPGSA,M,3,10,05,27,28,26,15,17,08,,,,,2.0,0.9,1.8*39
$GPRMC,082116.000,A,1926.9268,S,06958.0582,W,0.11,63.99,010511,,,A*58
$GPGGA,082117.000,1926.9269,S,06958.0581,W,1,08,0.9,1076.9,M,35.0,M,,0000*66
$GPGSA,M,3,10,05,27,28,26,15,17,08,,,,,2.0,0.9,1.8*39
$GPGSV,3,1,12,05,50,309,27,26,49,193,26,28,46,149,27,17,37,056,24*77
$GPGSV,3,2,12,10,24,005,30,08,20,130,26,15,19,217,30,27,15,249,28*79
$GPGSV,3,3,12,09,08,257,24,02,03,339,,07,03,109,,12,02,318,*72
$GPRMC,082117.000,A,1926.9269,S,06958.0581,W,0.31,74.89,010511,,,A*5E
$GPGGA,082118.000,1926.9270,S,06958.0579,W,1,08,0.9,1076.7,M,35.0,M,,0000*68
$GPGSA,M,3,10,05,27,28,26,15,17,08,,,,,2.0,0.9,1.8*39
$GPRMC,082118.000,A,1926.9270,S,06958.0579,W,0.09,18.15,010511,,,A*5A
$GPGGA,082119.000,1926.9269,S,06958.0580,W,1,08,0.9,1076.7,M,35.0,M,,0000*67
$GPGSA,M,3,10,05,27,28,26,15,17,08,,,,,2.0,0.9,1.8*39
$GPRMC,082119.000,A,1926.9269,S,06958.0580,W,0.05,300.85,010511,,,A*6A
$GPGGA,082120.000,1926.9269,S,06958.0582,W,1,08,0.9,1077.5,M,35.0,M,,0000*6C
$GPGSA,M,3,10,05,27,28,26,15,17,08,,,,,2.0,0.9,1.8*39
$GPRMC,082120.000,A,1926.9269,S,06958.0582,W,0.25,284.24,010511,,,A*66
$GPGGA,082121.000,1926.9268,S,06958.0585,W,1,08,0.9,1078.0,M,35.0,M,,0000*61
$GPGSA,M,3,10,05,27,28,26,15,17,08,,,,,2.0,0.9,1.8*39
$GPRMC,082121.000,A,1926.9268,S,06958.0585,W,0.21,285.21,010511,,,A*61
$GPGGA,082122.000,1926.9267,S,06958.0587,W,1,08,0.9,1078.3,M,35.0,M,,0000*6C
$GPGSA,M,3,10,05,27,28,26,15,17,08,,,,,2.0,0.9,1.8*39
$GPGSV,3,1,12,05,50,309,27,26,49,193,26,28,46,149,27,17,37,056,24*77
$GPGSV,3,2,12,10,24,005,30,08,20,130,26,15,19,217,30,27,15,249,27*76
$GPGSV,3,3,12,09,08,257,24,02,03,339,,07,03,109,,12,02,318,*72
$GPRMC,082122.000,A,1926.9267,S,06958.0587,W,0.14,272.76,010511,,,A*63
$GPGGA,082123.000,1926.9266,S,06958.0589,W,1,08,0.9,1078.5,M,35.0,M,,0000*64
$GPGSA,M,3,10,05,27,28,26,15,17,08,,,,,2.0,0.9,1.8*39
$GPRMC,082123.000,A,1926.9266,S,06958.0589,W,0.06,43.07,010511,,,A*58
$GPGGA,082124.000,1926.9268,S,06958.0588,W,1,08,0.9,1079.4,M,35.0,M,,0000*6C
$GPGSA,M,3,10,05,27,28,26,15,17,08,,,,,2.0,0.9,1.8*39
$GPRMC,082124.000,A,1926.9268,S,06958.0588,W,0.22,278.42,010511,,,A*6D
$GPGGA,082125.000,1926.9267,S,06958.0589,W,1,08,0.9,1079.6,M,35.0,M,,0000*61
$GPGSA,M,3,10,05,27,28,26,15,17,08,,,,,2.0,0.9,1.8*39
$GPRMC,082125.000,A,1926.9267,S,06958.0589,W,0.16,276.35,010511,,,A*6B
$GPGGA,082126.000,1926.9267,S,06958.0590,W,1,08,0.9,1079.8,M,35.0,M,,0000*64
$GPGSA,M,3,10,05,27,28,26,15,17,08,,,,,2.0,0.9,1.8*39
$GPRMC,082126.000,A,1926.9267,S,06958.0590,W,0.19,16.47,010511,,,A*5E
$GPGGA,082127.000,1926.9266,S,06958.0591,W,1,08,0.9,1079.9,M,35.0,M,,0000*64
$GPGSA,M,3,10,05,27,28,26,15,17,08,,,,,2.0,0.9,1.8*39
$GPGSV,3,1,12,05,50,309,27,26,49,193,26,28,46,149,27,17,37,056,24*77
$GPGSV,3,2,12,10,24,005,31,08,20,130,25,15,19,217,30,27,15,249,27*74
$GPGSV,3,3,12,09,08,257,24,02,03,339,,07,03,109,,12,02,318,*72
$GPRMC,082127.000,A,1926.9266,S,06958.0591,W,0.10,310.84,010511,,,A*6C
$GPGGA,082128.000,1926.9267,S,06958.0590,W,1,08,0.9,1079.4,M,35.0,M,,0000*66
$GPGSA,M,3,10,05,27,28,26,15,17,08,,,,,2.0,0.9,1.8*39
$GPRMC,082128.000,A,1926.9267,S,06958.0590,W,0.30,358.88,010511,,,A*61
$GPGGA,082129.000,1926.9267,S,06958.0590,W,1,08,0.9,1080.2,M,35.0,M,,0000*67
$GPGSA,M,3,10,05,27,28,26,15,17,08,,,,,2.0,0.9,1.8*39
$GPRMC,082129.000,A,1926.9267,S,06958.0590,W,0.01,84.66,010511,,,A*50
$GPGGA,082130.000,1926.9267,S,06958.0590,W,1,08,0.9,1080.9,M,35.0,M,,0000*64
$GPGSA,M,3,10,05,27,28,26,15,17,08,,,,,2.0,0.9,1.8*39
$GPRMC,082130.000,A,1926.9267,S,06958.0590,W,0.18,55.78,010511,,,A*53
$GPGGA,082131.000,1926.9267,S,06958.0590,W,1,08,0.9,1081.7,M,35.0,M,,0000*6A
$GPGSA,M,3,10,05,27,28,26,15,17,08,,,,,2.0,0.9,1.8*39
$GPRMC,082131.000,A,1926.9267,S,06958.0590,W,0.06,61.68,010511,,,A*5B
$GPGGA,082132.000,1926.9267,S,06958.0590,W,1,08,0.9,1082.2,M,35.0,M,,0000*6F
$GPGSA,M,3,10,05,27,28,26,15,17,08,,,,,2.0,0.9,1.8*39
$GPGSV,3,1,12,05,50,309,27,26,49,193,26,28,46,149,27,17,37,056,24*77
$GPGSV,3,2,12,10,24,005,31,08,20,130,26,15,19,217,30,27,15,249,28*78
$GPGSV,3,3,12,09,08,257,24,02,03,339,,07,03,109,,12,02,318,*72
$GPRMC,082132.000,A,1926.9267,S,06958.0590,W,0.05,320.80,010511,,,A*6B
$GPGGA,082133.000,1926.9267,S,06958.0593,W,1,08,0.9,1083.3,M,35.0,M,,0000*6D
$GPGSA,M,3,10,05,27,28,26,15,17,08,,,,,2.0,0.9,1.8*39
$GPRMC,082133.000,A,1926.9267,S,06958.0593,W,0.35,270.01,010511,,,A*67
$GPGGA,082134.000,1926.9268,S,06958.0595,W,1,08,0.9,1083.9,M,35.0,M,,0000*69
$GPGSA,M,3,10,05,27,28,26,15,17,08,,,,,2.0,0.9,1.8*39
$GPRMC,082134.000,A,1926.9268,S,06958.0595,W,0.38,271.45,010511,,,A*65
$GPGGA,082135.000,1926.9268,S,06958.0595,W,1,08,0.9,1084.1,M,35.0,M,,0000*67
$GPGSA,M,3,10,05,27,28,26,15,17,08,,,,,2.0,0.9,1.8*39
$GPRMC,082135.000,A,1926.9268,S,06958.0595,W,0.07,342.08,010511,,,A*60
$GPGGA,082136.000,1926.9268,S,06958.0594,W,1,08,0.9,1084.2,M,35.0,M,,0000*66
$GPGSA,M,3,10,05,27,28,26,15,17,08,,,,,2.0,0.9,1.8*39
$GPRMC,082136.000,A,1926.9268,S,06958.0594,W,0.22,52.67,010511,,,A*5E
$GPGGA,082137.000,1926.9268,S,06958.0595,W,1,08,0.9,1085.0,M,35.0,M,,0000*65
$GPGSA,M,3,10,05,27,28,26,15,17,08,,,,,2.0,0.9,1.8*39
$GPGSV,3,1,12,05,50,309,27,26,49,193,26,28,46,149,27,17,37,056,24*77
$GPGSV,3,2,12,10,24,005,31,08,20,130,26,15,19,217,30,27,15,249,27*77
$GPGSV,3,3,12,09,08,257,23,02,03,339,,07,03,109,,12,02,318,*75
$GPRMC,082137.000,A,1926.9268,S,06958.0595,W,0.04,134.79,010511,,,A*64
$GPGGA,082138.000,1926.9267,S,06958.0596,W,1,08,0.9,1085.6,M,35.0,M,,0000*60
$GPGSA,M,3,10,05,27,28,26,15,17,08,,,,,2.0,0.9,1.8*39
$GPRMC,082138.000,A,1926.9267,S,06958.0596,W,0.03,244.82,010511,,,A*60
$GPGGA,082139.000,1926.9266,S,06958.0598,W,1,08,0.9,1086.1,M,35.0,M,,0000*6A
$GPGSA,M,3,10,05,27,28,26,15,17,08,,,,,2.0,0.9,1.8*39
$GPRMC,082139.000,A,1926.9266,S,06958.0598,W,0.22,277.53,010511,,,A*61
$GPGGA,082140.000,1926.9265,S,06958.0600,W,1,08,0.9,1086.4,M,35.0,M,,0000*60
$GPGSA,M,3,10,05,27,28,26,15,17,08,,,,,2.0,0.9,1.8*39
$GPRMC,082140.000,A,1926.9265,S,06958.0600,W,0.12,17.38,010511,,,A*54
$GPGGA,082141.000,1926.9265,S,06958.0601,W,1,08,0.9,1086.7,M,35.0,M,,0000*63
$GPGSA,M,3,10,05,27,28,26,15,17,08,,,,,2.0,0.9,1.8*39
$GPRMC,082141.000,A,1926.9265,S,06958.0601,W,0.09,291.98,010511,,,A*68
$GPGGA,082142.000,1926.9264,S,06958.0602,W,1,08,0.9,1087.0,M,35.0,M,,0000*64
$GPGSA,M,3,10,05,27,28,26,15,17,08,,,,,2.0,0.9,1.8*39
$GPGSV,3,1,12,05,50,309,27,26,49,193,26,28,46,149,27,17,37,056,24*77
$GPGSV,3,2,12,10,24,005,31,08,20,130,26,15,19,217,30,27,15,249,27*77
$GPGSV,3,3,12,09,08,257,23,02,03,339,,07,03,109,,12,02,318,*75
$GPRMC,082142.000,A,1926.9264,S,06958.0602,W,0.05,341.40,010511,,,A*6C
$GPGGA,082143.000,1926.9264,S,06958.0602,W,1,08,0.9,1087.3,M,35.0,M,,0000*66
$GPGSA,M,3,10,05,27,28,26,15,17,08,,,,,2.0,0.9,1.8*39
$GPRMC,082143.000,A,1926.9264,S,06958.0602,W,0.22,48.52,010511,,,A*51
$GPGGA,082144.000,1926.9263,S,06958.0601,W,1,08,0.9,1087.5,M,35.0,M,,0000*63
$GPGSA,M,3,10,05,27,28,26,15,17,08,,,,,2.0,0.9,1.8*39
$GPRMC,082144.000,A,1926.9263,S,06958.0601,W,0.17,60.17,010511,,,A*5F
$GPGGA,082145.000,1926.9264,S,06958.0601,W,1,08,0.9,1087.6,M,35.0,M,,0000*66
$GPGSA,M,3,10,05,27,28,26,15,17,08,,,,,2.0,0.9,1.8*39
$GPRMC,082145.000,A,1926.9264,S,06958.0601,W,0.08,319.48,010511,,,A*60
$GPGGA,082146.000,1926.9264,S,06958.0600,W,1,08,0.9,1087.5,M,35.0,M,,0000*67
$GPGSA,M,3,10,05,27,28,26,15,17,08,,,,,2.0,0.9,1.8*39
$GPRMC,082146.000,A,1926.9264,S,06958.0600,W,0.14,61.43,010511,,,A*58
$GPGGA,082147.000,1926.9263,S,06958.0599,W,1,08,0.9,1087.2,M,35.0,M,,0000*65
$GPGSA,M,3,10,05,27,28,26,15,17,08,,,,,2.0,0.9,1.8*39
$GPGSV,3,1,12,05,50,309,27,26,49,193,26,28,46,149,27,17,37,056,23*70
$GPGSV,3,2,12,10,24,005,31,08,20,130,25,15,19,217,30,27,15,249,27*74
$GPGSV,3,3,12,09,08,257,23,02,03,339,,07,03,109,,12,02,318,*75
$GPRMC,082147.000,A,1926.9263,S,06958.0599,W,0.23,52.09,010511,,,A*57
$GPGGA,082148.000,1926.9264,S,06958.0598,W,1,08,0.9,1086.8,M,35.0,M,,0000*67
$GPGSA,M,3,10,05,27,28,26,15,17,08,,,,,2.0,0.9,1.8*39
$GPRMC,082148.000,A,1926.9264,S,06958.0598,W,0.07,47.33,010511,,,A*55
$GPGGA,082149.000,1926.9264,S,06958.0597,W,1,08,0.9,1086.4,M,35.0,M,,0000*65
$GPGSA,M,3,10,05,27,28,26,15,17,08,,,,,2.0,0.9,1.8*39
$GPRMC,082149.000,A,1926.9264,S,06958.0597,W,0.20,46.00,010511,,,A*5F
$GPGGA,082150.000,1926.9264,S,06958.0596,W,1,08,0.9,1086.0,M,35.0,M,,0000*68
$GPGSA,M,3,10,05,27,28,26,15,17,08,,,,,2.0,0.9,1.8*39
$GPRMC,082150.000,A,1926.9264,S,06958.0596,W,0.16,72.75,010511,,,A*56
$GPGGA,082151.000,1926.9265,S,06958.0594,W,1,08,0.9,1085.9,M,35.0,M,,0000*60
$GPGSA,M,3,10,05,27,28,26,15,17,08,,,,,2.0,0.9,1.8*39
$GPRMC,082151.000,A,1926.9265,S,06958.0594,W,0.24,88.88,010511,,,A*52
$GPGGA,082152.000,1926.9266,S,06958.0593,W,1,08,0.9,1085.4,M,35.0,M,,0000*6A
$GPGSA,M,3,10,05,27,28,26,15,17,08,,,,,2.0,0.9,1.8*39
$GPGSV,3,1,12,05,50,309,27,26,49,193,26,28,46,149,27,17,37,056,23*70
$GPGSV,3,2,12,10,24,005,31,08,20,130,26,15,19,217,30,27,15,249,27*77
$GPGSV,3,3,12,09,08,257,23,02,03,339,,07,03,109,,12,02,318,*75
$GPRMC,082152.000,A,1926.9266,S,06958.0593,W,0.04,62.65,010511,,,A*50
$GPGGA,082153.000,1926.9266,S,06958.0593,W,1,08,0.9,1085.0,M,35.0,M,,0000*6F
$GPGSA,M,3,10,05,27,28,26,15,17,08,,,,,2.0,0.9,1.8*39
$GPRMC,082153.000,A,1926.9266,S,06958.0593,W,0.21,302.07,010511,,,A*67
$GPGGA,082154.000,1926.9266,S,06958.0593,W,1,08,0.9,1084.4,M,35.0,M,,0000*6D
$GPGSA,M,3,10,05,27,28,26,15,17,08,,,,,2.0,0.9,1.8*39
$GPRMC,082154.000,A,1926.9266,S,06958.0593,W,0.07,231.47,010511,,,A*61
$GPGGA,082155.000,1926.9266,S,06958.0594,W,1,08,0.9,1083.9,M,35.0,M,,0000*61
$GPGSA,M,3,10,05,27,28,26,15,17,08,,,,,2.0,0.9,1.8*39
$GPRMC,082155.000,A,1926.9266,S,06958.0594,W,0.15,45.13,010511,,,A*54
$GPGGA,082156.000,1926.9266,S,06958.0592,W,1,08,0.9,1082.9,M,35.0,M,,0000*65
$GPGSA,M,3,10,05,27,28,26,15,17,08,,,,,2.0,0.9,1.8*39
$GPRMC,082156.000,A,1926.9266,S,06958.0592,W,0.05,290.40,010511,,,A*6C
$GPGGA,082157.000,1926.9267,S,06958.0591,W,1,08,0.9,1082.3,M,35.0,M,,0000*6C
$GPGSA,M,3,10,05,27,28,26,15,17,08,,,,,2.0,0.9,1.8*39
$GPGSV,3,1,12,05,50,309,27,26,49,193,26,28,46,149,27,17,37,056,23*70
$GPGSV,3,2,12,10,24,005,31,08,20,130,26,15,19,217,30,27,15,249,27*77
$GPGSV,3,3,12,09,08,257,24,02,03,339,,07,03,109,,12,02,318,*72
$GPRMC,082157.000,A,1926.9267,S,06958.0591,W,0.20,61.16,010511,,,A*57
$GPGGA,082158.000,1926.9269,S,06958.0589,W,1,08,0.9,1081.9,M,35.0,M,,0000*6D
$GPGSA,M,3,10,05,27,28,26,15,17,08,,,,,2.0,0.9,1.8*39
$GPRMC,082158.000,A,1926.9269,S,06958.0589,W,0.20,114.17,010511,,,A*6D
$GPGGA,082159.000,1926.9270,S,06958.0587,W,1,08,0.9,1081.8,M,35.0,M,,0000*6B
$GPGSA,M,3,10,05,27,28,26,15,17,08,,,,,2.0,0.9,1.8*39
$GPRMC,082159.000,A,1926.9270,S,06958.0587,W,0.20,286.52,010511,,,A*63
$GPGGA,082200.000,1926.9271,S,06958.0586,W,1,08,0.9,1081.3,M,35.0,M,,0000*6F
$GPGSA,M,3,10,05,27,28,26,15,17,08,,,,,2.0,0.9,1.8*39
$GPRMC,082200.000,A,1926.9271,S,06958.0586,W,0.08,327.18,010511,,,A*62
$GPGGA,082201.000,1926.9271,S,06958.0585,W,1,08,0.9,1081.0,M,35.0,M,,0000*6E
$GPGSA,M,3,10,05,27,28,26,15,17,08,,,,,2.0,0.9,1.8*39
$GPRMC,082201.000,A,1926.9271,S,06958.0585,W,0.20,68.14,010511,,,A*5E
$GPGGA,082202.000,1926.9271,S,06958.0585,W,1,08,0.9,1080.3,M,35.0,M,,0000*6F
$GPGSA,M,3,10,05,27,28,26,15,17,08,,,,,2.0,0.9,1.8*39
$GPGSV,3,1,12,05,50,309,27,26,49,193,26,28,46,149,27,17,37,056,23*70
$GPGSV,3,2,12,10,24,005,31,08,20,130,25,15,19,217,30,27,15,249,27*74
$GPGSV,3,3,12,09,08,257,24,02,03,339,,07,03,109,,12,02,318,*72
$GPRMC,082202.000,A,1926.9271,S,06958.0585,W,0.14,94.68,010511,,,A*52
$GPGGA,082203.000,1926.9270,S,06958.0585,W,1,08,0.9,1080.0,M,35.0,M,,0000*6C
$GPGSA,M,3,10,05,27,28,26,15,17,08,,,,,2.0,0.9,1.8*39
$GPRMC,082203.000,A,1926.9270,S,06958.0585,W,0.17,41.18,010511,,,A*5E
$GPGGA,082204.000,1926.9270,S,06958.0584,W,1,08,0.9,1079.5,M,35.0,M,,0000*69
$GPGSA,M,3,10,05,27,28,26,15,17,08,,,,,2.0,0.9,1.8*39
$GPRMC,082204.000,A,1926.9270,S,06958.0584,W,0.04,34.99,010511,,,A*51
$GPGGA,082205.000,1926.9271,S,06958.0584,W,1,08,0.9,1079.1,M,35.0,M,,0000*6D
$GPGSA,M,3,10,05,27,28,26,15,17,08,,,,,2.0,0.9,1.8*39
$GPRMC,082205.000,A,1926.9271,S,06958.0584,W,0.17,57.07,010511,,,A*51
$GPGGA,082206.000,1926.9271,S,06958.0582,W,1,08,0.9,1078.8,M,35.0,M,,0000*60
$GPGSA,M,3,10,05,27,28,26,15,17,08,,,,,2.0,0.9,1.8*39
$GPRMC,082206.000,A,1926.9271,S,06958.0582,W,0.17,336.19,010511,,,A*6F
$GPGGA,082207.000,1926.9272,S,06958.0581,W,1,08,0.9,1078.7,M,35.0,M,,0000*6E
$GPGSA,M,3,10,05,27,28,26,15,17,08,,,,,2.0,0.9,1.8*39
$GPGSV,3,1,12,05,50,309,27,26,49,193,27,28,46,149,27,17,37,056,23*71
$GPGSV,3,2,12,10,24,005,31,08,20,130,25,15,19,217,30,27,15,249,27*74
$GPGSV,3,3,12,09,08,257,24,02,03,339,,07,03,109,,12,02,318,*72
$GPRMC,082207.000,A,1926.9272,S,06958.0581,W,0.05,307.44,010511,,,A*67
$GPGGA,082208.000,1926.9272,S,06958.0581,W,1,08,0.9,1078.3,M,35.0,M,,0000*65
$GPGSA,M,3,10,05,27,28,26,15,17,08,,,,,2.0,0.9,1.8*39
$GPRMC,082208.000,A,1926.9272,S,06958.0581,W,0.17,34.14,010511,,,A*5D
$GPGGA,082209.000,1926.9272,S,06958.0580,W,1,08,0.9,1078.1,M,35.0,M,,0000*67
$GPGSA,M,3,10,05,27,28,26,15,17,08,,,,,2.0,0.9,1.8*39
$GPRMC,082209.000,A,1926.9272,S,06958.0580,W,0.13,56.69,010511,,,A*57
$GPGGA,082210.000,1926.9272,S,06958.0580,W,1,08,0.9,1077.8,M,35.0,M,,0000*69
$GPGSA,M,3,10,05,27,28,26,15,17,08,,,,,2.0,0.9,1.8*39
$GPRMC,082210.000,A,1926.9272,S,06958.0580,W,0.10,105.26,010511,,,A*60
$GPGGA,082211.000,1926.9271,S,06958.0581,W,1,08,0.9,1077.2,M,35.0,M,,0000*60
$GPGSA,M,3,10,05,27,28,26,15,17,08,,,,,2.0,0.9,1.8*39
$GPRMC,082211.000,A,1926.9271,S,06958.0581,W,0.16,42.80,010511,,,A*5B
$GPGGA,082212.000,1926.9272,S,06958.0580,W,1,08,0.9,1077.2,M,35.0,M,,0000*61
$GPGSA,M,3,10,05,27,28,26,15,17,08,,,,,2.0,0.9,1.8*39
$GPGSV,3,1,12,05,50,309,27,26,49,193,26,28,46,149,27,17,37,056,23*70
$GPGSV,3,2,12,10,24,005,31,08,20,130,25,15,19,217,30,27,15,249,27*74
$GPGSV,3,3,12,09,08,257,24,02,03,339,,07,03,109,,12,02,318,*72
$GPRMC,082212.000,A,1926.9272,S,06958.0580,W,0.24,82.35,010511,,,A*59
$GPGGA,082213.000,1926.9271,S,06958.0581,W,1,08,0.9,1077.7,M,35.0,M,,0000*67
$GPGSA,M,3,10,05,27,28,26,15,17,08,,,,,2.0,0.9,1.8*39
$GPRMC,082213.000,A,1926.9271,S,06958.0581,W,0.16,310.93,010511,,,A*6F
$GPGGA,082214.000,1926.9270,S,06958.0583,W,1,08,0.9,1078.7,M,35.0,M,,0000*6C
$GPGSA,M,3,10,05,27,28,26,15,17,08,,,,,2.0,0.9,1.8*39
$GPRMC,082214.000,A,1926.9270,S,06958.0583,W,0.24,3.78,010511,,,A*6E
$GPGGA,082215.000,1926.9270,S,06958.0584,W,1,08,0.9,1078.6,M,35.0,M,,0000*6B
$GPGSA,M,3,10,05,27,28,26,15,17,08,,,,,2.0,0.9,1.8*39
$GPRMC,082215.000,A,1926.9270,S,06958.0584,W,0.14,307.43,010511,,,A*64
$GPGGA,082216.000,1926.9270,S,06958.0583,W,1,08,0.9,1078.4,M,35.0,M,,0000*6D
$GPGSA,M,3,10,05,27,28,26,15,17,08,,,,,2.0,0.9,1.8*39
$GPRMC,082216.000,A,1926.9270,S,06958.0583,W,0.29,75.63,010511,,,A*5A
$GPGGA,082217.000,1926.9269,S,06958.0583,W,1,08,0.9,1078.1,M,35.0,M,,0000*61
$GPGSA,M,3,10,05,27,28,26,15,17,08,,,,,2.0,0.9,1.8*39
$GPGSV,3,1,12,05,50,309,27,26,49,193,26,28,46,149,27,17,37,056,22*71
$GPGSV,3,2,12,10,24,005,30,08,20,130,25,15,19,217,30,27,15,249,27*75
$GPGSV,3,3,12,09,08,257,23,02,03,339,,07,03,109,,12,02,318,*75
$GPRMC,082217.000,A,1926.9269,S,06958.0583,W,0.30,72.00,010511,,,A*59
$GPGGA,082218.000,1926.9270,S,06958.0582,W,1,08,0.9,1078.1,M,35.0,M,,0000*67
$GPGSA,M,3,10,05,27,28,26,15,17,08,,,,,2.0,0.9,1.8*39
$GPRMC,082218.000,A,1926.9270,S,06958.0582,W,0.28,89.61,010511,,,A*55
$GPGGA,082219.000,1926.9270,S,06958.0581,W,1,08,0.9,1078.0,M,35.0,M,,0000*64
$GPGSA,M,3,10,05,27,28,26,15,17,08,,,,,2.0,0.9,1.8*39
$GPRMC,082219.000,A,1926.9270,S,06958.0581,W,0.16,25.92,010511,,,A*50
$GPGGA,082220.000,1926.9270,S,06958.0581,W,1,08,0.9,1077.9,M,35.0,M,,0000*68
$GPGSA,M,3,10,05,27,28,26,15,17,08,,,,,2.0,0.9,1.8*39
$GPRMC,082220.000,A,1926.9270,S,06958.0581,W,0.29,67.24,010511,,,A*5D
$GPGGA,082221.000,1926.9270,S,06958.0581,W,1,08,0.9,1077.8,M,35.0,M,,0000*68
$GPGSA,M,3,10,05,27,28,26,15,17,08,,,,,2.0,0.9,1.8*39
$GPRMC,082221.000,A,1926.9270,S,06958.0581,W,0.03,350.66,010511,,,A*65
$GPGGA,082222.000,1926.9270,S,06958.0581,W,1,08,0.9,1077.6,M,35.0,M,,0000*65
$GPGSA,M,3,10,05,27,28,26,15,17,08,,,,,2.0,0.9,1.8*39
$GPGSV,3,1,12,05,50,309,27,26,49,193,27,28,46,149,27,17,37,056,23*71
$GPGSV,3,2,12,10,24,005,30,08,20,130,26,15,19,217,30,27,15,249,28*79
$GPGSV,3,3,12,09,08,257,24,02,03,339,,07,03,109,,12,02,318,*72
$GPRMC,082222.000,A,1926.9270,S,06958.0581,W,0.08,266.83,010511,,,A*62
$GPGGA,082223.000,1926.9270,S,06958.0581,W,1,08,0.9,1077.7,M,35.0,M,,0000*65
$GPGSA,M,3,10,05,27,28,26,15,17,08,,,,,2.0,0.9,1.8*39
$GPRMC,082223.000,A,1926.9270,S,06958.0581,W,0.16,5.53,010511,,,A*66
$GPGGA,082224.000,1926.9270,S,06958.0581,W,1,08,0.9,1077.7,M,35.0,M,,0000*62
$GPGSA,M,3,10,05,27,28,26,15,17,08,,,,,2.0,0.9,1.8*39
$GPRMC,082224.000,A,1926.9270,S,06958.0581,W,0.24,62.76,010511,,,A*56
$GPGGA,082225.000,1926.9269,S,06958.0581,W,1,08,0.9,1077.8,M,35.0,M,,0000*64
$GPGSA,M,3,10,05,27,28,26,15,17,08,,,,,2.0,0.9,1.8*39
$GPRMC,082225.000,A,1926.9269,S,06958.0581,W,0.08,45.56,010511,,,A*56
$GPGGA,082226.000,1926.9269,S,06958.0581,W,1,08,0.9,1077.9,M,35.0,M,,0000*66
$GPGSA,M,3,10,05,27,28,26,15,17,08,,,,,2.0,0.9,1.8*39
$GPRMC,082226.000,A,1926.9269,S,06958.0581,W,0.10,39.09,010511,,,A*5D
$GPGGA,082227.000,1926.9269,S,06958.0582,W,1,08,0.9,1078.0,M,35.0,M,,0000*62
$GPGSA,M,3,10,05,27,28,26,15,17,08,,,,,2.0,0.9,1.8*39
$GPGSV,3,1,12,05,50,309,27,26,49,193,27,28,46,149,27,17,37,056,23*71
$GPGSV,3,2,12,10,24,005,30,08,20,130,25,15,19,217,30,27,15,249,28*7A
$GPGSV,3,3,12,09,08,257,24,02,03,339,,07,03,109,,12,02,318,*72
$GPRMC,082227.000,A,1926.9269,S,06958.0582,W,0.16,46.40,010511,,,A*5C
$GPGGA,082228.000,1926.9269,S,06958.0582,W,1,08,0.9,1077.9,M,35.0,M,,0000*6B
$GPGSA,M,3,10,05,27,28,26,15,17,08,,,,,2.0,0.9,1.8*39
$GPRMC,082228.000,A,1926.9269,S,06958.0582,W,0.12,69.66,010511,,,A*5E
$GPGGA,082229.000,1926.9269,S,06958.0582,W,1,08,0.9,1078.0,M,35.0,M,,0000*6C
$GPGSA,M,3,10,05,27,28,26,15,17,08,,,,,2.0,0.9,1.8*39
$GPRMC,082229.000,A,1926.9269,S,06958.0582,W,0.09,259.26,010511,,,A*60
$GPGGA,082230.000,1926.9270,S,06958.0582,W,1,08,0.9,1078.0,M,35.0,M,,0000*6C
$GPGSA,M,3,10,05,27,28,26,15,17,08,,,,,2.0,0.9,1.8*39
$GPRMC,082230.000,A,1926.9270,S,06958.0582,W,0.17,56.78,010511,,,A*59
$GPGGA,082231.000,1926.9271,S,06958.0580,W,1,08,0.9,1078.7,M,35.0,M,,0000*69
$GPGSA,M,3,10,05,27,28,26,15,17,08,,,,,2.0,0.9,1.8*39
$GPRMC,082231.000,A,1926.9271,S,06958.0580,W,0.15,269.95,010511,,,A*64
$GPGGA,082232.000,1926.9270,S,06958.0582,W,1,08,0.9,1078.7,M,35.0,M,,0000*69
$GPGSA,M,3,10,05,27,28,26,15,17,08,,,,,2.0,0.9,1.8*39
$GPGSV,3,1,12,05,50,309,27,26,49,193,27,28,46,149,27,17,37,056,23*71
$GPGSV,3,2,12,10,24,005,30,08,20,130,26,15,19,217,30,27,15,249,28*79
$GPGSV,3,3,12,09,08,257,24,02,03,339,,07,03,109,,12,02,318,*72
$GPRMC,082232.000,A,1926.9270,S,06958.0582,W,0.13,266.00,010511,,,A*61
$GPGGA,082233.000,1926.9271,S,06958.0581,W,1,08,0.9,1079.3,M,35.0,M,,0000*6F
$GPGSA,M,3,10,05,27,28,26,15,17,08,,,,,2.0,0.9,1.8*39
$GPRMC,082233.000,A,1926.9271,S,06958.0581,W,0.06,345.07,010511,,,A*61
$GPGGA,082234.000,1926.9272,S,06958.0580,W,1,08,0.9,1079.4,M,35.0,M,,0000*6D
$GPGSA,M,3,10,05,27,28,26,15,17,08,,,,,2.0,0.9,1.8*39
$GPRMC,082234.000,A,1926.9272,S,06958.0580,W,0.04,55.97,010511,,,A*5D
$GPGGA,082235.000,1926.9273,S,06958.0579,W,1,08,0.9,1079.6,M,35.0,M,,0000*69
$GPGSA,M,3,10,05,27,28,26,15,17,08,,,,,2.0,0.9,1.8*39
$GPRMC,082235.000,A,1926.9273,S,06958.0579,W,0.03,152.16,010511,,,A*63
$GPGGA,082236.000,1926.9273,S,06958.0578,W,1,08,0.9,1079.7,M,35.0,M,,0000*6A
$GPGSA,M,3,10,05,27,28,26,15,17,08,,,,,2.0,0.9,1.8*39
$GPRMC,082236.000,A,1926.9273,S,06958.0578,W,0.08,5.13,010511,,,A*6C
$GPGGA,082237.000,1926.9273,S,06958.0578,W,1,08,0.9,1079.9,M,35.0,M,,0000*65
$GPGSA,M,3,10,05,27,28,26,15,17,08,,,,,2.0,0.9,1.8*39
$GPGSV,3,1,12,05,50,309,27,26,49,193,27,28,46,149,27,17,37,056,22*70
$GPGSV,3,2,12,10,24,005,30,08,20,130,25,15,19,217,30,27,15,249,27*75
$GPGSV,3,3,12,09,08,257,24,02,03,339,,07,03,109,,12,02,318,*72
$GPRMC,082237.000,A,1926.9273,S,06958.0578,W,0.22,63.64,010511,,,A*55
$GPGGA,082238.000,1926.9272,S,06958.0577,W,1,08,0.9,1080.0,M,35.0,M,,0000*6B
$GPGSA,M,3,10,05,27,28,26,15,17,08,,,,,2.0,0.9,1.8*39
$GPRMC,082238.000,A,1926.9272,S,06958.0577,W,0.24,48.21,010511,,,A*5A
$GPGGA,082239.000,1926.9271,S,06958.0578,W,1,08,0.9,1079.6,M,35.0,M,,0000*66
$GPGSA,M,3,10,05,27,28,26,15,17,08,,,,,2.0,0.9,1.8*39
$GPRMC,082239.000,A,1926.9271,S,06958.0578,W,0.22,93.70,010511,,,A*53
$GPGGA,082240.000,1926.9271,S,06958.0578,W,1,08,0.9,1079.4,M,35.0,M,,0000*6A
$GPGSA,M,3,10,05,27,28,26,15,17,08,,,,,2.0,0.9,1.8*39
$GPRMC,082240.000,A,1926.9271,S,06958.0578,W,0.06,90.09,010511,,,A*56
$GPGGA,082241.000,1926.9272,S,06958.0578,W,1,08,0.9,1079.2,M,35.0,M,,0000*6E
$GPGSA,M,3,10,05,27,28,26,15,17,08,,,,,2.0,0.9,1.8*39
$GPRMC,082241.000,A,1926.9272,S,06958.0578,W,0.04,257.85,010511,,,A*6B
$GPGGA,082242.000,1926.9272,S,06958.0577,W,1,08,0.9,1078.5,M,35.0,M,,0000*64
$GPGSA,M,3,10,05,27,28,26,15,17,08,,,,,2.0,0.9,1.8*39
$GPGSV,3,1,12,05,50,309,27,26,49,193,27,28,46,149,27,17,37,056,22*70
$GPGSV,3,2,12,10,24,005,30,08,20,130,25,15,19,217,30,27,15,249,27*75
$GPGSV,3,3,12,09,08,257,24,02,03,339,,07,03,109,,12,02,318,*72
$GPRMC,082242.000,A,1926.9272,S,06958.0577,W,0.12,50.49,010511,,,A*55
$GPGGA,082243.000,1926.9272,S,06958.0578,W,1,08,0.9,1078.3,M,35.0,M,,0000*6C
$GPGSA,M,3,10,05,27,28,26,15,17,08,,,,,2.0,0.9,1.8*39
$GPRMC,082243.000,A,1926.9272,S,06958.0578,W,0.07,272.76,010511,,,A*61
$GPGGA,082244.000,1926.9272,S,06958.0578,W,0,00,,1078.3,M,35.0,M,,0000*45
$GPGSA,M,1,,,,,,,,,,,,,,,*12
$GPRMC,082244.000,V,1926.9272,S,06958.0578,W,,,010511,,,N*7F
$GPGGA,082245.000,1926.9272,S,06958.0578,W,0,00,,1078.3,M,35.0,M,,0000*44
$GPGSA,M,1,,,,,,,,,,,,,,,*12
$GPRMC,082245.000,V,1926.9272,S,06958.0578,W,,,010511,,,N*7E
$GPGGA,082246.000,1926.9272,S,06958.0578,W,0,00,,1078.3,M,35.0,M,,0000*47
$GPGSA,M,1,,,,,,,,,,,,,,,*12
$GPRMC,082246.000,V,1926.9272,S,06958.0578,W,,,010511,,,N*7D
$GPGGA,082247.000,1926.9272,S,06958.0576,W,1,08,0.9,1078.3,M,35.0,M,,0000*66
$GPGSA,M,3,10,05,15,27,28,26,17,08,,,,,2.0,0.9,1.8*39
$GPGSV,3,1,12,05,50,309,27,26,49,193,27,28,46,149,27,17,37,056,22*70
$GPGSV,3,2,12,10,24,005,30,08,20,130,25,15,19,217,30,27,15,249,27*75
$GPGSV,3,3,12,09,08,257,24,02,03,339,,07,03,109,,12,02,318,*72
$GPRMC,082247.000,A,1926.9272,S,06958.0576,W,0.19,116.30,010511,,,A*67
$GPGGA,082248.000,1926.9269,S,06958.0578,W,1,08,0.9,1077.1,M,35.0,M,,0000*60
$GPGSA,M,3,10,05,15,27,28,26,17,08,,,,,2.0,0.9,1.8*39
$GPRMC,082248.000,A,1926.9269,S,06958.0578,W,0.15,339.35,010511,,,A*6A
$GPGGA,082249.000,1926.9267,S,06958.0579,W,1,08,0.9,1076.7,M,35.0,M,,0000*69
$GPGSA,M,3,10,05,15,27,28,26,17,08,,,,,2.0,0.9,1.8*39
$GPRMC,082249.000,A,1926.9267,S,06958.0579,W,0.20,297.80,010511,,,A*69
$GPGGA,082250.000,1926.9269,S,06958.0581,W,1,08,0.9,1075.6,M,35.0,M,,0000*6A
$GPGSA,M,3,10,05,15,27,28,26,17,08,,,,,2.0,0.9,1.8*39
$GPRMC,082250.000,A,1926.9269,S,06958.0581,W,0.17,55.94,010511,,,A*55
$GPGGA,082251.000,1926.9270,S,06958.0581,W,1,08,0.9,1075.1,M,35.0,M,,0000*64
$GPGSA,M,3,10,05,15,27,28,26,17,08,,,,,2.0,0.9,1.8*39
$GPRMC,082251.000,A,1926.9270,S,06958.0581,W,0.26,56.95,010511,,,A*5C
$GPGGA,082252.000,1926.9270,S,06958.0581,W,1,08,0.9,1074.6,M,35.0,M,,0000*61
$GPGSA,M,3,10,05,15,27,28,26,17,08,,,,,2.0,0.9,1.8*39
$GPGSV,3,1,12,05,50,309,27,26,49,193,27,28,46,149,26,17,37,056,22*71
$GPGSV,3,2,12,10,24,005,30,08,20,130,25,15,19,217,29,27,15,249,27*7D
$GPGSV,3,3,12,09,08,257,24,02,03,339,,07,03,109,,12,02,318,*72
$GPRMC,082252.000,A,1926.9270,S,06958.0581,W,0.31,69.46,010511,,,A*5B
$GPGGA,082253.000,1926.9270,S,06958.0579,W,1,08,0.9,1074.8,M,35.0,M,,0000*69
$GPGSA,M,3,10,05,15,27,28,26,17,08,,,,,2.0,0.9,1.8*39
$GPRMC,082253.000,A,1926.9270,S,06958.0579,W,0.17,50.71,010511,,,A*57
$GPGGA,082254.000,1926.9270,S,06958.0580,W,1,08,0.9,1075.1,M,35.0,M,,0000*60
$GPGSA,M,3,10,05,15,27,28,26,17,08,,,,,2.0,0.9,1.8*39
$GPRMC,082254.000,A,1926.9270,S,06958.0580,W,0.13,304.16,010511,,,A*61
$GPGGA,082255.000,1926.9269,S,06958.0581,W,1,08,0.9,1075.5,M,35.0,M,,0000*6C
$GPGSA,M,3,10,05,15,27,28,26,17,08,,,,,2.0,0.9,1.8*39
$GPRMC,082255.000,A,1926.9269,S,06958.0581,W,0.20,53.34,010511,,,A*58
$GPGGA,082256.000,1926.9269,S,06958.0581,W,1,08,0.9,1075.6,M,35.0,M,,0000*6C
$GPGSA,M,3,10,05,15,27,28,26,17,08,,,,,2.0,0.9,1.8*39
$GPRMC,082256.000,A,1926.9269,S,06958.0581,W,0.24,297.82,010511,,,A*68
$GPGGA,082257.000,1926.9268,S,06958.0581,W,1,08,0.9,1074.7,M,35.0,M,,0000*6C
$GPGSA,M,3,10,05,15,27,28,26,17,08,,,,,2.0,0.9,1.8*39
$GPGSV,3,1,12,05,50,309,27,26,49,193,26,28,46,149,26,17,37,056,22*70
$GPGSV,3,2,12,10,24,005,30,08,20,130,25,15,19,217,30,27,15,249,27*75
$GPGSV,3,3,12,09,08,257,24,02,03,339,,07,03,109,,12,02,318,*72
$GPRMC,082257.000,A,1926.9268,S,06958.0581,W,0.17,71.78,010511,,,A*57
$GPGGA,082258.000,1926.9269,S,06958.0581,W,1,08,0.9,1074.1,M,35.0,M,,0000*64
$GPGSA,M,3,10,05,15,27,28,26,17,08,,,,,2.0,0.9,1.8*39
$GPRMC,082258.000,A,1926.9269,S,06958.0581,W,0.22,106.84,010511,,,A*6D
$GPGGA,082259.000,1926.9270,S,06958.0580,W,1,08,0.9,1073.7,M,35.0,M,,0000*6D
$GPGSA,M,3,10,05,15,27,28,26,17,08,,,,,2.0,0.9,1.8*39
$GPRMC,082259.000,A,1926.9270,S,06958.0580,W,0.30,118.80,010511,,,A*6D
$GPGGA,082300.000,1926.9270,S,06958.0579,W,1,08,0.9,1073.6,M,35.0,M,,0000*67
$GPGSA,M,3,10,05,15,27,28,26,17,08,,,,,2.0,0.9,1.8*39
$GPRMC,082300.000,A,1926.9270,S,06958.0579,W,0.20,40.60,010511,,,A*55
$GPGGA,082301.000,1926.9270,S,06958.0579,W,1,08,0.9,1073.4,M,35.0,M,,0000*64
$GPGSA,M,3,10,05,15,27,28,26,17,08,,,,,2.0,0.9,1.8*39
$GPRMC,082301.000,A,1926.9270,S,06958.0579,W,0.05,300.30,010511,,,A*61
$GPGGA,082302.000,1926.9270,S,06958.0580,W,1,08,0.9,1073.2,M,35.0,M,,0000*67
$GPGSA,M,3,10,05,15,27,28,26,17,08,,,,,2.0,0.9,1.8*39
$GPGSV,3,1,12,05,50,309,28,26,49,193,27,28,46,149,26,17,37,056,22*7E
$GPGSV,3,2,12,10,24,005,31,08,20,130,25,15,19,217,30,27,15,249,27*74
$GPGSV,3,3,12,09,08,257,24,02,03,339,,07,03,109,,12,02,318,*72
$GPRMC,082302.000,A,1926.9270,S,06958.0580,W,0.14,46.40,010511,,,A*52
$GPGGA,082303.000,1926.9269,S,06958.0580,W,1,08,0.9,1073.0,M,35.0,M,,0000*6C
$GPGSA,M,3,10,05,15,27,28,26,17,08,,,,,2.0,0.9,1.8*39
$GPRMC,082303.000,A,1926.9269,S,06958.0580,W,0.44,77.07,010511,,,A*5F
$GPGGA,082304.000,1926.9269,S,06958.0580,W,1,08,0.9,1073.0,M,35.0,M,,0000*6B
$GPGSA,M,3,10,05,15,27,28,26,17,08,,,,,2.0,0.9,1.8*39
$GPRMC,082304.000,A,1926.9269,S,06958.0580,W,0.01,129.57,010511,,,A*66
$GPGGA,082305.000,1926.9268,S,06958.0580,W,1,08,0.9,1072.7,M,35.0,M,,0000*6D
$GPGSA,M,3,10,05,15,27,28,26,17,08,,,,,2.0,0.9,1.8*39
$GPRMC,082305.000,A,1926.9268,S,06958.0580,W,0.19,31.82,010511,,,A*5F
$GPGGA,082306.000,1926.9268,S,06958.0581,W,1,08,0.9,1072.8,M,35.0,M,,0000*60
$GPGSA,M,3,10,05,15,27,28,26,17,08,,,,,2.0,0.9,1.8*39
$GPRMC,082306.000,A,1926.9268,S,06958.0581,W,0.19,53.26,010511,,,A*57
$GPGGA,082307.000,1926.9269,S,06958.0580,W,1,08,0.9,1073.5,M,35.0,M,,0000*6D
$GPGSA,M,3,10,05,15,27,28,26,17,08,,,,,2.0,0.9,1.8*39
$GPGSV,3,1,12,05,50,309,28,26,49,193,27,28,46,149,26,17,37,056,22*7E
$GPGSV,3,2,12,10,24,005,31,08,20,130,25,15,19,217,30,27,15,249,27*74
$GPGSV,3,3,12,09,08,257,24,02,03,339,,07,03,109,,12,02,318,*72
$GPRMC,082307.000,A,1926.9269,S,06958.0580,W,0.19,87.70,010511,,,A*5C
$GPGGA,082308.000,1926.9269,S,06958.0579,W,1,08,0.9,1073.3,M,35.0,M,,0000*62
$GPGSA,M,3,10,05,15,27,28,26,17,08,,,,,2.0,0.9,1.8*39
$GPRMC,082308.000,A,1926.9269,S,06958.0579,W,0.03,45.46,010511,,,A*55
$GPGGA,082309.000,1926.9269,S,06958.0580,W,1,08,0.9,1073.2,M,35.0,M,,0000*64
$GPGSA,M,3,10,05,15,27,28,26,17,08,,,,,2.0,0.9,1.8*39
$GPRMC,082309.000,A,1926.9269,S,06958.0580,W,0.03,84.27,010511,,,A*58
$GPGGA,082310.000,1926.9269,S,06958.0580,W,1,08,0.9,1073.1,M,35.0,M,,0000*6F
$GPGSA,M,3,10,05,15,27,28,26,17,08,,,,,2.0,0.9,1.8*39
$GPRMC,082310.000,A,1926.9269,S,06958.0580,W,0.05,303.72,010511,,,A*6A
$GPGGA,082311.000,1926.9269,S,06958.0581,W,1,08,0.9,1073.0,M,35.0,M,,0000*6E
$GPGSA,M,3,10,05,15,27,28,26,17,08,,,,,2.0,0.9,1.8*39
$GPRMC,082311.000,A,1926.9269,S,06958.0581,W,0.14,0.13,010511,,,A*6D
$GPGGA,082312.000,1926.9268,S,06958.0581,W,1,08,0.9,1072.9,M,35.0,M,,0000*64
$GPGSA,M,3,10,05,15,27,28,26,17,08,,,,,2.0,0.9,1.8*39
$GPGSV,3,1,12,05,50,309,28,26,49,193,27,28,46,149,26,17,37,056,22*7E
$GPGSV,3,2,12,10,24,005,31,08,20,130,25,15,19,217,30,27,15,249,27*74
$GPGSV,3,3,12,09,08,257,24,02,03,339,,07,03,109,,12,02,318,*72
$GPRMC,082312.000,A,1926.9268,S,06958.0581,W,0.33,76.07,010511,,,A*5E
$GPGGA,082313.000,1926.9268,S,06958.0581,W,1,08,0.9,1072.8,M,35.0,M,,0000*64
$GPGSA,M,3,10,05,15,27,28,26,17,08,,,,,2.0,0.9,1.8*39
$GPRMC,082313.000,A,1926.9268,S,06958.0581,W,0.17,32.49,010511,,,A*53
$GPGGA,082314.000,1926.9267,S,06958.0581,W,1,08,0.9,1072.7,M,35.0,M,,0000*63
$GPGSA,M,3,10,05,15,27,28,26,17,08,,,,,2.0,0.9,1.8*39
$GPRMC,082314.000,A,1926.9267,S,06958.0581,W,0.09,33.55,010511,,,A*58
$GPGGA,082315.000,1926.9267,S,06958.0582,W,1,08,0.9,1072.6,M,35.0,M,,0000*60
$GPGSA,M,3,10,05,15,27,28,26,17,08,,,,,2.0,0.9,1.8*39
$GPRMC,082315.000,A,1926.9267,S,06958.0582,W,0.09,98.75,010511,,,A*59
$GPGGA,082316.000,1926.9268,S,06958.0582,W,1,08,0.9,1072.5,M,35.0,M,,0000*6F
$GPGSA,M,3,10,05,15,27,28,26,17,08,,,,,2.0,0.9,1.8*39
$GPRMC,082316.000,A,1926.9268,S,06958.0582,W,0.18,291.36,010511,,,A*69
$GPGGA,082317.000,1926.9267,S,06958.0583,W,1,08,0.9,1072.4,M,35.0,M,,0000*61
$GPGSA,M,3,10,05,15,27,28,26,17,08,,,,,2.0,0.9,1.8*39
$GPGSV,3,1,12,05,50,309,28,26,49,193,27,28,46,149,26,17,37,056,21*7D
$GPGSV,3,2,12,10,24,005,32,08,20,130,25,15,19,217,30,27,15,249,27*77
$GPGSV,3,3,12,09,08,257,24,02,03,339,,07,03,109,,12,02,318,*72
$GPRMC,082317.000,A,1926.9267,S,06958.0583,W,0.13,51.78,010511,,,A*59
$GPGGA,082318.000,1926.9268,S,06958.0582,W,1,08,0.9,1072.0,M,35.0,M,,0000*64
$GPGSA,M,3,10,05,15,27,28,26,17,08,,,,,2.0,0.9,1.8*39
$GPRMC,082318.000,A,1926.9268,S,06958.0582,W,0.13,78.91,010511,,,A*54
$GPGGA,082319.000,1926.9268,S,06958.0581,W,1,08,0.9,1071.7,M,35.0,M,,0000*62
$GPGSA,M,3,10,05,15,27,28,26,17,08,,,,,2.0,0.9,1.8*39
$GPRMC,082319.000,A,1926.9268,S,06958.0581,W,0.32,72.55,010511,,,A*57
$GPGGA,082320.000,1926.9269,S,06958.0580,W,1,08,0.9,1071.4,M,35.0,M,,0000*6B
$GPGSA,M,3,10,05,15,27,28,26,17,08,,,,,2.0,0.9,1.8*39
$GPRMC,082320.000,A,1926.9269,S,06958.0580,W,0.14,44.31,010511,,,A*5E
$GPGGA,082321.000,1926.9269,S,06958.0580,W,1,08,0.9,1071.4,M,35.0,M,,0000*6A
$GPGSA,M,3,10,05,15,27,28,26,17,08,,,,,2.0,0.9,1.8*39
$GPRMC,082321.000,A,1926.9269,S,06958.0580,W,0.11,7.46,010511,,,A*6D
$GPGGA,082322.000,1926.9269,S,06958.0580,W,1,08,0.9,1072.5,M,35.0,M,,0000*6B
$GPGSA,M,3,10,05,15,27,28,26,17,08,,,,,2.0,0.9,1.8*39
$GPGSV,3,1,12,26,50,192,27,05,49,311,28,28,45,149,26,17,37,058,21*78
$GPGSV,3,2,12,10,23,005,32,15,20,216,30,08,19,129,25,27,15,248,27*78
$GPGSV,3,3,12,09,08,256,23,12,03,317,,02,03,340,,07,02,108,*74
$GPRMC,082322.000,A,1926.9269,S,06958.0580,W,0.13,100.00,010511,,,A*68
$GPGGA,082323.000,1926.9270,S,06958.0579,W,1,08,0.9,1073.2,M,35.0,M,,0000*62
$GPGSA,M,3,10,05,15,27,28,26,17,08,,,,,2.0,0.9,1.8*39
$GPRMC,082323.000,A,1926.9270,S,06958.0579,W,0.16,50.35,010511,,,A*50
$GPGGA,082324.000,1926.9270,S,06958.0580,W,1,08,0.9,1073.6,M,35.0,M,,0000*67
$GPGSA,M,3,10,05,15,27,28,26,17,08,,,,,2.0,0.9,1.8*39
$GPRMC,082324.000,A,1926.9270,S,06958.0580,W,0.10,268.01,010511,,,A*69
$GPGGA,082325.000,1926.9270,S,06958.0580,W,1,08,0.9,1073.9,M,35.0,M,,0000*69
$GPGSA,M,3,10,05,15,27,28,26,17,08,,,,,2.0,0.9,1.8*39
$GPRMC,082325.000,A,1926.9270,S,06958.0580,W,0.04,315.50,010511,,,A*62
$GPGGA,082326.000,1926.9269,S,06958.0581,W,1,08,0.9,1074.0,M,35.0,M,,0000*6D
$GPGSA,M,3,10,05,15,27,28,26,17,08,,,,,2.0,0.9,1.8*39
$GPRMC,082326.000,A,1926.9269,S,06958.0581,W,0.03,197.21,010511,,,A*61
$GPGGA,082327.000,1926.9269,S,06958.0582,W,1,08,0.9,1074.5,M,35.0,M,,0000*6A
$GPGSA,M,3,10,05,15,27,28,26,17,08,,,,,2.0,0.9,1.8*39
$GPGSV,3,1,12,26,50,192,27,05,49,311,28,28,45,149,26,17,37,058,21*78
$GPGSV,3,2,12,10,23,005,32,15,20,216,30,08,19,129,26,27,15,248,27*7B
$GPGSV,3,3,12,09,08,256,23,12,03,317,,02,03,340,,07,02,108,*74
$GPRMC,082327.000,A,1926.9269,S,06958.0582,W,0.10,26.67,010511,,,A*58
$GPGGA,082328.000,1926.9268,S,06958.0582,W,1,08,0.9,1074.8,M,35.0,M,,0000*69
$GPGSA,M,3,10,05,15,27,28,26,17,08,,,,,2.0,0.9,1.8*39
$GPRMC,082328.000,A,1926.9268,S,06958.0582,W,0.18,106.19,010511,,,A*64
$GPGGA,082329.000,1926.9268,S,06958.0582,W,1,08,0.9,1074.9,M,35.0,M,,0000*69
$GPGSA,M,3,10,05,15,27,28,26,17,08,,,,,2.0,0.9,1.8*39
$GPRMC,082329.000,A,1926.9268,S,06958.0582,W,0.20,120.09,010511,,,A*6B
$GPGGA,082330.000,1926.9268,S,06958.0584,W,1,08,0.9,1075.1,M,35.0,M,,0000*6E
$GPGSA,M,3,10,05,15,27,28,26,17,08,,,,,2.0,0.9,1.8*39
$GPRMC,082330.000,A,1926.9268,S,06958.0584,W,0.43,282.30,010511,,,A*61
$GPGGA,082331.000,1926.9267,S,06958.0585,W,1,08,0.9,1075.6,M,35.0,M,,0000*66
$GPGSA,M,3,10,05,15,27,28,26,17,08,,,,,2.0,0.9,1.8*39
$GPRMC,082331.000,A,1926.9267,S,06958.0585,W,0.10,37.26,010511,,,A*53
$GPGGA,082332.000,1926.9267,S,06958.0586,W,1,08,0.9,1075.8,M,35.0,M,,0000*68
$GPGSA,M,3,10,05,15,27,28,26,17,08,,,,,2.0,0.9,1.8*39
$GPGSV,3,1,12,26,50,192,27,05,49,311,28,28,45,149,26,17,37,058,21*78
$GPGSV,3,2,12,10,23,005,32,15,20,216,30,08,19,129,25,27,15,248,27*78
$GPGSV,3,3,12,09,08,256,23,12,03,317,,02,03,340,,07,02,108,*74
$GPRMC,082332.000,A,1926.9267,S,06958.0586,W,0.15,288.23,010511,,,A*65
$GPGGA,082333.000,1926.9266,S,06958.0587,W,1,08,0.9,1076.1,M,35.0,M,,0000*63
$GPGSA,M,3,10,05,15,27,28,26,17,08,,,,,2.0,0.9,1.8*39
$GPRMC,082333.000,A,1926.9266,S,06958.0587,W,0.09,344.05,010511,,,A*6C
$GPGGA,082334.000,1926.9266,S,06958.0587,W,1,08,0.9,1076.3,M,35.0,M,,0000*66
$GPGSA,M,3,10,05,15,27,28,26,17,08,,,,,2.0,0.9,1.8*39
$GPRMC,082334.000,A,1926.9266,S,06958.0587,W,0.22,60.32,010511,,,A*53
$GPGGA,082335.000,1926.9266,S,06958.0587,W,1,08,0.9,1076.5,M,35.0,M,,0000*61
$GPGSA,M,3,10,05,15,27,28,26,17,08,,,,,2.0,0.9,1.8*39
$GPRMC,082335.000,A,1926.9266,S,06958.0587,W,0.22,29.63,010511,,,A*5B
$GPGGA,082336.000,1926.9265,S,06958.0588,W,1,08,0.9,1076.9,M,35.0,M,,0000*62
$GPGSA,M,3,10,05,15,27,28,26,17,08,,,,,2.0,0.9,1.8*39
$GPRMC,082336.000,A,1926.9265,S,06958.0588,W,0.65,292.33,010511,,,A*60
$GPGGA,082337.000,1926.9265,S,06958.0590,W,1,08,0.9,1076.9,M,35.0,M,,0000*6A
$GPGSA,M,3,10,05,15,27,28,26,17,08,,,,,2.0,0.9,1.8*39
$GPGSV,3,1,12,26,50,192,27,05,49,311,28,28,45,149,26,17,37,058,21*78
$GPGSV,3,2,12,10,23,005,32,15,20,216,30,08,19,129,25,27,15,248,27*78
$GPGSV,3,3,12,09,08,256,23,12,03,317,,02,03,340,,07,02,108,*74
$GPRMC,082337.000,A,1926.9265,S,06958.0590,W,0.25,268.66,010511,,,A*69
$GPGGA,082338.000,1926.9266,S,06958.0591,W,1,08,0.9,1077.2,M,35.0,M,,0000*6D
$GPGSA,M,3,10,05,15,27,28,26,17,08,,,,,2.0,0.9,1.8*39
$GPRMC,082338.000,A,1926.9266,S,06958.0591,W,0.21,292.55,010511,,,A*65
$GPGGA,082339.000,1926.9266,S,06958.0591,W,1,08,0.9,1077.5,M,35.0,M,,0000*6B
$GPGSA,M,3,10,05,15,27,28,26,17,08,,,,,2.0,0.9,1.8*39
$GPRMC,082339.000,A,1926.9266,S,06958.0591,W,0.06,269.72,010511,,,A*60
$GPGGA,082340.000,1926.9267,S,06958.0591,W,1,08,0.9,1077.7,M,35.0,M,,0000*66
$GPGSA,M,3,10,05,15,27,28,26,17,08,,,,,2.0,0.9,1.8*39
$GPRMC,082340.000,A,1926.9267,S,06958.0591,W,0.17,86.68,010511,,,A*57
$GPGGA,082341.000,1926.9267,S,06958.0591,W,1,08,0.9,1077.9,M,35.0,M,,0000*69
$GPGSA,M,3,10,05,15,27,28,26,17,08,,,,,2.0,0.9,1.8*39
$GPRMC,082341.000,A,1926.9267,S,06958.0591,W,0.08,277.16,010511,,,A*6D
$GPGGA,082342.000,1926.9267,S,06958.0591,W,1,08,0.9,1078.1,M,35.0,M,,0000*6D
$GPGSA,M,3,10,05,15,27,28,26,17,08,,,,,2.0,0.9,1.8*39
$GPGSV,3,1,12,26,50,192,27,05,49,311,28,28,45,149,26,17,37,058,21*78
$GPGSV,3,2,12,10,23,005,32,15,20,216,30,08,19,129,25,27,15,248,27*78
$GPGSV,3,3,12,09,08,256,23,12,03,317,,02,03,340,,07,02,108,*74
$GPRMC,082342.000,A,1926.9267,S,06958.0591,W,0.04,31.71,010511,,,A*53
$GPGGA,082343.000,1926.9267,S,06958.0591,W,1,08,0.9,1078.3,M,35.0,M,,0000*6E
$GPGSA,M,3,10,05,15,27,28,26,17,08,,,,,2.0,0.9,1.8*39
$GPRMC,082343.000,A,1926.9267,S,06958.0591,W,0.19,85.16,010511,,,A*50
$GPGGA,082344.000,1926.9267,S,06958.0591,W,1,08,0.9,1078.2,M,35.0,M,,0000*68
$GPGSA,M,3,10,05,15,27,28,26,17,08,,,,,2.0,0.9,1.8*39
$GPRMC,082344.000,A,1926.9267,S,06958.0591,W,0.41,92.80,010511,,,A*53
$GPGGA,082345.000,1926.9266,S,06958.0590,W,1,08,0.9,1078.1,M,35.0,M,,0000*6A
$GPGSA,M,3,10,05,15,27,28,26,17,08,,,,,2.0,0.9,1.8*39
$GPRMC,082345.000,A,1926.9266,S,06958.0590,W,0.31,56.74,010511,,,A*56
$GPGGA,082346.000,1926.9267,S,06958.0590,W,1,08,0.9,1078.1,M,35.0,M,,0000*68
$GPGSA,M,3,10,05,15,27,28,26,17,08,,,,,2.0,0.9,1.8*39
$GPRMC,082346.000,A,1926.9267,S,06958.0590,W,0.04,10.34,010511,,,A*54
$GPGGA,082347.000,1926.9268,S,06958.0589,W,1,08,0.9,1078.4,M,35.0,M,,0000*6B
$GPGSA,M,3,10,05,15,27,28,26,17,08,,,,,2.0,0.9,1.8*39
$GPGSV,3,1,12,26,50,192,27,05,49,311,28,28,45,149,26,17,37,058,21*78
$GPGSV,3,2,12,10,23,005,32,15,20,216,30,08,19,129,25,27,15,248,27*78
$GPGSV,3,3,12,09,08,256,23,12,03,317,,02,03,340,,07,02,108,*74
$GPRMC,082347.000,A,1926.9268,S,06958.0589,W,0.57,157.58,010511,,,A*6C
$GPGGA,082348.000,1926.9269,S,06958.0587,W,1,08,0.9,1078.0,M,35.0,M,,0000*6F
$GPGSA,M,3,10,05,15,27,28,26,17,08,,,,,2.0,0.9,1.8*39
$GPRMC,082348.000,A,1926.9269,S,06958.0587,W,0.33,143.34,010511,,,A*61
$GPGGA,082349.000,1926.9271,S,06958.0586,W,1,08,0.9,1077.7,M,35.0,M,,0000*6E
$GPGSA,M,3,10,05,15,27,28,26,17,08,,,,,2.0,0.9,1.8*39
$GPRMC,082349.000,A,1926.9271,S,06958.0586,W,0.28,93.87,010511,,,A*56
$GPGGA,082350.000,1926.9271,S,06958.0585,W,1,08,0.9,1077.4,M,35.0,M,,0000*66
$GPGSA,M,3,10,05,15,27,28,26,17,08,,,,,2.0,0.9,1.8*39
$GPRMC,082350.000,A,1926.9271,S,06958.0585,W,0.04,37.72,010511,,,A*57
$GPGGA,082351.000,1926.9271,S,06958.0585,W,1,08,0.9,1076.5,M,35.0,M,,0000*67
$GPGSA,M,3,10,05,15,27,28,26,17,08,,,,,2.0,0.9,1.8*39
$GPRMC,082351.000,A,1926.9271,S,06958.0585,W,0.11,129.08,010511,,,A*61
$GPGGA,082352.000,1926.9271,S,06958.0585,W,1,08,0.9,1075.9,M,35.0,M,,0000*6B
$GPGSA,M,3,10,05,15,27,28,26,17,08,,,,,2.0,0.9,1.8*39
$GPGSV,3,1,12,26,50,192,27,05,49,311,28,28,45,149,26,17,37,058,21*78
$GPGSV,3,2,12,10,23,005,31,15,20,216,30,08,19,129,25,27,15,248,27*7B
$GPGSV,3,3,12,09,08,256,23,12,03,317,,02,03,340,,07,02,108,*74
$GPRMC,082352.000,A,1926.9271,S,06958.0585,W,0.17,288.30,010511,,,A*67
$GPGGA,082353.000,1926.9272,S,06958.0584,W,1,08,0.9,1075.7,M,35.0,M,,0000*66
$GPGSA,M,3,10,05,15,27,28,26,17,08,,,,,2.0,0.9,1.8*39
$GPRMC,082353.000,A,1926.9272,S,06958.0584,W,0.13,45.00,010511,,,A*50
$GPGGA,082354.000,1926.9272,S,06958.0584,W,1,08,0.9,1075.5,M,35.0,M,,0000*63
$GPGSA,M,3,10,05,15,27,28,26,17,08,,,,,2.0,0.9,1.8*39
$GPRMC,082354.000,A,1926.9272,S,06958.0584,W,0.27,54.83,010511,,,A*5B
$GPGGA,082355.000,1926.9271,S,06958.0582,W,1,08,0.9,1075.3,M,35.0,M,,0000*61
$GPGSA,M,3,10,05,15,27,28,26,17,08,,,,,2.0,0.9,1.8*39
$GPRMC,082355.000,A,1926.9271,S,06958.0582,W,0.38,81.10,010511,,,A*53
$GPGGA,082356.000,1926.9271,S,06958.0581,W,1,08,0.9,1074.9,M,35.0,M,,0000*6A
$GPGSA,M,3,10,05,15,27,28,26,17,08,,,,,2.0,0.9,1.8*39
$GPRMC,082356.000,A,1926.9271,S,06958.0581,W,0.34,66.51,010511,,,A*53
$GPGGA,082357.000,1926.9272,S,06958.0581,W,1,08,0.9,1074.6,M,35.0,M,,0000*67
$GPGSA,M,3,10,05,15,27,28,26,17,08,,,,,2.0,0.9,1.8*39
$GPGSV,3,1,12,26,50,192,27,05,49,311,28,28,45,149,26,17,37,058,21*78
$GPGSV,3,2,12,10,23,005,31,15,20,216,30,08,19,129,25,27,15,248,27*7B
$GPGSV,3,3,12,09,08,256,23,12,03,317,,02,03,340,,07,02,108,*74
$GPRMC,082357.000,A,1926.9272,S,06958.0581,W,0.20,329.74,010511,,,A*6B
$GPGGA,082358.000,1926.9272,S,06958.0581,W,1,08,0.9,1074.8,M,35.0,M,,0000*66
$GPGSA,M,3,10,05,15,27,28,26,17,08,,,,,2.0,0.9,1.8*39
$GPRMC,082358.000,A,1926.9272,S,06958.0581,W,0.19,261.52,010511,,,A*67
$GPGGA,082359.000,1926.9273,S,06958.0580,W,1,08,0.9,1075.1,M,35.0,M,,0000*6F
$GPGSA,M,3,10,05,15,27,28,26,17,08,,,,,2.0,0.9,1.8*39
$GPRMC,082359.000,A,1926.9273,S,06958.0580,W,0.03,246.34,010511,,,A*68
$GPGGA,082400.000,1926.9274,S,06958.0580,W,1,08,0.9,1075.3,M,35.0,M,,0000*61
$GPGSA,M,3,10,05,15,27,28,26,17,08,,,,,2.0,0.9,1.8*39
$GPRMC,082400.000,A,1926.9274,S,06958.0580,W,0.03,297.43,010511,,,A*68
$GPGGA,082401.000,1926.9274,S,06958.0579,W,1,08,0.9,1075.4,M,35.0,M,,0000*61
$GPGSA,M,3,10,05,15,27,28,26,17,08,,,,,2.0,0.9,1.8*39
$GPRMC,082401.000,A,1926.9274,S,06958.0579,W,0.06,289.10,010511,,,A*63
$GPGGA,082402.000,1926.9274,S,06958.0579,W,1,08,0.9,1075.7,M,35.0,M,,0000*61
$GPGSA,M,3,10,05,15,27,28,26,17,08,,,,,2.0,0.9,1.8*39
$GPGSV,3,1,12,26,50,192,27,05,49,311,28,28,45,149,25,17,37,058,21*7B
$GPGSV,3,2,12,10,23,005,31,15,20,216,30,08,19,129,25,27,15,248,26*7A
$GPGSV,3,3,12,09,08,256,23,12,03,317,,02,03,340,,07,02,108,*74
$GPRMC,082402.000,A,1926.9274,S,06958.0579,W,0.22,65.60,010511,,,A*51
$GPGGA,082403.000,1926.9275,S,06958.0578,W,1,08,0.9,1075.8,M,35.0,M,,0000*6F
$GPGSA,M,3,10,05,15,27,28,26,17,08,,,,,2.0,0.9,1.8*39
$GPRMC,082403.000,A,1926.9275,S,06958.0578,W,0.26,68.58,010511,,,A*52
$GPGGA,082404.000,1926.9275,S,06958.0577,W,1,08,0.9,1075.9,M,35.0,M,,0000*66
$GPGSA,M,3,10,05,15,27,28,26,17,08,,,,,2.0,0.9,1.8*39
$GPRMC,082404.000,A,1926.9275,S,06958.0577,W,0.21,49.94,010511,,,A*5E
$GPGGA,082405.000,1926.9275,S,06958.0576,W,1,08,0.9,1076.1,M,35.0,M,,0000*6D
$GPGSA,M,3,10,05,15,27,28,26,17,08,,,,,2.0,0.9,1.8*39
$GPRMC,082405.000,A,1926.9275,S,06958.0576,W,0.08,320.52,010511,,,A*63
$GPGGA,082406.000,1926.9275,S,06958.0576,W,1,08,0.9,1076.1,M,35.0,M,,0000*6E
$GPGSA,M,3,10,05,15,27,28,26,17,08,,,,,2.0,0.9,1.8*39
$GPRMC,082406.000,A,1926.9275,S,06958.0576,W,0.24,53.35,010511,,,A*58
$GPGGA,082407.000,1926.9275,S,06958.0576,W,1,08,0.9,1076.0,M,35.0,M,,0000*6E
$GPGSA,M,3,10,05,15,27,28,26,17,08,,,,,2.0,0.9,1.8*39
$GPGSV,3,1,12,26,50,192,27,05,49,311,28,28,45,149,26,17,37,058,21*78
$GPGSV,3,2,12,10,23,005,31,15,20,216,30,08,19,129,25,27,15,248,27*7B
$GPGSV,3,3,12,09,08,256,24,12,03,317,,02,03,340,,07,02,108,*73
$GPRMC,082407.000,A,1926.9275,S,06958.0576,W,0.09,306.61,010511,,,A*64
$GPGGA,082408.000,1926.9275,S,06958.0577,W,1,08,0.9,1075.4,M,35.0,M,,0000*67
$GPGSA,M,3,10,05,15,27,28,26,17,08,,,,,2.0,0.9,1.8*39
$GPRMC,082408.000,A,1926.9275,S,06958.0577,W,0.06,79.97,010511,,,A*57
$GPGGA,082409.000,1926.9273,S,06958.0578,W,1,08,0.9,1074.7,M,35.0,M,,0000*6D
$GPGSA,M,3,10,05,15,27,28,26,17,08,,,,,2.0,0.9,1.8*39
$GPRMC,082409.000,A,1926.9273,S,06958.0578,W,0.23,316.59,010511,,,A*60
$GPGGA,082410.000,1926.9272,S,06958.0578,W,1,08,0.9,1074.4,M,35.0,M,,0000*67
$GPGSA,M,3,10,05,15,27,28,26,17,08,,,,,2.0,0.9,1.8*39
$GPRMC,082410.000,A,1926.9272,S,06958.0578,W,0.27,91.19,010511,,,A*55
$GPGGA,082411.000,1926.9273,S,06958.0578,W,1,08,0.9,1074.3,M,35.0,M,,0000*60
$GPGSA,M,3,10,05,15,27,28,26,17,08,,,,,2.0,0.9,1.8*39
$GPRMC,082411.000,A,1926.9273,S,06958.0578,W,0.11,19.42,010511,,,A*5E
$GPGGA,082412.000,1926.9272,S,06958.0579,W,1,08,0.9,1074.2,M,35.0,M,,0000*62
$GPGSA,M,3,10,05,15,27,28,26,17,08,,,,,2.0,0.9,1.8*39
$GPGSV,3,1,12,26,50,192,27,05,49,311,28,28,45,149,26,17,37,058,21*78
$GPGSV,3,2,12,10,23,005,30,15,20,216,30,08,19,129,25,27,15,248,26*7B
$GPGSV,3,3,12,09,08,256,24,12,03,317,,02,03,340,,07,02,108,*73
$GPRMC,082412.000,A,1926.9272,S,06958.0579,W,0.10,275.83,010511,,,A*69
$GPGGA,082413.000,1926.9271,S,06958.0582,W,1,08,0.9,1074.8,M,35.0,M,,0000*6E
$GPGSA,M,3,10,05,15,27,28,26,17,08,,,,,2.0,0.9,1.8*39
$GPRMC,082413.000,A,1926.9271,S,06958.0582,W,0.07,271.31,010511,,,A*64
$GPGGA,082414.000,1926.9270,S,06958.0584,W,1,08,0.9,1075.0,M,35.0,M,,0000*67
$GPGSA,M,3,10,05,15,27,28,26,17,08,,,,,2.0,0.9,1.8*39
$GPRMC,082414.000,A,1926.9270,S,06958.0584,W,0.03,141.87,010511,,,A*6D
$GPGGA,082415.000,1926.9269,S,06958.0585,W,1,08,0.9,1075.3,M,35.0,M,,0000*6C
$GPGSA,M,3,10,05,15,27,28,26,17,08,,,,,2.0,0.9,1.8*39
$GPRMC,082415.000,A,1926.9269,S,06958.0585,W,0.10,284.89,010511,,,A*63
$GPGGA,082416.000,1926.9269,S,06958.0586,W,1,08,0.9,1075.9,M,35.0,M,,0000*66
$GPGSA,M,3,10,05,15,27,28,26,17,08,,,,,2.0,0.9,1.8*39
$GPRMC,082416.000,A,1926.9269,S,06958.0586,W,0.31,286.25,010511,,,A*64
$GPGGA,082417.000,1926.9269,S,06958.0587,W,1,08,0.9,1076.5,M,35.0,M,,0000*69
$GPGSA,M,3,10,05,15,27,28,26,17,08,,,,,2.0,0.9,1.8*39
$GPGSV,3,1,12,26,50,192,27,05,49,311,28,28,45,149,25,17,37,058,21*7B
$GPGSV,3,2,12,10,23,005,30,15,20,216,30,08,19,129,25,27,15,248,26*7B
$GPGSV,3,3,12,09,08,256,23,12,03,317,,02,03,340,,07,02,108,*74
$GPRMC,082417.000,A,1926.9269,S,06958.0587,W,0.34,310.39,010511,,,A*62
$GPGGA,082418.000,1926.9270,S,06958.0586,W,1,08,0.9,1076.8,M,35.0,M,,0000*62
$GPGSA,M,3,10,05,15,27,28,26,17,08,,,,,2.0,0.9,1.8*39
$GPRMC,082418.000,A,1926.9270,S,06958.0586,W,0.17,102.22,010511,,,A*6E
$GPGGA,082419.000,1926.9270,S,06958.0587,W,1,08,0.9,1076.8,M,35.0,M,,0000*62
$GPGSA,M,3,10,05,15,27,28,26,17,08,,,,,2.0,0.9,1.8*39
$GPRMC,082419.000,A,1926.9270,S,06958.0587,W,0.04,334.78,010511,,,A*64
$GPGGA,082420.000,1926.9270,S,06958.0586,W,1,08,0.9,1077.1,M,35.0,M,,0000*61
$GPGSA,M,3,10,05,15,27,28,26,17,08,,,,,2.0,0.9,1.8*39
$GPRMC,082420.000,A,1926.9270,S,06958.0586,W,0.21,17.11,010511,,,A*55
$GPGGA,082421.000,1926.9269,S,06958.0587,W,1,08,0.9,1076.9,M,35.0,M,,0000*60
$GPGSA,M,3,10,05,15,27,28,26,17,08,,,,,2.0,0.9,1.8*39
$GPRMC,082421.000,A,1926.9269,S,06958.0587,W,0.31,334.50,010511,,,A*6B
$GPGGA,082422.000,1926.9268,S,06958.0588,W,1,08,0.9,1076.8,M,35.0,M,,0000*6C
$GPGSA,M,3,10,05,15,27,28,26,17,08,,,,,2.0,0.9,1.8*39
$GPGSV,3,1,12,26,50,192,27,05,49,311,28,28,45,149,25,17,37,058,21*7B
$GPGSV,3,2,12,10,23,005,29,15,20,216,30,08,19,129,25,27,15,248,26*73
$GPGSV,3,3,12,09,08,256,23,12,03,317,15,02,03,340,,07,02,108,*70
$GPRMC,082422.000,A,1926.9268,S,06958.0588,W,0.18,323.32,010511,,,A*6F
$GPGGA,082423.000,1926.9268,S,06958.0589,W,1,08,0.9,1076.6,M,35.0,M,,0000*62
$GPGSA,M,3,10,05,15,27,28,26,17,08,,,,,2.0,0.9,1.8*39
$GPRMC,082423.000,A,1926.9268,S,06958.0589,W,0.17,355.69,010511,,,A*6F
$GPGGA,082424.000,1926.9268,S,06958.0588,W,1,08,0.9,1075.4,M,35.0,M,,0000*65
$GPGSA,M,3,10,05,15,27,28,26,17,08,,,,,2.0,0.9,1.8*39
$GPRMC,082424.000,A,1926.9268,S,06958.0588,W,0.30,98.83,010511,,,A*5A
$GPGGA,082425.000,1926.9269,S,06958.0587,W,1,08,0.9,1074.1,M,35.0,M,,0000*6E
$GPGSA,M,3,10,05,15,27,28,26,17,08,,,,,2.0,0.9,1.8*39
$GPRMC,082425.000,A,1926.9269,S,06958.0587,W,0.24,100.14,010511,,,A*6E
$GPGGA,082426.000,1926.9268,S,06958.0588,W,1,08,0.9,1074.4,M,35.0,M,,0000*66
$GPGSA,M,3,10,05,15,27,28,26,17,08,,,,,2.0,0.9,1.8*39
$GPRMC,082426.000,A,1926.9268,S,06958.0588,W,0.31,65.20,010511,,,A*52
$GPGGA,082427.000,1926.9267,S,06958.0588,W,1,08,0.9,1074.4,M,35.0,M,,0000*68
$GPGSA,M,3,10,05,15,27,28,26,17,08,,,,,2.0,0.9,1.8*39
$GPGSV,3,1,12,26,50,192,27,05,49,311,28,28,45,149,25,17,37,058,21*7B
$GPGSV,3,2,12,10,23,005,29,15,20,216,30,08,19,129,25,27,15,248,26*73
$GPGSV,3,3,12,09,08,256,23,12,03,317,14,02,03,340,,07,02,108,*71
$GPRMC,082427.000,A,1926.9267,S,06958.0588,W,0.34,62.70,010511,,,A*5B
$GPGGA,082428.000,1926.9267,S,06958.0588,W,1,08,0.9,1074.7,M,35.0,M,,0000*64
$GPGSA,M,3,10,05,15,27,28,26,17,08,,,,,2.0,0.9,1.8*39
$GPRMC,082428.000,A,1926.9267,S,06958.0588,W,0.26,32.78,010511,,,A*5A
$GPGGA,082429.000,1926.9266,S,06958.0589,W,1,08,0.9,1074.6,M,35.0,M,,0000*64
$GPGSA,M,3,10,05,15,27,28,26,17,08,,,,,2.0,0.9,1.8*39
$GPRMC,082429.000,A,1926.9266,S,06958.0589,W,0.20,353.96,010511,,,A*69
$GPGGA,082430.000,1926.9267,S,06958.0589,W,1,08,0.9,1074.8,M,35.0,M,,0000*63
$GPGSA,M,3,10,05,15,27,28,26,17,08,,,,,2.0,0.9,1.8*39
$GPRMC,082430.000,A,1926.9267,S,06958.0589,W,0.05,55.67,010511,,,A*5C
$GPGGA,082431.000,1926.9267,S,06958.0589,W,1,08,0.9,1074.7,M,35.0,M,,0000*6D
$GPGSA,M,3,10,05,15,27,28,26,17,08,,,,,2.0,0.9,1.8*39
$GPRMC,082431.000,A,1926.9267,S,06958.0589,W,0.21,44.77,010511,,,A*5A
$GPGGA,082432.000,1926.9266,S,06958.0589,W,1,08,0.9,1074.7,M,35.0,M,,0000*6F
$GPGSA,M,3,10,05,15,27,28,26,17,08,,,,,2.0,0.9,1.8*39
$GPGSV,3,1,12,26,50,192,27,05,49,311,28,28,45,149,25,17,37,058,21*7B
$GPGSV,3,2,12,10,23,005,30,15,20,216,30,08,19,129,25,27,15,248,26*7B
$GPGSV,3,3,12,09,08,256,24,12,03,317,14,02,03,340,,07,02,108,*76
$GPRMC,082432.000,A,1926.9266,S,06958.0589,W,0.06,11.64,010511,,,A*5F
$GPGGA,082433.000,1926.9266,S,06958.0586,W,1,08,0.9,1074.1,M,35.0,M,,0000*67
$GPGSA,M,3,10,05,15,27,28,26,17,08,,,,,2.0,0.9,1.8*39
$GPRMC,082433.000,A,1926.9266,S,06958.0586,W,0.28,31.59,010511,,,A*51
$GPGGA,082434.000,1926.9266,S,06958.0583,W,1,08,0.9,1073.6,M,35.0,M,,0000*65
$GPGSA,M,3,10,05,15,27,28,26,17,08,,,,,2.0,0.9,1.8*39
$GPRMC,082434.000,A,1926.9266,S,06958.0583,W,0.31,74.59,010511,,,A*5A
$GPGGA,082435.000,1926.9267,S,06958.0582,W,1,08,0.9,1073.2,M,35.0,M,,0000*60
$GPGSA,M,3,10,05,15,27,28,26,17,08,,,,,2.0,0.9,1.8*39
$GPRMC,082435.000,A,1926.9267,S,06958.0582,W,0.16,81.18,010511,,,A*51
$GPGGA,082436.000,1926.9267,S,06958.0582,W,1,08,0.9,1073.1,M,35.0,M,,0000*60
$GPGSA,M,3,10,05,15,27,28,26,17,08,,,,,2.0,0.9,1.8*39
$GPRMC,082436.000,A,1926.9267,S,06958.0582,W,0.06,293.10,010511,,,A*6A
$GPGGA,082437.000,1926.9267,S,06958.0583,W,1,08,0.9,1072.7,M,35.0,M,,0000*67
$GPGSA,M,3,10,05,15,27,28,26,17,08,,,,,2.0,0.9,1.8*39
$GPGSV,3,1,12,26,50,192,27,05,49,311,28,28,45,149,25,17,37,058,21*7B
$GPGSV,3,2,12,10,23,005,30,15,20,216,30,08,19,129,25,27,15,248,26*7B
