$GPGGA,144552.000,2002.8333,S,06944.5171,W,1,10,0.8,1097.5,M,35.0,M,,0000*63
$GPGSA,M,3,29,25,12,21,09,31,14,27,02,05,,,1.6,0.8,1.4*34
$GPRMC,144552.000,A,2002.8333,S,06944.5171,W,28.12,163.01,010511,,,A*5C
$GPGGA,144553.000,2002.8409,S,06944.5145,W,1,10,0.8,1097.4,M,35.0,M,,0000*6A
$GPGSA,M,3,29,25,12,21,09,31,14,27,02,05,,,1.6,0.8,1.4*34
$GPRMC,144553.000,A,2002.8409,S,06944.5145,W,28.72,162.96,010511,,,A*5D
$GPGGA,144554.000,2002.8485,S,06944.5120,W,1,10,0.8,1097.5,M,35.0,M,,0000*6B
$GPGSA,M,3,29,25,12,21,09,31,14,27,02,05,,,1.6,0.8,1.4*34
$GPRMC,144554.000,A,2002.8485,S,06944.5120,W,28.46,162.97,010511,,,A*5B
$GPGGA,144555.000,2002.8561,S,06944.5095,W,1,10,0.8,1097.3,M,35.0,M,,0000*68
$GPGSA,M,3,29,25,12,21,09,31,14,27,02,05,,,1.6,0.8,1.4*34
$GPRMC,144555.000,A,2002.8561,S,06944.5095,W,28.50,163.32,010511,,,A*57
$GPGGA,144556.000,2002.8636,S,06944.5071,W,1,10,0.8,1097.5,M,35.0,M,,0000*66
$GPGSA,M,3,29,25,12,21,09,31,14,27,02,05,,,1.6,0.8,1.4*34
$GPGSV,3,1,10,29,54,204,41,25,52,170,41,12,41,108,40,21,37,339,37*71
$GPGSV,3,2,10,09,30,020,32,31,19,219,37,14,18,288,30,27,11,025,34*7C
$GPGSV,3,3,10,02,11,140,29,05,10,093,37*7E
$GPRMC,144556.000,A,2002.8636,S,06944.5071,W,28.50,162.19,010511,,,A*57
$GPGGA,144557.000,2002.8712,S,06944.5045,W,1,10,0.8,1097.6,M,35.0,M,,0000*64
$GPGSA,M,3,29,25,12,21,09,31,14,27,02,05,,,1.6,0.8,1.4*34
$GPRMC,144557.000,A,2002.8712,S,06944.5045,W,28.82,162.28,010511,,,A*5B
$GPGGA,144557.999,2002.8788,S,06944.5017,W,1,10,0.8,1097.5,M,35.0,M,,0000*6A
$GPGSA,M,3,29,25,12,21,09,31,14,27,02,05,,,1.6,0.8,1.4*34
$GPRMC,144557.999,A,2002.8788,S,06944.5017,W,28.69,162.30,010511,,,A*5A
$GPGGA,144558.999,2002.8864,S,06944.4993,W,1,10,0.8,1097.2,M,35.0,M,,0000*6B
$GPGSA,M,3,29,25,12,21,09,31,14,27,02,05,,,1.6,0.8,1.4*34
$GPRMC,144558.999,A,2002.8864,S,06944.4993,W,28.48,163.09,010511,,,A*54
$GPGGA,144600.001,2002.8942,S,06944.4967,W,1,10,0.8,1097.1,M,35.0,M,,0000*60
$GPGSA,M,3,29,25,12,21,09,31,14,27,02,05,,,1.6,0.8,1.4*34
$GPRMC,144600.001,A,2002.8942,S,06944.4967,W,28.66,162.22,010511,,,A*58
$GPGGA,144601.000,2002.9016,S,06944.4943,W,1,10,0.8,1096.9,M,35.0,M,,0000*66
$GPGSA,M,3,29,25,12,21,09,31,14,27,02,05,,,1.6,0.8,1.4*34
$GPGSV,3,1,10,29,54,204,40,25,52,170,41,12,41,108,40,21,37,339,36*71
$GPGSV,3,2,10,09,30,020,31,31,19,219,36,14,18,288,29,27,11,025,32*70
$GPGSV,3,3,10,02,11,140,29,05,10,093,37*7E
$GPRMC,144601.000,A,2002.9016,S,06944.4943,W,28.21,162.75,010511,,,A*56
$GPGGA,144601.999,2002.9088,S,06944.4921,W,1,10,0.8,1097.7,M,35.0,M,,0000*63
$GPGSA,M,3,29,25,12,21,09,31,14,27,02,05,,,1.6,0.8,1.4*34
$GPRMC,144601.999,A,2002.9088,S,06944.4921,W,27.73,163.49,010511,,,A*5A
$GPGGA,144603.001,2002.9162,S,06944.4899,W,1,10,0.8,1097.5,M,35.0,M,,0000*6C
$GPGSA,M,3,29,25,12,21,09,31,14,27,02,05,,,1.6,0.8,1.4*34
$GPRMC,144603.001,A,2002.9162,S,06944.4899,W,28.36,162.65,010511,,,A*56
$GPGGA,144604.000,2002.9238,S,06944.4875,W,1,10,0.8,1097.5,M,35.0,M,,0000*64
$GPGSA,M,3,29,25,12,21,09,31,14,27,02,05,,,1.6,0.8,1.4*34
$GPRMC,144604.000,A,2002.9238,S,06944.4875,W,27.67,163.44,010511,,,A*57
$GPGGA,144605.003,2002.9312,S,06944.4851,W,1,10,0.8,1097.5,M,35.0,M,,0000*69
$GPGSA,M,3,29,25,12,21,09,31,14,05,27,02,,,1.6,0.8,1.4*34
$GPRMC,144605.003,A,2002.9312,S,06944.4851,W,27.03,163.45,010511,,,A*59
$GPGGA,144605.998,2002.9386,S,06944.4830,W,1,10,0.8,1096.5,M,35.0,M,,0000*69
$GPGSA,M,3,29,25,12,21,09,31,14,05,27,02,,,1.6,0.8,1.4*34
$GPGSV,3,1,11,29,54,202,41,25,53,168,41,12,41,106,38,21,39,339,35*73
$GPGSV,3,2,11,09,29,020,33,31,21,219,37,14,18,289,35,05,11,094,35*70
$GPGSV,3,3,11,27,10,025,31,02,10,140,28,18,00,346,*4C
$GPRMC,144605.998,A,2002.9386,S,06944.4830,W,26.40,163.86,010511,,,A*51
$GPGGA,144607.000,2002.9455,S,06944.4808,W,1,10,0.8,1096.2,M,35.0,M,,0000*66
$GPGSA,M,3,29,25,12,21,09,31,14,05,27,02,,,1.6,0.8,1.4*34
$GPRMC,144607.000,A,2002.9455,S,06944.4808,W,24.59,163.31,010511,,,A*5F
$GPGGA,144608.000,2002.9519,S,06944.4788,W,1,10,0.8,1096.2,M,35.0,M,,0000*67
$GPGSA,M,3,29,25,12,21,09,31,14,05,27,02,,,1.6,0.8,1.4*34
$GPRMC,144608.000,A,2002.9519,S,06944.4788,W,23.57,163.03,010511,,,A*56
$GPGGA,144609.000,2002.9580,S,06944.4767,W,1,10,0.8,1096.9,M,35.0,M,,0000*6C
$GPGSA,M,3,29,25,12,21,09,31,14,05,27,02,,,1.6,0.8,1.4*34
$GPRMC,144609.000,A,2002.9580,S,06944.4767,W,22.67,161.37,010511,,,A*51
$GPGGA,144610.000,2002.9638,S,06944.4747,W,1,10,0.8,1096.8,M,35.0,M,,0000*67
$GPGSA,M,3,29,25,12,21,09,31,14,05,27,02,,,1.6,0.8,1.4*34
$GPRMC,144610.000,A,2002.9638,S,06944.4747,W,22.01,162.17,010511,,,A*5A
$GPGGA,144611.000,2002.9696,S,06944.4729,W,1,10,0.8,1097.2,M,35.0,M,,0000*61
$GPGSA,M,3,29,25,12,21,09,31,14,05,27,02,,,1.6,0.8,1.4*34
$GPGSV,3,1,11,29,54,202,41,25,53,168,41,12,41,106,40,21,39,339,37*7E
$GPGSV,3,2,11,09,29,020,33,31,21,219,37,14,18,289,31,05,11,094,37*76
$GPGSV,3,3,11,27,10,025,30,02,10,140,29,18,00,346,*4C
$GPRMC,144611.000,A,2002.9696,S,06944.4729,W,21.56,163.34,010511,,,A*56
$GPGGA,144611.998,2002.9754,S,06944.4712,W,1,09,0.9,1096.7,M,35.0,M,,0000*63
$GPGSA,M,3,29,25,12,21,09,31,05,27,02,,,,1.8,0.9,1.5*3F
$GPRMC,144611.998,A,2002.9754,S,06944.4712,W,22.17,162.63,010511,,,A*5C
$GPGGA,144613.002,2002.9813,S,06944.4695,W,1,10,0.8,1097.1,M,35.0,M,,0000*67
$GPGSA,M,3,29,25,12,21,09,31,14,05,27,02,,,1.6,0.8,1.4*34
$GPRMC,144613.002,A,2002.9813,S,06944.4695,W,21.81,163.84,010511,,,A*52
$GPGGA,144614.000,2002.9871,S,06944.4677,W,1,10,0.8,1097.4,M,35.0,M,,0000*6F
$GPGSA,M,3,29,25,12,21,09,31,14,05,27,02,,,1.6,0.8,1.4*34
$GPRMC,144614.000,A,2002.9871,S,06944.4677,W,22.31,164.11,010511,,,A*5C
$GPGGA,144614.996,2002.9931,S,06944.4657,W,1,10,0.8,1097.9,M,35.0,M,,0000*63
$GPGSA,M,3,29,25,12,21,09,31,14,05,27,02,,,1.6,0.8,1.4*34
$GPRMC,144614.996,A,2002.9931,S,06944.4657,W,22.49,164.26,010511,,,A*56
$GPGGA,144616.004,2002.9993,S,06944.4636,W,1,10,0.8,1098.0,M,35.0,M,,0000*6A
$GPGSA,M,3,29,25,12,21,09,31,14,05,27,02,,,1.6,0.8,1.4*34
$GPGSV,3,1,11,29,54,202,40,25,53,168,40,12,41,106,40,21,39,339,35*7C
$GPGSV,3,2,11,09,29,020,30,31,21,219,35,14,18,289,28,05,11,094,35*7D
$GPGSV,3,3,11,27,10,025,29,02,10,140,28,18,00,346,*45
$GPRMC,144616.004,A,2002.9993,S,06944.4636,W,23.02,162.54,010511,,,A*54
$GPGGA,144617.000,2003.0054,S,06944.4614,W,1,10,0.8,1098.1,M,35.0,M,,0000*64
$GPGSA,M,3,29,25,12,21,09,31,14,05,27,02,,,1.6,0.8,1.4*34
$GPRMC,144617.000,A,2003.0054,S,06944.4614,W,23.07,163.31,010511,,,A*5C
$GPGGA,144618.000,2003.0117,S,06944.4596,W,1,10,0.8,1097.5,M,35.0,M,,0000*6F
$GPGSA,M,3,29,25,12,21,09,31,14,05,27,02,,,1.6,0.8,1.4*34
$GPRMC,144618.000,A,2003.0117,S,06944.4596,W,23.54,161.67,010511,,,A*5B
$GPGGA,144618.996,2003.0180,S,06944.4574,W,1,10,0.8,1097.5,M,35.0,M,,0000*6B
$GPGSA,M,3,29,25,12,21,09,31,14,05,27,02,,,1.6,0.8,1.4*34
$GPRMC,144618.996,A,2003.0180,S,06944.4574,W,24.35,161.69,010511,,,A*51
$GPGGA,144620.004,2003.0245,S,06944.4553,W,1,09,0.9,1097.7,M,35.0,M,,0000*66
$GPGSA,M,3,29,25,12,21,09,31,05,27,02,,,,1.8,0.9,1.5*3F
$GPRMC,144620.004,A,2003.0245,S,06944.4553,W,24.47,160.92,010511,,,A*57
$GPGGA,144620.996,2003.0307,S,06944.4530,W,1,10,0.8,1098.3,M,35.0,M,,0000*64
$GPGSA,M,3,29,25,12,21,09,31,14,05,27,02,,,1.6,0.8,1.4*34
$GPGSV,3,1,11,29,54,202,41,25,53,168,41,12,41,106,39,21,39,339,35*72
$GPGSV,3,2,11,09,29,020,32,31,21,219,36,14,18,289,25,05,11,094,35*71
$GPGSV,3,3,11,27,10,025,31,02,10,140,28,18,00,346,*4C
$GPRMC,144620.996,A,2003.0307,S,06944.4530,W,24.56,161.81,010511,,,A*54
$GPGGA,144622.000,2003.0373,S,06944.4509,W,1,10,0.8,1098.2,M,35.0,M,,0000*68
$GPGSA,M,3,29,25,12,21,09,31,14,05,27,02,,,1.6,0.8,1.4*34
$GPRMC,144622.000,A,2003.0373,S,06944.4509,W,25.39,162.64,010511,,,A*59
$GPGGA,144623.002,2003.0443,S,06944.4485,W,1,09,0.9,1098.4,M,35.0,M,,0000*65
$GPGSA,M,3,29,25,12,21,09,31,05,27,02,,,,1.8,0.9,1.5*3F
$GPRMC,144623.002,A,2003.0443,S,06944.4485,W,26.12,161.76,010511,,,A*51
$GPGGA,144623.998,2003.0512,S,06944.4461,W,1,10,0.8,1098.2,M,35.0,M,,0000*6F
$GPGSA,M,3,29,25,12,21,09,31,14,05,27,02,,,1.6,0.8,1.4*34
$GPRMC,144623.998,A,2003.0512,S,06944.4461,W,26.28,161.80,010511,,,A*54
$GPGGA,144625.000,2003.0583,S,06944.4437,W,1,10,0.8,1098.5,M,35.0,M,,0000*6D
$GPGSA,M,3,29,25,12,21,09,31,14,05,27,02,,,1.6,0.8,1.4*34
$GPRMC,144625.000,A,2003.0583,S,06944.4437,W,27.33,162.03,010511,,,A*52
$GPGGA,144626.000,2003.0656,S,06944.4412,W,1,10,0.8,1098.3,M,35.0,M,,0000*64
$GPGSA,M,3,29,25,12,21,09,31,14,05,27,02,,,1.6,0.8,1.4*34
$GPGSV,3,1,11,29,54,202,41,25,53,168,40,12,41,106,40,21,39,339,35*7D
$GPGSV,3,2,11,09,29,020,30,31,21,219,37,14,18,289,32,05,11,094,35*74
$GPGSV,3,3,11,27,10,025,30,02,10,140,29,18,00,346,*4C
$GPRMC,144626.000,A,2003.0656,S,06944.4412,W,27.09,163.23,010511,,,A*57
$GPGGA,144627.004,2003.0729,S,06944.4389,W,1,09,0.9,1097.6,M,35.0,M,,0000*6E
$GPGSA,M,3,29,25,12,21,09,31,05,27,02,,,,1.8,0.9,1.5*3F
$GPRMC,144627.004,A,2003.0729,S,06944.4389,W,27.36,163.18,010511,,,A*5A
$GPGGA,144627.999,2003.0802,S,06944.4367,W,1,10,0.8,1097.3,M,35.0,M,,0000*69
$GPGSA,M,3,29,25,12,21,09,31,14,05,27,02,,,1.6,0.8,1.4*34
$GPRMC,144627.999,A,2003.0802,S,06944.4367,W,27.83,163.07,010511,,,A*51
$GPGGA,144628.999,2003.0880,S,06944.4342,W,1,10,0.8,1096.6,M,35.0,M,,0000*6F
$GPGSA,M,3,29,25,12,21,09,31,14,05,27,02,,,1.6,0.8,1.4*34
$GPRMC,144628.999,A,2003.0880,S,06944.4342,W,27.70,162.95,010511,,,A*55
$GPGGA,144629.999,2003.0955,S,06944.4319,W,1,10,0.8,1096.1,M,35.0,M,,0000*6E
$GPGSA,M,3,29,25,12,21,09,31,14,05,27,02,,,1.6,0.8,1.4*34
$GPRMC,144629.999,A,2003.0955,S,06944.4319,W,27.87,162.87,010511,,,A*58
$GPGGA,144630.999,2003.1027,S,06944.4294,W,1,10,0.8,1096.2,M,35.0,M,,0000*6C
$GPGSA,M,3,29,25,12,21,09,31,14,05,27,02,,,1.6,0.8,1.4*34
$GPGSV,3,1,11,29,54,202,41,25,53,168,40,12,41,106,39,21,39,339,37*71
$GPGSV,3,2,11,09,29,020,34,31,21,219,38,14,18,289,31,05,11,094,34*7D
$GPGSV,3,3,11,27,10,025,30,02,10,140,29,18,00,346,*4C
$GPRMC,144630.999,A,2003.1027,S,06944.4294,W,27.90,163.15,010511,,,A*55
$GPGGA,144631.996,2003.1102,S,06944.4269,W,1,10,0.8,1096.8,M,35.0,M,,0000*6C
$GPGSA,M,3,29,25,12,21,09,31,14,05,27,02,,,1.6,0.8,1.4*34
$GPRMC,144631.996,A,2003.1102,S,06944.4269,W,27.84,163.02,010511,,,A*5C
$GPGGA,144633.002,2003.1175,S,06944.4244,W,1,09,0.9,1097.4,M,35.0,M,,0000*61
$GPGSA,M,3,29,25,12,21,09,31,05,27,02,,,,1.8,0.9,1.5*3F
$GPRMC,144633.002,A,2003.1175,S,06944.4244,W,28.11,162.16,010511,,,A*52
$GPGGA,144634.001,2003.1250,S,06944.4219,W,1,10,0.8,1097.3,M,35.0,M,,0000*67
$GPGSA,M,3,29,25,12,21,09,31,14,05,27,02,,,1.6,0.8,1.4*34
$GPRMC,144634.001,A,2003.1250,S,06944.4219,W,27.78,162.22,010511,,,A*5D
$GPGGA,144635.000,2003.1322,S,06944.4194,W,1,10,0.8,1097.0,M,35.0,M,,0000*66
$GPGSA,M,3,29,25,12,21,09,31,14,05,27,02,,,1.6,0.8,1.4*34
$GPRMC,144635.000,A,2003.1322,S,06944.4194,W,27.10,162.91,010511,,,A*59
$GPGGA,144636.000,2003.1395,S,06944.4171,W,1,10,0.8,1096.8,M,35.0,M,,0000*6B
$GPGSA,M,3,29,25,12,21,09,31,14,05,27,02,,,1.6,0.8,1.4*34
$GPGSV,3,1,11,29,54,202,41,25,53,168,41,12,41,106,39,21,39,339,36*71
$GPGSV,3,2,11,09,29,020,30,31,21,219,36,14,18,289,28,05,11,094,36*7D
$GPGSV,3,3,11,27,10,025,31,02,10,140,27,18,00,346,*43
$GPRMC,144636.000,A,2003.1395,S,06944.4171,W,27.80,162.66,010511,,,A*5C
$GPGGA,144637.000,2003.1465,S,06944.4147,W,1,10,0.8,1097.1,M,35.0,M,,0000*6F
$GPGSA,M,3,29,25,12,21,09,31,14,05,27,02,,,1.6,0.8,1.4*34
$GPRMC,144637.000,A,2003.1465,S,06944.4147,W,27.53,162.57,010511,,,A*5C
$GPGGA,144637.998,2003.1539,S,06944.4122,W,1,10,0.8,1097.2,M,35.0,M,,0000*6F
$GPGSA,M,3,29,25,12,21,09,31,14,05,27,02,,,1.6,0.8,1.4*34
$GPRMC,144637.998,A,2003.1539,S,06944.4122,W,28.05,162.56,010511,,,A*52
$GPGGA,144639.002,2003.1612,S,06944.4097,W,1,10,0.8,1097.1,M,35.0,M,,0000*6D
$GPGSA,M,3,29,25,12,21,09,31,14,05,27,02,,,1.6,0.8,1.4*34
$GPRMC,144639.002,A,2003.1612,S,06944.4097,W,27.75,162.33,010511,,,A*58
$GPGGA,144640.000,2003.1687,S,06944.4071,W,1,10,0.8,1097.1,M,35.0,M,,0000*65
$GPGSA,M,3,29,25,12,21,09,31,14,05,27,02,,,1.6,0.8,1.4*34
$GPRMC,144640.000,A,2003.1687,S,06944.4071,W,27.69,162.09,010511,,,A*54
$GPGGA,144641.000,2003.1760,S,06944.4049,W,1,10,0.8,1096.7,M,35.0,M,,0000*60
$GPGSA,M,3,29,25,12,21,09,31,14,05,27,02,,,1.6,0.8,1.4*34
$GPGSV,3,1,11,29,54,202,41,25,53,168,41,12,41,106,39,21,39,339,36*71
$GPGSV,3,2,11,09,29,020,32,31,21,219,38,14,18,289,31,05,11,094,38*77
$GPGSV,3,3,11,27,10,025,31,02,10,140,26,18,00,346,*42
$GPRMC,144641.000,A,2003.1760,S,06944.4049,W,27.19,162.01,010511,,,A*59
$GPGGA,144642.000,2003.1832,S,06944.4023,W,1,09,0.8,1096.4,M,35.0,M,,0000*6C
$GPGSA,M,3,29,25,12,21,09,31,14,05,27,,,,1.8,0.8,1.6*3A
$GPRMC,144642.000,A,2003.1832,S,06944.4023,W,27.81,160.29,010511,,,A*57
$GPGGA,144643.000,2003.1906,S,06944.3997,W,1,09,0.8,1096.3,M,35.0,M,,0000*6D
$GPGSA,M,3,29,25,12,21,31,14,05,27,02,,,,1.6,0.8,1.4*3D
$GPRMC,144643.000,A,2003.1906,S,06944.3997,W,27.25,162.29,010511,,,A*5D
$GPGGA,144644.000,2003.1978,S,06944.3972,W,1,10,0.8,1096.2,M,35.0,M,,0000*61
$GPGSA,M,3,29,25,12,21,09,31,14,05,27,02,,,1.6,0.8,1.4*34
$GPRMC,144644.000,A,2003.1978,S,06944.3972,W,27.34,162.54,010511,,,A*52
$GPGGA,144645.000,2003.2053,S,06944.3950,W,1,10,0.8,1096.3,M,35.0,M,,0000*62
$GPGSA,M,3,29,25,12,21,09,31,14,05,27,02,,,1.6,0.8,1.4*34
$GPRMC,144645.000,A,2003.2053,S,06944.3950,W,27.31,162.93,010511,,,A*5E
$GPGGA,144646.000,2003.2125,S,06944.3924,W,1,09,0.9,1096.4,M,35.0,M,,0000*6C
$GPGSA,M,3,29,25,12,21,09,31,05,27,02,,,,1.8,0.9,1.5*3F
$GPGSV,3,1,11,29,54,202,41,25,53,168,41,12,41,106,39,21,39,339,36*71
$GPGSV,3,2,11,09,29,020,31,31,21,219,36,14,18,289,,05,11,094,36*76
$GPGSV,3,3,11,27,10,025,32,02,10,140,30,18,00,346,*46
$GPRMC,144646.000,A,2003.2125,S,06944.3924,W,27.59,163.32,010511,,,A*5A
$GPGGA,144647.000,2003.2199,S,06944.3900,W,1,10,0.8,1096.9,M,35.0,M,,0000*68
$GPGSA,M,3,29,25,12,21,09,31,14,05,27,02,,,1.6,0.8,1.4*34
$GPRMC,144647.000,A,2003.2199,S,06944.3900,W,27.54,163.45,010511,,,A*57
$GPGGA,144648.000,2003.2272,S,06944.3878,W,1,10,0.8,1097.0,M,35.0,M,,0000*67
$GPGSA,M,3,29,25,12,21,09,31,14,05,27,02,,,1.6,0.8,1.4*34
$GPRMC,144648.000,A,2003.2272,S,06944.3878,W,27.57,164.49,010511,,,A*58
$GPGGA,144649.000,2003.2345,S,06944.3857,W,1,10,0.8,1097.5,M,35.0,M,,0000*6B
$GPGSA,M,3,29,25,12,21,09,31,14,05,27,02,,,1.6,0.8,1.4*34
$GPRMC,144649.000,A,2003.2345,S,06944.3857,W,27.59,166.52,010511,,,A*57
$GPGGA,144650.000,2003.2420,S,06944.3837,W,1,10,0.8,1097.7,M,35.0,M,,0000*63
$GPGSA,M,3,29,25,12,21,09,31,14,05,27,02,,,1.6,0.8,1.4*34
$GPRMC,144650.000,A,2003.2420,S,06944.3837,W,26.83,163.98,010511,,,A*58
$GPGGA,144651.000,2003.2493,S,06944.3816,W,1,10,0.8,1097.8,M,35.0,M,,0000*66
$GPGSA,M,3,29,25,12,21,09,31,14,05,27,02,,,1.6,0.8,1.4*34
$GPGSV,3,1,11,29,54,202,41,25,53,168,41,12,41,106,38,21,39,339,36*70
$GPGSV,3,2,11,09,29,020,32,31,21,219,38,14,18,289,32,05,11,094,33*7F
$GPGSV,3,3,11,27,10,025,28,02,10,140,29,18,00,346,*45
$GPRMC,144651.000,A,2003.2493,S,06944.3816,W,27.85,164.80,010511,,,A*5B
$GPGGA,144651.999,2003.2568,S,06944.3795,W,1,09,0.9,1098.0,M,35.0,M,,0000*60
$GPGSA,M,3,29,25,12,21,09,31,05,27,02,,,,1.8,0.9,1.5*3F
$GPRMC,144651.999,A,2003.2568,S,06944.3795,W,27.90,165.24,010511,,,A*58
$GPGGA,144652.997,2003.2646,S,06944.3777,W,1,08,1.0,1098.6,M,35.0,M,,0000*61
$GPGSA,M,3,29,25,12,21,09,31,05,02,,,,,1.9,1.0,1.7*31
$GPRMC,144652.997,A,2003.2646,S,06944.3777,W,28.63,165.79,010511,,,A*5D
$GPGGA,144654.001,2003.2720,S,06944.3755,W,1,09,0.8,1099.2,M,35.0,M,,0000*6D
$GPGSA,M,3,29,25,12,21,09,31,14,05,02,,,,1.7,0.8,1.5*31
$GPRMC,144654.001,A,2003.2720,S,06944.3755,W,28.46,166.56,010511,,,A*55
$GPGGA,144655.000,2003.2798,S,06944.3736,W,1,09,0.8,1099.0,M,35.0,M,,0000*69
$GPGSA,M,3,29,25,12,21,09,31,14,05,02,,,,1.7,0.8,1.5*31
$GPRMC,144655.000,A,2003.2798,S,06944.3736,W,28.38,167.52,010511,,,A*5F
$GPGGA,144655.998,2003.2875,S,06944.3719,W,1,10,0.8,1099.1,M,35.0,M,,0000*69
$GPGSA,M,3,29,25,12,21,09,31,14,05,27,02,,,1.6,0.8,1.4*34
$GPGSV,3,1,11,29,54,202,41,25,53,168,41,12,41,106,36,21,39,339,34*7C
$GPGSV,3,2,11,09,29,020,34,31,21,219,40,14,18,289,28,05,11,094,32*7C
$GPGSV,3,3,11,27,10,025,27,02,10,140,30,18,00,346,*42
$GPRMC,144655.998,A,2003.2875,S,06944.3719,W,28.50,167.82,010511,,,A*55
$GPGGA,144657.000,2003.2953,S,06944.3702,W,1,09,0.8,1099.3,M,35.0,M,,0000*66
$GPGSA,M,3,29,25,12,21,09,31,14,05,02,,,,1.7,0.8,1.5*31
$GPRMC,144657.000,A,2003.2953,S,06944.3702,W,28.71,169.12,010511,,,A*54
$GPGGA,144658.004,2003.3031,S,06944.3688,W,1,09,0.8,1099.6,M,35.0,M,,0000*67
$GPGSA,M,3,29,25,12,21,09,31,14,05,02,,,,1.7,0.8,1.5*31
$GPRMC,144658.004,A,2003.3031,S,06944.3688,W,28.85,171.40,010511,,,A*55
$GPGGA,144658.996,2003.3108,S,06944.3672,W,1,09,0.8,1099.7,M,35.0,M,,0000*6A
$GPGSA,M,3,29,25,12,21,09,31,14,05,02,,,,1.7,0.8,1.5*31
$GPRMC,144658.996,A,2003.3108,S,06944.3672,W,28.42,170.89,010511,,,A*56
$GPGGA,144700.000,2003.3187,S,06944.3658,W,1,09,0.8,1099.1,M,35.0,M,,0000*69
$GPGSA,M,3,29,25,12,21,09,31,14,05,02,,,,1.7,0.8,1.5*31
$GPRMC,144700.000,A,2003.3187,S,06944.3658,W,28.69,171.75,010511,,,A*58
$GPGGA,144701.004,2003.3265,S,06944.3644,W,1,09,0.8,1099.0,M,35.0,M,,0000*6F
$GPGSA,M,3,29,25,12,21,09,31,14,05,02,,,,1.7,0.8,1.5*31
$GPGSV,3,1,11,29,54,202,41,25,53,168,41,12,41,106,34,21,39,339,34*7E
$GPGSV,3,2,11,09,29,020,35,31,21,219,40,14,18,289,33,05,11,094,35*70
$GPGSV,3,3,11,27,10,025,,02,10,140,35,18,00,346,29*49
$GPRMC,144701.004,A,2003.3265,S,06944.3644,W,28.78,170.95,010511,,,A*50
$GPGGA,144701.997,2003.3341,S,06944.3629,W,1,10,0.8,1099.4,M,35.0,M,,0000*6C
$GPGSA,M,3,29,25,12,21,09,31,14,05,27,02,,,1.6,0.8,1.4*34
$GPRMC,144701.997,A,2003.3341,S,06944.3629,W,28.34,170.82,010511,,,A*51
$GPGGA,144702.999,2003.3418,S,06944.3616,W,1,09,0.8,1098.8,M,35.0,M,,0000*63
$GPGSA,M,3,29,25,12,21,09,31,14,05,02,,,,1.7,0.8,1.5*31
$GPRMC,144702.999,A,2003.3418,S,06944.3616,W,28.31,170.99,010511,,,A*54
$GPGGA,144704.009,2003.3497,S,06944.3602,W,0,00,,1099.0,M,35.0,M,,0000*40
$GPGSA,M,1,,,,,,,,,,,,,,,*12
$GPRMC,144704.009,V,2003.3497,S,06944.3602,W,,,010511,,,N*76
$GPGGA,144705.000,2003.3574,S,06944.3589,W,0,00,,1099.1,M,35.0,M,,0000*45
$GPGSA,M,1,,,,,,,,,,,,,,,*12
$GPGSV,3,1,11,29,54,201,33,25,53,167,37,12,41,105,,21,39,339,*75
$GPGSV,3,2,11,09,28,020,,31,21,220,34,14,17,290,,05,11,094,*7F
$GPGSV,3,3,11,02,09,140,,27,09,025,,18,00,346,*44
$GPRMC,144705.000,V,2003.3574,S,06944.3589,W,,,010511,,,N*72
$GPGGA,144706.000,2003.3652,S,06944.3576,W,0,00,,1099.3,M,35.0,M,,0000*43
$GPGSA,M,1,,,,,,,,,,,,,,,*12
$GPGSV,3,1,11,29,54,201,46,25,53,167,48,12,41,105,,21,39,339,*7F
$GPGSV,3,2,11,09,28,020,,31,21,220,46,14,17,290,,05,11,094,*7A
$GPGSV,3,3,11,02,09,140,,27,09,025,,18,00,346,*44
$GPRMC,144706.000,V,2003.3652,S,06944.3576,W,,,010511,,,N*76
$GPGGA,144707.000,2003.3718,S,06944.3560,W,1,09,0.8,1096.9,M,35.0,M,,0000*61
$GPGSA,M,3,29,25,31,12,14,05,02,21,09,,,,1.7,0.8,1.5*31
$GPRMC,144707.000,A,2003.3718,S,06944.3560,W,28.22,170.01,010511,,,A*5A
$GPGGA,144708.000,2003.3796,S,06944.3548,W,1,10,0.8,1095.7,M,35.0,M,,0000*67
$GPGSA,M,3,29,25,31,12,14,05,02,21,09,27,,,1.6,0.8,1.4*34
$GPRMC,144708.000,A,2003.3796,S,06944.3548,W,28.10,169.64,010511,,,A*53
$GPGGA,144709.000,2003.3873,S,06944.3533,W,1,10,0.8,1095.0,M,35.0,M,,0000*69
$GPGSA,M,3,29,25,31,12,14,05,02,21,09,27,,,1.6,0.8,1.4*34
$GPRMC,144709.000,A,2003.3873,S,06944.3533,W,28.19,169.50,010511,,,A*54
$GPGGA,144710.000,2003.3951,S,06944.3520,W,1,10,0.8,1094.5,M,35.0,M,,0000*66
$GPGSA,M,3,29,25,31,12,14,05,02,21,09,27,,,1.6,0.8,1.4*34
$GPGSV,3,1,11,29,54,201,46,25,53,167,50,12,41,105,36,21,39,339,37*77
$GPGSV,3,2,11,09,28,020,36,31,21,220,46,14,17,290,35,05,11,094,36*7C
$GPGSV,3,3,11,02,09,140,35,27,09,025,26,18,00,346,28*4C
$GPRMC,144710.000,A,2003.3951,S,06944.3520,W,28.16,169.41,010511,,,A*50
$GPGGA,144711.000,2003.4028,S,06944.3505,W,1,10,0.8,1094.2,M,35.0,M,,0000*67
$GPGSA,M,3,29,25,31,12,14,05,02,21,09,27,,,1.6,0.8,1.4*34
$GPRMC,144711.000,A,2003.4028,S,06944.3505,W,27.99,169.43,010511,,,A*5C
$GPGGA,144712.000,2003.4105,S,06944.3493,W,1,10,0.8,1093.6,M,35.0,M,,0000*67
$GPGSA,M,3,29,25,31,12,14,05,02,21,09,27,,,1.6,0.8,1.4*34
$GPRMC,144712.000,A,2003.4105,S,06944.3493,W,27.87,169.60,010511,,,A*51
$GPGGA,144713.000,2003.4181,S,06944.3478,W,1,10,0.8,1093.2,M,35.0,M,,0000*6B
$GPGSA,M,3,29,25,31,12,14,05,02,21,09,27,,,1.6,0.8,1.4*34
$GPRMC,144713.000,A,2003.4181,S,06944.3478,W,27.80,169.80,010511,,,A*50
$GPGGA,144714.000,2003.4258,S,06944.3465,W,1,10,0.8,1092.9,M,35.0,M,,0000*6D
$GPGSA,M,3,29,25,31,12,14,05,02,21,09,27,,,1.6,0.8,1.4*34
$GPRMC,144714.000,A,2003.4258,S,06944.3465,W,27.77,170.41,010511,,,A*51
$GPGGA,144715.000,2003.4334,S,06944.3452,W,1,10,0.8,1092.5,M,35.0,M,,0000*6F
$GPGSA,M,3,29,25,31,12,14,05,02,21,09,27,,,1.6,0.8,1.4*34
$GPGSV,3,1,11,29,54,201,47,25,53,167,50,12,41,105,36,21,39,339,37*76
$GPGSV,3,2,11,09,28,020,35,31,21,220,45,14,17,290,36,05,11,094,36*7F
$GPGSV,3,3,11,02,09,140,35,27,09,025,26,18,00,346,28*4C
$GPRMC,144715.000,A,2003.4334,S,06944.3452,W,27.78,170.71,010511,,,A*53
$GPGGA,144716.000,2003.4411,S,06944.3440,W,1,10,0.8,1092.3,M,35.0,M,,0000*69
$GPGSA,M,3,29,25,31,12,14,05,02,21,09,27,,,1.6,0.8,1.4*34
$GPRMC,144716.000,A,2003.4411,S,06944.3440,W,27.75,170.80,010511,,,A*50
$GPGGA,144717.000,2003.4488,S,06944.3427,W,1,10,0.8,1092.1,M,35.0,M,,0000*6B
$GPGSA,M,3,29,25,31,12,14,05,02,21,09,27,,,1.6,0.8,1.4*34
$GPRMC,144717.000,A,2003.4488,S,06944.3427,W,27.78,170.64,010511,,,A*57
$GPGGA,144718.008,2003.4565,S,06944.3414,W,1,09,0.8,1091.9,M,35.0,M,,0000*6D
$GPGSA,M,3,29,25,12,21,09,31,14,05,02,,,,1.7,0.8,1.5*31
$GPRMC,144718.008,A,2003.4565,S,06944.3414,W,27.70,170.29,010511,,,A*53
$GPGGA,144718.993,2003.4640,S,06944.3400,W,1,10,0.8,1091.8,M,35.0,M,,0000*6E
$GPGSA,M,3,29,25,12,21,09,31,14,05,02,27,,,1.6,0.8,1.4*34
$GPRMC,144718.993,A,2003.4640,S,06944.3400,W,27.91,170.73,010511,,,A*59
$GPGGA,144720.002,2003.4717,S,06944.3387,W,1,09,0.8,1091.7,M,35.0,M,,0000*68
$GPGSA,M,3,29,25,12,21,09,31,14,05,02,,,,1.7,0.8,1.5*31
$GPRMC,144720.002,A,2003.4717,S,06944.3387,W,28.02,170.78,010511,,,A*56
$GPGGA,144720.998,2003.4793,S,06944.3373,W,1,10,0.8,1091.9,M,35.0,M,,0000*63
$GPGSA,M,3,29,25,12,21,09,31,14,05,02,27,,,1.6,0.8,1.4*34
$GPGSV,3,1,11,29,54,201,41,25,53,167,40,12,41,105,34,21,39,339,34*70
$GPGSV,3,2,11,09,28,020,32,31,21,220,41,14,17,290,36,05,11,094,35*7F
$GPGSV,3,3,11,02,09,140,36,27,09,025,29,18,00,346,31*48
$GPRMC,144720.998,A,2003.4793,S,06944.3373,W,27.82,170.72,010511,,,A*56
$GPGGA,144722.003,2003.4870,S,06944.3361,W,1,10,0.8,1091.8,M,35.0,M,,0000*6A
$GPGSA,M,3,29,25,12,21,09,31,14,05,02,27,,,1.6,0.8,1.4*34
$GPRMC,144722.003,A,2003.4870,S,06944.3361,W,27.77,171.22,010511,,,A*50
$GPGGA,144723.000,2003.4947,S,06944.3347,W,1,10,0.8,1092.1,M,35.0,M,,0000*63
$GPGSA,M,3,29,25,12,21,09,31,14,05,02,27,,,1.6,0.8,1.4*34
$GPRMC,144723.000,A,2003.4947,S,06944.3347,W,27.60,170.49,010511,,,A*59
$GPGGA,144723.999,2003.5023,S,06944.3334,W,1,09,0.8,1092.2,M,35.0,M,,0000*6F
$GPGSA,M,3,29,25,12,21,09,31,14,05,02,,,,1.7,0.8,1.5*31
$GPRMC,144723.999,A,2003.5023,S,06944.3334,W,27.71,170.66,010511,,,A*53
$GPGGA,144725.000,2003.5099,S,06944.3320,W,1,10,0.8,1092.2,M,35.0,M,,0000*6C
$GPGSA,M,3,29,25,12,21,09,31,14,05,02,27,,,1.6,0.8,1.4*34
$GPRMC,144725.000,A,2003.5099,S,06944.3320,W,27.67,170.54,010511,,,A*5E
$GPGGA,144726.000,2003.5175,S,06944.3306,W,1,10,0.8,1092.4,M,35.0,M,,0000*6E
$GPGSA,M,3,29,25,12,21,09,31,14,05,02,27,,,1.6,0.8,1.4*34
$GPGSV,3,1,11,29,54,201,41,25,53,167,41,12,41,105,33,21,39,339,31*73
$GPGSV,3,2,11,09,28,020,31,31,21,220,40,14,17,290,32,05,11,094,35*79
$GPGSV,3,3,11,02,09,140,33,27,09,025,28,18,00,346,30*4D
$GPRMC,144726.000,A,2003.5175,S,06944.3306,W,27.59,169.88,010511,,,A*5E
$GPGGA,144726.996,2003.5249,S,06944.3292,W,1,10,0.8,1092.5,M,35.0,M,,0000*69
$GPGSA,M,3,29,25,12,21,09,31,14,05,02,27,,,1.6,0.8,1.4*34
$GPRMC,144726.996,A,2003.5249,S,06944.3292,W,27.27,170.50,010511,,,A*5C
$GPGGA,144728.004,2003.5325,S,06944.3281,W,1,10,0.8,1092.8,M,35.0,M,,0000*61
$GPGSA,M,3,29,25,12,21,09,31,14,05,02,27,,,1.6,0.8,1.4*34
$GPRMC,144728.004,A,2003.5325,S,06944.3281,W,27.07,171.99,010511,,,A*5F
$GPGGA,144728.996,2003.5400,S,06944.3269,W,1,10,0.8,1092.9,M,35.0,M,,0000*64
$GPGSA,M,3,29,25,12,21,09,31,14,05,02,27,,,1.6,0.8,1.4*34
$GPRMC,144728.996,A,2003.5400,S,06944.3269,W,28.12,170.84,010511,,,A*5D
$GPGGA,144730.000,2003.5478,S,06944.3254,W,1,09,0.8,1092.8,M,35.0,M,,0000*63
$GPGSA,M,3,29,25,12,21,09,31,14,05,02,,,,1.7,0.8,1.5*31
$GPRMC,144730.000,A,2003.5478,S,06944.3254,W,28.48,171.09,010511,,,A*58
$GPGGA,144731.000,2003.5556,S,06944.3240,W,1,08,0.9,1092.9,M,35.0,M,,0000*6B
$GPGSA,M,3,29,25,12,21,09,31,14,05,,,,,1.9,0.9,1.7*3E
$GPGSV,3,1,11,29,54,201,40,25,53,167,41,12,41,105,35,21,39,339,32*77
$GPGSV,3,2,11,09,28,020,32,31,21,220,41,14,17,290,35,05,11,094,35*7C
$GPGSV,3,3,11,02,09,140,32,27,09,025,29,18,00,346,31*4C
$GPRMC,144731.000,A,2003.5556,S,06944.3240,W,28.41,170.24,010511,,,A*56
$GPGGA,144732.000,2003.5634,S,06944.3226,W,1,08,0.9,1092.5,M,35.0,M,,0000*63
$GPGSA,M,3,29,25,12,21,09,31,14,05,,,,,1.9,0.9,1.7*3E
$GPRMC,144732.000,A,2003.5634,S,06944.3226,W,28.89,170.25,010511,,,A*57
$GPGGA,144733.000,2003.5714,S,06944.3210,W,1,08,0.9,1092.7,M,35.0,M,,0000*66
$GPGSA,M,3,29,25,12,21,09,31,14,05,,,,,1.9,0.9,1.7*3E
$GPRMC,144733.000,A,2003.5714,S,06944.3210,W,28.93,170.50,010511,,,A*59
$GPGGA,144733.999,2003.5793,S,06944.3195,W,1,08,0.9,1092.8,M,35.0,M,,0000*61
$GPGSA,M,3,29,25,12,21,09,31,14,05,,,,,1.9,0.9,1.7*3E
$GPRMC,144733.999,A,2003.5793,S,06944.3195,W,28.56,170.68,010511,,,A*53
$GPGGA,144735.000,2003.5872,S,06944.3180,W,1,08,0.9,1092.7,M,35.0,M,,0000*65
$GPGSA,M,3,29,25,12,21,09,31,14,05,,,,,1.9,0.9,1.7*3E
$GPRMC,144735.000,A,2003.5872,S,06944.3180,W,28.84,170.86,010511,,,A*57
$GPGGA,144736.000,2003.5950,S,06944.3166,W,1,08,0.9,1092.3,M,35.0,M,,0000*6B
$GPGSA,M,3,29,25,12,21,09,31,14,05,,,,,1.9,0.9,1.7*3E
$GPGSV,3,1,11,29,54,201,40,25,53,167,40,12,41,105,34,21,39,339,33*76
$GPGSV,3,2,11,09,28,020,33,31,21,220,41,14,17,290,34,05,11,094,33*7A
$GPGSV,3,3,11,02,09,140,32,27,09,025,28,18,00,346,31*4D
$GPRMC,144736.000,A,2003.5950,S,06944.3166,W,28.38,169.98,010511,,,A*5D
$GPGGA,144737.000,2003.6029,S,06944.3150,W,1,08,0.9,1092.7,M,35.0,M,,0000*6F
$GPGSA,M,3,29,25,12,21,09,31,14,05,,,,,1.9,0.9,1.7*3E
$GPRMC,144737.000,A,2003.6029,S,06944.3150,W,28.80,169.26,010511,,,A*5B
$GPGGA,144738.000,2003.6106,S,06944.3135,W,1,08,0.9,1093.1,M,35.0,M,,0000*68
$GPGSA,M,3,29,25,12,21,09,31,14,05,,,,,1.9,0.9,1.7*3E
$GPRMC,144738.000,A,2003.6106,S,06944.3135,W,28.36,170.68,010511,,,A*54
$GPGGA,144739.002,2003.6184,S,06944.3121,W,1,08,0.9,1093.0,M,35.0,M,,0000*65
$GPGSA,M,3,29,25,12,21,09,31,14,05,,,,,1.9,0.9,1.7*3E
$GPRMC,144739.002,A,2003.6184,S,06944.3121,W,28.51,170.80,010511,,,A*5F
$GPGGA,144739.998,2003.6263,S,06944.3107,W,1,08,0.9,1093.0,M,35.0,M,,0000*61
$GPGSA,M,3,29,25,12,21,09,31,14,05,,,,,1.9,0.9,1.7*3E
$GPRMC,144739.998,A,2003.6263,S,06944.3107,W,28.78,170.91,010511,,,A*50
$GPGGA,144741.000,2003.6341,S,06944.3094,W,1,08,0.9,1093.1,M,35.0,M,,0000*6D
$GPGSA,M,3,29,25,12,21,09,31,14,05,,,,,1.9,0.9,1.7*3E
$GPGSV,3,1,11,29,54,201,40,25,53,167,42,12,41,105,32,21,39,339,31*70
$GPGSV,3,2,11,09,28,020,29,31,21,220,40,14,17,290,33,05,11,094,29*7C
$GPGSV,3,3,11,02,09,140,33,27,09,025,27,18,00,346,31*43
$GPRMC,144741.000,A,2003.6341,S,06944.3094,W,28.51,172.82,010511,,,A*56
$GPGGA,144742.001,2003.6420,S,06944.3081,W,1,08,0.9,1093.3,M,35.0,M,,0000*69
$GPGSA,M,3,29,25,12,21,09,31,14,05,,,,,1.9,0.9,1.7*3E
$GPRMC,144742.001,A,2003.6420,S,06944.3081,W,28.56,170.85,010511,,,A*52
$GPGGA,144743.001,2003.6499,S,06944.3066,W,1,08,0.9,1093.0,M,35.0,M,,0000*60
$GPGSA,M,3,29,25,12,21,09,31,14,05,,,,,1.9,0.9,1.7*3E
$GPRMC,144743.001,A,2003.6499,S,06944.3066,W,28.79,170.96,010511,,,A*57
$GPGGA,144744.001,2003.6579,S,06944.3052,W,1,08,0.9,1093.6,M,35.0,M,,0000*69
$GPGSA,M,3,29,25,12,21,09,31,14,05,,,,,1.9,0.9,1.7*3E
$GPRMC,144744.001,A,2003.6579,S,06944.3052,W,29.06,170.75,010511,,,A*5C
$GPGGA,144745.000,2003.6658,S,06944.3038,W,1,08,0.9,1093.5,M,35.0,M,,0000*66
$GPGSA,M,3,29,25,12,21,09,31,14,05,,,,,1.9,0.9,1.7*3E
$GPRMC,144745.000,A,2003.6658,S,06944.3038,W,28.56,171.39,010511,,,A*5D
$GPGGA,144746.000,2003.6738,S,06944.3024,W,1,08,0.9,1093.2,M,35.0,M,,0000*68
$GPGSA,M,3,29,25,12,21,09,31,14,05,,,,,1.9,0.9,1.7*3E
$GPGSV,3,1,11,29,54,201,41,25,53,167,41,12,41,105,35,21,39,339,33*77
$GPGSV,3,2,11,09,28,020,31,31,21,220,41,14,17,290,33,05,11,094,32*7E
$GPGSV,3,3,11,02,09,140,36,27,09,025,29,18,00,346,33*4A
$GPRMC,144746.000,A,2003.6738,S,06944.3024,W,28.92,171.87,010511,,,A*59
$GPGGA,144747.001,2003.6818,S,06944.3010,W,1,08,0.9,1093.5,M,35.0,M,,0000*65
$GPGSA,M,3,29,25,12,21,09,31,14,05,,,,,1.9,0.9,1.7*3E
$GPRMC,144747.001,A,2003.6818,S,06944.3010,W,28.89,170.89,010511,,,A*56
$GPGGA,144748.002,2003.6898,S,06944.2996,W,1,07,1.1,1093.6,M,35.0,M,,0000*62
$GPGSA,M,3,29,25,12,21,09,14,05,,,,,,2.3,1.1,2.0*38
$GPRMC,144748.002,A,2003.6898,S,06944.2996,W,28.83,171.02,010511,,,A*5C
$GPGGA,144748.998,2003.6977,S,06944.2980,W,1,08,0.9,1093.4,M,35.0,M,,0000*6B
$GPGSA,M,3,29,25,12,21,09,31,14,05,,,,,1.9,0.9,1.7*3E
$GPRMC,144748.998,A,2003.6977,S,06944.2980,W,28.80,170.67,010511,,,A*50
$GPGGA,144750.002,2003.7056,S,06944.2965,W,1,08,0.9,1093.3,M,35.0,M,,0000*6F
$GPGSA,M,3,29,25,12,21,09,31,14,05,,,,,1.9,0.9,1.7*3E
$GPRMC,144750.002,A,2003.7056,S,06944.2965,W,28.31,170.70,010511,,,A*5F
$GPGGA,144750.998,2003.7133,S,06944.2951,W,1,08,0.9,1092.9,M,35.0,M,,0000*6B
$GPGSA,M,3,29,25,12,21,09,31,14,05,,,,,1.9,0.9,1.7*3E
$GPGSV,3,1,11,29,54,201,40,25,53,167,41,12,41,105,34,21,39,339,31*75
$GPGSV,3,2,11,09,28,020,30,31,21,220,41,14,17,290,33,05,11,094,32*7F
$GPGSV,3,3,11,02,09,140,34,27,09,025,21,18,00,346,32*41
$GPRMC,144750.998,A,2003.7133,S,06944.2951,W,28.15,171.47,010511,,,A*53
$GPGGA,144752.002,2003.7211,S,06944.2938,W,1,08,0.9,1092.9,M,35.0,M,,0000*6F
$GPGSA,M,3,29,25,12,21,09,31,14,05,,,,,1.9,0.9,1.7*3E
$GPRMC,144752.002,A,2003.7211,S,06944.2938,W,28.31,171.24,010511,,,A*54
$GPGGA,144753.000,2003.7289,S,06944.2923,W,1,08,0.9,1092.9,M,35.0,M,,0000*67
$GPGSA,M,3,29,25,12,21,09,31,14,05,,,,,1.9,0.9,1.7*3E
$GPRMC,144753.000,A,2003.7289,S,06944.2923,W,28.77,170.64,010511,,,A*5B
$GPGGA,144754.000,2003.7369,S,06944.2910,W,1,08,0.9,1093.0,M,35.0,M,,0000*67
$GPGSA,M,3,29,25,12,21,09,31,14,05,,,,,1.9,0.9,1.7*3E
$GPRMC,144754.000,A,2003.7369,S,06944.2910,W,28.76,171.09,010511,,,A*58
$GPGGA,144755.000,2003.7446,S,06944.2894,W,1,08,0.9,1092.7,M,35.0,M,,0000*67
$GPGSA,M,3,29,25,12,21,09,31,14,05,,,,,1.9,0.9,1.7*3E
$GPRMC,144755.000,A,2003.7446,S,06944.2894,W,28.48,170.37,010511,,,A*5F
$GPGGA,144756.001,2003.7529,S,06944.2881,W,1,08,0.9,1093.8,M,35.0,M,,0000*67
$GPGSA,M,3,29,25,12,21,09,31,14,05,,,,,1.9,0.9,1.7*3E
$GPGSV,3,1,11,29,54,201,40,25,53,167,40,12,41,105,35,21,39,339,32*76
$GPGSV,3,2,11,09,28,020,35,31,21,220,40,14,17,290,35,05,11,094,34*7B
$GPGSV,3,3,11,02,09,140,36,27,09,025,29,18,00,346,32*4B
$GPRMC,144756.001,A,2003.7529,S,06944.2881,W,29.04,170.46,010511,,,A*5E
$GPGGA,144756.999,2003.7608,S,06944.2867,W,1,08,0.9,1093.8,M,35.0,M,,0000*67
$GPGSA,M,3,29,25,12,21,09,31,14,05,,,,,1.9,0.9,1.7*3E
$GPRMC,144756.999,A,2003.7608,S,06944.2867,W,28.80,170.93,010511,,,A*5B
$GPGGA,144757.999,2003.7687,S,06944.2853,W,1,08,0.9,1094.1,M,35.0,M,,0000*68
$GPGSA,M,3,29,25,12,21,09,31,14,05,,,,,1.9,0.9,1.7*3E
$GPRMC,144757.999,A,2003.7687,S,06944.2853,W,29.03,171.29,010511,,,A*50
$GPGGA,144759.000,2003.7767,S,06944.2839,W,1,08,0.9,1094.5,M,35.0,M,,0000*68
$GPGSA,M,3,29,25,12,21,09,31,14,05,,,,,1.9,0.9,1.7*3E
$GPRMC,144759.000,A,2003.7767,S,06944.2839,W,29.20,170.79,010511,,,A*51
$GPGGA,144759.995,2003.7846,S,06944.2826,W,1,08,0.9,1095.1,M,35.0,M,,0000*6A
$GPGSA,M,3,29,25,12,21,09,31,14,05,,,,,1.9,0.9,1.7*3E
$GPRMC,144759.995,A,2003.7846,S,06944.2826,W,28.80,170.83,010511,,,A*58
$GPGGA,144801.000,2003.7925,S,06944.2812,W,1,08,0.9,1095.4,M,35.0,M,,0000*6B
$GPGSA,M,3,29,25,12,21,09,31,14,05,,,,,1.9,0.9,1.7*3E
$GPGSV,3,1,11,29,54,201,40,25,53,167,41,12,41,105,36,21,39,339,36*70
$GPGSV,3,2,11,09,28,020,36,31,21,220,41,14,17,290,32,05,11,094,31*7B
$GPGSV,3,3,11,02,09,140,36,27,09,025,,18,00,346,29*4A
$GPRMC,144801.000,A,2003.7925,S,06944.2812,W,28.88,171.67,010511,,,A*5F
$GPGGA,144802.005,2003.8004,S,06944.2798,W,1,08,0.9,1095.7,M,35.0,M,,0000*66
$GPGSA,M,3,29,25,12,21,09,31,14,05,,,,,1.9,0.9,1.7*3E
$GPRMC,144802.005,A,2003.8004,S,06944.2798,W,28.91,170.74,010511,,,A*5A
$GPGGA,144802.996,2003.8083,S,06944.2783,W,1,08,0.9,1096.2,M,35.0,M,,0000*66
$GPGSA,M,3,29,25,12,21,09,31,14,05,,,,,1.9,0.9,1.7*3E
$GPRMC,144802.996,A,2003.8083,S,06944.2783,W,28.53,170.61,010511,,,A*56
$GPGGA,144804.000,2003.8160,S,06944.2771,W,1,08,0.9,1096.0,M,35.0,M,,0000*65
$GPGSA,M,3,29,25,12,21,09,31,14,05,,,,,1.9,0.9,1.7*3E
$GPRMC,144804.000,A,2003.8160,S,06944.2771,W,28.05,170.45,010511,,,A*52
$GPGGA,144805.000,2003.8235,S,06944.2755,W,1,08,0.9,1096.0,M,35.0,M,,0000*61
$GPGSA,M,3,29,25,12,21,09,31,14,05,,,,,1.9,0.9,1.7*3E
$GPRMC,144805.000,A,2003.8235,S,06944.2755,W,28.04,170.72,010511,,,A*53
$GPGGA,144806.000,2003.8310,S,06944.2740,W,1,08,0.9,1096.1,M,35.0,M,,0000*61
$GPGSA,M,3,29,25,12,21,09,31,14,05,,,,,1.9,0.9,1.7*3E
$GPGSV,3,1,11,29,54,201,39,25,53,167,41,12,41,105,35,21,39,339,35*7E
$GPGSV,3,2,11,09,28,020,32,31,21,220,41,14,17,290,34,05,11,094,31*79
$GPGSV,3,3,11,02,09,140,34,27,09,025,31,18,00,346,30*42
$GPRMC,144806.000,A,2003.8310,S,06944.2740,W,27.97,171.07,010511,,,A*54
$GPGGA,144806.999,2003.8386,S,06944.2725,W,1,08,0.9,1096.3,M,35.0,M,,0000*66
$GPGSA,M,3,29,25,12,21,09,31,14,05,,,,,1.9,0.9,1.7*3E
$GPRMC,144806.999,A,2003.8386,S,06944.2725,W,28.05,169.76,010511,,,A*5A
$GPGGA,144807.999,2003.8462,S,06944.2711,W,1,08,0.9,1096.4,M,35.0,M,,0000*6A
$GPGSA,M,3,29,25,12,21,09,31,14,05,,,,,1.9,0.9,1.7*3E
$GPRMC,144807.999,A,2003.8462,S,06944.2711,W,27.84,170.79,010511,,,A*50
$GPGGA,144809.000,2003.8540,S,06944.2695,W,1,08,0.9,1096.4,M,35.0,M,,0000*61
$GPGSA,M,3,29,25,12,21,09,31,14,05,,,,,1.9,0.9,1.7*3E
$GPRMC,144809.000,A,2003.8540,S,06944.2695,W,28.16,170.37,010511,,,A*55
$GPGGA,144810.000,2003.8620,S,06944.2679,W,1,08,0.9,1095.9,M,35.0,M,,0000*60
$GPGSA,M,3,29,25,12,21,09,31,14,05,,,,,1.9,0.9,1.7*3E
$GPRMC,144810.000,A,2003.8620,S,06944.2679,W,28.24,170.54,010511,,,A*5E
$GPGGA,144811.000,2003.8697,S,06944.2664,W,1,08,0.9,1095.8,M,35.0,M,,0000*60
$GPGSA,M,3,29,25,12,21,09,31,14,05,,,,,1.9,0.9,1.7*3E
$GPGSV,3,1,11,29,54,201,41,25,53,167,41,12,41,105,35,21,39,339,34*70
$GPGSV,3,2,11,09,28,020,33,31,21,220,41,14,17,290,34,05,11,094,34*7D
$GPGSV,3,3,11,02,09,140,35,27,09,025,32,18,00,346,31*41
$GPRMC,144811.000,A,2003.8697,S,06944.2664,W,27.78,172.24,010511,,,A*5C
$GPGGA,144812.000,2003.8772,S,06944.2650,W,1,08,0.9,1095.2,M,35.0,M,,0000*64
$GPGSA,M,3,29,25,12,21,09,31,14,05,,,,,1.9,0.9,1.7*3E
$GPRMC,144812.000,A,2003.8772,S,06944.2650,W,28.28,170.97,010511,,,A*52
$GPGGA,144813.000,2003.8851,S,06944.2637,W,1,08,0.9,1095.3,M,35.0,M,,0000*6B
$GPGSA,M,3,29,25,12,21,09,31,14,05,,,,,1.9,0.9,1.7*3E
$GPRMC,144813.000,A,2003.8851,S,06944.2637,W,28.77,170.91,010511,,,A*50
$GPGGA,144814.000,2003.8928,S,06944.2622,W,1,08,0.9,1095.2,M,35.0,M,,0000*66
$GPGSA,M,3,29,25,12,21,09,31,14,05,,,,,1.9,0.9,1.7*3E
$GPRMC,144814.000,A,2003.8928,S,06944.2622,W,28.02,170.40,010511,,,A*52
$GPGGA,144815.000,2003.9004,S,06944.2605,W,1,08,0.9,1094.9,M,35.0,M,,0000*6E
$GPGSA,M,3,29,25,12,21,09,31,14,05,,,,,1.9,0.9,1.7*3E
$GPRMC,144815.000,A,2003.9004,S,06944.2605,W,28.39,169.77,010511,,,A*54
$GPGGA,144816.000,2003.9081,S,06944.2589,W,1,08,0.9,1094.7,M,35.0,M,,0000*69
$GPGSA,M,3,29,25,12,21,09,31,14,05,,,,,1.9,0.9,1.7*3E
$GPGSV,3,1,11,29,54,201,40,25,53,167,40,12,41,105,33,21,39,339,35*77
$GPGSV,3,2,11,09,28,020,28,31,21,220,40,14,17,290,32,05,11,094,29*7C
$GPGSV,3,3,11,02,09,140,31,27,09,025,28,18,00,346,30*4F
$GPRMC,144816.000,A,2003.9081,S,06944.2589,W,28.35,169.10,010511,,,A*50
$GPGGA,144817.001,2003.9159,S,06944.2572,W,1,08,0.9,1094.1,M,35.0,M,,0000*6F
$GPGSA,M,3,29,25,12,21,09,31,14,05,,,,,1.9,0.9,1.7*3E
$GPRMC,144817.001,A,2003.9159,S,06944.2572,W,28.82,169.76,010511,,,A*5C
$GPGGA,144818.000,2003.9237,S,06944.2555,W,1,08,0.9,1093.2,M,35.0,M,,0000*6B
$GPGSA,M,3,29,25,12,21,09,31,14,05,,,,,1.9,0.9,1.7*3E
$GPRMC,144818.000,A,2003.9237,S,06944.2555,W,28.11,169.43,010511,,,A*50
$GPGGA,144819.000,2003.9312,S,06944.2540,W,1,08,0.9,1093.0,M,35.0,M,,0000*6A
$GPGSA,M,3,29,25,12,21,09,31,14,05,,,,,1.9,0.9,1.7*3E
$GPRMC,144819.000,A,2003.9312,S,06944.2540,W,28.01,169.71,010511,,,A*53
$GPGGA,144820.000,2003.9388,S,06944.2526,W,1,08,0.9,1092.7,M,35.0,M,,0000*65
$GPGSA,M,3,29,25,12,21,09,31,14,05,,,,,1.9,0.9,1.7*3E
$GPRMC,144820.000,A,2003.9388,S,06944.2526,W,28.16,171.21,010511,,,A*50
$GPGGA,144821.000,2003.9465,S,06944.2512,W,1,08,0.9,1092.6,M,35.0,M,,0000*66
$GPGSA,M,3,29,25,12,21,09,31,14,05,,,,,1.9,0.9,1.7*3E
$GPGSV,3,1,11,29,54,201,41,25,53,167,40,12,41,105,34,21,39,339,33*77
$GPGSV,3,2,11,09,28,020,30,31,21,220,41,14,17,290,36,05,11,094,34*7C
$GPGSV,3,3,11,02,09,140,35,27,09,025,31,18,00,346,31*42
$GPRMC,144821.000,A,2003.9465,S,06944.2512,W,27.85,171.50,010511,,,A*51
$GPGGA,144822.000,2003.9543,S,06944.2498,W,1,08,0.9,1092.6,M,35.0,M,,0000*63
$GPGSA,M,3,29,25,12,21,09,31,14,05,,,,,1.9,0.9,1.7*3E
$GPRMC,144822.000,A,2003.9543,S,06944.2498,W,27.67,171.49,010511,,,A*50
$GPGGA,144823.000,2003.9618,S,06944.2485,W,1,08,0.9,1092.4,M,35.0,M,,0000*61
$GPGSA,M,3,29,25,12,21,09,31,14,05,,,,,1.9,0.9,1.7*3E
$GPRMC,144823.000,A,2003.9618,S,06944.2485,W,27.61,171.31,010511,,,A*59
$GPGGA,144824.000,2003.9696,S,06944.2469,W,1,08,0.9,1092.0,M,35.0,M,,0000*66
$GPGSA,M,3,29,25,12,21,09,31,14,05,,,,,1.9,0.9,1.7*3E
$GPRMC,144824.000,A,2003.9696,S,06944.2469,W,28.24,170.68,010511,,,A*59
$GPGGA,144825.000,2003.9773,S,06944.2457,W,1,08,0.9,1091.6,M,35.0,M,,0000*65
$GPGSA,M,3,29,25,12,21,09,31,14,05,,,,,1.9,0.9,1.7*3E
$GPRMC,144825.000,A,2003.9773,S,06944.2457,W,27.52,172.85,010511,,,A*50
$GPGGA,144826.002,2003.9854,S,06944.2443,W,1,07,1.1,1091.3,M,35.0,M,,0000*68
$GPGSA,M,3,29,25,12,21,09,14,05,,,,,,2.2,1.1,2.0*39
$GPGSV,3,1,11,29,54,201,40,25,53,167,41,12,41,105,34,21,39,339,34*70
$GPGSV,3,2,11,09,28,020,30,31,21,220,,14,17,290,32,05,11,094,31*78
$GPGSV,3,3,11,02,09,140,31,27,09,025,29,18,00,346,31*4F
$GPRMC,144826.002,A,2003.9854,S,06944.2443,W,29.06,171.38,010511,,,A*54
$GPGGA,144827.000,2003.9929,S,06944.2431,W,1,08,0.9,1091.4,M,35.0,M,,0000*64
$GPGSA,M,3,29,25,12,21,09,31,14,05,,,,,1.9,0.9,1.7*3E
$GPRMC,144827.000,A,2003.9929,S,06944.2431,W,28.21,170.16,010511,,,A*50
$GPGGA,144828.001,2004.0005,S,06944.2417,W,1,08,0.9,1091.3,M,35.0,M,,0000*60
$GPGSA,M,3,29,25,12,21,09,31,14,05,,,,,1.9,0.9,1.7*3E
$GPRMC,144828.001,A,2004.0005,S,06944.2417,W,28.22,170.38,010511,,,A*5C
$GPGGA,144829.000,2004.0082,S,06944.2401,W,1,08,0.9,1091.3,M,35.0,M,,0000*68
$GPGSA,M,3,29,25,12,21,09,31,14,05,,,,,1.9,0.9,1.7*3E
$GPRMC,144829.000,A,2004.0082,S,06944.2401,W,28.42,170.03,010511,,,A*5A
$GPGGA,144830.000,2004.0158,S,06944.2386,W,1,08,0.9,1091.0,M,35.0,M,,0000*6D
$GPGSA,M,3,29,25,12,21,09,31,14,05,,,,,1.9,0.9,1.7*3E
$GPRMC,144830.000,A,2004.0158,S,06944.2386,W,28.17,170.47,010511,,,A*5C
$GPGGA,144831.000,2004.0236,S,06944.2373,W,1,08,0.9,1091.2,M,35.0,M,,0000*6F
$GPGSA,M,3,29,25,12,21,09,31,14,05,,,,,1.9,0.9,1.7*3E
$GPGSV,3,1,11,29,54,201,41,25,53,167,41,12,41,105,36,21,39,339,34*73
$GPGSV,3,2,11,09,28,020,33,31,21,220,41,14,17,290,34,05,11,094,34*7D
$GPGSV,3,3,11,02,09,140,36,27,09,025,31,18,00,346,31*41
$GPRMC,144831.000,A,2004.0236,S,06944.2373,W,28.34,171.35,010511,,,A*59
$GPGGA,144832.000,2004.0314,S,06944.2358,W,1,08,0.9,1090.9,M,35.0,M,,0000*6E
$GPGSA,M,3,29,25,12,21,09,31,14,05,,,,,1.9,0.9,1.7*3E
$GPRMC,144832.000,A,2004.0314,S,06944.2358,W,28.20,170.67,010511,,,A*51
$GPGGA,144833.000,2004.0390,S,06944.2343,W,1,08,0.9,1090.6,M,35.0,M,,0000*66
$GPGSA,M,3,29,25,12,21,09,31,14,05,,,,,1.9,0.9,1.7*3E
$GPRMC,144833.000,A,2004.0390,S,06944.2343,W,28.40,170.74,010511,,,A*52
$GPGGA,144834.000,2004.0465,S,06944.2328,W,1,08,0.9,1091.0,M,35.0,M,,0000*66
$GPGSA,M,3,29,25,12,21,09,31,14,05,,,,,1.9,0.9,1.7*3E
$GPRMC,144834.000,A,2004.0465,S,06944.2328,W,28.62,169.49,010511,,,A*53
$GPGGA,144834.996,2004.0545,S,06944.2313,W,1,08,0.9,1091.0,M,35.0,M,,0000*6B
$GPGSA,M,3,29,25,12,21,09,31,14,05,,,,,1.9,0.9,1.7*3E
$GPRMC,144834.996,A,2004.0545,S,06944.2313,W,28.83,170.21,010511,,,A*57
$GPGGA,144836.004,2004.0624,S,06944.2300,W,1,08,0.9,1091.4,M,35.0,M,,0000*69
$GPGSA,M,3,29,25,12,21,09,31,14,05,,,,,1.9,0.9,1.7*3E
$GPGSV,3,1,11,29,54,201,41,25,53,167,42,12,41,105,37,21,39,339,35*70
$GPGSV,3,2,11,09,28,020,36,31,21,220,41,14,17,290,33,05,11,094,31*7A
$GPGSV,3,3,11,02,09,140,35,27,09,025,29,18,00,346,30*4A
$GPRMC,144836.004,A,2004.0624,S,06944.2300,W,28.72,170.58,010511,,,A*51
$GPGGA,144836.995,2004.0701,S,06944.2284,W,1,08,0.9,1091.2,M,35.0,M,,0000*65
$GPGSA,M,3,29,25,12,21,09,31,14,05,,,,,1.9,0.9,1.7*3E
$GPRMC,144836.995,A,2004.0701,S,06944.2284,W,28.54,170.51,010511,,,A*56
$GPGGA,144838.001,2004.0779,S,06944.2271,W,1,08,0.9,1091.5,M,35.0,M,,0000*6D
$GPGSA,M,3,29,25,12,21,09,31,14,05,,,,,1.9,0.9,1.7*3E
$GPRMC,144838.001,A,2004.0779,S,06944.2271,W,28.24,171.21,010511,,,A*58
$GPGGA,144839.000,2004.0856,S,06944.2255,W,1,08,0.9,1091.0,M,35.0,M,,0000*6C
$GPGSA,M,3,29,25,12,21,09,31,14,05,,,,,1.9,0.9,1.7*3E
$GPRMC,144839.000,A,2004.0856,S,06944.2255,W,28.53,170.82,010511,,,A*54
$GPGGA,144840.000,2004.0933,S,06944.2245,W,1,08,0.9,1092.1,M,35.0,M,,0000*63
$GPGSA,M,3,29,25,12,21,09,31,14,05,,,,,1.9,0.9,1.7*3E
$GPRMC,144840.000,A,2004.0933,S,06944.2245,W,28.88,170.15,010511,,,A*51
$GPGGA,144841.000,2004.1014,S,06944.2230,W,1,08,0.9,1092.1,M,35.0,M,,0000*6D
$GPGSA,M,3,29,25,12,21,09,31,14,05,,,,,1.9,0.9,1.7*3E
$GPGSV,3,1,11,29,54,201,41,25,53,167,40,12,41,105,35,21,39,339,33*76
$GPGSV,3,2,11,09,28,020,35,31,21,220,41,14,17,290,34,05,11,094,32*7D
$GPGSV,3,3,11,02,09,140,33,27,09,025,29,18,00,346,29*44
$GPRMC,144841.000,A,2004.1014,S,06944.2230,W,29.12,170.82,010511,,,A*53
$GPGGA,144842.000,2004.1093,S,06944.2213,W,1,08,0.9,1091.9,M,35.0,M,,0000*6B
$GPGSA,M,3,29,25,12,21,09,31,14,05,,,,,1.9,0.9,1.7*3E
$GPRMC,144842.000,A,2004.1093,S,06944.2213,W,29.35,169.62,010511,,,A*5D
$GPGGA,144843.000,2004.1172,S,06944.2195,W,1,08,0.9,1091.3,M,35.0,M,,0000*63
$GPGSA,M,3,29,25,12,21,09,31,14,05,,,,,1.9,0.9,1.7*3E
$GPRMC,144843.000,A,2004.1172,S,06944.2195,W,28.83,170.65,010511,,,A*5C
$GPGGA,144843.999,2004.1250,S,06944.2181,W,1,08,0.9,1091.0,M,35.0,M,,0000*6F
$GPGSA,M,3,29,25,12,21,09,31,14,05,,,,,1.9,0.9,1.7*3E
$GPRMC,144843.999,A,2004.1250,S,06944.2181,W,29.15,170.44,010511,,,A*5E
$GPGGA,144844.999,2004.1326,S,06944.2165,W,1,08,0.9,1090.3,M,35.0,M,,0000*60
$GPGSA,M,3,29,25,12,21,09,31,14,05,,,,,1.9,0.9,1.7*3E
$GPRMC,144844.999,A,2004.1326,S,06944.2165,W,28.30,170.52,010511,,,A*52
$GPGGA,144846.001,2004.1404,S,06944.2151,W,1,08,0.9,1089.9,M,35.0,M,,0000*68
$GPGSA,M,3,29,25,12,21,09,31,14,05,,,,,1.9,0.9,1.7*3E
$GPGSV,3,1,11,29,54,201,41,25,53,167,41,12,41,105,35,21,39,339,33*77
$GPGSV,3,2,11,09,28,020,33,31,21,220,41,14,17,290,35,05,11,094,31*79
$GPGSV,3,3,11,02,09,140,33,27,09,025,30,18,00,346,29*4C
$GPRMC,144846.001,A,2004.1404,S,06944.2151,W,28.18,170.20,010511,,,A*57
$GPGGA,144847.000,2004.1482,S,06944.2137,W,1,08,0.9,1090.2,M,35.0,M,,0000*65
$GPGSA,M,3,29,25,12,21,09,31,14,05,,,,,1.9,0.9,1.7*3E
$GPRMC,144847.000,A,2004.1482,S,06944.2137,W,28.65,170.68,010511,,,A*5F
$GPGGA,144848.000,2004.1560,S,06944.2122,W,1,08,0.9,1090.5,M,35.0,M,,0000*64
$GPGSA,M,3,29,25,12,21,09,31,14,05,,,,,1.9,0.9,1.7*3E
$GPRMC,144848.000,A,2004.1560,S,06944.2122,W,28.71,169.94,010511,,,A*57
$GPGGA,144849.001,2004.1639,S,06944.2105,W,1,08,0.9,1089.5,M,35.0,M,,0000*66
$GPGSA,M,3,29,25,12,21,09,31,14,05,,,,,1.9,0.9,1.7*3E
$GPRMC,144849.001,A,2004.1639,S,06944.2105,W,28.40,170.66,010511,,,A*5A
$GPGGA,144850.000,2004.1717,S,06944.2090,W,1,08,0.9,1089.3,M,35.0,M,,0000*69
$GPGSA,M,3,29,25,12,21,09,31,14,05,,,,,1.9,0.9,1.7*3E
$GPRMC,144850.000,A,2004.1717,S,06944.2090,W,28.51,170.84,010511,,,A*5F
$GPGGA,144851.000,2004.1794,S,06944.2076,W,1,08,0.9,1088.7,M,35.0,M,,0000*6E
$GPGSA,M,3,29,25,12,21,09,31,14,05,,,,,1.9,0.9,1.7*3E
$GPGSV,3,1,11,29,54,201,39,25,53,167,41,12,41,105,33,21,39,339,32*7F
$GPGSV,3,2,11,09,28,020,30,31,21,220,41,14,17,290,35,05,11,094,31*7A
$GPGSV,3,3,11,02,09,140,36,27,09,025,31,18,00,346,28*49
$GPRMC,144851.000,A,2004.1794,S,06944.2076,W,28.73,171.15,010511,,,A*54
$GPGGA,144852.001,2004.1873,S,06944.2062,W,1,08,0.9,1088.1,M,35.0,M,,0000*69
$GPGSA,M,3,29,25,12,21,09,31,14,05,,,,,1.9,0.9,1.7*3E
$GPRMC,144852.001,A,2004.1873,S,06944.2062,W,28.69,171.53,010511,,,A*5C
$GPGGA,144853.000,2004.1953,S,06944.2048,W,1,08,0.9,1088.0,M,35.0,M,,0000*63
$GPGSA,M,3,29,25,12,21,09,31,14,05,,,,,1.9,0.9,1.7*3E
$GPRMC,144853.000,A,2004.1953,S,06944.2048,W,28.83,171.00,010511,,,A*55
$GPGGA,144854.000,2004.2034,S,06944.2035,W,1,08,0.9,1087.4,M,35.0,M,,0000*6E
$GPGSA,M,3,29,25,12,21,09,31,14,05,,,,,1.9,0.9,1.7*3E
$GPRMC,144854.000,A,2004.2034,S,06944.2035,W,29.02,171.27,010511,,,A*5E
$GPGGA,144855.000,2004.2113,S,06944.2021,W,1,08,0.9,1087.4,M,35.0,M,,0000*6E
$GPGSA,M,3,29,25,12,21,09,31,14,05,,,,,1.9,0.9,1.7*3E
$GPRMC,144855.000,A,2004.2113,S,06944.2021,W,29.10,171.57,010511,,,A*5A
$GPGGA,144856.000,2004.2195,S,06944.2010,W,1,08,0.9,1087.3,M,35.0,M,,0000*66
$GPGSA,M,3,29,25,12,21,09,31,14,05,,,,,1.9,0.9,1.7*3E
$GPGSV,3,1,11,29,54,201,41,25,53,167,41,12,41,105,37,21,39,339,34*72
$GPGSV,3,2,11,09,28,020,34,31,21,220,41,14,17,290,35,05,11,094,36*79
$GPGSV,3,3,11,02,09,140,35,27,09,025,33,18,00,346,29*49
$GPRMC,144856.000,A,2004.2195,S,06944.2010,W,29.17,171.91,010511,,,A*58
$GPGGA,144857.000,2004.2275,S,06944.1997,W,1,08,0.9,1087.2,M,35.0,M,,0000*6E
$GPGSA,M,3,29,25,12,21,09,31,14,05,,,,,1.9,0.9,1.7*3E
$GPRMC,144857.000,A,2004.2275,S,06944.1997,W,29.72,170.84,010511,,,A*57
$GPGGA,144858.000,2004.2355,S,06944.1982,W,1,08,0.9,1087.1,M,35.0,M,,0000*65
$GPGSA,M,3,29,25,12,21,09,31,14,05,,,,,1.9,0.9,1.7*3E
$GPRMC,144858.000,A,2004.2355,S,06944.1982,W,29.68,170.23,010511,,,A*59
$GPGGA,144859.002,2004.2436,S,06944.1965,W,1,08,0.9,1087.0,M,35.0,M,,0000*6C
$GPGSA,M,3,29,25,12,21,09,31,14,05,,,,,1.9,0.9,1.7*3E
$GPRMC,144859.002,A,2004.2436,S,06944.1965,W,29.46,170.96,010511,,,A*53
$GPGGA,144859.998,2004.2517,S,06944.1951,W,1,08,0.9,1086.4,M,35.0,M,,0000*66
$GPGSA,M,3,29,25,12,21,09,31,14,05,,,,,1.9,0.9,1.7*3E
$GPRMC,144859.998,A,2004.2517,S,06944.1951,W,28.93,171.77,010511,,,A*5B
$GPGGA,144901.000,2004.2596,S,06944.1939,W,1,08,0.9,1086.0,M,35.0,M,,0000*61
$GPGSA,M,3,29,25,12,21,09,31,14,05,,,,,1.9,0.9,1.7*3E
$GPGSV,3,1,11,29,54,201,41,25,53,167,41,12,41,105,35,21,39,339,33*77
$GPGSV,3,2,11,09,28,020,37,31,21,220,40,14,17,290,32,05,11,094,32*78
$GPGSV,3,3,11,02,09,140,36,27,09,025,31,18,00,346,29*48
$GPRMC,144901.000,A,2004.2596,S,06944.1939,W,28.96,170.84,010511,,,A*50
$GPGGA,144902.000,2004.2676,S,06944.1925,W,1,08,0.9,1085.5,M,35.0,M,,0000*64
$GPGSA,M,3,29,25,12,21,09,31,14,05,,,,,1.9,0.9,1.7*3E
$GPRMC,144902.000,A,2004.2676,S,06944.1925,W,29.71,169.83,010511,,,A*54
$GPGGA,144903.000,2004.2756,S,06944.1907,W,1,06,1.4,1084.9,M,35.0,M,,0000*69
$GPGSA,M,3,29,25,12,21,09,14,,,,,,,3.8,1.4,3.6*35
$GPRMC,144903.000,A,2004.2756,S,06944.1907,W,28.95,170.44,010511,,,A*5E
$GPGGA,144904.003,2004.2837,S,06944.1896,W,1,08,0.9,1084.9,M,35.0,M,,0000*6E
$GPGSA,M,3,29,25,12,21,09,31,14,05,,,,,1.9,0.9,1.7*3E
$GPRMC,144904.003,A,2004.2837,S,06944.1896,W,29.04,170.09,010511,,,A*5B
$GPGGA,144904.999,2004.2916,S,06944.1880,W,1,08,0.9,1085.1,M,35.0,M,,0000*68
$GPGSA,M,3,29,25,12,21,09,31,14,05,,,,,1.9,0.9,1.7*3E
$GPRMC,144904.999,A,2004.2916,S,06944.1880,W,29.07,169.45,010511,,,A*57
$GPGGA,144906.000,2004.2995,S,06944.1865,W,1,08,0.9,1085.9,M,35.0,M,,0000*6B
$GPGSA,M,3,29,25,12,21,09,31,14,05,,,,,1.9,0.9,1.7*3E
$GPGSV,3,1,11,29,53,200,40,25,53,166,40,12,41,104,36,21,40,338,34*7A
$GPGSV,3,2,11,09,27,020,37,31,22,220,41,14,17,290,31,05,11,095,32*77
$GPGSV,3,3,11,02,09,140,36,27,08,025,29,18,00,347,28*40
$GPRMC,144906.000,A,2004.2995,S,06944.1865,W,29.18,169.11,010511,,,A*53
$GPGGA,144907.000,2004.3075,S,06944.1851,W,1,08,0.9,1086.0,M,35.0,M,,0000*61
$GPGSA,M,3,29,25,12,21,09,31,14,05,,,,,1.9,0.9,1.7*3E
$GPRMC,144907.000,A,2004.3075,S,06944.1851,W,28.67,170.39,010511,,,A*58
$GPGGA,144908.000,2004.3158,S,06944.1837,W,1,08,0.9,1086.0,M,35.0,M,,0000*60
$GPGSA,M,3,29,25,12,21,09,31,14,05,,,,,1.9,0.9,1.7*3E
$GPRMC,144908.000,A,2004.3158,S,06944.1837,W,29.03,170.31,010511,,,A*52
$GPGGA,144909.000,2004.3238,S,06944.1822,W,1,08,0.9,1086.1,M,35.0,M,,0000*61
$GPGSA,M,3,29,25,12,21,09,31,14,05,,,,,1.9,0.9,1.7*3E
$GPRMC,144909.000,A,2004.3238,S,06944.1822,W,29.22,170.49,010511,,,A*5E
$GPGGA,144910.000,2004.3319,S,06944.1809,W,1,08,0.9,1086.2,M,35.0,M,,0000*61
$GPGSA,M,3,29,25,12,21,09,31,14,05,,,,,1.9,0.9,1.7*3E
$GPRMC,144910.000,A,2004.3319,S,06944.1809,W,28.84,170.17,010511,,,A*5B
$GPGGA,144910.996,2004.3397,S,06944.1794,W,1,08,0.9,1085.9,M,35.0,M,,0000*62
$GPGSA,M,3,29,25,12,21,09,31,14,05,,,,,1.9,0.9,1.7*3E
$GPGSV,3,1,11,29,53,200,41,25,53,166,41,12,41,104,36,21,40,338,32*7C
$GPGSV,3,2,11,09,27,020,37,31,22,220,41,14,17,290,31,05,11,095,32*77
$GPGSV,3,3,11,02,09,140,35,27,08,025,31,18,00,347,30*43
$GPRMC,144910.996,A,2004.3397,S,06944.1794,W,29.07,169.78,010511,,,A*5B
$GPGGA,144912.004,2004.3477,S,06944.1780,W,1,08,0.9,1086.3,M,35.0,M,,0000*67
$GPGSA,M,3,29,25,12,21,09,31,14,05,,,,,1.9,0.9,1.7*3E
$GPRMC,144912.004,A,2004.3477,S,06944.1780,W,28.81,170.49,010511,,,A*52
$GPGGA,144912.996,2004.3556,S,06944.1763,W,1,08,0.9,1085.8,M,35.0,M,,0000*62
$GPGSA,M,3,29,25,12,21,09,31,14,05,,,,,1.9,0.9,1.7*3E
$GPRMC,144912.996,A,2004.3556,S,06944.1763,W,28.56,169.40,010511,,,A*54
$GPGGA,144914.000,2004.3635,S,06944.1746,W,1,08,0.9,1085.8,M,35.0,M,,0000*63
$GPGSA,M,3,29,25,12,21,09,31,14,05,,,,,1.9,0.9,1.7*3E
$GPRMC,144914.000,A,2004.3635,S,06944.1746,W,28.61,169.59,010511,,,A*59
$GPGGA,144915.004,2004.3714,S,06944.1728,W,1,08,0.9,1085.5,M,35.0,M,,0000*61
$GPGSA,M,3,29,25,12,21,09,31,14,05,,,,,1.9,0.9,1.7*3E
$GPRMC,144915.004,A,2004.3714,S,06944.1728,W,28.93,169.25,010511,,,A*50
$GPGGA,144915.996,2004.3792,S,06944.1713,W,1,08,0.9,1085.5,M,35.0,M,,0000*65
$GPGSA,M,3,29,25,12,21,09,31,14,05,,,,,1.9,0.9,1.7*3E
$GPGSV,3,1,11,29,53,200,41,25,53,166,41,12,41,104,36,21,40,338,33*7D
$GPGSV,3,2,11,09,27,020,36,31,22,220,41,14,17,290,31,05,11,095,29*7C
$GPGSV,3,3,11,02,09,140,35,27,08,025,29,18,00,347,30*4A
$GPRMC,144915.996,A,2004.3792,S,06944.1713,W,28.95,170.30,010511,,,A*5E
$GPGGA,144917.000,2004.3870,S,06944.1698,W,1,08,0.9,1085.3,M,35.0,M,,0000*66
$GPGSA,M,3,29,25,12,21,09,31,14,05,,,,,1.9,0.9,1.7*3E
$GPRMC,144917.000,A,2004.3870,S,06944.1698,W,28.65,170.69,010511,,,A*58
$GPGGA,144918.000,2004.3949,S,06944.1684,W,1,08,0.9,1085.3,M,35.0,M,,0000*6F
$GPGSA,M,3,29,25,12,21,09,31,14,05,,,,,1.9,0.9,1.7*3E
$GPRMC,144918.000,A,2004.3949,S,06944.1684,W,28.53,170.83,010511,,,A*50
$GPGGA,144919.000,2004.4026,S,06944.1669,W,1,08,0.9,1085.8,M,35.0,M,,0000*61
$GPGSA,M,3,29,25,12,21,09,31,14,05,,,,,1.9,0.9,1.7*3E
$GPRMC,144919.000,A,2004.4026,S,06944.1669,W,28.92,170.64,010511,,,A*51
$GPGGA,144920.000,2004.4105,S,06944.1654,W,1,08,0.9,1085.3,M,35.0,M,,0000*6E
$GPGSA,M,3,29,25,12,21,09,31,14,05,,,,,1.9,0.9,1.7*3E
$GPRMC,144920.000,A,2004.4105,S,06944.1654,W,28.60,171.49,010511,,,A*56
$GPGGA,144921.001,2004.4183,S,06944.1640,W,1,08,0.9,1085.3,M,35.0,M,,0000*65
$GPGSA,M,3,29,25,12,21,09,31,14,05,,,,,1.9,0.9,1.7*3E
$GPGSV,3,1,11,29,53,200,41,25,53,166,42,12,41,104,36,21,40,338,32*7F
$GPGSV,3,2,11,09,27,020,36,31,22,220,40,14,17,290,32,05,11,095,31*77
$GPGSV,3,3,11,02,09,140,35,27,08,025,31,18,00,347,30*43
$GPRMC,144921.001,A,2004.4183,S,06944.1640,W,28.88,171.21,010511,,,A*55
$GPGGA,144922.000,2004.4263,S,06944.1626,W,1,08,0.9,1084.8,M,35.0,M,,0000*60
$GPGSA,M,3,29,25,12,21,09,31,14,05,,,,,1.9,0.9,1.7*3E
$GPRMC,144922.000,A,2004.4263,S,06944.1626,W,29.36,170.26,010511,,,A*58
$GPGGA,144923.000,2004.4343,S,06944.1610,W,1,08,0.9,1084.1,M,35.0,M,,0000*6E
$GPGSA,M,3,29,25,12,21,09,31,14,05,,,,,1.9,0.9,1.7*3E
$GPRMC,144923.000,A,2004.4343,S,06944.1610,W,29.06,170.70,010511,,,A*5F
$GPGGA,144924.000,2004.4423,S,06944.1593,W,1,08,0.9,1083.5,M,35.0,M,,0000*63
$GPGSA,M,3,29,25,12,21,09,31,14,05,,,,,1.9,0.9,1.7*3E
$GPRMC,144924.000,A,2004.4423,S,06944.1593,W,29.31,170.37,010511,,,A*56
$GPGGA,144925.000,2004.4503,S,06944.1578,W,1,08,0.9,1082.9,M,35.0,M,,0000*69
$GPGSA,M,3,29,25,12,21,09,31,14,05,,,,,1.9,0.9,1.7*3E
$GPRMC,144925.000,A,2004.4503,S,06944.1578,W,29.00,171.10,010511,,,A*57
$GPGGA,144926.000,2004.4581,S,06944.1564,W,1,08,0.9,1083.1,M,35.0,M,,0000*64
$GPGSA,M,3,29,25,12,21,09,31,14,05,,,,,1.9,0.9,1.7*3E
$GPGSV,3,1,11,29,53,200,41,25,53,166,41,12,41,104,37,21,40,338,34*7B
$GPGSV,3,2,11,09,27,020,36,31,22,220,40,14,17,290,33,05,11,095,31*76
$GPGSV,3,3,11,02,09,140,37,27,08,025,31,18,00,347,30*41
$GPRMC,144926.000,A,2004.4581,S,06944.1564,W,28.79,171.02,010511,,,A*5F
$GPGGA,144927.000,2004.4659,S,06944.1547,W,1,08,0.9,1082.6,M,35.0,M,,0000*64
$GPGSA,M,3,29,25,12,21,09,31,14,05,,,,,1.9,0.9,1.7*3E
$GPRMC,144927.000,A,2004.4659,S,06944.1547,W,29.07,170.21,010511,,,A*51
$GPGGA,144928.000,2004.4739,S,06944.1536,W,1,08,0.9,1082.0,M,35.0,M,,0000*6C
$GPGSA,M,3,29,25,12,21,09,31,14,05,,,,,1.9,0.9,1.7*3E
$GPRMC,144928.000,A,2004.4739,S,06944.1536,W,29.15,172.58,010511,,,A*50
$GPGGA,144929.000,2004.4822,S,06944.1524,W,1,08,0.9,1081.3,M,35.0,M,,0000*6B
$GPGSA,M,3,29,25,12,21,09,31,14,05,,,,,1.9,0.9,1.7*3E
$GPRMC,144929.000,A,2004.4822,S,06944.1524,W,29.02,173.23,010511,,,A*5C
$GPGGA,144930.000,2004.4903,S,06944.1513,W,1,08,0.9,1080.6,M,35.0,M,,0000*61
$GPGSA,M,3,29,25,12,21,09,31,14,05,,,,,1.9,0.9,1.7*3E
$GPRMC,144930.000,A,2004.4903,S,06944.1513,W,29.38,173.84,010511,,,A*56
$GPGGA,144931.000,2004.4982,S,06944.1506,W,1,08,0.9,1081.2,M,35.0,M,,0000*68
$GPGSA,M,3,29,25,12,21,09,31,14,05,,,,,1.9,0.9,1.7*3E
$GPGSV,3,1,11,29,53,200,41,25,53,166,41,12,41,104,38,21,40,338,36*76
$GPGSV,3,2,11,09,27,020,36,31,22,220,40,14,17,290,37,05,11,095,37*74
$GPGSV,3,3,11,02,09,140,37,27,08,025,33,18,00,347,35*46
$GPRMC,144931.000,A,2004.4982,S,06944.1506,W,29.52,173.65,010511,,,A*59
$GPGGA,144932.000,2004.5065,S,06944.1496,W,1,08,0.9,1080.9,M,35.0,M,,0000*68
$GPGSA,M,3,29,25,12,21,09,31,14,05,,,,,1.9,0.9,1.7*3E
$GPRMC,144932.000,A,2004.5065,S,06944.1496,W,29.43,175.21,010511,,,A*55
$GPGGA,144933.000,2004.5146,S,06944.1491,W,1,08,0.9,1081.1,M,35.0,M,,0000*67
$GPGSA,M,3,29,25,12,21,09,31,14,05,,,,,1.9,0.9,1.7*3E
$GPRMC,144933.000,A,2004.5146,S,06944.1491,W,29.33,176.17,010511,,,A*52
$GPGGA,144934.000,2004.5229,S,06944.1487,W,1,08,0.9,1081.2,M,35.0,M,,0000*6E
$GPGSA,M,3,29,25,12,21,09,31,14,05,,,,,1.9,0.9,1.7*3E
$GPRMC,144934.000,A,2004.5229,S,06944.1487,W,29.50,177.02,010511,,,A*58
$GPGGA,144935.000,2004.5311,S,06944.1483,W,1,08,0.9,1080.7,M,35.0,M,,0000*65
$GPGSA,M,3,29,25,12,21,09,31,14,05,,,,,1.9,0.9,1.7*3E
$GPRMC,144935.000,A,2004.5311,S,06944.1483,W,29.22,177.48,010511,,,A*5C
$GPGGA,144936.000,2004.5395,S,06944.1480,W,1,08,0.9,1080.2,M,35.0,M,,0000*6C
$GPGSA,M,3,29,25,12,21,09,31,14,05,,,,,1.9,0.9,1.7*3E
$GPGSV,3,1,11,29,53,200,41,25,53,166,41,12,41,104,38,21,40,338,38*78
$GPGSV,3,2,11,09,27,020,33,31,22,220,41,14,17,290,37,05,11,095,37*70
$GPGSV,3,3,11,02,09,140,35,27,08,025,30,18,00,347,32*40
$GPRMC,144936.000,A,2004.5395,S,06944.1480,W,29.24,178.72,010511,,,A*50
$GPGGA,144937.000,2004.5477,S,06944.1477,W,1,08,0.9,1079.9,M,35.0,M,,0000*63
$GPGSA,M,3,29,25,12,21,09,31,14,05,,,,,1.9,0.9,1.7*3E
$GPRMC,144937.000,A,2004.5477,S,06944.1477,W,29.16,179.46,010511,,,A*55
$GPGGA,144938.000,2004.5559,S,06944.1477,W,1,08,0.9,1080.0,M,35.0,M,,0000*6E
$GPGSA,M,3,29,25,12,21,09,31,14,05,,,,,1.9,0.9,1.7*3E
$GPRMC,144938.000,A,2004.5559,S,06944.1477,W,28.61,180.20,010511,,,A*50
$GPGGA,144939.002,2004.5640,S,06944.1481,W,1,08,0.9,1080.7,M,35.0,M,,0000*68
$GPGSA,M,3,29,25,12,21,09,31,14,05,,,,,1.9,0.9,1.7*3E
$GPRMC,144939.002,A,2004.5640,S,06944.1481,W,28.88,181.33,010511,,,A*55
$GPGGA,144939.998,2004.5718,S,06944.1484,W,1,07,1.0,1080.6,M,35.0,M,,0000*6D
$GPGSA,M,3,29,25,12,21,31,14,05,,,,,,2.0,1.0,1.7*35
$GPRMC,144939.998,A,2004.5718,S,06944.1484,W,28.47,182.09,010511,,,A*5F
$GPGGA,144941.003,2004.5799,S,06944.1488,W,1,08,0.9,1080.8,M,35.0,M,,0000*65
$GPGSA,M,3,29,25,12,21,09,31,14,05,,,,,1.9,0.9,1.7*3E
$GPGSV,3,1,11,29,53,200,40,25,53,166,41,12,41,104,39,21,40,338,40*77
$GPGSV,3,2,11,09,27,020,24,31,22,220,40,14,17,290,32,05,11,095,37*72
$GPGSV,3,3,11,02,09,140,36,27,08,025,20,18,00,347,36*46
$GPRMC,144941.003,A,2004.5799,S,06944.1488,W,28.56,182.73,010511,,,A*53
$GPGGA,144941.997,2004.5878,S,06944.1493,W,1,07,1.0,1080.7,M,35.0,M,,0000*63
$GPGSA,M,3,29,25,12,21,31,14,05,,,,,,2.0,1.0,1.7*35
$GPRMC,144941.997,A,2004.5878,S,06944.1493,W,28.66,185.06,010511,,,A*5B
$GPGGA,144942.998,2004.5957,S,06944.1502,W,1,08,0.9,1081.0,M,35.0,M,,0000*6B
$GPGSA,M,3,29,25,12,21,09,31,14,05,,,,,1.9,0.9,1.7*3E
$GPRMC,144942.998,A,2004.5957,S,06944.1502,W,28.26,184.07,010511,,,A*56
$GPGGA,144944.000,2004.6038,S,06944.1508,W,1,08,0.9,1080.8,M,35.0,M,,0000*65
$GPGSA,M,3,29,25,12,21,09,31,14,05,,,,,1.9,0.9,1.7*3E
$GPRMC,144944.000,A,2004.6038,S,06944.1508,W,28.22,184.79,010511,,,A*5C
$GPGGA,144945.003,2004.6116,S,06944.1518,W,1,08,0.9,1081.3,M,35.0,M,,0000*61
$GPGSA,M,3,29,25,12,21,09,31,14,05,,,,,1.9,0.9,1.7*3E
$GPRMC,144945.003,A,2004.6116,S,06944.1518,W,28.27,186.44,010511,,,A*5B
$GPGGA,144945.997,2004.6193,S,06944.1527,W,1,08,0.9,1081.5,M,35.0,M,,0000*62
$GPGSA,M,3,29,25,12,21,09,31,14,05,,,,,1.9,0.9,1.7*3E
$GPGSV,3,1,11,29,53,200,41,25,53,166,38,12,41,104,39,21,40,338,41*79
$GPGSV,3,2,11,09,27,020,29,31,22,220,40,14,17,290,32,05,11,095,32*7A
$GPGSV,3,3,11,02,09,140,37,27,08,025,,18,00,347,31*42
$GPRMC,144945.997,A,2004.6193,S,06944.1527,W,28.48,185.84,010511,,,A*58
$GPGGA,144947.000,2004.6273,S,06944.1538,W,1,08,0.9,1081.7,M,35.0,M,,0000*66
$GPGSA,M,3,29,25,12,21,09,31,14,05,,,,,1.9,0.9,1.7*3E
$GPRMC,144947.000,A,2004.6273,S,06944.1538,W,28.73,187.45,010511,,,A*59
$GPGGA,144948.005,2004.6353,S,06944.1550,W,1,08,0.9,1081.7,M,35.0,M,,0000*61
$GPGSA,M,3,29,25,12,21,09,31,14,05,,,,,1.9,0.9,1.7*3E
$GPRMC,144948.005,A,2004.6353,S,06944.1550,W,28.69,188.36,010511,,,A*5E
$GPGGA,144948.995,2004.6432,S,06944.1561,W,1,08,0.9,1081.4,M,35.0,M,,0000*60
$GPGSA,M,3,29,25,12,21,09,31,14,05,,,,,1.9,0.9,1.7*3E
$GPRMC,144948.995,A,2004.6432,S,06944.1561,W,28.71,188.51,010511,,,A*54
$GPGGA,144950.001,2004.6513,S,06944.1572,W,1,08,0.9,1081.0,M,35.0,M,,0000*69
$GPGSA,M,3,29,25,12,21,09,31,14,05,,,,,1.9,0.9,1.7*3E
$GPRMC,144950.001,A,2004.6513,S,06944.1572,W,28.80,189.64,010511,,,A*50
$GPGGA,144951.000,2004.6593,S,06944.1589,W,1,08,0.9,1081.1,M,35.0,M,,0000*64
$GPGSA,M,3,29,25,12,21,09,31,14,05,,,,,1.9,0.9,1.7*3E
$GPGSV,3,1,11,29,53,200,40,25,53,166,38,12,41,104,38,21,40,338,39*76
$GPGSV,3,2,11,09,27,020,34,31,22,220,41,14,17,290,37,05,11,095,33*73
$GPGSV,3,3,11,02,09,140,30,27,08,025,29,18,00,347,27*49
$GPRMC,144951.000,A,2004.6593,S,06944.1589,W,29.20,191.22,010511,,,A*5C
$GPGGA,144952.001,2004.6673,S,06944.1608,W,1,08,0.9,1081.5,M,35.0,M,,0000*65
$GPGSA,M,3,29,25,12,21,09,31,14,05,,,,,1.9,0.9,1.7*3E
$GPRMC,144952.001,A,2004.6673,S,06944.1608,W,29.05,192.64,010511,,,A*5F
$GPGGA,144953.000,2004.6753,S,06944.1625,W,1,08,0.9,1081.3,M,35.0,M,,0000*6F
$GPGSA,M,3,29,25,12,21,09,31,14,05,,,,,1.9,0.9,1.7*3E
$GPRMC,144953.000,A,2004.6753,S,06944.1625,W,29.19,192.14,010511,,,A*59
$GPGGA,144954.000,2004.6832,S,06944.1644,W,1,08,0.9,1080.4,M,35.0,M,,0000*61
$GPGSA,M,3,29,25,12,21,09,31,14,05,,,,,1.9,0.9,1.7*3E
$GPRMC,144954.000,A,2004.6832,S,06944.1644,W,29.08,192.69,010511,,,A*5B
$GPGGA,144954.998,2004.6912,S,06944.1662,W,1,08,0.9,1079.5,M,35.0,M,,0000*69
$GPGSA,M,3,29,25,12,21,09,31,14,05,,,,,1.9,0.9,1.7*3E
$GPRMC,144954.998,A,2004.6912,S,06944.1662,W,28.99,193.34,010511,,,A*54
$GPGGA,144956.002,2004.6991,S,06944.1680,W,1,08,0.9,1079.6,M,35.0,M,,0000*65
$GPGSA,M,3,29,25,12,21,09,31,14,05,,,,,1.9,0.9,1.7*3E
$GPGSV,3,1,11,29,53,200,40,25,53,166,38,12,41,104,37,21,40,338,41*76
$GPGSV,3,2,11,09,27,020,32,31,22,220,41,14,17,290,39,05,11,095,36*7E
$GPGSV,3,3,11,02,09,140,,27,08,025,28,18,00,347,*4E
$GPRMC,144956.002,A,2004.6991,S,06944.1680,W,28.70,192.45,010511,,,A*5B
$GPGGA,144957.001,2004.7071,S,06944.1699,W,1,08,0.9,1079.4,M,35.0,M,,0000*6B
$GPGSA,M,3,29,25,12,21,09,31,14,05,,,,,1.9,0.9,1.7*3E
$GPRMC,144957.001,A,2004.7071,S,06944.1699,W,28.80,192.84,010511,,,A*55
$GPGGA,144957.999,2004.7149,S,06944.1718,W,1,07,1.2,1079.1,M,35.0,M,,0000*61
$GPGSA,M,3,29,25,12,21,09,31,14,,,,,,2.9,1.2,2.7*31
$GPRMC,144957.999,A,2004.7149,S,06944.1718,W,28.58,193.14,010511,,,A*52
