$GPGGA,170057.000,1731.1313,S,07002.2578,W,1,05,1.6,3121.0,M,34.5,M,,0000*6F
$GPGSA,M,3,21,25,18,30,31,,,,,,,,3.8,1.6,3.4*39
$GPGSV,3,1,11,21,69,187,31,25,50,060,42,31,43,283,34,18,40,022,34*78
$GPGSV,3,2,11,30,30,212,34,29,29,132,07,12,12,048,,14,01,338,*79
$GPGSV,3,3,11,22,20,352,31,16,08,217,21,06,07,248,*4A
$GPRMC,170057.000,A,1731.1313,S,07002.2578,W,20.40,224.67,290411,,,A*50
$GPGGA,170058.000,1731.1362,S,07002.2617,W,1,05,1.6,3120.2,M,34.5,M,,0000*6F
$GPGSA,M,3,21,25,18,30,31,,,,,,,,3.8,1.6,3.4*39
$GPRMC,170058.000,A,1731.1362,S,07002.2617,W,21.90,216.53,290411,,,A*59
$GPGGA,170059.000,1731.1417,S,07002.2655,W,1,05,1.6,3119.5,M,34.5,M,,0000*60
$GPGSA,M,3,21,25,18,30,31,,,,,,,,3.8,1.6,3.4*39
$GPRMC,170059.000,A,1731.1417,S,07002.2655,W,23.12,213.93,290411,,,A*5A
$GPGGA,170059.999,1731.1471,S,07002.2694,W,1,05,1.6,3119.2,M,34.5,M,,0000*63
$GPGSA,M,3,21,25,31,18,30,,,,,,,,3.8,1.6,3.4*39
$GPRMC,170059.999,A,1731.1471,S,07002.2694,W,23.84,213.95,290411,,,A*57
$GPGGA,170101.002,1731.1527,S,07002.2731,W,1,05,1.6,3118.7,M,34.5,M,,0000*6C
$GPGSA,M,3,21,25,31,18,30,,,,,,,,3.8,1.6,3.4*39
$GPRMC,170101.002,A,1731.1527,S,07002.2731,W,23.50,211.83,290411,,,A*50
$GPGGA,170102.002,1731.1581,S,07002.2763,W,1,04,3.9,3117.9,M,34.5,M,,0000*69
$GPGSA,M,3,21,25,18,30,,,,,,,,,5.6,3.9,4.0*3D
$GPGSV,3,1,11,21,69,187,31,25,50,060,39,31,43,283,,18,40,022,31*76
$GPGSV,3,2,11,30,30,212,32,29,29,132,,22,20,352,28,12,12,048,*78
$GPGSV,3,3,11,16,08,217,,06,07,248,,14,01,338,*41
$GPRMC,170102.002,A,1731.1581,S,07002.2763,W,21.95,208.34,290411,,,A*57
$GPGGA,170102.999,1731.1636,S,07002.2788,W,1,04,3.9,3117.0,M,34.5,M,,0000*61
$GPGSA,M,3,21,25,18,30,,,,,,,,,5.6,3.9,4.0*3D
$GPRMC,170102.999,A,1731.1636,S,07002.2788,W,20.84,203.11,290411,,,A*5B
$GPGGA,170104.001,1731.1685,S,07002.2810,W,1,05,1.6,3115.6,M,34.5,M,,0000*61
$GPGSA,M,3,21,25,31,18,30,,,,,,,,3.8,1.6,3.4*39
$GPRMC,170104.001,A,1731.1685,S,07002.2810,W,18.80,201.59,290411,,,A*52
$GPGGA,170105.000,1731.1734,S,07002.2827,W,1,04,3.9,3115.2,M,34.5,M,,0000*66
$GPGSA,M,3,21,25,18,30,,,,,,,,,5.6,3.9,4.0*3D
$GPRMC,170105.000,A,1731.1734,S,07002.2827,W,18.88,199.65,290411,,,A*58
$GPGGA,170106.002,1731.1787,S,07002.2834,W,1,05,1.6,3111.6,M,34.5,M,,0000*61
$GPGSA,M,3,21,25,18,30,29,,,,,,,,3.3,1.6,2.9*37
$GPRMC,170106.002,A,1731.1787,S,07002.2834,W,18.09,194.67,290411,,,A*55
$GPGGA,170107.018,1731.1836,S,07002.2848,W,0,00,,3110.9,M,34.5,M,,0000*46
$GPGSA,M,1,,,,,,,,,,,,,,,*12
$GPGSV,3,1,11,21,68,187,,25,50,060,,31,43,283,,18,41,022,*7C
$GPGSV,3,2,11,30,30,212,,29,29,132,,12,12,047,,14,01,339,*77
$GPGSV,3,3,11,22,20,352,,16,08,217,,06,07,248,*4B
$GPRMC,170107.018,V,1731.1836,S,07002.2848,W,,,290411,,,N*74
$GPGGA,170107.716,1731.1870,S,07002.2857,W,0,00,,3110.4,M,34.5,M,,0000*4E
$GPGSA,M,1,,,,,,,,,,,,,,,*12
$GPRMC,170107.716,V,1731.1870,S,07002.2857,W,,,290411,,,N*71
$GPGGA,170108.000,1731.1884,S,07002.2861,W,0,00,,3110.1,M,34.5,M,,0000*4A
$GPGSA,M,1,,,,,,,,,,,,,,,*12
$GPRMC,170108.000,V,1731.1884,S,07002.2861,W,,,290411,,,N*70
$GPGGA,170109.000,1731.1933,S,07002.2874,W,0,00,,3109.4,M,34.5,M,,0000*4F
$GPGSA,M,1,,,,,,,,,,,,,,,*12
$GPRMC,170109.000,V,1731.1933,S,07002.2874,W,,,290411,,,N*78
$GPGGA,170110.000,1731.1997,S,07002.2901,W,1,04,3.9,3109.1,M,34.5,M,,0000*6E
$GPGSA,M,3,21,25,30,18,,,,,,,,,5.6,3.9,4.0*3D
$GPRMC,170110.000,A,1731.1997,S,07002.2901,W,22.16,198.19,290411,,,A*5A
$GPGGA,170111.000,1731.2071,S,07002.2887,W,1,05,1.6,3108.5,M,34.5,M,,0000*6B
$GPGSA,M,3,31,21,25,30,18,,,,,,,,3.8,1.6,3.4*39
$GPRMC,170111.000,A,1731.2071,S,07002.2887,W,22.74,202.13,290411,,,A*58
$GPGGA,170112.000,1731.2143,S,07002.2889,W,1,05,1.6,3106.6,M,34.5,M,,0000*6B
$GPGSA,M,3,31,21,25,30,18,,,,,,,,3.8,1.6,3.4*39
$GPGSV,3,1,11,21,68,187,33,25,50,060,40,31,43,283,30,18,41,022,39*71
$GPGSV,3,2,11,30,30,212,36,29,29,132,,12,12,047,,14,01,339,*72
$GPGSV,3,3,11,22,20,352,,16,08,217,,06,07,248,*4B
$GPRMC,170112.000,A,1731.2143,S,07002.2889,W,23.80,208.20,290411,,,A*55
$GPGGA,170113.000,1731.2207,S,07002.2914,W,1,05,1.6,3105.5,M,34.5,M,,0000*6C
$GPGSA,M,3,31,21,25,30,18,,,,,,,,3.8,1.6,3.4*39
$GPRMC,170113.000,A,1731.2207,S,07002.2914,W,23.86,210.55,290411,,,A*5F
$GPGGA,170114.000,1731.2263,S,07002.2949,W,1,05,1.6,3105.6,M,34.5,M,,0000*62
$GPGSA,M,3,31,21,25,30,18,,,,,,,,3.8,1.6,3.4*39
$GPRMC,170114.000,A,1731.2263,S,07002.2949,W,22.24,210.08,290411,,,A*53
$GPGGA,170115.000,1731.2319,S,07002.2972,W,1,05,1.6,3104.7,M,34.5,M,,0000*67
$GPGSA,M,3,31,21,25,30,18,,,,,,,,3.8,1.6,3.4*39
$GPRMC,170115.000,A,1731.2319,S,07002.2972,W,20.47,202.01,290411,,,A*5B
$GPGGA,170116.000,1731.2377,S,07002.2979,W,1,05,1.6,3103.3,M,34.5,M,,0000*64
$GPGSA,M,3,31,21,25,30,18,,,,,,,,3.8,1.6,3.4*39
$GPRMC,170116.000,A,1731.2377,S,07002.2979,W,19.38,192.46,290411,,,A*50
$GPGGA,170117.000,1731.2433,S,07002.2981,W,1,05,1.6,3101.1,M,34.5,M,,0000*65
$GPGSA,M,3,31,21,25,30,18,,,,,,,,3.8,1.6,3.4*39
$GPGSV,3,1,11,21,68,187,33,25,50,060,31,31,43,283,30,18,41,022,42*7B
$GPGSV,3,2,11,30,30,212,27,29,29,132,,12,12,047,,14,01,339,*72
$GPGSV,3,3,11,22,20,352,22,16,08,217,23,06,07,248,29*41
$GPRMC,170117.000,A,1731.2433,S,07002.2981,W,17.85,181.31,290411,,,A*5B
$GPGGA,170118.000,1731.2482,S,07002.2981,W,1,05,1.6,3100.4,M,34.5,M,,0000*64
$GPGSA,M,3,31,21,25,30,18,,,,,,,,3.8,1.6,3.4*39
$GPRMC,170118.000,A,1731.2482,S,07002.2981,W,17.58,179.99,290411,,,A*5B
$GPGGA,170119.000,1731.2530,S,07002.2969,W,1,05,1.6,3099.8,M,34.5,M,,0000*66
$GPGSA,M,3,31,21,25,30,18,,,,,,,,3.8,1.6,3.4*39
$GPRMC,170119.000,A,1731.2530,S,07002.2969,W,16.95,172.37,290411,,,A*5B
$GPGGA,170120.000,1731.2570,S,07002.2917,W,1,06,1.2,3100.2,M,34.5,M,,0000*6D
$GPGSA,M,3,31,21,25,30,18,29,,,,,,,3.1,1.2,2.9*33
$GPRMC,170120.000,A,1731.2570,S,07002.2917,W,17.57,145.22,290411,,,A*53
$GPGGA,170121.010,1731.2610,S,07002.2871,W,1,05,1.7,3099.5,M,34.5,M,,0000*69
$GPGSA,M,3,25,31,18,30,29,,,,,,,,7.5,1.7,7.3*3A
$GPRMC,170121.010,A,1731.2610,S,07002.2871,W,20.14,136.72,290411,,,A*55
$GPGGA,170121.990,1731.2647,S,07002.2827,W,1,06,1.2,3097.8,M,34.5,M,,0000*6C
$GPGSA,M,3,21,25,31,18,30,29,,,,,,,3.1,1.2,2.9*33
$GPGSV,3,1,11,21,68,187,31,25,50,060,37,31,43,283,38,18,41,022,35*77
$GPGSV,3,2,11,30,30,212,36,29,29,132,25,22,20,352,,12,12,047,*7E
$GPGSV,3,3,11,16,08,217,30,06,07,248,31,14,01,339,*41
$GPRMC,170121.990,A,1731.2647,S,07002.2827,W,18.73,135.21,290411,,,A*5A
$GPGGA,170123.001,1731.2663,S,07002.2766,W,1,06,1.2,3095.8,M,34.5,M,,0000*61
$GPGSA,M,3,21,25,31,18,30,29,,,,,,,3.1,1.2,2.9*33
$GPRMC,170123.001,A,1731.2663,S,07002.2766,W,16.37,123.38,290411,,,A*54
$GPGGA,170124.002,1731.2684,S,07002.2732,W,1,06,1.2,3095.0,M,34.5,M,,0000*65
$GPGSA,M,3,21,25,31,18,30,29,,,,,,,3.1,1.2,2.9*33
$GPRMC,170124.002,A,1731.2684,S,07002.2732,W,14.73,121.19,290411,,,A*5B
$GPGGA,170124.996,1731.2674,S,07002.2678,W,1,05,1.4,3093.5,M,34.5,M,,0000*67
$GPGSA,M,3,21,25,31,18,29,,,,,,,,3.5,1.4,3.2*38
$GPRMC,170124.996,A,1731.2674,S,07002.2678,W,14.87,104.95,290411,,,A*57
$GPGGA,170126.004,1731.2648,S,07002.2609,W,1,06,1.2,3093.3,M,34.5,M,,0000*6D
$GPGSA,M,3,21,25,31,18,30,29,,,,,,,3.1,1.2,2.9*33
$GPRMC,170126.004,A,1731.2648,S,07002.2609,W,17.69,89.41,290411,,,A*60
$GPGGA,170127.001,1731.2649,S,07002.2557,W,1,05,1.4,3093.0,M,34.5,M,,0000*66
$GPGSA,M,3,21,25,31,18,29,,,,,,,,3.5,1.4,3.2*38
$GPGSV,3,1,11,21,68,187,32,25,50,060,32,31,43,283,37,18,41,022,24*7E
$GPGSV,3,2,11,30,30,212,,29,29,132,36,22,20,352,,12,12,047,*79
$GPGSV,3,3,11,16,08,217,,06,07,248,,14,01,339,*40
$GPRMC,170127.001,A,1731.2649,S,07002.2557,W,17.24,93.64,290411,,,A*68
$GPGGA,170127.997,1731.2632,S,07002.2496,W,1,06,1.2,3093.2,M,34.5,M,,0000*67
$GPGSA,M,3,21,25,31,18,30,29,,,,,,,3.1,1.2,2.9*33
$GPRMC,170127.997,A,1731.2632,S,07002.2496,W,19.21,94.00,290411,,,A*60
$GPGGA,170129.001,1731.2644,S,07002.2442,W,1,05,1.4,3091.3,M,34.5,M,,0000*61
$GPGSA,M,3,21,25,31,18,29,,,,,,,,3.5,1.4,3.2*38
$GPRMC,170129.001,A,1731.2644,S,07002.2442,W,18.58,97.98,290411,,,A*6D
$GPGGA,170130.006,1731.2652,S,07002.2388,W,0,00,,3090.5,M,34.5,M,,0000*40
$GPGSA,M,1,,,,,,,,,,,,,,,*12
$GPRMC,170130.006,V,1731.2652,S,07002.2388,W,,,290411,,,N*77
$GPGGA,170131.000,1731.2659,S,07002.2335,W,0,00,,3089.8,M,34.5,M,,0000*4F
$GPGSA,M,1,,,,,,,,,,,,,,,*12
$GPRMC,170131.000,V,1731.2659,S,07002.2335,W,,,290411,,,N*7D
$GPGGA,170132.000,1731.2666,S,07002.2282,W,0,00,,3089.0,M,34.5,M,,0000*45
$GPGSA,M,1,,,,,,,,,,,,,,,*12
$GPGSV,3,1,11,21,68,187,35,25,50,059,,31,42,283,,18,41,023,39*7A
$GPGSV,3,2,11,30,31,212,35,29,29,132,,12,12,047,,14,01,339,*70
$GPGSV,3,3,11,22,20,353,,16,08,216,37,06,07,248,32*4E
$GPRMC,170132.000,V,1731.2666,S,07002.2282,W,,,290411,,,N*7F
$GPGGA,170133.000,1731.2851,S,07002.2297,W,1,06,1.2,3089.7,M,34.5,M,,0000*67
$GPGSA,M,3,21,18,30,29,25,31,,,,,,,3.1,1.2,2.9*33
$GPRMC,170133.000,A,1731.2851,S,07002.2297,W,22.82,144.45,290411,,,A*52
$GPGGA,170134.000,1731.2916,S,07002.2278,W,1,06,1.2,3091.7,M,34.5,M,,0000*6A
$GPGSA,M,3,21,18,30,29,25,31,,,,,,,3.1,1.2,2.9*33
$GPRMC,170134.000,A,1731.2916,S,07002.2278,W,23.02,160.31,290411,,,A*5A
$GPGGA,170135.000,1731.2976,S,07002.2260,W,1,06,1.2,3091.2,M,34.5,M,,0000*61
$GPGSA,M,3,21,18,30,29,25,31,,,,,,,3.1,1.2,2.9*33
$GPRMC,170135.000,A,1731.2976,S,07002.2260,W,22.05,164.40,290411,,,A*50
$GPGGA,170136.000,1731.3038,S,07002.2246,W,1,06,1.2,3088.6,M,34.5,M,,0000*68
$GPGSA,M,3,21,18,30,29,25,31,,,,,,,3.1,1.2,2.9*33
$GPRMC,170136.000,A,1731.3038,S,07002.2246,W,21.55,167.92,290411,,,A*5F
$GPGGA,170137.000,1731.3093,S,07002.2245,W,1,05,1.6,3088.5,M,34.5,M,,0000*6F
$GPGSA,M,3,21,18,30,25,31,,,,,,,,3.8,1.6,3.5*38
$GPGSV,3,1,11,21,68,187,35,25,50,059,28,31,42,283,35,18,41,023,40*78
$GPGSV,3,2,11,30,31,212,34,29,29,132,,12,12,047,,14,01,339,*71
$GPGSV,3,3,11,22,20,353,24,16,08,216,29,06,07,248,26*42
$GPRMC,170137.000,A,1731.3093,S,07002.2245,W,21.02,176.87,290411,,,A*5A
$GPGGA,170138.000,1731.3147,S,07002.2259,W,1,06,1.2,3088.7,M,34.5,M,,0000*60
$GPGSA,M,3,21,18,30,29,25,31,,,,,,,3.1,1.2,2.9*33
$GPRMC,170138.000,A,1731.3147,S,07002.2259,W,20.91,189.01,290411,,,A*55
$GPGGA,170139.000,1731.3203,S,07002.2280,W,1,06,1.2,3088.0,M,34.5,M,,0000*61
$GPGSA,M,3,21,18,30,29,25,31,,,,,,,3.1,1.2,2.9*33
$GPRMC,170139.000,A,1731.3203,S,07002.2280,W,22.40,198.83,290411,,,A*57
$GPGGA,170140.000,1731.3256,S,07002.2316,W,1,06,1.2,3088.1,M,34.5,M,,0000*60
$GPGSA,M,3,21,18,30,29,25,31,,,,,,,3.1,1.2,2.9*33
$GPRMC,170140.000,A,1731.3256,S,07002.2316,W,22.82,206.72,290411,,,A*53
$GPGGA,170141.000,1731.3298,S,07002.2368,W,1,06,1.2,3089.5,M,34.5,M,,0000*6F
$GPGSA,M,3,21,18,30,29,25,31,,,,,,,3.1,1.2,2.9*33
$GPRMC,170141.000,A,1731.3298,S,07002.2368,W,22.67,217.91,290411,,,A*5F
$GPGGA,170142.000,1731.3336,S,07002.2428,W,1,06,1.2,3088.2,M,34.5,M,,0000*6C
$GPGSA,M,3,21,18,30,29,25,31,,,,,,,3.1,1.2,2.9*33
$GPGSV,3,1,11,21,68,187,34,25,50,059,42,31,42,283,34,18,41,023,38*7B
$GPGSV,3,2,11,30,31,212,24,29,29,132,16,12,12,047,,14,01,339,*77
$GPGSV,3,3,11,22,20,353,32,16,08,216,18,06,07,248,29*48
$GPRMC,170142.000,A,1731.3336,S,07002.2428,W,23.32,229.48,290411,,,A*52
$GPGGA,170143.000,1731.3379,S,07002.2485,W,1,06,1.2,3085.7,M,34.5,M,,0000*69
$GPGSA,M,3,21,18,30,29,25,31,,,,,,,3.1,1.2,2.9*33
$GPRMC,170143.000,A,1731.3379,S,07002.2485,W,24.00,230.33,290411,,,A*5D
$GPGGA,170144.000,1731.3417,S,07002.2544,W,1,06,1.2,3085.3,M,34.5,M,,0000*69
$GPGSA,M,3,21,18,30,29,25,31,,,,,,,3.1,1.2,2.9*33
$GPRMC,170144.000,A,1731.3417,S,07002.2544,W,23.76,230.67,290411,,,A*5E
$GPGGA,170145.000,1731.3458,S,07002.2597,W,1,05,1.6,3084.4,M,34.5,M,,0000*6C
$GPGSA,M,3,21,25,31,18,30,,,,,,,,3.8,1.6,3.5*38
$GPRMC,170145.000,A,1731.3458,S,07002.2597,W,22.94,230.95,290411,,,A*5A
$GPGGA,170146.000,1731.3498,S,07002.2648,W,1,05,1.6,3083.9,M,34.5,M,,0000*68
$GPGSA,M,3,21,25,31,18,30,,,,,,,,3.8,1.6,3.5*38
$GPRMC,170146.000,A,1731.3498,S,07002.2648,W,22.46,227.90,290411,,,A*58
$GPGGA,170147.000,1731.3541,S,07002.2695,W,1,06,1.2,3083.9,M,34.5,M,,0000*6B
$GPGSA,M,3,21,25,31,18,30,29,,,,,,,3.1,1.2,2.9*33
$GPGSV,3,1,11,21,68,187,28,25,50,059,40,31,42,283,33,18,41,023,31*7A
$GPGSV,3,2,11,30,31,212,24,29,29,132,29,22,20,353,32,12,12,047,*70
$GPGSV,3,3,11,16,08,216,,06,07,248,,14,01,339,*41
$GPRMC,170147.000,A,1731.3541,S,07002.2695,W,21.40,226.29,290411,,,A*5A
$GPGGA,170148.002,1731.3579,S,07002.2739,W,1,06,1.2,3083.4,M,34.5,M,,0000*67
$GPGSA,M,3,21,25,31,18,30,29,,,,,,,3.1,1.2,2.9*33
$GPRMC,170148.002,A,1731.3579,S,07002.2739,W,19.08,225.35,290411,,,A*52
$GPGGA,170148.997,1731.3617,S,07002.2774,W,1,05,1.6,3083.0,M,34.5,M,,0000*63
$GPGSA,M,3,21,25,31,18,30,,,,,,,,3.8,1.6,3.5*38
$GPRMC,170148.997,A,1731.3617,S,07002.2774,W,16.88,222.50,290411,,,A*56
$GPGGA,170150.002,1731.3648,S,07002.2803,W,1,06,1.2,3081.8,M,34.5,M,,0000*67
$GPGSA,M,3,21,25,31,18,30,29,,,,,,,3.1,1.2,2.9*33
$GPRMC,170150.002,A,1731.3648,S,07002.2803,W,14.65,221.89,290411,,,A*59
$GPGGA,170150.999,1731.3679,S,07002.2831,W,1,05,1.6,3082.2,M,34.5,M,,0000*61
$GPGSA,M,3,21,25,31,18,30,,,,,,,,3.8,1.6,3.5*38
$GPRMC,170150.999,A,1731.3679,S,07002.2831,W,14.52,219.66,290411,,,A*5F
$GPGGA,170151.998,1731.3713,S,07002.2855,W,1,04,1.8,3082.1,M,34.5,M,,0000*62
$GPGSA,M,3,21,25,31,18,,,,,,,,,2.1,1.8,1.0*3A
$GPGSV,3,1,11,21,68,187,33,25,50,059,32,31,42,283,29,18,41,023,30*7F
$GPGSV,3,2,11,30,31,212,,29,29,132,,22,20,353,30,12,12,047,*7F
$GPGSV,3,3,11,16,08,216,,06,07,248,29,14,01,339,*4A
$GPRMC,170151.998,A,1731.3713,S,07002.2855,W,15.26,215.53,290411,,,A*58
$GPGGA,170153.000,1731.3751,S,07002.2865,W,1,05,1.6,3081.7,M,34.5,M,,0000*67
$GPGSA,M,3,21,25,18,30,29,,,,,,,,3.3,1.6,2.9*37
$GPRMC,170153.000,A,1731.3751,S,07002.2865,W,14.26,206.55,290411,,,A*52
$GPGGA,170154.001,1731.3797,S,07002.2860,W,1,05,1.5,3080.6,M,34.5,M,,0000*6D
$GPGSA,M,3,21,25,31,30,29,,,,,,,,3.5,1.5,3.1*30
$GPRMC,170154.001,A,1731.3797,S,07002.2860,W,13.98,194.51,290411,,,A*55
$GPGGA,170155.000,1731.3854,S,07002.2813,W,1,06,1.2,3078.8,M,34.5,M,,0000*64
$GPGSA,M,3,21,25,31,18,30,29,,,,,,,3.1,1.2,2.9*33
$GPRMC,170155.000,A,1731.3854,S,07002.2813,W,14.98,170.19,290411,,,A*50
$GPGGA,170156.001,1731.3890,S,07002.2797,W,1,05,1.4,3078.0,M,34.5,M,,0000*60
$GPGSA,M,3,21,25,31,18,29,,,,,,,,3.5,1.4,3.2*38
$GPRMC,170156.001,A,1731.3890,S,07002.2797,W,14.39,164.36,290411,,,A*5A
$GPGGA,170157.002,1731.3898,S,07002.2721,W,1,05,1.6,3077.9,M,34.5,M,,0000*63
$GPGSA,M,3,21,25,31,18,30,,,,,,,,3.8,1.6,3.5*38
$GPGSV,3,1,11,21,68,187,31,25,50,059,31,31,42,283,39,18,41,023,27*79
$GPGSV,3,2,11,30,31,212,36,29,29,132,,22,20,353,,12,12,047,*79
$GPGSV,3,3,11,16,08,216,,06,07,248,,14,01,339,*41
$GPRMC,170157.002,A,1731.3898,S,07002.2721,W,14.77,131.47,290411,,,A*51
$GPGGA,170157.997,1731.3901,S,07002.2663,W,1,06,1.2,3077.3,M,34.5,M,,0000*6D
$GPGSA,M,3,21,25,31,18,30,29,,,,,,,3.1,1.2,2.9*33
$GPRMC,170157.997,A,1731.3901,S,07002.2663,W,14.80,116.21,290411,,,A*5F
$GPGGA,170159.000,1731.3868,S,07002.2597,W,1,05,1.4,3075.0,M,34.5,M,,0000*66
$GPGSA,M,3,21,25,31,18,29,,,,,,,,3.5,1.4,3.2*38
$GPRMC,170159.000,A,1731.3868,S,07002.2597,W,16.31,94.06,290411,,,A*66
$GPGGA,170200.000,1731.3858,S,07002.2529,W,1,06,1.2,3073.6,M,34.5,M,,0000*6A
$GPGSA,M,3,21,25,31,18,30,29,,,,,,,3.1,1.2,2.9*33
$GPRMC,170200.000,A,1731.3858,S,07002.2529,W,19.04,85.35,290411,,,A*66
$GPGGA,170201.002,1731.3848,S,07002.2447,W,1,06,1.2,3072.4,M,34.5,M,,0000*62
$GPGSA,M,3,21,25,31,18,30,29,,,,,,,3.1,1.2,2.9*33
$GPRMC,170201.002,A,1731.3848,S,07002.2447,W,21.28,84.20,290411,,,A*6D
$GPGGA,170202.003,1731.3847,S,07002.2384,W,1,05,1.6,3071.2,M,34.5,M,,0000*65
$GPGSA,M,3,21,25,31,18,30,,,,,,,,3.9,1.6,3.5*39
$GPGSV,3,1,11,21,68,187,26,25,50,059,35,31,42,283,39,18,41,023,32*7F
$GPGSV,3,2,11,30,31,212,37,29,29,132,,22,20,353,,12,12,047,*78
$GPGSV,3,3,11,16,08,216,26,06,07,248,,14,01,339,*45
$GPRMC,170202.003,A,1731.3847,S,07002.2384,W,20.22,87.79,290411,,,A*6C
$GPGGA,170203.001,1731.3850,S,07002.2306,W,1,05,1.4,3069.3,M,34.5,M,,0000*60
$GPGSA,M,3,21,25,31,18,29,,,,,,,,3.5,1.4,3.2*38
$GPRMC,170203.001,A,1731.3850,S,07002.2306,W,21.84,91.19,290411,,,A*6F
$GPGGA,170203.999,1731.3849,S,07002.2234,W,1,06,1.2,3070.8,M,34.5,M,,0000*66
$GPGSA,M,3,21,25,31,18,30,29,,,,,,,3.1,1.2,2.9*33
$GPRMC,170203.999,A,1731.3849,S,07002.2234,W,22.59,94.77,290411,,,A*61
$GPGGA,170204.998,1731.3856,S,07002.2167,W,1,04,1.8,3072.0,M,34.5,M,,0000*69
$GPGSA,M,3,21,25,31,29,,,,,,,,,3.8,1.8,3.4*36
$GPRMC,170204.998,A,1731.3856,S,07002.2167,W,22.41,95.48,290411,,,A*68
$GPGGA,170205.999,1731.3870,S,07002.2108,W,1,04,1.8,3070.0,M,34.5,M,,0000*66
$GPGSA,M,3,21,25,31,29,,,,,,,,,3.8,1.8,3.4*36
$GPRMC,170205.999,A,1731.3870,S,07002.2108,W,21.18,98.26,290411,,,A*6F
$GPGGA,170206.999,1731.3907,S,07002.2062,W,1,05,1.5,3066.1,M,34.5,M,,0000*63
$GPGSA,M,3,21,25,31,30,29,,,,,,,,3.5,1.5,3.1*30
$GPGSV,3,1,11,21,68,187,37,25,50,059,31,31,42,283,36,18,41,023,*75
$GPGSV,3,2,11,30,31,212,22,29,29,132,36,22,20,353,,12,12,047,*79
$GPGSV,3,3,11,16,08,216,24,06,07,248,,14,01,339,*47
$GPRMC,170206.999,A,1731.3907,S,07002.2062,W,21.08,109.83,290411,,,A*57
$GPGGA,170208.002,1731.3906,S,07002.1998,W,1,04,1.8,3065.5,M,34.5,M,,0000*63
$GPGSA,M,3,21,25,31,29,,,,,,,,,3.8,1.8,3.4*36
$GPRMC,170208.002,A,1731.3906,S,07002.1998,W,21.19,103.01,290411,,,A*5C
$GPGGA,170208.998,1731.3919,S,07002.1933,W,1,05,1.5,3062.9,M,34.5,M,,0000*61
$GPGSA,M,3,21,25,31,30,29,,,,,,,,3.5,1.5,3.1*30
$GPRMC,170208.998,A,1731.3919,S,07002.1933,W,21.89,97.39,290411,,,A*67
$GPGGA,170210.000,1731.3925,S,07002.1862,W,1,05,1.5,3058.9,M,34.5,M,,0000*63
$GPGSA,M,3,21,25,31,30,29,,,,,,,,3.5,1.5,3.1*30
$GPRMC,170210.000,A,1731.3925,S,07002.1862,W,21.08,93.68,290411,,,A*65
$GPGGA,170211.001,1731.3908,S,07002.1798,W,1,05,1.5,3058.1,M,34.5,M,,0000*6E
$GPGSA,M,3,21,25,31,30,29,,,,,,,,3.5,1.5,3.1*30
$GPRMC,170211.001,A,1731.3908,S,07002.1798,W,21.42,89.07,290411,,,A*6C
$GPGGA,170212.003,1731.3892,S,07002.1737,W,1,06,1.2,3057.2,M,34.5,M,,0000*60
$GPGSA,M,3,21,25,31,18,30,29,,,,,,,3.1,1.2,2.9*33
$GPGSV,3,1,11,21,68,187,32,25,50,059,36,31,42,283,37,18,41,023,28*7C
$GPGSV,3,2,11,30,31,212,33,29,29,132,37,22,20,353,,12,12,047,*78
$GPGSV,3,3,11,16,08,216,27,06,07,248,,14,01,339,*44
$GPRMC,170212.003,A,1731.3892,S,07002.1737,W,23.73,83.17,290411,,,A*61
$GPGGA,170212.998,1731.3896,S,07002.1661,W,1,05,1.5,3057.5,M,34.5,M,,0000*6E
$GPGSA,M,3,21,25,31,30,29,,,,,,,,3.5,1.5,3.1*30
$GPRMC,170212.998,A,1731.3896,S,07002.1661,W,24.32,83.28,290411,,,A*62
$GPGGA,170214.000,1731.3892,S,07002.1594,W,1,06,1.2,3059.4,M,34.5,M,,0000*66
$GPGSA,M,3,21,25,31,18,30,29,,,,,,,3.1,1.2,2.9*33
$GPRMC,170214.000,A,1731.3892,S,07002.1594,W,24.37,82.47,290411,,,A*6C
$GPGGA,170214.999,1731.3884,S,07002.1521,W,1,06,1.2,3061.0,M,34.5,M,,0000*69
$GPGSA,M,3,21,25,31,18,30,29,,,,,,,3.1,1.2,2.9*33
$GPRMC,170214.999,A,1731.3884,S,07002.1521,W,24.69,82.40,290411,,,A*60
$GPGGA,170216.002,1731.3884,S,07002.1455,W,1,06,1.2,3059.4,M,34.5,M,,0000*6D
$GPGSA,M,3,21,25,31,18,30,29,,,,,,,3.1,1.2,2.9*33
$GPRMC,170216.002,A,1731.3884,S,07002.1455,W,23.62,83.25,290411,,,A*65
$GPGGA,170217.000,1731.3873,S,07002.1384,W,1,05,1.5,3062.2,M,34.5,M,,0000*67
$GPGSA,M,3,21,25,31,30,29,,,,,,,,3.5,1.5,3.1*30
$GPGSV,3,1,11,21,68,187,31,25,50,059,36,31,42,283,36,18,41,023,*74
$GPGSV,3,2,11,30,31,212,28,29,29,132,30,22,20,353,,12,12,047,*75
$GPGSV,3,3,11,16,08,216,,06,07,248,,14,01,339,*41
$GPRMC,170217.000,A,1731.3873,S,07002.1384,W,23.62,81.08,290411,,,A*68
$GPGGA,170217.998,1731.3865,S,07002.1321,W,1,06,1.2,3061.1,M,34.5,M,,0000*63
$GPGSA,M,3,21,25,31,18,30,29,,,,,,,3.1,1.2,2.9*33
$GPRMC,170217.998,A,1731.3865,S,07002.1321,W,24.17,77.78,290411,,,A*63
$GPGGA,170219.001,1731.3851,S,07002.1257,W,1,05,1.4,3058.8,M,34.5,M,,0000*65
$GPGSA,M,3,21,25,31,18,29,,,,,,,,3.5,1.4,3.3*39
$GPRMC,170219.001,A,1731.3851,S,07002.1257,W,24.23,74.57,290411,,,A*6A
$GPGGA,170220.000,1731.3834,S,07002.1195,W,1,05,1.4,3058.6,M,34.5,M,,0000*6E
$GPGSA,M,3,21,25,31,18,29,,,,,,,,3.5,1.4,3.3*39
$GPRMC,170220.000,A,1731.3834,S,07002.1195,W,24.66,71.08,290411,,,A*61
$GPGGA,170221.001,1731.3816,S,07002.1131,W,1,06,1.2,3058.7,M,34.5,M,,0000*64
$GPGSA,M,3,21,25,31,18,30,29,,,,,,,3.1,1.2,2.9*33
$GPRMC,170221.001,A,1731.3816,S,07002.1131,W,24.89,68.53,290411,,,A*68
$GPGGA,170222.000,1731.3793,S,07002.1078,W,1,06,1.2,3057.6,M,34.5,M,,0000*66
$GPGSA,M,3,21,25,31,18,30,29,,,,,,,3.1,1.2,2.9*33
$GPGSV,3,1,11,21,68,187,34,25,50,059,38,31,42,283,27,18,41,023,30*7C
$GPGSV,3,2,11,30,31,212,31,29,29,132,36,22,20,353,,12,12,047,*7B
$GPGSV,3,3,11,16,08,216,,06,07,248,,14,01,339,*41
$GPRMC,170222.000,A,1731.3793,S,07002.1078,W,23.39,65.71,290411,,,A*65
$GPGGA,170223.001,1731.3753,S,07002.1040,W,1,06,1.2,3060.3,M,34.5,M,,0000*60
$GPGSA,M,3,21,25,31,18,30,29,,,,,,,3.1,1.2,2.9*33
$GPRMC,170223.001,A,1731.3753,S,07002.1040,W,20.18,57.24,290411,,,A*63
$GPGGA,170224.001,1731.3730,S,07002.0998,W,1,06,1.2,3059.4,M,34.5,M,,0000*62
$GPGSA,M,3,21,25,31,18,30,29,,,,,,,3.1,1.2,2.9*33
$GPRMC,170224.001,A,1731.3730,S,07002.0998,W,18.39,61.55,290411,,,A*67
$GPGGA,170225.001,1731.3714,S,07002.0953,W,1,06,1.2,3063.0,M,34.5,M,,0000*6F
$GPGSA,M,3,21,25,31,18,30,29,,,,,,,3.1,1.2,2.9*33
$GPRMC,170225.001,A,1731.3714,S,07002.0953,W,18.11,65.77,290411,,,A*69
$GPGGA,170226.004,1731.3689,S,07002.0905,W,1,05,1.5,3061.2,M,34.5,M,,0000*6B
$GPGSA,M,3,21,25,31,30,29,,,,,,,,3.5,1.5,3.1*30
$GPRMC,170226.004,A,1731.3689,S,07002.0905,W,16.89,64.86,290411,,,A*69
$GPGGA,170227.000,1731.3674,S,07002.0871,W,1,06,1.2,3061.5,M,34.5,M,,0000*6D
$GPGSA,M,3,21,25,31,18,30,29,,,,,,,3.1,1.2,2.9*33
$GPGSV,3,1,11,21,68,187,36,25,50,059,35,31,42,283,37,18,41,023,35*77
$GPGSV,3,2,11,30,31,212,29,29,29,132,37,22,20,353,,12,12,047,*73
$GPGSV,3,3,11,16,08,216,34,06,07,248,,14,01,339,*46
$GPRMC,170227.000,A,1731.3674,S,07002.0871,W,15.70,66.80,290411,,,A*6D
$GPGGA,170227.996,1731.3676,S,07002.0823,W,1,05,1.5,3060.2,M,34.5,M,,0000*6C
$GPGSA,M,3,21,25,31,30,29,,,,,,,,3.5,1.5,3.1*30
$GPRMC,170227.996,A,1731.3676,S,07002.0823,W,15.33,76.28,290411,,,A*6A
$GPGGA,170229.001,1731.3666,S,07002.0779,W,0,00,,3059.9,M,34.5,M,,0000*4B
$GPGSA,M,1,,,,,,,,,,,,,,,*12
$GPRMC,170229.001,V,1731.3666,S,07002.0779,W,,,290411,,,N*75
$GPGGA,170230.000,1731.3656,S,07002.0736,W,0,00,,3059.5,M,34.5,M,,0000*46
$GPGSA,M,1,,,,,,,,,,,,,,,*12
$GPRMC,170230.000,V,1731.3656,S,07002.0736,W,,,290411,,,N*74
$GPGGA,170231.000,1731.3646,S,07002.0693,W,0,00,,3059.1,M,34.5,M,,0000*4C
$GPGSA,M,1,,,,,,,,,,,,,,,*12
$GPRMC,170231.000,V,1731.3646,S,07002.0693,W,,,290411,,,N*7A
$GPGGA,170232.000,1731.3879,S,07002.0718,W,1,05,1.6,3057.9,M,34.5,M,,0000*64
$GPGSA,M,3,21,30,25,31,18,,,,,,,,3.9,1.6,3.5*39
$GPGSV,3,1,11,21,68,186,35,25,49,059,18,31,42,284,28,18,41,023,36*78
$GPGSV,3,2,11,30,31,212,29,29,29,131,,12,11,047,,14,01,339,*7D
$GPGSV,3,3,11,22,21,353,,16,09,216,24,06,07,247,30*41
$GPRMC,170232.000,A,1731.3879,S,07002.0718,W,18.63,159.12,290411,,,A*53
$GPGGA,170233.000,1731.3990,S,07002.0757,W,1,05,1.6,3059.2,M,34.5,M,,0000*6D
$GPGSA,M,3,21,30,25,31,18,,,,,,,,3.9,1.6,3.5*39
$GPRMC,170233.000,A,1731.3990,S,07002.0757,W,23.48,179.38,290411,,,A*54
$GPGGA,170234.000,1731.4066,S,07002.0758,W,1,04,1.8,3061.7,M,34.5,M,,0000*63
$GPGSA,M,3,21,25,31,18,,,,,,,,,2.1,1.8,1.0*3A
$GPRMC,170234.000,A,1731.4066,S,07002.0758,W,24.27,178.92,290411,,,A*54
$GPGGA,170235.000,1731.4137,S,07002.0763,W,1,04,1.8,3063.2,M,34.5,M,,0000*68
$GPGSA,M,3,21,25,31,18,,,,,,,,,2.1,1.8,1.0*3A
$GPRMC,170235.000,A,1731.4137,S,07002.0763,W,24.73,179.71,290411,,,A*55
$GPGGA,170236.000,1731.4220,S,07002.0768,W,1,05,1.6,3059.8,M,34.5,M,,0000*69
$GPGSA,M,3,21,25,31,18,30,,,,,,,,3.9,1.6,3.6*3A
$GPRMC,170236.000,A,1731.4220,S,07002.0768,W,24.36,181.65,290411,,,A*5B
$GPGGA,170237.000,1731.4294,S,07002.0773,W,1,05,1.6,3059.7,M,34.5,M,,0000*62
$GPGSA,M,3,21,25,31,18,30,,,,,,,,3.9,1.6,3.6*3A
$GPGSV,3,1,11,21,68,186,35,25,49,059,31,31,42,284,23,18,41,023,39*77
$GPGSV,3,2,11,30,31,212,36,29,29,131,,12,11,047,,14,01,339,11*73
$GPGSV,3,3,11,22,21,353,,16,09,216,12,06,07,247,21*44
$GPRMC,170237.000,A,1731.4294,S,07002.0773,W,24.10,181.87,290411,,,A*57
$GPGGA,170238.000,1731.4363,S,07002.0774,W,1,06,1.2,3058.8,M,34.5,M,,0000*6A
$GPGSA,M,3,21,25,29,31,18,30,,,,,,,3.1,1.2,2.9*33
$GPRMC,170238.000,A,1731.4363,S,07002.0774,W,22.70,183.35,290411,,,A*5D
$GPGGA,170239.000,1731.4423,S,07002.0781,W,1,06,1.2,3059.0,M,34.5,M,,0000*6B
$GPGSA,M,3,21,25,29,31,18,30,,,,,,,3.1,1.2,2.9*33
$GPRMC,170239.000,A,1731.4423,S,07002.0781,W,20.67,182.05,290411,,,A*53
$GPGGA,170240.000,1731.4475,S,07002.0785,W,1,06,1.2,3060.9,M,34.5,M,,0000*61
$GPGSA,M,3,21,25,29,31,18,30,,,,,,,3.1,1.2,2.9*33
$GPRMC,170240.000,A,1731.4475,S,07002.0785,W,19.19,174.50,290411,,,A*50
$GPGGA,170241.000,1731.4524,S,07002.0773,W,1,06,1.2,3061.3,M,34.5,M,,0000*67
$GPGSA,M,3,21,25,29,31,18,30,,,,,,,3.1,1.2,2.9*33
$GPRMC,170241.000,A,1731.4524,S,07002.0773,W,18.12,166.23,290411,,,A*50
$GPGGA,170242.000,1731.4574,S,07002.0752,W,1,06,1.2,3060.6,M,34.5,M,,0000*66
$GPGSA,M,3,21,25,29,31,18,30,,,,,,,3.1,1.2,2.9*33
$GPGSV,3,1,11,21,68,186,35,25,49,059,34,31,42,284,32,18,41,023,24*7E
$GPGSV,3,2,11,30,31,212,32,29,29,131,27,12,11,047,,14,01,339,*72
$GPGSV,3,3,11,22,21,353,30,16,09,216,,06,07,247,34*40
$GPRMC,170242.000,A,1731.4574,S,07002.0752,W,18.23,155.45,290411,,,A*57
$GPGGA,170243.000,1731.4613,S,07002.0715,W,1,06,1.2,3060.2,M,34.5,M,,0000*62
$GPGSA,M,3,21,25,29,31,18,30,,,,,,,3.1,1.2,2.9*33
$GPRMC,170243.000,A,1731.4613,S,07002.0715,W,18.12,137.00,290411,,,A*50
$GPGGA,170244.000,1731.4642,S,07002.0667,W,1,06,1.2,3059.9,M,34.5,M,,0000*64
$GPGSA,M,3,21,25,29,31,18,30,,,,,,,3.1,1.2,2.9*33
$GPRMC,170244.000,A,1731.4642,S,07002.0667,W,19.15,121.34,290411,,,A*51
$GPGGA,170245.000,1731.4666,S,07002.0608,W,1,06,1.2,3057.7,M,34.5,M,,0000*6A
$GPGSA,M,3,21,25,29,31,18,30,,,,,,,3.1,1.2,2.9*33
$GPRMC,170245.000,A,1731.4666,S,07002.0608,W,19.89,108.62,290411,,,A*52
$GPGGA,170246.001,1731.4682,S,07002.0551,W,1,06,1.2,3057.4,M,34.5,M,,0000*6E
$GPGSA,M,3,21,25,31,18,30,29,,,,,,,3.1,1.2,2.9*33
$GPRMC,170246.001,A,1731.4682,S,07002.0551,W,19.43,105.06,290411,,,A*5C
$GPGGA,170246.999,1731.4694,S,07002.0493,W,1,05,1.5,3056.7,M,34.5,M,,0000*68
$GPGSA,M,3,21,25,31,30,29,,,,,,,,3.5,1.5,3.1*30
$GPGSV,3,1,11,21,68,186,32,25,49,059,31,31,42,284,39,18,41,023,*71
$GPGSV,3,2,11,30,31,212,32,29,29,131,34,22,21,353,,12,11,047,*7B
$GPGSV,3,3,11,16,09,216,,06,07,247,30,14,01,339,*4C
$GPRMC,170246.999,A,1731.4694,S,07002.0493,W,19.86,102.33,290411,,,A*54
$GPGGA,170248.001,1731.4696,S,07002.0431,W,1,05,1.5,3056.2,M,34.5,M,,0000*61
$GPGSA,M,3,21,25,31,30,29,,,,,,,,3.5,1.5,3.1*30
$GPRMC,170248.001,A,1731.4696,S,07002.0431,W,20.13,95.97,290411,,,A*6F
$GPGGA,170249.001,1731.4684,S,07002.0365,W,1,05,1.5,3055.3,M,34.5,M,,0000*67
$GPGSA,M,3,21,25,31,30,29,,,,,,,,3.5,1.5,3.1*30
$GPRMC,170249.001,A,1731.4684,S,07002.0365,W,21.85,86.15,290411,,,A*6D
$GPGGA,170250.003,1731.4680,S,07002.0301,W,0,00,,3055.0,M,34.5,M,,0000*46
$GPGSA,M,1,,,,,,,,,,,,,,,*12
$GPRMC,170250.003,V,1731.4680,S,07002.0301,W,,,290411,,,N*7D
$GPGGA,170251.000,1731.4676,S,07002.0238,W,0,00,,3054.6,M,34.5,M,,0000*41
$GPGSA,M,1,,,,,,,,,,,,,,,*12
$GPRMC,170251.000,V,1731.4676,S,07002.0238,W,,,290411,,,N*7D
$GPGGA,170252.000,1731.4672,S,07002.0175,W,0,00,,3054.2,M,34.5,M,,0000*48
$GPGSA,M,1,,,,,,,,,,,,,,,*12
$GPGSV,3,1,11,21,68,186,36,25,49,059,,31,42,284,42,18,41,023,*7B
$GPGSV,3,2,11,30,31,212,,29,29,131,,12,11,047,,14,01,339,*76
$GPGSV,3,3,11,22,21,353,,16,09,216,,06,07,247,14*41
$GPRMC,170252.000,V,1731.4672,S,07002.0175,W,,,290411,,,N*70
$GPGGA,170253.000,1731.4687,S,07002.0138,W,1,05,1.5,3052.8,M,34.5,M,,0000*68
$GPGSA,M,3,21,31,25,29,30,,,,,,,,3.5,1.5,3.1*30
$GPRMC,170253.000,A,1731.4687,S,07002.0138,W,16.61,89.91,290411,,,A*63
$GPGGA,170254.000,1731.4708,S,07002.0103,W,1,04,1.8,3053.3,M,34.5,M,,0000*67
$GPGSA,M,3,21,31,25,30,,,,,,,,,4.3,1.8,3.9*3F
$GPRMC,170254.000,A,1731.4708,S,07002.0103,W,15.24,99.30,290411,,,A*62
$GPGGA,170255.000,1731.4733,S,07002.0081,W,1,05,1.5,3052.7,M,34.5,M,,0000*6C
$GPGSA,M,3,21,31,25,29,30,,,,,,,,3.5,1.5,3.1*30
$GPRMC,170255.000,A,1731.4733,S,07002.0081,W,12.71,112.89,290411,,,A*57
$GPGGA,170256.000,1731.4758,S,07002.0072,W,1,06,1.2,3052.6,M,34.5,M,,0000*6B
$GPGSA,M,3,21,31,18,25,29,30,,,,,,,3.2,1.2,2.9*30
$GPRMC,170256.000,A,1731.4758,S,07002.0072,W,10.14,136.39,290411,,,A*59
$GPGGA,170257.000,1731.4811,S,07002.0096,W,1,06,1.2,3051.5,M,34.5,M,,0000*62
$GPGSA,M,3,21,31,18,25,29,30,,,,,,,3.2,1.2,2.9*30
$GPGSV,3,1,11,21,68,186,35,25,49,059,41,31,42,284,33,18,41,023,34*7C
$GPGSV,3,2,11,30,31,212,33,29,29,131,29,12,11,047,,14,01,339,*7D
$GPGSV,3,3,11,22,21,353,,16,09,216,,06,07,247,*44
$GPRMC,170257.000,A,1731.4811,S,07002.0096,W,13.52,185.32,290411,,,A*52
$GPGGA,170258.000,1731.4845,S,07002.0152,W,1,06,1.2,3054.3,M,34.5,M,,0000*66
$GPGSA,M,3,21,31,18,25,29,30,,,,,,,3.2,1.2,2.9*30
$GPRMC,170258.000,A,1731.4845,S,07002.0152,W,13.52,217.54,290411,,,A*5D
$GPGGA,170259.000,1731.4852,S,07002.0198,W,1,06,1.2,3054.1,M,34.5,M,,0000*65
$GPGSA,M,3,21,31,18,29,25,30,,,,,,,3.2,1.2,2.9*30
$GPRMC,170259.000,A,1731.4852,S,07002.0198,W,13.77,242.36,290411,,,A*5F
$GPGGA,170300.000,1731.4837,S,07002.0257,W,1,06,1.2,3053.2,M,34.5,M,,0000*6F
$GPGSA,M,3,21,31,18,29,25,30,,,,,,,3.2,1.2,2.9*30
$GPRMC,170300.000,A,1731.4837,S,07002.0257,W,15.54,269.56,290411,,,A*59
$GPGGA,170301.000,1731.4811,S,07002.0316,W,1,06,1.2,3053.7,M,34.5,M,,0000*6B
$GPGSA,M,3,21,31,18,29,25,30,,,,,,,3.2,1.2,2.9*30
$GPRMC,170301.000,A,1731.4811,S,07002.0316,W,18.24,287.10,290411,,,A*50
$GPGGA,170302.000,1731.4794,S,07002.0373,W,1,06,1.2,3053.6,M,34.5,M,,0000*68
$GPGSA,M,3,21,31,18,29,25,30,,,,,,,3.2,1.2,2.9*30
$GPGSV,3,1,11,21,68,186,34,25,49,059,33,31,42,284,38,18,41,023,22*74
$GPGSV,3,2,11,30,31,212,25,29,29,131,41,12,11,047,,14,01,339,*74
$GPGSV,3,3,11,22,21,353,,16,09,216,,06,07,247,*44
$GPRMC,170302.000,A,1731.4794,S,07002.0373,W,19.25,285.67,290411,,,A*50
$GPGGA,170303.000,1731.4777,S,07002.0431,W,1,06,1.2,3053.3,M,34.5,M,,0000*60
$GPGSA,M,3,21,31,18,29,25,30,,,,,,,3.2,1.2,2.9*30
$GPRMC,170303.000,A,1731.4777,S,07002.0431,W,20.37,284.74,290411,,,A*57
$GPGGA,170304.000,1731.4761,S,07002.0493,W,1,06,1.2,3052.9,M,34.5,M,,0000*63
$GPGSA,M,3,21,31,18,29,25,30,,,,,,,3.2,1.2,2.9*30
$GPRMC,170304.000,A,1731.4761,S,07002.0493,W,21.48,282.94,290411,,,A*5E
$GPGGA,170305.000,1731.4747,S,07002.0556,W,1,06,1.2,3052.2,M,34.5,M,,0000*65
$GPGSA,M,3,21,31,18,29,25,30,,,,,,,3.2,1.2,2.9*30
$GPRMC,170305.000,A,1731.4747,S,07002.0556,W,21.91,280.51,290411,,,A*5C
$GPGGA,170306.000,1731.4736,S,07002.0618,W,1,06,1.2,3051.2,M,34.5,M,,0000*6A
$GPGSA,M,3,21,31,18,29,25,30,,,,,,,3.2,1.2,2.9*30
$GPRMC,170306.000,A,1731.4736,S,07002.0618,W,21.25,280.28,290411,,,A*51
$GPGGA,170307.000,1731.4722,S,07002.0679,W,1,05,1.5,3050.6,M,34.5,M,,0000*68
$GPGSA,M,3,21,31,29,25,30,,,,,,,,3.5,1.5,3.1*30
$GPGSV,3,1,11,21,68,186,34,25,49,059,34,31,42,284,38,18,41,023,24*75
$GPGSV,3,2,11,30,31,212,29,29,29,131,42,12,11,047,,14,01,339,*7B
$GPGSV,3,3,11,22,21,353,,16,09,216,,06,07,247,*44
$GPRMC,170307.000,A,1731.4722,S,07002.0679,W,20.96,284.30,290411,,,A*56
$GPGGA,170308.002,1731.4705,S,07002.0739,W,1,04,1.7,3049.7,M,34.5,M,,0000*6F
$GPGSA,M,3,21,25,31,29,,,,,,,,,3.8,1.7,3.4*39
$GPRMC,170308.002,A,1731.4705,S,07002.0739,W,21.61,285.78,290411,,,A*5F
$GPGGA,170309.000,1731.4683,S,07002.0798,W,1,04,2.2,3048.6,M,34.5,M,,0000*6E
$GPGSA,M,3,21,31,30,29,,,,,,,,,3.8,2.2,3.1*3E
$GPRMC,170309.000,A,1731.4683,S,07002.0798,W,21.52,290.03,290411,,,A*50
$GPGGA,170310.000,1731.4662,S,07002.0858,W,1,04,2.2,3048.0,M,34.5,M,,0000*6C
$GPGSA,M,3,21,31,30,29,,,,,,,,,3.8,2.2,3.1*3E
$GPRMC,170310.000,A,1731.4662,S,07002.0858,W,22.03,291.31,290411,,,A*53
$GPGGA,170311.000,1731.4640,S,07002.0915,W,1,04,2.2,3046.9,M,34.5,M,,0000*62
$GPGSA,M,3,21,31,30,29,,,,,,,,,3.8,2.2,3.1*3E
$GPRMC,170311.000,A,1731.4640,S,07002.0915,W,20.79,291.11,290411,,,A*57
$GPGGA,170312.002,1731.4619,S,07002.0971,W,0,00,,3046.4,M,34.5,M,,0000*4B
$GPGSA,M,1,,,,,,,,,,,,,,,*12
$GPGSV,3,1,11,21,68,185,38,25,49,058,,31,42,285,,18,42,023,*73
$GPGSV,3,2,11,30,31,212,29,29,29,131,,12,11,047,,14,01,339,*7D
$GPGSV,3,3,11,22,21,353,,16,09,216,,06,07,247,*44
$GPRMC,170312.002,V,1731.4619,S,07002.0971,W,,,290411,,,N*76
$GPGGA,170313.000,1731.4598,S,07002.1027,W,0,00,,3045.8,M,34.5,M,,0000*46
$GPGSA,M,1,,,,,,,,,,,,,,,*12
$GPRMC,170313.000,V,1731.4598,S,07002.1027,W,,,290411,,,N*74
$GPGGA,170314.000,1731.4577,S,07002.1084,W,0,00,,3045.3,M,34.5,M,,0000*42
$GPGSA,M,1,,,,,,,,,,,,,,,*12
$GPRMC,170314.000,V,1731.4577,S,07002.1084,W,,,290411,,,N*7B
$GPGGA,170315.000,1731.4338,S,07002.0963,W,1,05,1.6,3046.7,M,34.5,M,,0000*65
$GPGSA,M,3,21,30,25,31,18,,,,,,,,4.0,1.6,3.6*34
$GPRMC,170315.000,A,1731.4338,S,07002.0963,W,25.99,350.49,290411,,,A*52
$GPGGA,170316.000,1731.4285,S,07002.0950,W,1,05,1.6,3047.0,M,34.5,M,,0000*67
$GPGSA,M,3,21,30,25,31,18,,,,,,,,4.0,1.6,3.6*34
$GPRMC,170316.000,A,1731.4285,S,07002.0950,W,21.62,353.50,290411,,,A*5D
$GPGGA,170317.000,1731.4238,S,07002.0950,W,1,05,1.6,3045.0,M,34.5,M,,0000*62
$GPGSA,M,3,21,30,25,31,18,,,,,,,,4.0,1.6,3.6*34
$GPGSV,3,1,11,21,68,185,40,25,49,058,27,31,42,285,29,18,42,023,26*76
$GPGSV,3,2,11,30,31,212,40,29,29,131,,12,11,047,,14,01,339,*72
$GPGSV,3,3,11,22,21,353,,16,09,216,,06,07,247,*44
$GPRMC,170317.000,A,1731.4238,S,07002.0950,W,18.45,353.54,290411,,,A*51
$GPGGA,170318.000,1731.4194,S,07002.0961,W,1,05,1.6,3045.8,M,34.5,M,,0000*62
$GPGSA,M,3,21,30,25,31,18,,,,,,,,4.0,1.6,3.6*34
$GPRMC,170318.000,A,1731.4194,S,07002.0961,W,17.85,346.66,290411,,,A*5F
$GPGGA,170319.000,1731.4152,S,07002.0981,W,1,05,1.6,3045.6,M,34.5,M,,0000*69
$GPGSA,M,3,21,30,25,31,18,,,,,,,,4.0,1.6,3.6*34
$GPRMC,170319.000,A,1731.4152,S,07002.0981,W,18.01,338.25,290411,,,A*57
$GPGGA,170320.000,1731.4123,S,07002.1023,W,1,05,1.6,3044.4,M,34.5,M,,0000*66
$GPGSA,M,3,21,30,25,31,18,,,,,,,,4.0,1.6,3.6*34
$GPRMC,170320.000,A,1731.4123,S,07002.1023,W,16.26,318.90,290411,,,A*5C
$GPGGA,170321.000,1731.4108,S,07002.1070,W,1,06,1.2,3045.3,M,34.5,M,,0000*69
$GPGSA,M,3,21,30,25,31,18,29,,,,,,,3.2,1.2,2.9*30
$GPRMC,170321.000,A,1731.4108,S,07002.1070,W,15.96,300.36,290411,,,A*5F
$GPGGA,170322.000,1731.4110,S,07002.1124,W,1,06,1.2,3043.7,M,34.5,M,,0000*61
$GPGSA,M,3,21,30,25,31,18,29,,,,,,,3.2,1.2,2.9*30
$GPGSV,3,1,11,21,68,185,34,25,49,058,35,31,42,285,27,18,42,023,31*7E
$GPGSV,3,2,11,30,31,212,29,29,29,131,31,12,11,047,,14,01,339,*7F
$GPGSV,3,3,11,22,21,353,,16,09,216,,06,07,247,25*43
$GPRMC,170322.000,A,1731.4110,S,07002.1124,W,16.74,278.30,290411,,,A*52
$GPGGA,170323.000,1731.4124,S,07002.1183,W,1,06,1.2,3041.1,M,34.5,M,,0000*6E
$GPGSA,M,3,21,30,25,31,18,29,,,,,,,3.2,1.2,2.9*30
$GPRMC,170323.000,A,1731.4124,S,07002.1183,W,18.19,263.83,290411,,,A*5E
$GPGGA,170324.000,1731.4143,S,07002.1231,W,1,06,1.2,3040.6,M,34.5,M,,0000*64
$GPGSA,M,3,21,30,25,31,18,29,,,,,,,3.2,1.2,2.9*30
$GPRMC,170324.000,A,1731.4143,S,07002.1231,W,19.04,249.70,290411,,,A*5B
$GPGGA,170325.000,1731.4163,S,07002.1288,W,1,06,1.2,3040.2,M,34.5,M,,0000*61
$GPGSA,M,3,21,30,25,31,18,29,,,,,,,3.2,1.2,2.9*30
$GPRMC,170325.000,A,1731.4163,S,07002.1288,W,20.42,247.66,290411,,,A*5B
$GPGGA,170326.000,1731.4186,S,07002.1350,W,1,05,1.6,3041.2,M,34.5,M,,0000*6B
$GPGSA,M,3,21,30,25,18,29,,,,,,,,3.4,1.6,3.0*38
$GPRMC,170326.000,A,1731.4186,S,07002.1350,W,20.73,245.01,290411,,,A*56
$GPGGA,170327.000,1731.4215,S,07002.1405,W,1,05,1.6,3039.3,M,34.5,M,,0000*6A
$GPGSA,M,3,21,30,25,18,29,,,,,,,,3.4,1.6,3.0*38
$GPGSV,3,1,11,21,68,185,33,25,49,058,41,31,42,285,,18,42,023,18*74
$GPGSV,3,2,11,30,31,212,28,29,29,131,23,12,11,047,,14,01,339,*7D
$GPGSV,3,3,11,22,21,353,,16,09,216,,06,07,247,25*43
$GPRMC,170327.000,A,1731.4215,S,07002.1405,W,22.16,244.93,290411,,,A*52
$GPGGA,170328.000,1731.4239,S,07002.1472,W,1,06,1.2,3038.1,M,34.5,M,,0000*6F
$GPGSA,M,3,21,30,31,25,18,29,,,,,,,3.2,1.2,2.9*30
$GPRMC,170328.000,A,1731.4239,S,07002.1472,W,23.92,248.74,290411,,,A*5B
$GPGGA,170329.000,1731.4265,S,07002.1539,W,1,06,1.2,3037.0,M,34.5,M,,0000*67
$GPGSA,M,3,21,30,31,25,18,29,,,,,,,3.2,1.2,2.9*30
$GPRMC,170329.000,A,1731.4265,S,07002.1539,W,24.29,247.87,290411,,,A*59
$GPGGA,170330.000,1731.4290,S,07002.1606,W,1,06,1.2,3036.0,M,34.5,M,,0000*6B
$GPGSA,M,3,21,30,31,25,18,29,,,,,,,3.2,1.2,2.9*30
$GPRMC,170330.000,A,1731.4290,S,07002.1606,W,24.06,248.76,290411,,,A*58
$GPGGA,170331.000,1731.4313,S,07002.1674,W,1,06,1.2,3034.5,M,34.5,M,,0000*62
$GPGSA,M,3,21,30,31,25,18,29,,,,,,,3.2,1.2,2.9*30
$GPRMC,170331.000,A,1731.4313,S,07002.1674,W,23.75,249.94,290411,,,A*58
$GPGGA,170332.000,1731.4333,S,07002.1741,W,1,06,1.2,3034.1,M,34.5,M,,0000*60
$GPGSA,M,3,21,30,31,25,18,29,,,,,,,3.2,1.2,2.9*30
$GPGSV,3,1,11,21,68,185,22,25,49,058,42,31,42,285,38,18,42,023,26*71
$GPGSV,3,2,11,30,31,212,26,29,29,131,34,12,11,047,,14,01,339,*75
$GPGSV,3,3,11,22,21,353,,16,09,216,,06,07,247,23*45
$GPRMC,170332.000,A,1731.4333,S,07002.1741,W,23.55,254.56,290411,,,A*5E
$GPGGA,170333.000,1731.4347,S,07002.1811,W,1,04,1.7,3034.8,M,34.5,M,,0000*66
$GPGSA,M,3,21,31,25,29,,,,,,,,,3.8,1.7,3.4*39
$GPRMC,170333.000,A,1731.4347,S,07002.1811,W,24.03,259.79,290411,,,A*52
$GPGGA,170334.000,1731.4353,S,07002.1883,W,1,05,1.5,3033.3,M,34.5,M,,0000*60
$GPGSA,M,3,21,30,31,25,29,,,,,,,,3.5,1.5,3.1*30
$GPRMC,170334.000,A,1731.4353,S,07002.1883,W,24.38,265.36,290411,,,A*57
$GPGGA,170335.000,1731.4355,S,07002.1954,W,1,06,1.2,3033.3,M,34.5,M,,0000*68
$GPGSA,M,3,21,30,31,25,18,29,,,,,,,3.2,1.2,2.9*30
$GPRMC,170335.000,A,1731.4355,S,07002.1954,W,24.66,269.84,290411,,,A*55
$GPGGA,170336.000,1731.4350,S,07002.2025,W,1,05,1.5,3030.1,M,34.5,M,,0000*67
$GPGSA,M,3,21,30,31,25,29,,,,,,,,3.5,1.5,3.1*30
$GPRMC,170336.000,A,1731.4350,S,07002.2025,W,24.43,271.41,290411,,,A*58
$GPGGA,170337.000,1731.4347,S,07002.2096,W,1,05,1.5,3028.6,M,34.5,M,,0000*66
$GPGSA,M,3,21,30,31,25,29,,,,,,,,3.5,1.5,3.1*30
$GPGSV,3,1,11,21,68,185,25,25,49,058,37,31,42,285,38,18,42,023,11*70
$GPGSV,3,2,11,30,31,212,27,29,29,131,37,12,11,047,,14,01,339,*77
$GPGSV,3,3,11,22,21,353,,16,09,216,,06,07,247,10*45
$GPRMC,170337.000,A,1731.4347,S,07002.2096,W,24.16,271.97,290411,,,A*5C
$GPGGA,170338.000,1731.4347,S,07002.2167,W,1,05,1.5,3028.1,M,34.5,M,,0000*61
$GPGSA,M,3,21,30,31,25,29,,,,,,,,3.5,1.5,3.1*30
$GPRMC,170338.000,A,1731.4347,S,07002.2167,W,23.88,269.93,290411,,,A*51
$GPGGA,170339.000,1731.4350,S,07002.2235,W,1,05,1.5,3028.2,M,34.5,M,,0000*61
$GPGSA,M,3,21,30,31,25,29,,,,,,,,3.5,1.5,3.1*30
$GPRMC,170339.000,A,1731.4350,S,07002.2235,W,23.04,265.92,290411,,,A*5B
$GPGGA,170340.000,1731.4356,S,07002.2300,W,1,05,1.5,3027.1,M,34.5,M,,0000*62
$GPGSA,M,3,21,30,31,25,29,,,,,,,,3.5,1.5,3.1*30
$GPRMC,170340.000,A,1731.4356,S,07002.2300,W,22.34,264.40,290411,,,A*58
$GPGGA,170341.000,1731.4366,S,07002.2363,W,1,06,1.2,3025.7,M,34.5,M,,0000*65
$GPGSA,M,3,21,30,31,25,29,18,,,,,,,3.2,1.2,2.9*30
$GPRMC,170341.000,A,1731.4366,S,07002.2363,W,21.82,258.95,290411,,,A*56
$GPGGA,170342.000,1731.4392,S,07002.2422,W,1,06,1.2,3025.1,M,34.5,M,,0000*69
$GPGSA,M,3,21,30,31,25,29,18,,,,,,,3.2,1.2,2.9*30
$GPGSV,3,1,11,21,68,185,34,25,49,058,45,31,42,285,38,18,42,023,29*7E
$GPGSV,3,2,11,30,31,212,25,29,29,131,33,12,11,047,,14,01,339,*71
$GPGSV,3,3,11,22,21,353,,16,09,216,,06,07,247,*44
$GPRMC,170342.000,A,1731.4392,S,07002.2422,W,21.82,248.39,290411,,,A*5B
$GPGGA,170343.000,1731.4440,S,07002.2477,W,1,06,1.2,3024.7,M,34.5,M,,0000*67
$GPGSA,M,3,21,30,31,25,29,18,,,,,,,3.2,1.2,2.9*30
$GPRMC,170343.000,A,1731.4440,S,07002.2477,W,23.79,232.71,290411,,,A*55
$GPGGA,170344.000,1731.4494,S,07002.2531,W,1,06,1.2,3024.6,M,34.5,M,,0000*6B
$GPGSA,M,3,21,30,31,25,29,18,,,,,,,3.2,1.2,2.9*30
$GPRMC,170344.000,A,1731.4494,S,07002.2531,W,25.15,228.74,290411,,,A*5A
$GPGGA,170345.000,1731.4546,S,07002.2585,W,1,06,1.2,3024.3,M,34.5,M,,0000*6E
$GPGSA,M,3,21,30,31,25,29,18,,,,,,,3.2,1.2,2.9*30
$GPRMC,170345.000,A,1731.4546,S,07002.2585,W,25.53,228.35,290411,,,A*5D
$GPGGA,170346.000,1731.4598,S,07002.2641,W,1,06,1.2,3024.1,M,34.5,M,,0000*67
$GPGSA,M,3,21,30,31,25,29,18,,,,,,,3.2,1.2,2.9*30
$GPRMC,170346.000,A,1731.4598,S,07002.2641,W,25.85,228.08,290411,,,A*53
$GPGGA,170347.000,1731.4650,S,07002.2697,W,1,06,1.2,3024.0,M,34.5,M,,0000*6B
$GPGSA,M,3,21,30,31,25,29,18,,,,,,,3.2,1.2,2.9*30
$GPGSV,3,1,11,21,68,185,33,25,49,058,44,31,42,285,32,18,42,023,33*79
$GPGSV,3,2,11,30,31,212,25,29,29,131,34,12,11,047,,14,01,339,*76
$GPGSV,3,3,11,22,21,353,,16,09,216,,06,07,247,*44
$GPRMC,170347.000,A,1731.4650,S,07002.2697,W,26.05,228.41,290411,,,A*58
$GPGGA,170348.000,1731.4700,S,07002.2755,W,1,06,1.2,3023.5,M,34.5,M,,0000*6D
$GPGSA,M,3,21,30,31,25,29,18,,,,,,,3.2,1.2,2.9*30
$GPRMC,170348.000,A,1731.4700,S,07002.2755,W,26.34,229.15,290411,,,A*5E
$GPGGA,170349.000,1731.4750,S,07002.2813,W,1,06,1.2,3023.2,M,34.5,M,,0000*63
$GPGSA,M,3,21,30,31,25,29,18,,,,,,,3.2,1.2,2.9*30
$GPRMC,170349.000,A,1731.4750,S,07002.2813,W,26.33,230.75,290411,,,A*5E
$GPGGA,170350.000,1731.4797,S,07002.2875,W,1,06,1.2,3022.9,M,34.5,M,,0000*6A
$GPGSA,M,3,21,30,31,25,29,18,,,,,,,3.2,1.2,2.9*30
$GPRMC,170350.000,A,1731.4797,S,07002.2875,W,26.44,233.65,290411,,,A*5F
$GPGGA,170351.000,1731.4840,S,07002.2939,W,1,06,1.2,3022.8,M,34.5,M,,0000*66
$GPGSA,M,3,21,30,31,25,29,18,,,,,,,3.2,1.2,3.0*38
$GPRMC,170351.000,A,1731.4840,S,07002.2939,W,26.40,238.18,290411,,,A*57
$GPGGA,170352.000,1731.4875,S,07002.3006,W,1,06,1.2,3022.6,M,34.5,M,,0000*69
$GPGSA,M,3,21,30,31,25,29,18,,,,,,,3.2,1.2,3.0*38
$GPGSV,3,1,11,21,68,185,32,25,49,058,44,31,42,285,39,18,42,023,19*7B
$GPGSV,3,2,11,30,31,212,28,29,29,131,30,12,11,047,,14,01,339,*7F
$GPGSV,3,3,11,22,21,353,11,16,09,216,,06,07,247,*44
$GPRMC,170352.000,A,1731.4875,S,07002.3006,W,26.22,242.68,290411,,,A*58
$GPGGA,170353.003,1731.4908,S,07002.3073,W,0,00,,3022.2,M,34.5,M,,0000*4C
$GPGSA,M,1,,,,,,,,,,,,,,,*12
$GPRMC,170353.003,V,1731.4908,S,07002.3073,W,,,290411,,,N*75
$GPGGA,170354.003,1731.4942,S,07002.3141,W,0,00,,3021.7,M,34.5,M,,0000*43
$GPGSA,M,1,,,,,,,,,,,,,,,*12
$GPRMC,170354.003,V,1731.4942,S,07002.3141,W,,,290411,,,N*7C
$GPGGA,170355.000,1731.4975,S,07002.3208,W,0,00,,3021.3,M,34.5,M,,0000*4F
$GPGSA,M,1,,,,,,,,,,,,,,,*12
$GPRMC,170355.000,V,1731.4975,S,07002.3208,W,,,290411,,,N*74
$GPGGA,170356.000,1731.5025,S,07002.3272,W,1,04,1.8,3021.6,M,34.5,M,,0000*6B
$GPGSA,M,3,21,25,31,18,,,,,,,,,2.1,1.8,1.0*3A
$GPRMC,170356.000,A,1731.5025,S,07002.3272,W,25.83,236.00,290411,,,A*54
$GPGGA,170357.000,1731.5079,S,07002.3329,W,1,06,1.2,3022.4,M,34.5,M,,0000*65
$GPGSA,M,3,21,25,31,30,18,29,,,,,,,3.2,1.2,3.0*38
$GPGSV,3,1,11,21,67,185,32,25,49,058,45,31,42,285,34,18,42,023,33*70
$GPGSV,3,2,11,30,32,212,22,29,28,131,34,12,11,047,,14,01,340,*7D
$GPGSV,3,3,11,22,21,353,,16,09,216,,06,07,247,*44
$GPRMC,170357.000,A,1731.5079,S,07002.3329,W,26.01,231.62,290411,,,A*59
$GPGGA,170358.000,1731.5118,S,07002.3382,W,1,06,1.2,3022.7,M,34.5,M,,0000*6E
$GPGSA,M,3,21,25,31,30,18,29,,,,,,,3.2,1.2,3.0*38
$GPRMC,170358.000,A,1731.5118,S,07002.3382,W,25.77,227.60,290411,,,A*56
$GPGGA,170359.000,1731.5173,S,07002.3431,W,1,06,1.2,3022.1,M,34.5,M,,0000*6B
$GPGSA,M,3,21,25,31,30,18,29,,,,,,,3.2,1.2,3.0*38
$GPRMC,170359.000,A,1731.5173,S,07002.3431,W,25.13,225.27,290411,,,A*56
$GPGGA,170400.000,1731.5219,S,07002.3483,W,1,06,1.2,3022.3,M,34.5,M,,0000*64
$GPGSA,M,3,21,25,31,30,18,29,,,,,,,3.2,1.2,3.0*38
$GPRMC,170400.000,A,1731.5219,S,07002.3483,W,24.04,226.34,290411,,,A*5D
$GPGGA,170401.000,1731.5260,S,07002.3535,W,1,06,1.2,3021.5,M,34.5,M,,0000*62
$GPGSA,M,3,21,25,31,30,18,29,,,,,,,3.2,1.2,3.0*38
$GPRMC,170401.000,A,1731.5260,S,07002.3535,W,23.32,231.19,290411,,,A*55
$GPGGA,170402.000,1731.5297,S,07002.3593,W,1,05,1.5,3021.5,M,34.5,M,,0000*61
$GPGSA,M,3,21,25,31,30,29,,,,,,,,3.5,1.5,3.1*30
$GPGSV,3,1,11,21,67,185,32,25,49,058,45,31,42,285,21,18,42,023,19*7C
$GPGSV,3,2,11,30,32,212,30,29,28,131,32,12,11,047,,14,01,340,*78
$GPGSV,3,3,11,22,21,353,,16,09,216,,06,07,247,*44
$GPRMC,170402.000,A,1731.5297,S,07002.3593,W,22.50,236.24,290411,,,A*5E
$GPGGA,170403.000,1731.5330,S,07002.3646,W,1,05,1.5,3022.6,M,34.5,M,,0000*67
$GPGSA,M,3,21,25,31,30,29,,,,,,,,3.5,1.5,3.1*30
$GPRMC,170403.000,A,1731.5330,S,07002.3646,W,22.72,241.19,290411,,,A*56
$GPGGA,170404.000,1731.5351,S,07002.3708,W,1,04,1.8,3021.7,M,34.5,M,,0000*62
$GPGSA,M,3,21,25,31,30,,,,,,,,,4.4,1.8,4.0*36
$GPRMC,170404.000,A,1731.5351,S,07002.3708,W,22.03,248.73,290411,,,A*5E
$GPGGA,170405.000,1731.5348,S,07002.3773,W,1,05,1.5,3020.6,M,34.5,M,,0000*6B
$GPGSA,M,3,21,25,31,30,29,,,,,,,,3.5,1.5,3.1*30
$GPRMC,170405.000,A,1731.5348,S,07002.3773,W,21.41,265.32,290411,,,A*54
$GPGGA,170406.000,1731.5328,S,07002.3840,W,1,05,1.5,3020.5,M,34.5,M,,0000*62
$GPGSA,M,3,21,25,31,30,29,,,,,,,,3.5,1.5,3.1*30
$GPRMC,170406.000,A,1731.5328,S,07002.3840,W,22.28,277.67,290411,,,A*51
$GPGGA,170407.000,1731.5294,S,07002.3903,W,1,05,1.5,3020.3,M,34.5,M,,0000*65
$GPGSA,M,3,21,25,31,30,29,,,,,,,,3.5,1.5,3.1*30
$GPGSV,3,1,11,21,67,185,37,25,49,058,22,31,42,285,37,18,42,023,*77
$GPGSV,3,2,11,30,32,212,24,29,28,131,40,12,11,047,,14,01,340,*78
$GPGSV,3,3,11,22,21,353,,16,09,216,,06,07,247,*44
$GPRMC,170407.000,A,1731.5294,S,07002.3903,W,22.55,290.16,290411,,,A*55
$GPGGA,170408.000,1731.5251,S,07002.3956,W,1,05,1.5,3020.5,M,34.5,M,,0000*65
$GPGSA,M,3,21,25,31,30,29,,,,,,,,3.5,1.5,3.1*30
$GPRMC,170408.000,A,1731.5251,S,07002.3956,W,21.92,299.79,290411,,,A*5B
$GPGGA,170409.000,1731.5213,S,07002.4006,W,1,05,1.5,3020.5,M,34.5,M,,0000*69
$GPGSA,M,3,21,25,31,30,29,,,,,,,,3.5,1.5,3.1*30
$GPRMC,170409.000,A,1731.5213,S,07002.4006,W,20.86,302.10,290411,,,A*5F
$GPGGA,170410.000,1731.5172,S,07002.4050,W,1,05,1.5,3021.3,M,34.5,M,,0000*61
$GPGSA,M,3,21,25,31,30,29,,,,,,,,3.5,1.5,3.1*30
$GPRMC,170410.000,A,1731.5172,S,07002.4050,W,18.69,303.31,290411,,,A*58
$GPGGA,170411.000,1731.5153,S,07002.4097,W,1,05,1.5,3021.0,M,34.5,M,,0000*6B
$GPGSA,M,3,21,25,31,30,29,,,,,,,,3.5,1.5,3.1*30
$GPRMC,170411.000,A,1731.5153,S,07002.4097,W,16.40,299.62,290411,,,A*50
$GPGGA,170412.000,1731.5136,S,07002.4138,W,1,05,1.5,3020.6,M,34.5,M,,0000*68
$GPGSA,M,3,21,25,31,30,29,,,,,,,,3.5,1.5,3.1*30
$GPGSV,3,1,11,21,67,185,37,25,49,058,30,31,42,285,36,18,42,023,*75
$GPGSV,3,2,11,30,32,212,26,29,28,131,39,12,11,047,,14,01,340,*74
$GPGSV,3,3,11,22,21,353,,16,09,216,,06,07,247,24*42
$GPRMC,170412.000,A,1731.5136,S,07002.4138,W,14.30,293.74,290411,,,A*5C
$GPGGA,170413.000,1731.5133,S,07002.4181,W,1,05,1.5,3018.2,M,34.5,M,,0000*61
$GPGSA,M,3,21,25,31,30,29,,,,,,,,3.5,1.5,3.1*30
$GPRMC,170413.000,A,1731.5133,S,07002.4181,W,13.03,281.59,290411,,,A*51
$GPGGA,170414.000,1731.5138,S,07002.4221,W,1,05,1.5,3017.4,M,34.5,M,,0000*6D
$GPGSA,M,3,21,25,31,30,29,,,,,,,,3.5,1.5,3.1*30
$GPRMC,170414.000,A,1731.5138,S,07002.4221,W,12.64,269.63,290411,,,A*5B
$GPGGA,170415.000,1731.5157,S,07002.4257,W,1,05,1.5,3016.2,M,34.5,M,,0000*63
$GPGSA,M,3,21,25,31,30,29,,,,,,,,3.5,1.5,3.1*30
$GPRMC,170415.000,A,1731.5157,S,07002.4257,W,12.38,248.91,290411,,,A*55
$GPGGA,170416.000,1731.5170,S,07002.4282,W,1,06,1.2,3014.4,M,34.5,M,,0000*6D
$GPGSA,M,3,21,25,31,30,29,18,,,,,,,3.2,1.2,3.0*38
$GPRMC,170416.000,A,1731.5170,S,07002.4282,W,9.72,236.85,290411,,,A*63
$GPGGA,170417.000,1731.5187,S,07002.4300,W,1,06,1.2,3013.4,M,34.5,M,,0000*68
$GPGSA,M,3,21,25,31,30,29,18,,,,,,,3.2,1.2,3.0*38
$GPGSV,3,1,11,21,67,185,33,25,49,058,43,31,42,285,20,18,42,023,31*70
$GPGSV,3,2,11,30,32,212,26,29,28,131,34,12,11,047,,14,01,340,*79
$GPGSV,3,3,11,22,21,353,,16,09,216,,06,07,247,*44
$GPRMC,170417.000,A,1731.5187,S,07002.4300,W,7.41,232.31,290411,,,A*64
$GPGGA,170418.000,1731.5202,S,07002.4311,W,1,06,1.2,3013.3,M,34.5,M,,0000*6E
$GPGSA,M,3,21,25,31,30,29,18,,,,,,,3.2,1.2,3.0*38
$GPRMC,170418.000,A,1731.5202,S,07002.4311,W,5.19,225.11,290411,,,A*6E
$GPGGA,170419.000,1731.5215,S,07002.4314,W,1,06,1.2,3012.6,M,34.5,M,,0000*68
$GPGSA,M,3,21,25,31,30,29,18,,,,,,,3.2,1.2,3.0*38
$GPRMC,170419.000,A,1731.5215,S,07002.4314,W,3.32,220.25,290411,,,A*61
$GPGGA,170420.000,1731.5220,S,07002.4316,W,1,06,1.2,3012.5,M,34.5,M,,0000*65
$GPGSA,M,3,21,25,31,30,29,18,,,,,,,3.2,1.2,3.0*38
$GPRMC,170420.000,A,1731.5220,S,07002.4316,W,1.06,215.94,290411,,,A*66
$GPGGA,170421.000,1731.5222,S,07002.4316,W,1,06,1.2,3012.7,M,34.5,M,,0000*64
$GPGSA,M,3,21,25,31,30,29,18,,,,,,,3.2,1.2,3.0*38
$GPRMC,170421.000,A,1731.5222,S,07002.4316,W,0.15,297.84,290411,,,A*6D
$GPGGA,170422.000,1731.5223,S,07002.4313,W,1,06,1.2,3012.8,M,34.5,M,,0000*6C
$GPGSA,M,3,21,25,31,30,29,18,,,,,,,3.2,1.2,3.0*38
$GPGSV,3,1,11,21,67,185,33,25,49,058,38,31,42,285,25,18,42,023,33*7B
$GPGSV,3,2,11,30,32,212,34,29,28,131,25,12,11,047,,14,01,340,*7A
$GPGSV,3,3,11,22,21,353,,16,09,216,,06,07,247,*44
$GPRMC,170422.000,A,1731.5223,S,07002.4313,W,0.29,313.84,290411,,,A*68
$GPGGA,170423.000,1731.5223,S,07002.4312,W,1,06,1.2,3012.7,M,34.5,M,,0000*63
$GPGSA,M,3,21,25,31,30,29,18,,,,,,,3.2,1.2,3.0*38
$GPRMC,170423.000,A,1731.5223,S,07002.4312,W,0.07,44.51,290411,,,A*5D
$GPGGA,170424.000,1731.5223,S,07002.4310,W,1,06,1.2,3012.4,M,34.5,M,,0000*65
$GPGSA,M,3,21,25,31,30,29,18,,,,,,,3.2,1.2,3.0*38
$GPRMC,170424.000,A,1731.5223,S,07002.4310,W,0.23,345.43,290411,,,A*6F
$GPGGA,170425.000,1731.5221,S,07002.4309,W,1,06,1.2,3011.7,M,34.5,M,,0000*6E
$GPGSA,M,3,21,25,31,30,29,18,,,,,,,3.2,1.2,3.0*38
$GPRMC,170425.000,A,1731.5221,S,07002.4309,W,0.13,21.36,290411,,,A*54
$GPGGA,170426.000,1731.5219,S,07002.4308,W,1,04,4.1,3011.5,M,34.5,M,,0000*61
$GPGSA,M,3,21,25,18,30,,,,,,,,,6.0,4.1,4.4*33
$GPRMC,170426.000,A,1731.5219,S,07002.4308,W,0.57,319.85,290411,,,A*6D
$GPGGA,170426.999,1731.5218,S,07002.4308,W,1,06,1.2,3010.6,M,34.5,M,,0000*6F
$GPGSA,M,3,21,25,31,18,30,29,,,,,,,3.2,1.2,3.0*38
$GPGSV,3,1,11,21,67,185,31,25,49,058,37,31,42,285,27,18,42,023,32*75
$GPGSV,3,2,11,30,32,212,34,29,28,131,28,22,21,353,,12,11,047,*72
$GPGSV,3,3,11,16,09,216,,06,07,247,,14,01,340,*41
$GPRMC,170426.999,A,1731.5218,S,07002.4308,W,0.32,346.40,290411,,,A*65
$GPGGA,170428.004,1731.5218,S,07002.4308,W,1,05,1.6,3010.3,M,34.5,M,,0000*6E
$GPGSA,M,3,21,25,18,30,29,,,,,,,,3.5,1.6,3.1*38
$GPRMC,170428.004,A,1731.5218,S,07002.4308,W,0.25,359.23,290411,,,A*6B
$GPGGA,170428.995,1731.5217,S,07002.4308,W,1,05,1.6,3009.7,M,34.5,M,,0000*6C
$GPGSA,M,3,21,25,18,30,29,,,,,,,,3.5,1.6,3.1*38
$GPRMC,170428.995,A,1731.5217,S,07002.4308,W,0.49,35.58,290411,,,A*5A
$GPGGA,170430.003,1731.5216,S,07002.4308,W,1,05,1.6,3009.0,M,34.5,M,,0000*65
$GPGSA,M,3,21,25,18,30,29,,,,,,,,3.5,1.6,3.1*38
$GPRMC,170430.003,A,1731.5216,S,07002.4308,W,0.79,332.96,290411,,,A*61
$GPGGA,170431.000,1731.5215,S,07002.4308,W,1,06,1.2,3009.2,M,34.5,M,,0000*61
$GPGSA,M,3,21,25,31,18,30,29,,,,,,,3.2,1.2,3.0*38
$GPRMC,170431.000,A,1731.5215,S,07002.4308,W,1.21,329.78,290411,,,A*66
$GPGGA,170432.003,1731.5210,S,07002.4311,W,1,06,1.2,3008.6,M,34.5,M,,0000*69
$GPGSA,M,3,21,25,31,18,30,29,,,,,,,3.2,1.2,3.0*38
$GPGSV,3,1,11,21,67,185,30,25,49,058,37,31,42,285,27,18,42,023,31*77
$GPGSV,3,2,11,30,32,212,33,29,28,131,27,22,21,353,,12,11,047,*7A
$GPGSV,3,3,11,16,09,216,,06,07,247,,14,01,340,*41
$GPRMC,170432.003,A,1731.5210,S,07002.4311,W,0.90,343.95,290411,,,A*6F
$GPGGA,170432.995,1731.5211,S,07002.4310,W,1,06,1.2,3009.2,M,34.5,M,,0000*6A
$GPGSA,M,3,21,25,31,18,30,29,,,,,,,3.2,1.2,3.0*38
$GPRMC,170432.995,A,1731.5211,S,07002.4310,W,0.32,63.43,290411,,,A*5B
$GPGGA,170433.999,1731.5212,S,07002.4310,W,1,06,1.2,3008.9,M,34.5,M,,0000*6E
$GPGSA,M,3,21,25,31,18,30,29,,,,,,,3.2,1.2,3.0*38
$GPRMC,170433.999,A,1731.5212,S,07002.4310,W,0.33,90.85,290411,,,A*52
$GPGGA,170435.001,1731.5212,S,07002.4308,W,1,05,1.6,3008.8,M,34.5,M,,0000*6F
$GPGSA,M,3,21,25,18,30,29,,,,,,,,3.5,1.6,3.1*38
$GPRMC,170435.001,A,1731.5212,S,07002.4308,W,0.45,63.33,290411,,,A*55
$GPGGA,170435.998,1731.5209,S,07002.4310,W,1,06,1.2,3007.3,M,34.5,M,,0000*66
$GPGSA,M,3,21,25,31,18,30,29,,,,,,,3.2,1.2,3.0*38
$GPRMC,170435.998,A,1731.5209,S,07002.4310,W,0.19,57.13,290411,,,A*53
$GPGGA,170437.003,1731.5207,S,07002.4309,W,1,04,4.2,3007.0,M,34.5,M,,0000*6D
$GPGSA,M,3,21,25,18,30,,,,,,,,,6.1,4.2,4.4*31
$GPGSV,3,1,11,21,67,185,30,25,49,058,37,31,42,285,,18,42,023,31*72
$GPGSV,3,2,11,30,32,212,34,29,28,131,,22,21,353,,12,11,047,*78
$GPGSV,3,3,11,16,09,216,,06,07,247,,14,01,340,*41
$GPRMC,170437.003,A,1731.5207,S,07002.4309,W,0.24,137.07,290411,,,A*60
$GPGGA,170437.997,1731.5207,S,07002.4309,W,1,06,1.2,3005.6,M,34.5,M,,0000*6A
$GPGSA,M,3,21,25,31,18,30,29,,,,,,,3.2,1.2,3.0*38
$GPRMC,170437.997,A,1731.5207,S,07002.4309,W,0.82,119.32,290411,,,A*62
$GPGGA,170439.004,1731.5206,S,07002.4305,W,1,04,4.2,3003.9,M,34.5,M,,0000*64
$GPGSA,M,3,21,25,18,30,,,,,,,,,6.1,4.2,4.4*31
$GPRMC,170439.004,A,1731.5206,S,07002.4305,W,1.18,95.37,290411,,,A*50
$GPGGA,170439.998,1731.5209,S,07002.4302,W,1,04,4.2,3002.0,M,34.5,M,,0000*68
$GPGSA,M,3,21,25,18,30,,,,,,,,,6.1,4.2,4.4*31
$GPRMC,170439.998,A,1731.5209,S,07002.4302,W,1.36,117.59,290411,,,A*6B
$GPGGA,170441.004,1731.5212,S,07002.4298,W,1,04,4.2,2999.3,M,34.5,M,,0000*6A
$GPGSA,M,3,21,25,18,30,,,,,,,,,6.1,4.2,4.4*31
$GPRMC,170441.004,A,1731.5212,S,07002.4298,W,1.96,128.93,290411,,,A*60
$GPGGA,170441.999,1731.5211,S,07002.4294,W,1,04,4.2,2996.4,M,34.5,M,,0000*60
$GPGSA,M,3,21,25,18,30,,,,,,,,,6.1,4.2,4.4*31
$GPGSV,3,1,11,21,67,185,31,25,49,058,37,31,42,285,,18,42,023,31*73
$GPGSV,3,2,11,30,32,212,35,29,28,131,,22,21,353,,12,11,047,*79
$GPGSV,3,3,11,16,09,216,,06,07,247,,14,01,340,*41
$GPRMC,170441.999,A,1731.5211,S,07002.4294,W,1.21,88.32,290411,,,A*5E
$GPGGA,170443.001,1731.5212,S,07002.4292,W,1,04,4.2,2996.5,M,34.5,M,,0000*6E
$GPGSA,M,3,21,25,18,30,,,,,,,,,6.1,4.2,4.4*31
$GPRMC,170443.001,A,1731.5212,S,07002.4292,W,0.94,116.27,290411,,,A*6C
$GPGGA,170443.995,1731.5215,S,07002.4283,W,1,06,1.2,2995.6,M,34.5,M,,0000*6A
$GPGSA,M,3,21,25,31,18,30,29,,,,,,,3.2,1.2,3.0*38
$GPRMC,170443.995,A,1731.5215,S,07002.4283,W,0.90,119.69,290411,,,A*6E
$GPGGA,170445.004,1731.5218,S,07002.4282,W,1,04,4.2,2995.3,M,34.5,M,,0000*63
$GPGSA,M,3,21,25,18,30,,,,,,,,,6.1,4.2,4.5*30
$GPRMC,170445.004,A,1731.5218,S,07002.4282,W,0.94,149.67,290411,,,A*6A
$GPGGA,170445.999,1731.5216,S,07002.4285,W,1,05,1.6,2992.2,M,34.5,M,,0000*61
$GPGSA,M,3,21,25,31,18,30,,,,,,,,4.1,1.6,3.8*3B
$GPRMC,170445.999,A,1731.5216,S,07002.4285,W,0.73,145.04,290411,,,A*6E
$GPGGA,170446.996,1731.5218,S,07002.4285,W,1,05,1.6,2991.5,M,34.5,M,,0000*67
$GPGSA,M,3,21,25,31,18,30,,,,,,,,4.1,1.6,3.8*3B
$GPGSV,3,1,11,21,67,185,31,25,49,058,37,31,42,285,28,18,42,023,33*7B
$GPGSV,3,2,11,30,32,212,22,29,28,131,,22,21,353,,12,11,047,*7F
$GPGSV,3,3,11,16,09,216,,06,07,247,,14,01,340,*41
$GPRMC,170446.996,A,1731.5218,S,07002.4285,W,0.80,141.00,290411,,,A*60
$GPGGA,170448.001,1731.5220,S,07002.4284,W,0,00,,2990.8,M,34.5,M,,0000*45
$GPGSA,M,1,,,,,,,,,,,,,,,*12
$GPRMC,170448.001,V,1731.5220,S,07002.4284,W,,,290411,,,N*77
$GPGGA,170449.000,1731.5222,S,07002.4282,W,0,00,,2990.1,M,34.5,M,,0000*48
$GPGSA,M,1,,,,,,,,,,,,,,,*12
$GPRMC,170449.000,V,1731.5222,S,07002.4282,W,,,290411,,,N*73
$GPGGA,170450.000,1731.5224,S,07002.4281,W,0,00,,2989.4,M,34.5,M,,0000*48
$GPGSA,M,1,,,,,,,,,,,,,,,*12
$GPRMC,170450.000,V,1731.5224,S,07002.4281,W,,,290411,,,N*7E
$GPGGA,170451.000,1731.5226,S,07002.4293,W,1,05,1.6,2997.8,M,34.5,M,,0000*66
$GPGSA,M,3,21,25,18,29,30,,,,,,,,3.5,1.6,3.1*38
$GPRMC,170451.000,A,1731.5226,S,07002.4293,W,0.08,153.78,290411,,,A*66
$GPGGA,170452.000,1731.5219,S,07002.4304,W,1,05,1.6,3003.0,M,34.5,M,,0000*6B
$GPGSA,M,3,21,25,18,29,30,,,,,,,,3.5,1.6,3.1*38
$GPGSV,3,1,11,21,67,184,37,25,49,057,39,18,42,024,35,31,42,286,*75
$GPGSV,3,2,11,30,32,212,39,29,28,130,28,12,10,046,,14,01,340,*7B
$GPGSV,3,3,11,22,21,353,,16,10,216,,06,07,247,26*48
$GPRMC,170452.000,A,1731.5219,S,07002.4304,W,0.34,322.31,290411,,,A*60
$GPGGA,170453.000,1731.5214,S,07002.4307,W,1,05,1.6,3004.0,M,34.5,M,,0000*63
$GPGSA,M,3,21,25,18,29,30,,,,,,,,3.5,1.6,3.1*38
$GPRMC,170453.000,A,1731.5214,S,07002.4307,W,0.43,318.43,290411,,,A*63
$GPGGA,170454.000,1731.5213,S,07002.4310,W,1,05,1.6,3004.7,M,34.5,M,,0000*62
$GPGSA,M,3,21,25,18,29,30,,,,,,,,3.5,1.6,3.1*38
$GPRMC,170454.000,A,1731.5213,S,07002.4310,W,0.06,13.08,290411,,,A*53
$GPGGA,170455.000,1731.5215,S,07002.4306,W,1,05,1.6,3005.1,M,34.5,M,,0000*65
$GPGSA,M,3,21,25,18,29,30,,,,,,,,3.5,1.6,3.1*38
$GPRMC,170455.000,A,1731.5215,S,07002.4306,W,0.11,104.37,290411,,,A*6E
$GPGGA,170456.000,1731.5219,S,07002.4303,W,1,05,1.6,3006.1,M,34.5,M,,0000*6C
$GPGSA,M,3,21,25,18,29,30,,,,,,,,3.5,1.6,3.1*38
$GPRMC,170456.000,A,1731.5219,S,07002.4303,W,0.14,113.71,290411,,,A*65
$GPGGA,170457.000,1731.5219,S,07002.4301,W,1,05,1.6,3006.5,M,34.5,M,,0000*6B
$GPGSA,M,3,21,25,18,29,30,,,,,,,,3.5,1.6,3.1*38
$GPGSV,3,1,11,21,67,184,36,25,49,057,38,18,42,024,35,31,42,286,*75
$GPGSV,3,2,11,30,32,212,39,29,28,130,29,12,10,046,,14,01,340,*7A
$GPGSV,3,3,11,22,21,353,,16,10,216,,06,07,247,26*48
$GPRMC,170457.000,A,1731.5219,S,07002.4301,W,0.15,114.05,290411,,,A*63
$GPGGA,170458.000,1731.5220,S,07002.4301,W,1,05,1.6,3007.2,M,34.5,M,,0000*68
$GPGSA,M,3,21,25,18,29,30,,,,,,,,3.5,1.6,3.1*38
$GPRMC,170458.000,A,1731.5220,S,07002.4301,W,0.15,116.88,290411,,,A*61
$GPGGA,170459.000,1731.5221,S,07002.4302,W,1,05,1.6,3007.7,M,34.5,M,,0000*6E
$GPGSA,M,3,21,25,18,29,30,,,,,,,,3.5,1.6,3.1*38
$GPRMC,170459.000,A,1731.5221,S,07002.4302,W,0.08,118.68,290411,,,A*6E
$GPGGA,170500.000,1731.5220,S,07002.4305,W,1,06,1.2,3008.8,M,34.5,M,,0000*62
$GPGSA,M,3,21,25,18,31,29,30,,,,,,,3.2,1.2,3.0*38
$GPRMC,170500.000,A,1731.5220,S,07002.4305,W,0.11,308.06,290411,,,A*66
$GPGGA,170501.000,1731.5220,S,07002.4306,W,1,06,1.2,3009.8,M,34.5,M,,0000*61
$GPGSA,M,3,21,25,18,31,29,30,,,,,,,3.2,1.2,3.0*38
$GPRMC,170501.000,A,1731.5220,S,07002.4306,W,0.09,308.27,290411,,,A*6E
$GPGGA,170502.000,1731.5221,S,07002.4306,W,1,04,4.2,3010.0,M,34.5,M,,0000*64
$GPGSA,M,3,21,25,18,30,,,,,,,,,6.1,4.2,4.5*30
$GPGSV,3,1,11,21,67,184,36,25,49,057,37,18,42,024,31,31,42,286,*7E
$GPGSV,3,2,11,30,32,212,37,29,28,130,,22,21,353,,12,10,046,*7A
$GPGSV,3,3,11,16,10,216,,06,07,247,25,14,01,340,*4E
$GPRMC,170502.000,A,1731.5221,S,07002.4306,W,0.40,143.86,290411,,,A*67
$GPGGA,170503.000,1731.5223,S,07002.4304,W,1,04,4.2,3010.2,M,34.5,M,,0000*67
$GPGSA,M,3,21,25,18,30,,,,,,,,,6.1,4.2,4.5*30
$GPRMC,170503.000,A,1731.5223,S,07002.4304,W,1.29,138.81,290411,,,A*63
$GPGGA,170504.000,1731.5224,S,07002.4304,W,1,05,1.6,3010.2,M,34.5,M,,0000*67
$GPGSA,M,3,21,25,18,30,29,,,,,,,,3.5,1.6,3.1*38
$GPRMC,170504.000,A,1731.5224,S,07002.4304,W,0.39,129.44,290411,,,A*6A
$GPGGA,170505.001,1731.5225,S,07002.4303,W,1,04,4.2,3010.7,M,34.5,M,,0000*64
$GPGSA,M,3,21,25,18,30,,,,,,,,,6.1,4.2,4.5*30
$GPRMC,170505.001,A,1731.5225,S,07002.4303,W,0.42,128.03,290411,,,A*62
$GPGGA,170506.002,1731.5226,S,07002.4301,W,1,05,1.6,3011.4,M,34.5,M,,0000*67
$GPGSA,M,3,21,25,18,31,30,,,,,,,,4.1,1.6,3.8*3B
$GPRMC,170506.002,A,1731.5226,S,07002.4301,W,0.28,236.58,290411,,,A*6D
$GPGGA,170506.996,1731.5227,S,07002.4300,W,1,05,1.6,3010.9,M,34.5,M,,0000*6F
$GPGSA,M,3,21,25,18,31,30,,,,,,,,4.1,1.6,3.8*3B
$GPGSV,3,1,11,21,67,184,36,25,49,057,36,18,42,024,35,31,42,286,24*7D
$GPGSV,3,2,11,30,32,212,35,29,28,130,,22,21,353,,12,10,046,*78
$GPGSV,3,3,11,16,10,216,,06,07,247,,14,01,340,*49
$GPRMC,170506.996,A,1731.5227,S,07002.4300,W,0.22,173.69,290411,,,A*63
$GPGGA,170508.002,1731.5228,S,07002.4299,W,0,00,,3011.1,M,34.5,M,,0000*4F
$GPGSA,M,1,,,,,,,,,,,,,,,*12
$GPRMC,170508.002,V,1731.5228,S,07002.4299,W,,,290411,,,N*75
$GPGGA,170509.000,1731.5228,S,07002.4299,W,0,00,,3011.3,M,34.5,M,,0000*4E
$GPGSA,M,1,,,,,,,,,,,,,,,*12
$GPRMC,170509.000,V,1731.5228,S,07002.4299,W,,,290411,,,N*76
$GPGGA,170510.000,1731.5229,S,07002.4299,W,0,00,,3011.5,M,34.5,M,,0000*41
$GPGSA,M,1,,,,,,,,,,,,,,,*12
$GPRMC,170510.000,V,1731.5229,S,07002.4299,W,,,290411,,,N*7F
$GPGGA,170511.000,1731.5241,S,07002.4291,W,1,05,1.6,3011.2,M,34.5,M,,0000*6C
$GPGSA,M,3,21,25,18,31,30,,,,,,,,4.1,1.6,3.8*3B
$GPRMC,170511.000,A,1731.5241,S,07002.4291,W,0.17,159.35,290411,,,A*6D
$GPGGA,170512.000,1731.5235,S,07002.4297,W,1,05,1.6,3011.6,M,34.5,M,,0000*6E
$GPGSA,M,3,21,25,18,31,30,,,,,,,,4.1,1.6,3.8*3B
$GPGSV,3,1,11,21,67,184,36,25,49,057,40,18,42,024,37,31,42,286,28*72
$GPGSV,3,2,11,30,32,212,37,29,28,130,,12,10,046,,14,01,340,*7F
$GPGSV,3,3,11,22,22,353,,16,10,216,,06,08,246,*41
$GPRMC,170512.000,A,1731.5235,S,07002.4297,W,0.06,260.78,290411,,,A*6B
$GPGGA,170513.000,1731.5233,S,07002.4294,W,1,06,1.2,3011.9,M,34.5,M,,0000*62
$GPGSA,M,3,21,25,18,29,31,30,,,,,,,3.2,1.2,3.0*38
$GPRMC,170513.000,A,1731.5233,S,07002.4294,W,0.12,129.51,290411,,,A*6F
$GPGGA,170514.000,1731.5236,S,07002.4291,W,1,06,1.2,3011.3,M,34.5,M,,0000*6F
$GPGSA,M,3,21,25,18,29,31,30,,,,,,,3.2,1.2,3.0*38
$GPRMC,170514.000,A,1731.5236,S,07002.4291,W,0.92,203.23,290411,,,A*6E
$GPGGA,170515.000,1731.5242,S,07002.4296,W,1,06,1.2,3012.3,M,34.5,M,,0000*69
$GPGSA,M,3,21,25,18,29,31,30,,,,,,,3.2,1.2,3.0*38
