$GPGGA,162944.003,3753.8853,S,07003.2610,W,1,08,1.1,997.8,M,24.1,M,,0000*59
$GPGSA,M,3,21,30,29,16,25,31,18,06,,,,,2.2,1.1,1.9*30
$GPRMC,162944.003,A,3753.8853,S,07003.2610,W,27.60,177.05,110511,,,A*59
$GPGGA,162944.993,3753.8929,S,07003.2605,W,1,08,1.1,997.9,M,24.1,M,,0000*50
$GPGSA,M,3,21,30,29,16,25,31,18,06,,,,,2.2,1.1,1.9*30
$GPRMC,162944.993,A,3753.8929,S,07003.2605,W,27.33,177.24,110511,,,A*54
$GPGGA,162946.000,3753.9007,S,07003.2597,W,1,08,1.1,997.7,M,24.1,M,,0000*53
$GPGSA,M,3,21,30,29,16,25,31,18,06,,,,,2.2,1.1,1.9*30
$GPGSV,3,1,11,21,88,146,38,30,56,233,41,29,38,107,36,16,31,224,37*71
$GPGSV,3,2,11,25,27,035,30,31,26,311,37,18,26,020,37,06,19,252,36*7B
$GPGSV,3,3,11,03,08,252,,05,07,143,30,22,05,356,*45
$GPRMC,162946.000,A,3753.9007,S,07003.2597,W,27.18,177.42,110511,,,A*50
$GPGGA,162947.001,3753.9082,S,07003.2595,W,1,08,1.1,998.8,M,24.1,M,,0000*5C
$GPGSA,M,3,21,30,29,16,25,31,18,06,,,,,2.2,1.1,1.9*30
$GPRMC,162947.001,A,3753.9082,S,07003.2595,W,26.89,178.62,110511,,,A*5B
$GPGGA,162948.000,3753.9157,S,07003.2594,W,1,08,1.1,999.2,M,24.1,M,,0000*51
$GPGSA,M,3,21,30,29,16,25,31,18,06,,,,,2.2,1.1,1.9*30
$GPRMC,162948.000,A,3753.9157,S,07003.2594,W,27.16,178.03,110511,,,A*5D
$GPGGA,162949.001,3753.9233,S,07003.2589,W,1,08,1.1,999.4,M,24.1,M,,0000*5A
$GPGSA,M,3,21,30,29,16,25,31,18,06,,,,,2.2,1.1,1.9*30
$GPRMC,162949.001,A,3753.9233,S,07003.2589,W,27.80,176.67,110511,,,A*53
$GPGGA,162950.002,3753.9310,S,07003.2587,W,1,08,1.1,1000.7,M,24.1,M,,0000*64
$GPGSA,M,3,21,30,29,16,25,31,18,06,,,,,2.2,1.1,1.9*30
$GPRMC,162950.002,A,3753.9310,S,07003.2587,W,26.96,178.55,110511,,,A*5F
$GPGGA,162950.998,3753.9386,S,07003.2580,W,1,08,1.1,1000.2,M,24.1,M,,0000*63
$GPGSA,M,3,21,30,29,16,25,31,18,06,,,,,2.2,1.1,1.9*30
$GPGSV,3,1,11,21,88,146,38,30,56,233,42,29,38,107,35,16,31,224,37*71
$GPGSV,3,2,11,25,27,035,30,31,26,311,38,18,26,020,33,06,19,252,33*75
$GPGSV,3,3,11,03,08,252,,05,07,143,31,22,05,356,*44
$GPRMC,162950.998,A,3753.9386,S,07003.2580,W,27.05,177.02,110511,,,A*5B
$GPGGA,162952.000,3753.9461,S,07003.2571,W,1,07,1.2,1001.0,M,24.1,M,,0000*66
$GPGSA,M,3,21,30,29,16,25,31,18,,,,,,2.5,1.2,2.2*3A
$GPRMC,162952.000,A,3753.9461,S,07003.2571,W,27.16,175.81,110511,,,A*5A
$GPGGA,162952.999,3753.9537,S,07003.2564,W,1,07,1.2,1000.7,M,24.1,M,,0000*6F
$GPGSA,M,3,21,30,29,16,25,31,18,,,,,,2.5,1.2,2.2*3A
$GPRMC,162952.999,A,3753.9537,S,07003.2564,W,27.00,177.31,110511,,,A*5B
$GPGGA,162954.001,3753.9611,S,07003.2562,W,1,08,1.1,1001.7,M,24.1,M,,0000*6D
$GPGSA,M,3,21,30,29,16,25,31,18,06,,,,,2.2,1.1,1.9*30
$GPRMC,162954.001,A,3753.9611,S,07003.2562,W,26.48,177.14,110511,,,A*5E
$GPGGA,162955.001,3753.9686,S,07003.2556,W,1,08,1.1,1001.3,M,24.1,M,,0000*61
$GPGSA,M,3,21,30,29,16,25,31,18,06,,,,,2.2,1.1,1.9*30
$GPRMC,162955.001,A,3753.9686,S,07003.2556,W,27.49,176.99,110511,,,A*52
$GPGGA,162956.002,3753.9763,S,07003.2550,W,1,08,1.1,1001.6,M,24.1,M,,0000*68
$GPGSA,M,3,21,30,29,16,25,31,18,06,,,,,2.2,1.1,1.9*30
$GPGSV,3,1,11,21,88,146,39,30,56,233,41,29,38,107,33,16,31,224,38*7A
$GPGSV,3,2,11,25,27,035,26,31,26,311,37,18,26,020,36,06,19,252,35*7E
$GPGSV,3,3,11,03,08,252,,05,07,143,25,22,05,356,*41
$GPRMC,162956.002,A,3753.9763,S,07003.2550,W,27.03,176.82,110511,,,A*5A
$GPGGA,162956.998,3753.9839,S,07003.2544,W,1,08,1.1,1000.8,M,24.1,M,,0000*68
$GPGSA,M,3,21,30,29,16,25,31,18,06,,,,,2.2,1.1,1.9*30
$GPRMC,162956.998,A,3753.9839,S,07003.2544,W,27.22,177.79,110511,,,A*53
$GPGGA,162958.001,3753.9915,S,07003.2540,W,1,08,1.1,1000.6,M,24.1,M,,0000*6A
$GPGSA,M,3,21,30,29,16,25,31,18,06,,,,,2.2,1.1,1.9*30
$GPRMC,162958.001,A,3753.9915,S,07003.2540,W,27.44,177.21,110511,,,A*52
$GPGGA,162958.999,3753.9990,S,07003.2538,W,1,07,1.2,1001.3,M,24.1,M,,0000*68
$GPGSA,M,3,21,30,29,16,25,31,18,,,,,,2.5,1.2,2.2*3A
$GPRMC,162958.999,A,3753.9990,S,07003.2538,W,27.59,178.17,110511,,,A*5E
$GPGGA,163000.002,3754.0067,S,07003.2533,W,1,07,1.2,1001.8,M,24.1,M,,0000*69
$GPGSA,M,3,21,30,29,16,25,31,18,,,,,,2.5,1.2,2.2*3A
$GPRMC,163000.002,A,3754.0067,S,07003.2533,W,28.03,177.11,110511,,,A*5D
$GPGGA,163001.000,3754.0144,S,07003.2530,W,1,07,1.2,1002.1,M,24.1,M,,0000*63
$GPGSA,M,3,21,30,29,16,25,31,18,,,,,,2.5,1.2,2.2*3A
$GPGSV,3,1,11,21,88,146,38,30,56,233,40,29,38,107,37,16,31,224,36*70
$GPGSV,3,2,11,25,27,035,35,31,26,311,37,18,26,020,35,06,19,252,*79
$GPGSV,3,3,11,03,08,252,,05,07,143,27,22,05,356,27*46
$GPRMC,163001.000,A,3754.0144,S,07003.2530,W,28.16,176.23,110511,,,A*59
$GPGGA,163002.000,3754.0222,S,07003.2521,W,1,07,1.2,1002.3,M,24.1,M,,0000*61
$GPGSA,M,3,21,30,29,16,25,31,18,,,,,,2.5,1.2,2.2*3A
$GPRMC,163002.000,A,3754.0222,S,07003.2521,W,28.26,176.48,110511,,,A*57
$GPGGA,163003.000,3754.0299,S,07003.2517,W,1,07,1.2,1004.0,M,24.1,M,,0000*60
$GPGSA,M,3,21,30,29,16,25,31,18,,,,,,2.5,1.2,2.2*3A
$GPRMC,163003.000,A,3754.0299,S,07003.2517,W,28.29,176.11,110511,,,A*50
$GPGGA,163004.000,3754.0377,S,07003.2511,W,1,08,1.1,1005.5,M,24.1,M,,0000*68
$GPGSA,M,3,21,30,29,16,25,31,18,06,,,,,2.2,1.1,1.9*30
$GPRMC,163004.000,A,3754.0377,S,07003.2511,W,28.27,175.91,110511,,,A*55
$GPGGA,163004.999,3754.0455,S,07003.2506,W,1,08,1.1,1006.3,M,24.1,M,,0000*65
$GPGSA,M,3,21,30,29,16,25,31,18,06,,,,,2.2,1.1,1.9*30
$GPRMC,163004.999,A,3754.0455,S,07003.2506,W,27.84,175.08,110511,,,A*5B
$GPGGA,163005.999,3754.0532,S,07003.2498,W,1,08,1.1,1006.5,M,24.1,M,,0000*64
$GPGSA,M,3,21,30,29,16,25,31,18,06,,,,,2.2,1.1,1.9*30
$GPGSV,3,1,11,21,88,146,39,30,56,233,41,29,38,107,33,16,31,224,37*75
$GPGSV,3,2,11,25,27,035,34,31,26,311,39,18,26,020,33,06,19,252,31*72
$GPGSV,3,3,11,03,08,252,,05,07,143,29,22,05,356,26*49
$GPRMC,163005.999,A,3754.0532,S,07003.2498,W,27.31,174.76,110511,,,A*5A
$GPGGA,163006.999,3754.0608,S,07003.2486,W,1,08,1.1,1006.1,M,24.1,M,,0000*66
$GPGSA,M,3,21,30,29,16,25,31,18,06,,,,,2.2,1.1,1.9*30
$GPRMC,163006.999,A,3754.0608,S,07003.2486,W,27.44,173.12,110511,,,A*5B
$GPGGA,163008.001,3754.0685,S,07003.2477,W,1,08,1.1,1006.4,M,24.1,M,,0000*6E
$GPGSA,M,3,21,30,29,16,25,31,18,06,,,,,2.2,1.1,1.9*30
$GPRMC,163008.001,A,3754.0685,S,07003.2477,W,28.12,172.08,110511,,,A*50
$GPGGA,163009.002,3754.0761,S,07003.2463,W,1,08,1.1,1006.6,M,24.1,M,,0000*60
$GPGSA,M,3,21,30,29,16,25,31,18,06,,,,,2.2,1.1,1.9*30
$GPRMC,163009.002,A,3754.0761,S,07003.2463,W,27.21,171.92,110511,,,A*53
$GPGGA,163010.001,3754.0835,S,07003.2446,W,1,08,1.1,1007.3,M,24.1,M,,0000*66
$GPGSA,M,3,21,30,29,16,25,31,18,06,,,,,2.2,1.1,1.9*30
$GPRMC,163010.001,A,3754.0835,S,07003.2446,W,27.35,170.33,110511,,,A*5E
$GPGGA,163011.001,3754.0907,S,07003.2431,W,1,08,1.1,1007.9,M,24.1,M,,0000*6D
$GPGSA,M,3,21,30,29,16,25,31,18,06,,,,,2.2,1.1,1.9*30
$GPGSV,3,1,11,21,88,146,40,30,56,233,41,29,38,107,31,16,31,224,37*79
$GPGSV,3,2,11,25,27,035,32,31,26,311,38,18,26,020,36,06,19,252,30*71
$GPGSV,3,3,11,03,08,252,,05,07,143,,22,05,356,31*44
$GPRMC,163011.001,A,3754.0907,S,07003.2431,W,27.25,170.12,110511,,,A*5D
$GPGGA,163012.001,3754.0982,S,07003.2412,W,1,08,1.1,1008.4,M,24.1,M,,0000*60
$GPGSA,M,3,21,30,29,16,25,31,18,06,,,,,2.2,1.1,1.9*30
$GPRMC,163012.001,A,3754.0982,S,07003.2412,W,27.67,168.49,110511,,,A*53
$GPGGA,163012.998,3754.1055,S,07003.2390,W,1,08,1.1,1010.0,M,24.1,M,,0000*6B
$GPGSA,M,3,21,30,29,16,25,31,18,06,,,,,2.2,1.1,1.9*30
$GPRMC,163012.998,A,3754.1055,S,07003.2390,W,27.45,168.75,110511,,,A*5A
$GPGGA,163014.004,3754.1131,S,07003.2370,W,1,08,1.1,1011.3,M,24.1,M,,0000*6E
$GPGSA,M,3,21,30,29,16,25,31,18,06,,,,,2.2,1.1,1.9*30
$GPRMC,163014.004,A,3754.1131,S,07003.2370,W,27.58,167.83,110511,,,A*57
$GPGGA,163015.000,3754.1210,S,07003.2344,W,1,08,1.1,1011.5,M,24.1,M,,0000*6A
$GPGSA,M,3,21,30,29,16,25,31,18,06,,,,,2.2,1.1,1.9*30
$GPRMC,163015.000,A,3754.1210,S,07003.2344,W,28.18,166.32,110511,,,A*55
$GPGGA,163015.998,3754.1286,S,07003.2319,W,1,08,1.1,1011.0,M,24.1,M,,0000*60
$GPGSA,M,3,21,30,29,16,25,31,18,06,,,,,2.2,1.1,1.9*30
$GPGSV,3,1,11,21,88,146,39,30,56,233,40,29,38,107,32,16,31,224,36*74
$GPGSV,3,2,11,25,27,035,32,31,26,311,37,18,26,020,35,06,19,252,34*79
$GPGSV,3,3,11,03,08,252,,05,07,143,,22,05,356,31*44
$GPRMC,163015.998,A,3754.1286,S,07003.2319,W,27.20,164.96,110511,,,A*52
$GPGGA,163017.000,3754.1359,S,07003.2293,W,1,08,1.1,1012.2,M,24.1,M,,0000*6B
$GPGSA,M,3,21,30,29,16,25,31,18,06,,,,,2.2,1.1,1.9*30
$GPRMC,163017.000,A,3754.1359,S,07003.2293,W,27.74,164.29,110511,,,A*5D
$GPGGA,163018.000,3754.1433,S,07003.2264,W,1,08,1.1,1012.5,M,24.1,M,,0000*60
$GPGSA,M,3,21,30,29,16,25,31,18,06,,,,,2.2,1.1,1.9*30
$GPRMC,163018.000,A,3754.1433,S,07003.2264,W,27.01,161.98,110511,,,A*5C
$GPGGA,163019.002,3754.1507,S,07003.2233,W,1,08,1.1,1012.8,M,24.1,M,,0000*6A
$GPGSA,M,3,21,30,29,16,25,31,18,06,,,,,2.2,1.1,1.9*30
$GPRMC,163019.002,A,3754.1507,S,07003.2233,W,28.08,161.50,110511,,,A*59
$GPGGA,163020.000,3754.1581,S,07003.2200,W,1,08,1.1,1013.2,M,24.1,M,,0000*67
$GPGSA,M,3,21,30,29,16,25,31,18,06,,,,,2.2,1.1,1.9*30
$GPRMC,163020.000,A,3754.1581,S,07003.2200,W,28.25,158.70,110511,,,A*58
$GPGGA,163021.000,3754.1654,S,07003.2166,W,1,08,1.1,1014.6,M,24.1,M,,0000*6D
$GPGSA,M,3,21,30,29,16,25,31,18,06,,,,,2.2,1.1,1.9*30
$GPGSV,3,1,11,21,88,146,41,30,56,233,40,29,38,107,24,16,31,224,35*7F
$GPGSV,3,2,11,25,27,035,39,31,26,311,37,18,26,020,30,06,19,252,26*74
$GPGSV,3,3,11,03,08,252,,05,07,143,,22,05,356,28*4C
$GPRMC,163021.000,A,3754.1654,S,07003.2166,W,27.49,158.15,110511,,,A*57
$GPGGA,163021.999,3754.1728,S,07003.2128,W,1,06,1.2,1015.0,M,24.1,M,,0000*6E
$GPGSA,M,3,21,30,29,16,25,31,,,,,,,2.5,1.2,2.2*33
$GPRMC,163021.999,A,3754.1728,S,07003.2128,W,27.39,157.24,110511,,,A*54
$GPGGA,163022.999,3754.1797,S,07003.2091,W,1,06,1.7,1016.5,M,24.1,M,,0000*69
$GPGSA,M,3,21,30,16,25,31,18,,,,,,,2.9,1.7,2.4*3E
$GPRMC,163022.999,A,3754.1797,S,07003.2091,W,27.30,156.71,110511,,,A*58
$GPGGA,163023.998,3754.1866,S,07003.2052,W,1,07,1.2,1016.3,M,24.1,M,,0000*65
$GPGSA,M,3,21,30,29,16,25,31,18,,,,,,2.5,1.2,2.2*3A
$GPRMC,163023.998,A,3754.1866,S,07003.2052,W,28.08,155.20,110511,,,A*55
$GPGGA,163025.003,3754.1936,S,07003.2007,W,1,06,1.2,1016.9,M,24.1,M,,0000*67
$GPGSA,M,3,21,30,29,16,25,31,,,,,,,2.5,1.2,2.2*33
$GPRMC,163025.003,A,3754.1936,S,07003.2007,W,27.85,154.20,110511,,,A*57
$GPGGA,163025.999,3754.2007,S,07003.1960,W,1,06,1.2,1017.1,M,24.1,M,,0000*67
$GPGSA,M,3,21,30,29,16,25,31,,,,,,,2.5,1.2,2.2*33
$GPGSV,3,1,11,21,88,146,41,30,56,233,39,29,38,107,32,16,31,224,37*74
$GPGSV,3,2,11,25,27,035,38,31,26,311,38,18,26,020,,06,19,252,*7D
$GPGSV,3,3,11,03,08,252,,05,07,143,,22,05,356,28*4C
$GPRMC,163025.999,A,3754.2007,S,07003.1960,W,26.85,154.32,110511,,,A*5C
$GPGGA,163026.998,3754.2076,S,07003.1917,W,1,07,1.2,1017.9,M,24.1,M,,0000*6A
$GPGSA,M,3,21,30,29,16,25,31,18,,,,,,2.5,1.2,2.2*3A
$GPRMC,163026.998,A,3754.2076,S,07003.1917,W,26.99,153.22,110511,,,A*53
$GPGGA,163028.001,3754.2143,S,07003.1871,W,1,06,1.2,1017.5,M,24.1,M,,0000*66
$GPGSA,M,3,21,30,29,16,25,31,,,,,,,2.5,1.2,2.2*33
$GPRMC,163028.001,A,3754.2143,S,07003.1871,W,27.28,152.11,110511,,,A*58
$GPGGA,163029.002,3754.2214,S,07003.1823,W,1,07,1.2,1018.1,M,24.1,M,,0000*68
$GPGSA,M,3,21,30,29,16,25,31,18,,,,,,2.5,1.2,2.2*3A
$GPRMC,163029.002,A,3754.2214,S,07003.1823,W,28.42,152.10,110511,,,A*5E
$GPGGA,163030.000,3754.2282,S,07003.1776,W,1,07,1.2,1018.7,M,24.1,M,,0000*64
$GPGSA,M,3,21,30,29,16,25,31,18,,,,,,2.5,1.2,2.2*3A
$GPRMC,163030.000,A,3754.2282,S,07003.1776,W,28.18,149.29,110511,,,A*5B
$GPGGA,163030.999,3754.2347,S,07003.1724,W,1,07,1.2,1019.8,M,24.1,M,,0000*6C
$GPGSA,M,3,21,30,29,16,25,31,18,,,,,,2.5,1.2,2.2*3A
$GPGSV,3,1,11,21,88,146,39,30,56,233,38,29,38,107,29,16,31,224,39*7E
$GPGSV,3,2,11,25,27,035,29,31,26,311,33,18,26,020,33,06,19,252,*76
$GPGSV,3,3,11,03,08,252,,05,07,143,,22,05,356,30*45
$GPRMC,163030.999,A,3754.2347,S,07003.1724,W,27.97,148.68,110511,,,A*51
$GPGGA,163032.001,3754.2412,S,07003.1671,W,1,07,1.2,1020.1,M,24.1,M,,0000*63
$GPGSA,M,3,21,30,29,16,25,31,18,,,,,,2.5,1.2,2.2*3A
$GPRMC,163032.001,A,3754.2412,S,07003.1671,W,28.52,148.14,110511,,,A*50
$GPGGA,163033.000,3754.2479,S,07003.1614,W,1,07,1.2,1020.2,M,24.1,M,,0000*6E
$GPGSA,M,3,21,30,29,16,25,31,18,,,,,,2.5,1.2,2.2*3A
$GPRMC,163033.000,A,3754.2479,S,07003.1614,W,28.92,147.87,110511,,,A*57
$GPGGA,163034.002,3754.2546,S,07003.1559,W,1,07,1.2,1020.8,M,24.1,M,,0000*66
$GPGSA,M,3,21,30,29,16,25,31,18,,,,,,2.5,1.2,2.2*3A
$GPRMC,163034.002,A,3754.2546,S,07003.1559,W,28.29,148.56,110511,,,A*56
$GPGGA,163035.001,3754.2613,S,07003.1505,W,1,07,1.2,1021.6,M,24.1,M,,0000*61
$GPGSA,M,3,21,30,29,16,25,31,18,,,,,,2.5,1.2,2.2*3A
$GPRMC,163035.001,A,3754.2613,S,07003.1505,W,28.62,148.46,110511,,,A*50
$GPGGA,163035.999,3754.2684,S,07003.1451,W,1,07,1.2,1021.2,M,24.1,M,,0000*63
$GPGSA,M,3,21,30,29,16,25,31,18,,,,,,2.5,1.2,2.2*3A
$GPGSV,3,1,11,21,88,146,39,30,56,233,40,29,38,107,30,16,31,224,38*78
$GPGSV,3,2,11,25,27,035,33,31,26,311,37,18,26,020,37,06,19,252,*7D
$GPGSV,3,3,11,03,08,252,,05,07,143,27,22,05,356,31*41
$GPRMC,163035.999,A,3754.2684,S,07003.1451,W,29.12,148.09,110511,,,A*5B
$GPGGA,163036.999,3754.2752,S,07003.1399,W,1,07,1.2,1021.8,M,24.1,M,,0000*63
$GPGSA,M,3,21,30,29,16,25,31,18,,,,,,2.5,1.2,2.2*3A
$GPRMC,163036.999,A,3754.2752,S,07003.1399,W,28.60,148.81,110511,,,A*55
$GPGGA,163038.000,3754.2822,S,07003.1345,W,1,07,1.2,1022.6,M,24.1,M,,0000*60
$GPGSA,M,3,21,30,29,16,25,31,18,,,,,,2.5,1.2,2.2*3A
$GPRMC,163038.000,A,3754.2822,S,07003.1345,W,28.52,148.26,110511,,,A*57
$GPGGA,163039.002,3754.2889,S,07003.1294,W,1,07,1.2,1022.9,M,24.1,M,,0000*60
$GPGSA,M,3,21,30,29,16,25,31,18,,,,,,2.5,1.2,2.2*3A
$GPRMC,163039.002,A,3754.2889,S,07003.1294,W,28.78,148.32,110511,,,A*55
$GPGGA,163039.997,3754.2957,S,07003.1241,W,1,07,1.2,1024.2,M,24.1,M,,0000*62
$GPGSA,M,3,21,30,29,16,25,31,18,,,,,,2.5,1.2,2.2*3A
$GPRMC,163039.997,A,3754.2957,S,07003.1241,W,28.04,148.57,110511,,,A*52
$GPGGA,163041.001,3754.3024,S,07003.1188,W,1,07,1.2,1026.2,M,24.1,M,,0000*63
$GPGSA,M,3,21,30,29,16,25,31,18,,,,,,2.5,1.2,2.2*3A
$GPGSV,3,1,11,21,88,146,38,30,56,233,40,29,38,107,29,16,31,224,38*71
$GPGSV,3,2,11,25,27,035,36,31,26,311,36,18,26,020,38,06,19,252,*76
$GPGSV,3,3,11,03,08,252,,05,07,143,25,22,05,356,30*42
$GPRMC,163041.001,A,3754.3024,S,07003.1188,W,28.23,148.04,110511,,,A*52
$GPGGA,163042.003,3754.3089,S,07003.1136,W,1,07,1.2,1026.4,M,24.1,M,,0000*66
$GPGSA,M,3,21,30,29,16,25,31,18,,,,,,2.5,1.2,2.2*3A
$GPRMC,163042.003,A,3754.3089,S,07003.1136,W,28.35,148.44,110511,,,A*52
$GPGGA,163042.996,3754.3158,S,07003.1084,W,1,07,1.2,1027.0,M,24.1,M,,0000*63
$GPGSA,M,3,21,30,29,16,25,31,18,,,,,,2.5,1.2,2.2*3A
$GPRMC,163042.996,A,3754.3158,S,07003.1084,W,28.32,148.91,110511,,,A*5D
$GPGGA,163044.003,3754.3223,S,07003.1034,W,1,07,1.2,1026.5,M,24.1,M,,0000*60
$GPGSA,M,3,21,30,29,16,25,31,18,,,,,,2.5,1.2,2.2*3A
$GPRMC,163044.003,A,3754.3223,S,07003.1034,W,27.97,149.03,110511,,,A*50
$GPGGA,163044.999,3754.3291,S,07003.0985,W,1,08,1.1,1026.1,M,24.1,M,,0000*69
$GPGSA,M,3,21,30,29,16,25,31,18,06,,,,,2.2,1.1,1.9*30
$GPRMC,163044.999,A,3754.3291,S,07003.0985,W,28.70,148.99,110511,,,A*55
$GPGGA,163046.001,3754.3357,S,07003.0933,W,1,08,1.1,1027.2,M,24.1,M,,0000*67
$GPGSA,M,3,21,30,29,16,18,31,25,06,,,,,2.2,1.1,1.9*30
$GPGSV,3,1,11,21,87,146,38,30,56,234,41,29,37,106,29,16,32,224,36*7B
$GPGSV,3,2,11,18,27,020,38,31,26,312,37,25,26,035,35,06,19,251,36*71
$GPGSV,3,3,11,05,06,144,,03,08,252,,22,05,356,*40
$GPRMC,163046.001,A,3754.3357,S,07003.0933,W,28.88,148.58,110511,,,A*53
$GPGGA,163047.000,3754.3422,S,07003.0880,W,1,08,1.1,1028.1,M,24.0,M,,0000*66
$GPGSA,M,3,21,30,29,16,18,31,25,06,,,,,2.2,1.1,1.9*30
$GPRMC,163047.000,A,3754.3422,S,07003.0880,W,28.40,147.89,110511,,,A*58
$GPGGA,163047.999,3754.3490,S,07003.0823,W,1,08,1.1,1028.1,M,24.0,M,,0000*6F
$GPGSA,M,3,21,30,29,16,18,31,25,06,,,,,2.2,1.1,1.9*30
$GPRMC,163047.999,A,3754.3490,S,07003.0823,W,28.62,147.61,110511,,,A*57
$GPGGA,163048.999,3754.3556,S,07003.0770,W,1,08,1.1,1028.2,M,24.0,M,,0000*61
$GPGSA,M,3,21,30,29,16,18,31,25,06,,,,,2.2,1.1,1.9*30
$GPRMC,163048.999,A,3754.3556,S,07003.0770,W,28.84,147.87,110511,,,A*5A
$GPGGA,163050.003,3754.3623,S,07003.0715,W,1,08,1.1,1028.7,M,24.0,M,,0000*65
$GPGSA,M,3,21,30,29,16,18,31,25,06,,,,,2.2,1.1,1.9*30
$GPRMC,163050.003,A,3754.3623,S,07003.0715,W,28.45,147.46,110511,,,A*5B
$GPGGA,163050.997,3754.3689,S,07003.0663,W,1,08,1.1,1029.4,M,24.0,M,,0000*63
$GPGSA,M,3,21,30,29,16,18,31,25,06,,,,,2.2,1.1,1.9*30
$GPGSV,3,1,11,21,87,146,39,30,56,234,41,29,37,106,29,16,32,224,40*7B
$GPGSV,3,2,11,18,27,020,39,31,26,312,26,25,26,035,37,06,19,251,37*73
$GPGSV,3,3,11,03,08,252,,05,06,144,24,22,05,356,27*43
$GPRMC,163050.997,A,3754.3689,S,07003.0663,W,27.64,147.63,110511,,,A*54
$GPGGA,163052.001,3754.3754,S,07003.0606,W,1,08,1.1,1029.8,M,24.0,M,,0000*69
$GPGSA,M,3,21,30,29,16,18,31,25,06,,,,,2.2,1.1,1.9*30
$GPRMC,163052.001,A,3754.3754,S,07003.0606,W,28.86,147.68,110511,,,A*5A
$GPGGA,163053.001,3754.3819,S,07003.0555,W,1,08,1.1,1029.4,M,24.0,M,,0000*67
$GPGSA,M,3,21,30,29,16,18,31,25,06,,,,,2.2,1.1,1.9*30
$GPRMC,163053.001,A,3754.3819,S,07003.0555,W,27.72,149.03,110511,,,A*5F
$GPGGA,163054.002,3754.3886,S,07003.0506,W,1,08,1.1,1029.2,M,24.0,M,,0000*65
$GPGSA,M,3,21,30,29,16,18,31,25,06,,,,,2.2,1.1,1.9*30
$GPRMC,163054.002,A,3754.3886,S,07003.0506,W,27.41,148.90,110511,,,A*50
$GPGGA,163055.000,3754.3951,S,07003.0456,W,1,08,1.1,1029.0,M,24.0,M,,0000*6B
$GPGSA,M,3,21,30,29,16,18,31,25,06,,,,,2.2,1.1,1.9*30
$GPRMC,163055.000,A,3754.3951,S,07003.0456,W,27.59,149.85,110511,,,A*50
$GPGGA,163056.000,3754.4019,S,07003.0407,W,1,08,1.1,1028.8,M,24.0,M,,0000*67
$GPGSA,M,3,21,30,29,16,18,31,25,06,,,,,2.2,1.1,1.9*30
$GPGSV,3,1,11,21,87,146,38,30,56,234,41,29,37,106,28,16,32,224,38*74
$GPGSV,3,2,11,18,27,020,36,31,26,312,34,25,26,035,38,06,19,251,37*70
$GPGSV,3,3,11,03,08,252,,05,06,144,,22,05,356,29*4B
$GPRMC,163056.000,A,3754.4019,S,07003.0407,W,28.08,149.84,110511,,,A*5F
$GPGGA,163057.001,3754.4088,S,07003.0357,W,1,08,1.1,1028.8,M,24.0,M,,0000*6D
$GPGSA,M,3,21,30,29,16,18,31,25,06,,,,,2.2,1.1,1.9*30
$GPRMC,163057.001,A,3754.4088,S,07003.0357,W,28.62,150.63,110511,,,A*58
$GPGGA,163057.999,3754.4160,S,07003.0312,W,1,08,1.1,1027.9,M,24.0,M,,0000*6D
$GPGSA,M,3,21,30,29,16,18,31,25,06,,,,,2.2,1.1,1.9*30
$GPRMC,163057.999,A,3754.4160,S,07003.0312,W,27.37,152.20,110511,,,A*5C
$GPGGA,163059.000,3754.4228,S,07003.0270,W,1,08,1.1,1027.7,M,24.0,M,,0000*6E
$GPGSA,M,3,21,30,29,16,18,31,25,06,,,,,2.2,1.1,1.9*30
$GPRMC,163059.000,A,3754.4228,S,07003.0270,W,27.16,155.26,110511,,,A*53
$GPGGA,163100.001,3754.4301,S,07003.0229,W,1,08,1.1,1027.2,M,24.0,M,,0000*61
$GPGSA,M,3,21,30,29,16,18,31,25,06,,,,,2.2,1.1,1.9*30
$GPRMC,163100.001,A,3754.4301,S,07003.0229,W,27.43,157.00,110511,,,A*5F
$GPGGA,163101.001,3754.4376,S,07003.0189,W,1,08,1.1,1026.3,M,24.0,M,,0000*69
$GPGSA,M,3,21,30,29,16,18,31,25,06,,,,,2.2,1.1,1.9*30
$GPGSV,3,1,11,21,87,146,38,30,56,234,40,29,37,106,37,16,32,224,37*74
$GPGSV,3,2,11,18,27,020,31,31,26,312,37,25,26,035,38,06,19,251,38*7B
$GPGSV,3,3,11,03,08,252,,05,06,144,28,22,05,356,31*48
$GPRMC,163101.001,A,3754.4376,S,07003.0189,W,27.31,160.21,110511,,,A*55
$GPGGA,163102.002,3754.4447,S,07003.0159,W,1,08,1.1,1025.8,M,24.0,M,,0000*69
$GPGSA,M,3,21,30,29,16,18,31,25,06,,,,,2.2,1.1,1.9*30
$GPRMC,163102.002,A,3754.4447,S,07003.0159,W,27.14,163.60,110511,,,A*5C
$GPGGA,163102.998,3754.4523,S,07003.0129,W,1,08,1.1,1024.6,M,24.0,M,,0000*68
$GPGSA,M,3,21,30,29,16,18,31,25,06,,,,,2.2,1.1,1.9*30
$GPRMC,163102.998,A,3754.4523,S,07003.0129,W,27.21,164.05,110511,,,A*50
$GPGGA,163104.000,3754.4599,S,07003.0103,W,1,07,1.2,1024.3,M,24.0,M,,0000*66
$GPGSA,M,3,21,30,29,16,31,25,06,,,,,,2.2,1.2,1.9*3A
$GPRMC,163104.000,A,3754.4599,S,07003.0103,W,27.36,167.40,110511,,,A*53
$GPGGA,163104.998,3754.4673,S,07003.0086,W,1,08,1.1,1024.9,M,24.0,M,,0000*63
$GPGSA,M,3,21,30,29,16,18,31,25,06,,,,,2.2,1.1,1.9*30
$GPRMC,163104.998,A,3754.4673,S,07003.0086,W,27.22,170.35,110511,,,A*51
$GPGGA,163106.002,3754.4749,S,07003.0071,W,1,08,1.1,1024.3,M,24.0,M,,0000*61
$GPGSA,M,3,21,30,29,16,18,31,25,06,,,,,2.2,1.1,1.9*30
$GPGSV,3,1,11,21,87,146,38,30,56,234,41,29,37,106,28,16,32,224,36*7A
$GPGSV,3,2,11,18,27,020,33,31,26,312,40,25,26,035,36,06,19,251,31*7E
$GPGSV,3,3,11,03,08,252,,05,06,144,29,22,05,356,*4B
$GPRMC,163106.002,A,3754.4749,S,07003.0071,W,27.37,173.06,110511,,,A*5E
$GPGGA,163107.000,3754.4826,S,07003.0061,W,1,08,1.1,1023.9,M,24.0,M,,0000*68
$GPGSA,M,3,21,30,29,16,18,31,25,06,,,,,2.2,1.1,1.9*30
$GPRMC,163107.000,A,3754.4826,S,07003.0061,W,28.46,176.00,110511,,,A*50
$GPGGA,163108.001,3754.4904,S,07003.0053,W,1,08,1.1,1024.1,M,24.0,M,,0000*69
$GPGSA,M,3,21,30,29,16,18,31,25,06,,,,,2.2,1.1,1.9*30
$GPRMC,163108.001,A,3754.4904,S,07003.0053,W,28.11,176.70,110511,,,A*5B
$GPGGA,163109.001,3754.4981,S,07003.0052,W,1,07,1.6,1025.8,M,24.0,M,,0000*64
$GPGSA,M,3,21,30,16,18,31,25,06,,,,,,2.7,1.6,2.1*32
$GPRMC,163109.001,A,3754.4981,S,07003.0052,W,28.32,179.36,110511,,,A*5A
$GPGGA,163110.000,3754.5061,S,07003.0051,W,1,07,1.6,1025.1,M,24.0,M,,0000*61
$GPGSA,M,3,21,30,16,18,31,25,06,,,,,,2.7,1.6,2.1*32
$GPRMC,163110.000,A,3754.5061,S,07003.0051,W,28.77,180.20,110511,,,A*56
$GPGGA,163111.000,3754.5134,S,07003.0057,W,1,08,1.1,1025.9,M,24.0,M,,0000*67
$GPGSA,M,3,21,30,29,16,18,31,25,06,,,,,2.2,1.1,1.9*30
$GPGSV,3,1,11,21,87,146,37,30,56,234,40,29,37,106,27,16,32,224,37*7A
$GPGSV,3,2,11,18,27,020,37,31,26,312,39,25,26,035,30,06,19,251,28*7A
$GPGSV,3,3,11,03,08,252,,05,06,144,,22,05,356,29*4B
$GPRMC,163111.000,A,3754.5134,S,07003.0057,W,27.38,184.03,110511,,,A*51
$GPGGA,163112.002,3754.5212,S,07003.0066,W,1,08,1.1,1026.7,M,24.0,M,,0000*6E
$GPGSA,M,3,21,30,29,16,18,31,25,06,,,,,2.2,1.1,1.9*30
$GPRMC,163112.002,A,3754.5212,S,07003.0066,W,27.80,188.01,110511,,,A*58
$GPGGA,163113.003,3754.5291,S,07003.0080,W,1,07,1.2,1026.0,M,24.0,M,,0000*66
$GPGSA,M,3,21,30,29,16,18,31,25,,,,,,2.5,1.2,2.2*3A
$GPRMC,163113.003,A,3754.5291,S,07003.0080,W,27.42,191.44,110511,,,A*5C
$GPGGA,163113.995,3754.5362,S,07003.0100,W,1,07,1.2,1026.9,M,24.0,M,,0000*6D
$GPGSA,M,3,21,30,29,16,18,31,25,,,,,,2.5,1.2,2.2*3A
$GPRMC,163113.995,A,3754.5362,S,07003.0100,W,26.76,194.94,110511,,,A*50
$GPGGA,163115.003,3754.5436,S,07003.0125,W,1,07,1.2,1025.9,M,24.0,M,,0000*6F
$GPGSA,M,3,21,30,29,16,18,31,25,,,,,,2.5,1.2,2.2*3A
$GPRMC,163115.003,A,3754.5436,S,07003.0125,W,27.55,198.52,110511,,,A*57
$GPGGA,163116.000,3754.5509,S,07003.0156,W,1,07,1.2,1024.7,M,24.0,M,,0000*69
$GPGSA,M,3,21,30,29,16,18,31,25,,,,,,2.5,1.2,2.2*3A
$GPGSV,3,1,11,21,87,146,37,30,56,234,40,29,37,106,31,16,32,224,30*7A
$GPGSV,3,2,11,18,27,020,37,31,26,312,37,25,26,035,39,06,19,251,*77
$GPGSV,3,3,11,03,08,252,,05,06,144,28,22,05,356,27*4F
$GPRMC,163116.000,A,3754.5509,S,07003.0156,W,27.63,199.38,110511,,,A*56
$GPGGA,163117.001,3754.5582,S,07003.0190,W,1,07,1.2,1025.4,M,24.0,M,,0000*62
$GPGSA,M,3,21,30,29,16,18,31,25,,,,,,2.5,1.2,2.2*3A
$GPRMC,163117.001,A,3754.5582,S,07003.0190,W,27.56,200.91,110511,,,A*59
$GPGGA,163117.995,3754.5653,S,07003.0227,W,1,08,1.1,1025.4,M,24.0,M,,0000*6A
$GPGSA,M,3,21,30,29,16,18,31,25,06,,,,,2.2,1.1,1.9*30
$GPRMC,163117.995,A,3754.5653,S,07003.0227,W,27.50,202.89,110511,,,A*50
$GPGGA,163119.003,3754.5724,S,07003.0264,W,1,08,1.1,1024.9,M,24.0,M,,0000*68
$GPGSA,M,3,21,30,29,16,18,31,25,06,,,,,2.2,1.1,1.9*30
$GPRMC,163119.003,A,3754.5724,S,07003.0264,W,27.44,205.98,110511,,,A*5C
$GPGGA,163119.998,3754.5793,S,07003.0307,W,1,08,1.1,1024.5,M,24.0,M,,0000*67
$GPGSA,M,3,21,30,29,16,18,31,25,06,,,,,2.2,1.1,1.9*30
$GPRMC,163119.998,A,3754.5793,S,07003.0307,W,27.66,207.84,110511,,,A*50
$GPGGA,163121.000,3754.5861,S,07003.0355,W,1,08,1.1,1024.2,M,24.0,M,,0000*66
$GPGSA,M,3,21,30,29,16,18,31,25,06,,,,,2.2,1.1,1.9*30
$GPGSV,3,1,11,21,87,146,37,30,56,234,39,29,37,106,38,16,32,224,37*7A
$GPGSV,3,2,11,18,27,020,34,31,26,312,39,25,26,035,38,06,19,251,29*70
$GPGSV,3,3,11,03,08,252,,05,06,144,,22,05,356,*40
$GPRMC,163121.000,A,3754.5861,S,07003.0355,W,27.98,210.74,110511,,,A*5E
$GPGGA,163121.999,3754.5920,S,07003.0413,W,1,08,1.1,1026.1,M,24.0,M,,0000*6F
$GPGSA,M,3,21,30,29,16,18,31,25,06,,,,,2.2,1.1,1.9*30
$GPRMC,163121.999,A,3754.5920,S,07003.0413,W,27.39,213.06,110511,,,A*5B
$GPGGA,163123.000,3754.5985,S,07003.0465,W,1,08,1.1,1026.6,M,24.0,M,,0000*6D
$GPGSA,M,3,21,30,29,16,18,31,25,06,,,,,2.2,1.1,1.9*30
$GPRMC,163123.000,A,3754.5985,S,07003.0465,W,27.48,214.06,110511,,,A*5F
$GPGGA,163124.002,3754.6052,S,07003.0517,W,1,07,1.7,1027.9,M,24.0,M,,0000*6B
$GPGSA,M,3,21,30,16,18,31,25,06,,,,,,2.7,1.7,2.1*33
$GPRMC,163124.002,A,3754.6052,S,07003.0517,W,27.78,215.56,110511,,,A*59
$GPGGA,163125.001,3754.6114,S,07003.0575,W,1,08,1.1,1028.1,M,24.0,M,,0000*60
$GPGSA,M,3,21,30,29,16,18,31,25,06,,,,,2.2,1.1,1.9*30
$GPRMC,163125.001,A,3754.6114,S,07003.0575,W,27.18,217.30,110511,,,A*58
$GPGGA,163125.999,3754.6174,S,07003.0636,W,1,08,1.1,1028.8,M,24.0,M,,0000*63
$GPGSA,M,3,21,30,29,16,18,31,25,06,,,,,2.2,1.1,1.9*30
$GPGSV,3,1,11,21,87,146,36,30,56,234,38,29,37,106,33,16,32,224,33*75
$GPGSV,3,2,11,18,27,020,37,31,26,312,39,25,26,035,37,06,19,251,28*7D
$GPGSV,3,3,11,03,08,252,27,05,06,144,,22,05,356,*45
$GPRMC,163125.999,A,3754.6174,S,07003.0636,W,26.95,217.48,110511,,,A*59
$GPGGA,163127.000,3754.6234,S,07003.0691,W,1,07,1.2,1028.3,M,24.0,M,,0000*65
$GPGSA,M,3,21,30,29,16,18,31,25,,,,,,2.5,1.2,2.2*3A
$GPRMC,163127.000,A,3754.6234,S,07003.0691,W,27.10,219.17,110511,,,A*50
$GPGGA,163128.000,3754.6295,S,07003.0749,W,1,07,1.2,1028.9,M,24.0,M,,0000*6F
$GPGSA,M,3,21,30,29,16,18,31,25,,,,,,2.5,1.2,2.2*3A
$GPRMC,163128.000,A,3754.6295,S,07003.0749,W,26.89,219.90,110511,,,A*5E
$GPGGA,163129.001,3754.6354,S,07003.0810,W,1,08,1.1,1029.2,M,24.0,M,,0000*66
$GPGSA,M,3,21,30,29,16,18,31,25,06,,,,,2.2,1.1,1.9*30
$GPRMC,163129.001,A,3754.6354,S,07003.0810,W,27.64,220.42,110511,,,A*56
$GPGGA,163130.001,3754.6412,S,07003.0878,W,1,07,1.2,1030.6,M,24.0,M,,0000*65
$GPGSA,M,3,21,30,29,16,18,31,25,,,,,,2.5,1.2,2.2*3A
$GPRMC,163130.001,A,3754.6412,S,07003.0878,W,27.33,219.71,110511,,,A*5D
$GPGGA,163131.004,3754.6470,S,07003.0935,W,1,07,1.2,1031.4,M,24.0,M,,0000*6E
$GPGSA,M,3,21,30,29,16,18,31,25,,,,,,2.5,1.2,2.2*3A
$GPGSV,3,1,11,21,87,146,38,30,56,234,39,29,37,106,29,16,32,224,29*7A
$GPGSV,3,2,11,18,27,020,36,31,26,312,37,25,26,035,38,06,19,251,*77
$GPGSV,3,3,11,03,08,252,32,05,06,144,,22,05,356,*41
$GPRMC,163131.004,A,3754.6470,S,07003.0935,W,26.62,220.12,110511,,,A*5F
$GPGGA,163131.998,3754.6524,S,07003.0997,W,1,07,1.2,1032.3,M,24.0,M,,0000*6E
$GPGSA,M,3,21,30,29,16,18,31,25,,,,,,2.5,1.2,2.2*3A
$GPRMC,163131.998,A,3754.6524,S,07003.0997,W,27.27,220.02,110511,,,A*5A
$GPGGA,163132.997,3754.6577,S,07003.1065,W,1,07,1.2,1034.6,M,24.0,M,,0000*62
$GPGSA,M,3,21,30,29,18,31,25,06,,,,,,2.3,1.2,2.0*3F
$GPRMC,163132.997,A,3754.6577,S,07003.1065,W,27.40,221.21,110511,,,A*54
$GPGGA,163134.001,3754.6635,S,07003.1127,W,1,07,1.2,1035.3,M,24.0,M,,0000*64
$GPGSA,M,3,21,30,29,18,31,25,06,,,,,,2.3,1.2,2.0*3F
$GPRMC,163134.001,A,3754.6635,S,07003.1127,W,27.47,220.73,110511,,,A*57
$GPGGA,163135.003,3754.6696,S,07003.1185,W,1,07,1.2,1034.6,M,24.0,M,,0000*62
$GPGSA,M,3,21,30,29,16,18,31,25,,,,,,2.5,1.2,2.2*3A
$GPRMC,163135.003,A,3754.6696,S,07003.1185,W,27.56,219.25,110511,,,A*5C
$GPGGA,163136.000,3754.6758,S,07003.1242,W,1,08,1.1,1034.6,M,24.0,M,,0000*65
$GPGSA,M,3,21,30,29,16,18,31,25,06,,,,,2.2,1.1,1.9*30
$GPGSV,3,1,11,21,87,146,39,30,56,234,41,29,37,106,33,16,32,224,35*72
$GPGSV,3,2,11,18,27,020,32,31,26,312,39,25,26,035,38,06,19,251,24*7B
$GPGSV,3,3,11,03,08,252,30,05,06,144,,22,05,356,*43
$GPRMC,163136.000,A,3754.6758,S,07003.1242,W,27.27,218.51,110511,,,A*53
$GPGGA,163137.002,3754.6822,S,07003.1301,W,1,08,1.1,1035.5,M,24.0,M,,0000*60
$GPGSA,M,3,21,30,29,16,18,31,25,06,,,,,2.2,1.1,1.9*30
$GPRMC,163137.002,A,3754.6822,S,07003.1301,W,28.63,218.38,110511,,,A*54
$GPGGA,163137.995,3754.6885,S,07003.1360,W,1,08,1.1,1035.7,M,24.0,M,,0000*6F
$GPGSA,M,3,21,30,29,16,18,31,25,06,,,,,2.2,1.1,1.9*30
$GPRMC,163137.995,A,3754.6885,S,07003.1360,W,27.99,214.69,110511,,,A*5B
$GPGGA,163139.001,3754.6951,S,07003.1411,W,1,08,1.1,1037.6,M,24.0,M,,0000*6F
$GPGSA,M,3,21,30,29,16,18,31,25,06,,,,,2.2,1.1,1.9*30
$GPRMC,163139.001,A,3754.6951,S,07003.1411,W,28.04,212.62,110511,,,A*5E
$GPGGA,163140.001,3754.7020,S,07003.1460,W,1,08,1.1,1036.7,M,24.0,M,,0000*69
$GPGSA,M,3,21,30,29,16,18,31,25,06,,,,,2.2,1.1,1.9*30
$GPRMC,163140.001,A,3754.7020,S,07003.1460,W,28.14,209.38,110511,,,A*5C
$GPGGA,163141.005,3754.7094,S,07003.1502,W,1,08,1.1,1035.5,M,24.0,M,,0000*67
$GPGSA,M,3,21,30,29,16,18,31,25,06,,,,,2.2,1.1,1.9*30
$GPGSV,3,1,11,21,87,146,40,30,56,234,38,29,37,106,38,16,32,224,38*74
$GPGSV,3,2,11,18,27,020,36,31,26,312,38,25,26,035,40,06,19,251,30*74
$GPGSV,3,3,11,03,08,252,,05,06,144,,22,05,356,27*45
$GPRMC,163141.005,A,3754.7094,S,07003.1502,W,28.34,206.41,110511,,,A*50
$GPGGA,163141.997,3754.7164,S,07003.1543,W,1,08,1.1,1035.4,M,24.0,M,,0000*6F
$GPGSA,M,3,21,30,29,16,18,31,25,06,,,,,2.2,1.1,1.9*30
$GPRMC,163141.997,A,3754.7164,S,07003.1543,W,28.05,204.83,110511,,,A*57
$GPGGA,163142.999,3754.7238,S,07003.1577,W,1,08,1.1,1037.4,M,24.0,M,,0000*6D
$GPGSA,M,3,21,30,29,16,18,31,25,06,,,,,2.2,1.1,1.9*30
$GPRMC,163142.999,A,3754.7238,S,07003.1577,W,28.24,202.45,110511,,,A*58
$GPGGA,163144.001,3754.7312,S,07003.1612,W,1,07,1.2,1037.5,M,24.0,M,,0000*67
$GPGSA,M,3,21,30,29,16,18,31,25,,,,,,2.5,1.2,2.2*3A
$GPRMC,163144.001,A,3754.7312,S,07003.1612,W,27.92,201.67,110511,,,A*5E
$GPGGA,163144.999,3754.7385,S,07003.1647,W,1,07,1.2,1037.6,M,24.0,M,,0000*62
$GPGSA,M,3,21,30,29,18,31,25,06,,,,,,2.3,1.2,2.0*3F
$GPRMC,163144.999,A,3754.7385,S,07003.1647,W,28.54,198.81,110511,,,A*56
$GPGGA,163145.998,3754.7459,S,07003.1680,W,1,08,1.1,1039.0,M,24.0,M,,0000*6B
$GPGSA,M,3,21,30,29,16,18,31,25,06,,,,,2.2,1.1,1.9*30
$GPGSV,3,1,11,21,87,146,41,30,56,234,39,29,37,106,37,16,32,224,29*7B
$GPGSV,3,2,11,18,27,020,35,31,26,312,41,25,26,035,40,06,19,251,29*71
$GPGSV,3,3,11,03,08,252,,05,06,144,31,22,05,356,28*48
$GPRMC,163145.998,A,3754.7459,S,07003.1680,W,27.57,196.97,110511,,,A*5E
$GPGGA,163147.003,3754.7536,S,07003.1705,W,1,08,1.1,1039.6,M,24.0,M,,0000*60
$GPGSA,M,3,21,30,29,16,18,31,25,06,,,,,2.2,1.1,1.9*30
$GPRMC,163147.003,A,3754.7536,S,07003.1705,W,28.00,195.89,110511,,,A*52
$GPGGA,163147.998,3754.7613,S,07003.1730,W,1,08,1.1,1039.7,M,24.0,M,,0000*68
$GPGSA,M,3,21,30,29,16,18,31,25,06,,,,,2.2,1.1,1.9*30
$GPRMC,163147.998,A,3754.7613,S,07003.1730,W,27.88,194.68,110511,,,A*5A
$GPGGA,163149.003,3754.7686,S,07003.1754,W,1,07,1.7,1041.3,M,24.0,M,,0000*61
$GPGSA,M,3,21,30,16,18,31,25,06,,,,,,2.7,1.7,2.1*33
$GPRMC,163149.003,A,3754.7686,S,07003.1754,W,27.71,190.82,110511,,,A*57
$GPGGA,163150.000,3754.7764,S,07003.1772,W,1,08,1.1,1042.4,M,24.0,M,,0000*6E
$GPGSA,M,3,21,30,29,16,18,31,25,06,,,,,2.2,1.1,1.9*30
$GPRMC,163150.000,A,3754.7764,S,07003.1772,W,27.81,189.52,110511,,,A*5F
$GPGGA,163150.998,3754.7842,S,07003.1787,W,1,08,1.1,1043.0,M,24.0,M,,0000*62
$GPGSA,M,3,21,30,29,16,18,31,25,06,,,,,2.2,1.1,1.9*30
$GPGSV,3,1,11,21,87,146,39,30,56,234,40,29,37,106,35,16,32,224,36*76
$GPGSV,3,2,11,18,27,020,37,31,26,312,40,25,26,035,37,06,19,251,32*78
$GPGSV,3,3,11,03,08,252,,05,06,144,,22,05,356,34*47
$GPRMC,163150.998,A,3754.7842,S,07003.1787,W,27.84,186.42,110511,,,A*5D
$GPGGA,163152.000,3754.7922,S,07003.1793,W,1,08,1.1,1043.0,M,24.0,M,,0000*6A
$GPGSA,M,3,21,30,29,16,18,31,25,06,,,,,2.2,1.1,1.9*30
$GPRMC,163152.000,A,3754.7922,S,07003.1793,W,28.35,184.29,110511,,,A*5F
$GPGGA,163153.005,3754.8003,S,07003.1799,W,1,08,1.1,1043.6,M,24.0,M,,0000*67
$GPGSA,M,3,21,30,29,16,18,31,25,06,,,,,2.2,1.1,1.9*30
$GPRMC,163153.005,A,3754.8003,S,07003.1799,W,28.55,183.55,110511,,,A*5E
$GPGGA,163153.993,3754.8087,S,07003.1800,W,1,08,1.1,1043.6,M,24.0,M,,0000*62
$GPGSA,M,3,21,30,29,16,18,31,25,06,,,,,2.2,1.1,1.9*30
$GPRMC,163153.993,A,3754.8087,S,07003.1800,W,28.81,181.40,110511,,,A*54
$GPGGA,163155.003,3754.8167,S,07003.1800,W,1,08,1.1,1044.5,M,24.0,M,,0000*6F
$GPGSA,M,3,21,30,29,16,18,31,25,06,,,,,2.2,1.1,1.9*30
$GPRMC,163155.003,A,3754.8167,S,07003.1800,W,28.91,179.61,110511,,,A*58
$GPGGA,163156.005,3754.8249,S,07003.1799,W,1,08,1.1,1045.2,M,24.0,M,,0000*6C
$GPGSA,M,3,21,30,29,16,18,31,25,06,,,,,2.2,1.1,1.9*30
$GPGSV,3,1,11,21,87,146,38,30,56,234,41,29,37,106,37,16,32,224,37*75
$GPGSV,3,2,11,18,27,020,36,31,26,312,34,25,26,035,33,06,19,251,36*7A
$GPGSV,3,3,11,03,08,252,,05,06,144,30,22,05,356,29*48
$GPRMC,163156.005,A,3754.8249,S,07003.1799,W,29.36,179.56,110511,,,A*55
$GPGGA,163156.996,3754.8327,S,07003.1797,W,1,08,1.1,1046.2,M,24.0,M,,0000*6B
$GPGSA,M,3,21,30,29,16,18,31,25,06,,,,,2.2,1.1,1.9*30
$GPRMC,163156.996,A,3754.8327,S,07003.1797,W,28.53,179.82,110511,,,A*5A
$GPGGA,163157.996,3754.8407,S,07003.1796,W,1,08,1.1,1048.7,M,24.0,M,,0000*65
$GPGSA,M,3,21,30,29,16,18,31,25,06,,,,,2.2,1.1,1.9*30
$GPRMC,163157.996,A,3754.8407,S,07003.1796,W,29.12,178.77,110511,,,A*50
$GPGGA,163159.002,3754.8487,S,07003.1795,W,1,08,1.1,1049.0,M,24.0,M,,0000*62
$GPGSA,M,3,21,30,29,16,18,31,25,06,,,,,2.2,1.1,1.9*30
$GPRMC,163159.002,A,3754.8487,S,07003.1795,W,28.62,179.80,110511,,,A*5E
$GPGGA,163159.998,3754.8563,S,07003.1796,W,1,08,1.1,1050.5,M,24.0,M,,0000*6D
$GPGSA,M,3,21,30,29,16,18,31,25,06,,,,,2.2,1.1,1.9*30
$GPRMC,163159.998,A,3754.8563,S,07003.1796,W,29.31,179.62,110511,,,A*57
$GPGGA,163201.003,3754.8642,S,07003.1795,W,1,08,1.1,1053.1,M,24.0,M,,0000*6C
$GPGSA,M,3,21,30,29,16,18,31,25,06,,,,,2.2,1.1,1.9*30
$GPGSV,3,1,11,21,87,146,38,30,56,234,41,29,37,106,31,16,32,224,38*7C
$GPGSV,3,2,11,18,27,020,35,31,26,312,35,25,26,035,32,06,19,251,35*7A
$GPGSV,3,3,11,03,08,252,,05,06,144,,22,05,356,30*43
$GPRMC,163201.003,A,3754.8642,S,07003.1795,W,29.39,178.29,110511,,,A*57
$GPGGA,163201.998,3754.8721,S,07003.1794,W,1,08,1.1,1053.1,M,24.0,M,,0000*62
$GPGSA,M,3,21,30,29,16,18,31,25,06,,,,,2.2,1.1,1.9*30
$GPRMC,163201.998,A,3754.8721,S,07003.1794,W,28.89,179.50,110511,,,A*5C
$GPGGA,163203.000,3754.8802,S,07003.1794,W,1,07,1.1,1054.7,M,24.0,M,,0000*68
$GPGSA,M,3,21,30,29,16,18,31,06,,,,,,2.2,1.1,1.9*37
$GPRMC,163203.000,A,3754.8802,S,07003.1794,W,29.32,179.30,110511,,,A*5F
$GPGGA,163203.999,3754.8882,S,07003.1793,W,1,08,1.1,1055.6,M,24.0,M,,0000*61
$GPGSA,M,3,21,30,29,16,18,31,25,06,,,,,2.2,1.1,1.9*30
$GPRMC,163203.999,A,3754.8882,S,07003.1793,W,29.71,179.16,110511,,,A*5A
$GPGGA,163205.001,3754.8964,S,07003.1792,W,1,08,1.1,1056.1,M,24.0,M,,0000*63
$GPGSA,M,3,21,30,29,16,18,31,25,06,,,,,2.2,1.1,1.9*30
$GPRMC,163205.001,A,3754.8964,S,07003.1792,W,29.46,179.08,110511,,,A*57
$GPGGA,163206.003,3754.9047,S,07003.1788,W,1,08,1.1,1057.1,M,24.0,M,,0000*61
$GPGSA,M,3,21,30,29,16,18,31,25,06,,,,,2.2,1.1,1.9*30
$GPGSV,3,1,11,21,87,146,39,30,56,234,41,29,37,106,35,16,32,224,37*76
$GPGSV,3,2,11,18,27,020,36,31,26,312,33,25,26,035,31,06,19,251,34*7D
$GPGSV,3,3,11,03,08,252,,05,06,144,,22,05,356,29*4B
$GPRMC,163206.003,A,3754.9047,S,07003.1788,W,29.59,179.76,110511,,,A*53
$GPGGA,163206.998,3754.9129,S,07003.1788,W,1,08,1.1,1056.8,M,24.0,M,,0000*6B
$GPGSA,M,3,21,30,29,16,18,31,25,06,,,,,2.2,1.1,1.9*30
$GPRMC,163206.998,A,3754.9129,S,07003.1788,W,29.93,178.65,110511,,,A*54
$GPGGA,163208.000,3754.9212,S,07003.1790,W,1,08,1.1,1058.0,M,24.0,M,,0000*69
$GPGSA,M,3,21,30,29,16,18,31,25,06,,,,,2.2,1.1,1.9*30
$GPRMC,163208.000,A,3754.9212,S,07003.1790,W,29.25,179.73,110511,,,A*5B
$GPGGA,163209.001,3754.9292,S,07003.1791,W,1,08,1.1,1058.8,M,24.0,M,,0000*68
$GPGSA,M,3,21,30,29,16,18,31,25,06,,,,,2.2,1.1,1.9*30
$GPRMC,163209.001,A,3754.9292,S,07003.1791,W,29.50,178.86,110511,,,A*5B
$GPGGA,163209.999,3754.9371,S,07003.1787,W,1,08,1.1,1060.2,M,24.0,M,,0000*6A
$GPGSA,M,3,21,30,29,16,18,31,25,06,,,,,2.2,1.1,1.9*30
$GPRMC,163209.999,A,3754.9371,S,07003.1787,W,29.23,179.20,110511,,,A*51
$GPGGA,163211.000,3754.9455,S,07003.1788,W,1,08,1.1,1061.4,M,24.0,M,,0000*63
$GPGSA,M,3,21,30,29,16,18,31,25,06,,,,,2.2,1.1,1.9*30
$GPGSV,3,1,11,21,87,146,40,30,56,234,42,29,37,106,32,16,32,224,38*73
$GPGSV,3,2,11,18,27,020,37,31,26,312,37,25,26,035,30,06,19,251,35*78
$GPGSV,3,3,11,03,08,252,,05,06,144,25,22,05,356,31*45
$GPRMC,163211.000,A,3754.9455,S,07003.1788,W,29.51,180.38,110511,,,A*55
$GPGGA,163212.000,3754.9537,S,07003.1789,W,1,08,1.1,1063.4,M,24.0,M,,0000*66
$GPGSA,M,3,21,30,29,16,18,31,25,06,,,,,2.2,1.1,1.9*30
$GPRMC,163212.000,A,3754.9537,S,07003.1789,W,29.41,180.36,110511,,,A*5D
$GPGGA,163213.000,3754.9617,S,07003.1785,W,1,08,1.1,1063.2,M,24.0,M,,0000*6C
$GPGSA,M,3,21,30,29,16,18,31,25,06,,,,,2.2,1.1,1.9*30
$GPRMC,163213.000,A,3754.9617,S,07003.1785,W,28.80,181.76,110511,,,A*58
$GPGGA,163214.003,3754.9695,S,07003.1789,W,1,08,1.1,1066.3,M,24.0,M,,0000*6A
$GPGSA,M,3,21,30,29,16,18,31,25,06,,,,,2.2,1.1,1.9*30
$GPRMC,163214.003,A,3754.9695,S,07003.1789,W,29.12,180.78,110511,,,A*5F
$GPGGA,163215.000,3754.9776,S,07003.1791,W,1,08,1.1,1066.4,M,24.0,M,,0000*6A
$GPGSA,M,3,21,30,29,16,18,31,25,06,,,,,2.2,1.1,1.9*30
$GPRMC,163215.000,A,3754.9776,S,07003.1791,W,29.48,180.04,110511,,,A*5C
$GPGGA,163216.001,3754.9857,S,07003.1790,W,1,08,1.1,1067.8,M,24.0,M,,0000*68
$GPGSA,M,3,21,30,29,16,18,31,25,06,,,,,2.2,1.1,1.9*30
$GPGSV,3,1,11,21,87,146,38,30,56,234,41,29,37,106,30,16,32,224,38*7D
$GPGSV,3,2,11,18,27,020,36,31,26,312,34,25,26,035,32,06,19,251,32*7F
$GPGSV,3,3,11,03,08,252,,05,06,144,,22,05,356,26*44
$GPRMC,163216.001,A,3754.9857,S,07003.1790,W,29.98,179.06,110511,,,A*5A
$GPGGA,163216.999,3754.9941,S,07003.1789,W,1,08,1.1,1068.4,M,24.0,M,,0000*6D
$GPGSA,M,3,21,30,29,16,18,31,25,06,,,,,2.2,1.1,1.9*30
$GPRMC,163216.999,A,3754.9941,S,07003.1789,W,30.08,179.22,110511,,,A*5B
$GPGGA,163218.000,3755.0024,S,07003.1789,W,1,08,1.1,1068.6,M,24.0,M,,0000*6A
$GPGSA,M,3,21,30,29,16,18,31,25,06,,,,,2.2,1.1,1.9*30
$GPRMC,163218.000,A,3755.0024,S,07003.1789,W,29.38,179.63,110511,,,A*50
$GPGGA,163219.001,3755.0107,S,07003.1790,W,1,08,1.1,1068.5,M,24.0,M,,0000*61
$GPGSA,M,3,21,30,29,16,18,31,25,06,,,,,2.2,1.1,1.9*30
$GPRMC,163219.001,A,3755.0107,S,07003.1790,W,28.52,180.44,110511,,,A*56
$GPGGA,163220.001,3755.0188,S,07003.1793,W,1,08,1.1,1070.0,M,24.0,M,,0000*63
$GPGSA,M,3,21,30,29,16,18,31,25,06,,,,,2.2,1.1,1.9*30
$GPRMC,163220.001,A,3755.0188,S,07003.1793,W,29.17,180.70,110511,,,A*5F
$GPGGA,163221.000,3755.0266,S,07003.1794,W,1,07,1.7,1071.1,M,24.0,M,,0000*6E
$GPGSA,M,3,21,30,16,18,31,25,06,,,,,,2.7,1.7,2.1*33
$GPGSV,3,1,11,21,87,146,38,30,56,234,40,29,37,106,,16,32,224,38*7F
$GPGSV,3,2,11,18,27,020,37,31,26,312,37,25,26,035,32,06,19,251,30*7F
$GPGSV,3,3,11,03,08,252,,05,06,144,28,22,05,356,30*49
$GPRMC,163221.000,A,3755.0266,S,07003.1794,W,29.35,181.81,110511,,,A*54
$GPGGA,163222.001,3755.0345,S,07003.1802,W,1,06,1.7,1072.3,M,24.0,M,,0000*6C
$GPGSA,M,3,21,30,16,18,31,25,,,,,,,3.0,1.7,2.4*36
$GPRMC,163222.001,A,3755.0345,S,07003.1802,W,28.35,185.25,110511,,,A*5D
$GPGGA,163223.000,3755.0424,S,07003.1810,W,1,07,1.2,1072.1,M,24.0,M,,0000*69
$GPGSA,M,3,21,30,29,16,18,31,25,,,,,,2.5,1.2,2.2*3A
$GPRMC,163223.000,A,3755.0424,S,07003.1810,W,28.45,186.22,110511,,,A*5D
$GPGGA,163223.999,3755.0506,S,07003.1817,W,1,07,1.2,1071.9,M,24.0,M,,0000*6D
$GPGSA,M,3,21,30,29,16,18,31,25,,,,,,2.5,1.2,2.2*3A
$GPRMC,163223.999,A,3755.0506,S,07003.1817,W,28.40,190.08,110511,,,A*58
$GPGGA,163225.000,3755.0585,S,07003.1837,W,1,07,1.2,1073.1,M,24.0,M,,0000*61
$GPGSA,M,3,21,30,29,16,18,31,25,,,,,,2.5,1.2,2.2*3A
$GPRMC,163225.000,A,3755.0585,S,07003.1837,W,28.70,192.44,110511,,,A*57
$GPGGA,163225.999,3755.0662,S,07003.1859,W,1,07,1.2,1073.3,M,24.0,M,,0000*68
$GPGSA,M,3,21,30,29,16,18,31,25,,,,,,2.5,1.2,2.2*3A
$GPGSV,3,1,11,21,87,146,38,30,56,234,40,29,37,106,37,16,32,224,32*71
$GPGSV,3,2,11,18,27,020,38,31,26,312,42,25,26,035,38,06,19,251,*7B
$GPGSV,3,3,11,03,08,252,,05,06,144,,22,05,356,30*43
$GPRMC,163225.999,A,3755.0662,S,07003.1859,W,28.04,195.22,110511,,,A*58
$GPGGA,163227.001,3755.0739,S,07003.1885,W,1,08,1.1,1073.5,M,24.0,M,,0000*66
$GPGSA,M,3,21,30,29,16,18,31,25,06,,,,,2.2,1.1,1.9*30
$GPRMC,163227.001,A,3755.0739,S,07003.1885,W,28.68,197.99,110511,,,A*54
$GPGGA,163228.001,3755.0817,S,07003.1918,W,1,08,1.1,1074.5,M,24.0,M,,0000*68
$GPGSA,M,3,21,30,29,16,18,31,25,06,,,,,2.2,1.1,1.9*30
$GPRMC,163228.001,A,3755.0817,S,07003.1918,W,29.06,199.98,110511,,,A*5B
$GPGGA,163229.002,3755.0893,S,07003.1953,W,1,08,1.1,1075.1,M,24.0,M,,0000*6C
$GPGSA,M,3,21,30,29,16,18,31,25,06,,,,,2.2,1.1,1.9*30
$GPRMC,163229.002,A,3755.0893,S,07003.1953,W,28.46,202.51,110511,,,A*5B
$GPGGA,163229.998,3755.0963,S,07003.1995,W,1,07,1.3,1077.0,M,24.0,M,,0000*6C
$GPGSA,M,3,21,30,29,16,18,25,06,,,,,,2.3,1.3,1.9*31
$GPRMC,163229.998,A,3755.0963,S,07003.1995,W,27.84,204.18,110511,,,A*5F
$GPGGA,163231.002,3755.1032,S,07003.2040,W,1,08,1.1,1077.2,M,24.0,M,,0000*6E
$GPGSA,M,3,21,30,29,16,18,31,25,06,,,,,2.2,1.1,1.9*30
$GPGSV,3,1,11,21,87,146,38,30,56,234,39,29,37,106,38,16,32,224,38*7A
$GPGSV,3,2,11,18,27,020,32,31,26,312,40,25,26,035,38,06,19,251,36*76
$GPGSV,3,3,11,03,08,252,,05,06,144,24,22,05,356,*46
$GPRMC,163231.002,A,3755.1032,S,07003.2040,W,28.16,205.14,110511,,,A*5B
$GPGGA,163232.000,3755.1103,S,07003.2080,W,1,07,1.1,1078.0,M,24.0,M,,0000*62
$GPGSA,M,3,21,30,29,16,18,31,06,,,,,,2.2,1.1,1.9*37
$GPRMC,163232.000,A,3755.1103,S,07003.2080,W,27.59,204.88,110511,,,A*55
$GPGGA,163233.001,3755.1175,S,07003.2122,W,1,08,1.1,1078.7,M,24.0,M,,0000*62
$GPGSA,M,3,21,30,29,16,18,31,25,06,,,,,2.2,1.1,1.9*30
$GPRMC,163233.001,A,3755.1175,S,07003.2122,W,28.05,204.85,110511,,,A*56
$GPGGA,163233.997,3755.1244,S,07003.2161,W,1,08,1.1,1080.2,M,24.0,M,,0000*60
$GPGSA,M,3,21,30,29,16,18,31,25,06,,,,,2.2,1.1,1.9*30
$GPRMC,163233.997,A,3755.1244,S,07003.2161,W,28.10,203.76,110511,,,A*59
$GPGGA,163235.005,3755.1316,S,07003.2204,W,1,08,1.1,1081.6,M,24.0,M,,0000*67
$GPGSA,M,3,21,30,29,16,18,31,25,06,,,,,2.2,1.1,1.9*30
$GPRMC,163235.005,A,3755.1316,S,07003.2204,W,27.88,204.34,110511,,,A*54
$GPGGA,163235.998,3755.1388,S,07003.2241,W,1,08,1.1,1080.4,M,24.0,M,,0000*6F
$GPGSA,M,3,21,30,29,16,18,31,25,06,,,,,2.2,1.1,1.9*30
$GPGSV,3,1,11,21,87,146,37,30,56,234,39,29,37,106,39,16,32,224,39*75
$GPGSV,3,2,11,18,27,020,35,31,26,312,41,25,26,035,38,06,19,251,36*70
$GPGSV,3,3,11,03,08,252,,05,06,144,,22,05,356,30*43
$GPRMC,163235.998,A,3755.1388,S,07003.2241,W,27.97,204.97,110511,,,A*58
$GPGGA,163237.001,3755.1461,S,07003.2284,W,1,07,1.2,1079.6,M,24.0,M,,0000*65
$GPGSA,M,3,21,30,29,16,31,25,06,,,,,,2.2,1.2,1.9*3A
$GPRMC,163237.001,A,3755.1461,S,07003.2284,W,28.21,204.69,110511,,,A*59
$GPGGA,163237.999,3755.1537,S,07003.2324,W,1,08,1.1,1079.3,M,24.0,M,,0000*6D
$GPGSA,M,3,21,30,29,16,18,31,25,06,,,,,2.2,1.1,1.9*30
$GPRMC,163237.999,A,3755.1537,S,07003.2324,W,28.36,204.68,110511,,,A*5F
$GPGGA,163239.000,3755.1602,S,07003.2369,W,1,08,1.1,1081.7,M,24.0,M,,0000*65
$GPGSA,M,3,21,30,29,16,18,31,25,06,,,,,2.2,1.1,1.9*30
$GPRMC,163239.000,A,3755.1602,S,07003.2369,W,27.80,204.66,110511,,,A*58
$GPGGA,163240.000,3755.1671,S,07003.2411,W,1,08,1.1,1083.4,M,24.0,M,,0000*66
$GPGSA,M,3,21,30,29,16,18,31,25,06,,,,,2.2,1.1,1.9*30
$GPRMC,163240.000,A,3755.1671,S,07003.2411,W,28.10,204.49,110511,,,A*51
$GPGGA,163241.001,3755.1744,S,07003.2448,W,1,08,1.1,1084.0,M,24.0,M,,0000*6E
$GPGSA,M,3,21,30,29,16,18,31,25,06,,,,,2.2,1.1,1.9*30
$GPGSV,3,1,11,21,87,146,39,30,56,234,38,29,37,106,37,16,32,224,37*7A
$GPGSV,3,2,11,18,27,020,31,31,26,312,39,25,26,035,39,06,19,251,31*7D
$GPGSV,3,3,11,03,08,252,,05,06,144,,22,05,356,35*46
$GPRMC,163241.001,A,3755.1744,S,07003.2448,W,28.35,204.28,110511,,,A*5A
$GPGGA,163242.001,3755.1816,S,07003.2486,W,1,08,1.1,1084.8,M,24.0,M,,0000*6F
$GPGSA,M,3,21,30,29,16,18,31,25,06,,,,,2.2,1.1,1.9*30
$GPRMC,163242.001,A,3755.1816,S,07003.2486,W,28.33,204.20,110511,,,A*5D
$GPGGA,163242.998,3755.1889,S,07003.2525,W,1,08,1.1,1086.0,M,24.0,M,,0000*62
$GPGSA,M,3,21,30,29,16,18,31,25,06,,,,,2.2,1.1,1.9*30
$GPRMC,163242.998,A,3755.1889,S,07003.2525,W,28.22,204.20,110511,,,A*5A
$GPGGA,163244.002,3755.1962,S,07003.2561,W,1,08,1.1,1085.6,M,24.0,M,,0000*6F
$GPGSA,M,3,21,30,29,16,18,31,25,06,,,,,2.2,1.1,1.9*30
$GPRMC,163244.002,A,3755.1962,S,07003.2561,W,27.72,203.81,110511,,,A*54
$GPGGA,163244.999,3755.2035,S,07003.2596,W,1,08,1.1,1084.9,M,24.0,M,,0000*6A
$GPGSA,M,3,21,30,29,16,18,31,25,06,,,,,2.2,1.1,1.9*30
$GPRMC,163244.999,A,3755.2035,S,07003.2596,W,27.90,202.98,110511,,,A*5A
$GPGGA,163246.002,3755.2109,S,07003.2634,W,1,08,1.1,1086.1,M,24.0,M,,0000*6C
$GPGSA,M,3,21,30,29,16,18,31,25,06,,,,,2.2,1.1,1.9*30
$GPGSV,3,1,11,21,87,146,39,30,56,234,38,29,37,106,36,16,32,224,33*7F
$GPGSV,3,2,11,18,27,020,35,31,26,312,41,25,26,035,38,06,19,251,32*74
$GPGSV,3,3,11,03,08,252,,05,06,144,,22,05,356,36*45
$GPRMC,163246.002,A,3755.2109,S,07003.2634,W,28.04,201.33,110511,,,A*56
$GPGGA,163246.998,3755.2182,S,07003.2667,W,1,08,1.1,1086.5,M,24.0,M,,0000*67
$GPGSA,M,3,21,30,29,16,18,31,25,06,,,,,2.2,1.1,1.9*30
$GPRMC,163246.998,A,3755.2182,S,07003.2667,W,28.26,200.33,110511,,,A*58
$GPGGA,163247.999,3755.2258,S,07003.2701,W,1,08,1.1,1087.2,M,24.0,M,,0000*64
$GPGSA,M,3,21,30,29,16,18,31,25,06,,,,,2.2,1.1,1.9*30
$GPRMC,163247.999,A,3755.2258,S,07003.2701,W,28.32,200.27,110511,,,A*5D
$GPGGA,163249.003,3755.2330,S,07003.2735,W,1,07,1.2,1087.4,M,24.0,M,,0000*62
$GPGSA,M,3,21,30,29,18,31,25,06,,,,,,2.3,1.2,2.0*3F
$GPRMC,163249.003,A,3755.2330,S,07003.2735,W,28.20,198.68,110511,,,A*5B
$GPGGA,163250.001,3755.2408,S,07003.2763,W,1,08,1.1,1087.8,M,24.0,M,,0000*67
$GPGSA,M,3,21,30,29,16,18,31,25,06,,,,,2.2,1.1,1.9*30
$GPRMC,163250.001,A,3755.2408,S,07003.2763,W,28.21,197.12,110511,,,A*5D
$GPGGA,163251.000,3755.2486,S,07003.2790,W,1,08,1.1,1089.6,M,24.0,M,,0000*6D
$GPGSA,M,3,21,30,29,16,18,31,25,06,,,,,2.2,1.1,1.9*30
$GPGSV,3,1,11,21,87,146,38,30,56,234,38,29,37,106,34,16,32,224,28*76
$GPGSV,3,2,11,18,27,020,37,31,26,312,41,25,26,035,38,06,19,251,30*74
$GPGSV,3,3,11,03,08,252,,05,06,144,32,22,05,356,30*42
$GPRMC,163251.000,A,3755.2486,S,07003.2790,W,28.17,196.04,110511,,,A*54
$GPGGA,163252.000,3755.2562,S,07003.2813,W,1,07,1.2,1089.4,M,24.0,M,,0000*6F
$GPGSA,M,3,21,30,29,16,18,31,25,,,,,,2.5,1.2,2.2*3A
$GPRMC,163252.000,A,3755.2562,S,07003.2813,W,28.10,195.09,110511,,,A*51
$GPGGA,163252.999,3755.2640,S,07003.2838,W,1,07,1.2,1089.7,M,24.0,M,,0000*6F
$GPGSA,M,3,21,30,29,16,18,31,25,,,,,,2.5,1.2,2.2*3A
$GPRMC,163252.999,A,3755.2640,S,07003.2838,W,28.64,194.59,110511,,,A*55
$GPGGA,163254.000,3755.2717,S,07003.2862,W,1,07,1.2,1090.7,M,24.0,M,,0000*64
$GPGSA,M,3,21,30,29,16,18,31,25,,,,,,2.5,1.2,2.2*3A
$GPRMC,163254.000,A,3755.2717,S,07003.2862,W,28.68,194.46,110511,,,A*54
$GPGGA,163254.998,3755.2796,S,07003.2883,W,1,07,1.2,1089.3,M,24.0,M,,0000*66
$GPGSA,M,3,21,30,29,16,18,31,25,,,,,,2.5,1.2,2.2*3A
$GPRMC,163254.998,A,3755.2796,S,07003.2883,W,28.97,193.36,110511,,,A*5A
$GPGGA,163256.003,3755.2877,S,07003.2906,W,1,06,1.6,1090.7,M,24.0,M,,0000*6A
$GPGSA,M,3,21,30,29,18,31,25,,,,,,,3.5,1.6,3.1*3A
$GPGSV,3,1,11,21,87,146,39,30,56,234,39,29,37,106,32,16,32,224,*7A
$GPGSV,3,2,11,18,27,020,37,31,26,312,41,25,26,035,36,06,19,251,*79
$GPGSV,3,3,11,03,08,252,,05,06,144,30,22,05,356,*43
$GPRMC,163256.003,A,3755.2877,S,07003.2906,W,29.57,192.63,110511,,,A*53
$GPGGA,163256.997,3755.2957,S,07003.2929,W,1,07,1.2,1090.8,M,24.0,M,,0000*6A
$GPGSA,M,3,21,30,29,18,31,25,06,,,,,,2.3,1.2,2.0*3F
$GPRMC,163256.997,A,3755.2957,S,07003.2929,W,28.94,192.02,110511,,,A*50
$GPGGA,163258.001,3755.3037,S,07003.2948,W,1,07,1.2,1091.6,M,24.0,M,,0000*64
$GPGSA,M,3,21,30,29,18,31,25,06,,,,,,2.3,1.2,2.0*3F
$GPRMC,163258.001,A,3755.3037,S,07003.2948,W,28.32,191.49,110511,,,A*51
$GPGGA,163259.000,3755.3113,S,07003.2967,W,1,07,1.2,1092.6,M,24.0,M,,0000*6D
$GPGSA,M,3,21,30,29,18,31,25,06,,,,,,2.3,1.2,2.0*3F
$GPRMC,163259.000,A,3755.3113,S,07003.2967,W,28.29,190.69,110511,,,A*52
$GPGGA,163300.004,3755.3193,S,07003.2984,W,1,08,1.1,1093.4,M,24.0,M,,0000*6E
$GPGSA,M,3,21,30,29,16,18,31,25,06,,,,,2.2,1.1,1.9*30
$GPRMC,163300.004,A,3755.3193,S,07003.2984,W,28.57,190.42,110511,,,A*5E
$GPGGA,163300.998,3755.3270,S,07003.3001,W,1,08,1.1,1094.5,M,24.0,M,,0000*6F
$GPGSA,M,3,21,30,29,16,18,31,25,06,,,,,2.2,1.1,1.9*30
$GPGSV,3,1,11,21,87,146,39,30,56,234,39,29,37,106,32,16,32,224,34*7D
$GPGSV,3,2,11,18,27,020,37,31,26,312,41,25,26,035,30,06,19,251,34*78
$GPGSV,3,3,11,03,08,252,,05,06,144,,22,05,356,34*47
$GPRMC,163300.998,A,3755.3270,S,07003.3001,W,28.40,187.87,110511,,,A*50
$GPGGA,163302.002,3755.3351,S,07003.3014,W,1,08,1.1,1095.5,M,24.0,M,,0000*60
$GPGSA,M,3,21,30,29,16,18,31,25,06,,,,,2.2,1.1,1.9*30
$GPRMC,163302.002,A,3755.3351,S,07003.3014,W,28.06,187.92,110511,,,A*58
$GPGGA,163303.000,3755.3432,S,07003.3028,W,1,08,1.1,1095.8,M,24.0,M,,0000*63
$GPGSA,M,3,21,30,29,16,18,31,25,06,,,,,2.2,1.1,1.9*30
$GPRMC,163303.000,A,3755.3432,S,07003.3028,W,28.60,187.14,110511,,,A*58
$GPGGA,163303.999,3755.3513,S,07003.3041,W,1,08,1.1,1095.6,M,24.0,M,,0000*69
$GPGSA,M,3,21,30,29,16,18,31,25,06,,,,,2.2,1.1,1.9*30
$GPRMC,163303.999,A,3755.3513,S,07003.3041,W,28.79,185.82,110511,,,A*59
$GPGGA,163305.000,3755.3595,S,07003.3050,W,1,08,1.1,1096.6,M,24.0,M,,0000*6B
$GPGSA,M,3,21,30,29,16,18,31,25,06,,,,,2.2,1.1,1.9*30
$GPRMC,163305.000,A,3755.3595,S,07003.3050,W,28.45,184.38,110511,,,A*57
$GPGGA,163306.001,3755.3677,S,07003.3057,W,1,08,1.1,1098.7,M,24.0,M,,0000*6E
$GPGSA,M,3,21,30,29,16,18,31,25,06,,,,,2.2,1.1,1.9*30
$GPGSV,3,1,11,21,87,146,37,30,56,234,41,29,37,106,30,16,32,224,36*7C
$GPGSV,3,2,11,18,27,020,37,31,26,312,38,25,26,035,19,06,19,251,32*7B
$GPGSV,3,3,11,03,08,252,,05,06,144,29,22,05,356,33*4B
$GPRMC,163306.001,A,3755.3677,S,07003.3057,W,28.38,184.80,110511,,,A*54
$GPGGA,163306.997,3755.3752,S,07003.3067,W,1,08,1.1,1100.1,M,24.0,M,,0000*6B
$GPGSA,M,3,21,30,29,16,18,31,25,06,,,,,2.2,1.1,1.9*30
$GPRMC,163306.997,A,3755.3752,S,07003.3067,W,28.50,185.65,110511,,,A*53
$GPGGA,163308.002,3755.3833,S,07003.3076,W,1,07,1.7,1100.7,M,24.0,M,,0000*67
$GPGSA,M,3,21,30,16,18,31,25,06,,,,,,2.7,1.7,2.1*33
$GPRMC,163308.002,A,3755.3833,S,07003.3076,W,28.95,185.75,110511,,,A*58
$GPGGA,163309.002,3755.3917,S,07003.3086,W,1,08,1.1,1100.4,M,24.0,M,,0000*64
$GPGSA,M,3,21,30,29,16,18,31,25,06,,,,,2.2,1.1,1.9*30
$GPRMC,163309.002,A,3755.3917,S,07003.3086,W,28.90,185.50,110511,,,A*53
$GPGGA,163309.996,3755.3997,S,07003.3094,W,1,08,1.1,1100.8,M,24.0,M,,0000*67
$GPGSA,M,3,21,30,29,16,18,31,25,06,,,,,2.2,1.1,1.9*30
$GPRMC,163309.996,A,3755.3997,S,07003.3094,W,28.92,185.30,110511,,,A*58
$GPGGA,163311.001,3755.4081,S,07003.3104,W,1,08,1.1,1101.9,M,24.0,M,,0000*68
$GPGSA,M,3,21,30,29,16,18,31,25,06,,,,,2.2,1.1,1.9*30
$GPGSV,3,1,11,21,87,146,39,30,56,234,41,29,37,106,30,16,32,224,36*72
$GPGSV,3,2,11,18,27,020,37,31,26,312,37,25,26,035,30,06,19,251,34*79
$GPGSV,3,3,11,03,08,252,,05,06,144,31,22,05,356,31*40
$GPRMC,163311.001,A,3755.4081,S,07003.3104,W,29.52,186.01,110511,,,A*5B
$GPGGA,163312.005,3755.4162,S,07003.3116,W,1,08,1.1,1102.6,M,24.0,M,,0000*6C
$GPGSA,M,3,21,30,29,16,18,31,25,06,,,,,2.2,1.1,1.9*30
$GPRMC,163312.005,A,3755.4162,S,07003.3116,W,29.52,185.67,110511,,,A*50
$GPGGA,163312.998,3755.4241,S,07003.3125,W,1,07,1.7,1103.3,M,24.0,M,,0000*6E
$GPGSA,M,3,21,30,16,18,31,25,06,,,,,,2.7,1.7,2.1*33
$GPRMC,163312.998,A,3755.4241,S,07003.3125,W,29.12,184.81,110511,,,A*52
$GPGGA,163313.999,3755.4324,S,07003.3134,W,1,08,1.1,1103.7,M,24.0,M,,0000*61
$GPGSA,M,3,21,30,29,16,18,31,25,06,,,,,2.2,1.1,1.9*30
$GPRMC,163313.999,A,3755.4324,S,07003.3134,W,29.60,184.47,110511,,,A*5F
$GPGGA,163314.999,3755.4403,S,07003.3142,W,1,08,1.1,1105.6,M,24.0,M,,0000*62
$GPGSA,M,3,21,30,29,16,18,31,25,06,,,,,2.2,1.1,1.9*30
$GPRMC,163314.999,A,3755.4403,S,07003.3142,W,28.82,184.00,110511,,,A*55
$GPGGA,163315.998,3755.4483,S,07003.3141,W,1,08,1.1,1105.0,M,24.0,M,,0000*6F
$GPGSA,M,3,21,30,29,16,18,31,25,06,,,,,2.2,1.1,1.9*30
$GPGSV,3,1,11,21,87,146,38,30,56,234,40,29,37,106,37,16,32,224,38*7B
$GPGSV,3,2,11,18,27,020,37,31,26,312,38,25,26,035,33,06,19,251,33*72
$GPGSV,3,3,11,03,08,252,,05,06,144,28,22,05,356,27*4F
$GPRMC,163315.998,A,3755.4483,S,07003.3141,W,28.58,179.79,110511,,,A*55
$GPGGA,163317.003,3755.4562,S,07003.3133,W,1,07,1.1,1106.6,M,24.0,M,,0000*67
$GPGSA,M,3,21,30,29,16,18,31,06,,,,,,2.3,1.1,1.9*36
$GPRMC,163317.003,A,3755.4562,S,07003.3133,W,28.13,174.38,110511,,,A*50
$GPGGA,163318.000,3755.4641,S,07003.3115,W,1,08,1.1,1106.4,M,24.0,M,,0000*60
$GPGSA,M,3,21,30,29,16,18,31,25,06,,,,,2.2,1.1,1.9*30
$GPRMC,163318.000,A,3755.4641,S,07003.3115,W,28.54,170.27,110511,,,A*53
$GPGGA,163318.999,3755.4718,S,07003.3093,W,1,08,1.1,1107.2,M,24.0,M,,0000*6C
$GPGSA,M,3,21,30,29,16,18,31,25,06,,,,,2.2,1.1,1.9*30
$GPRMC,163318.999,A,3755.4718,S,07003.3093,W,28.13,164.05,110511,,,A*5E
$GPGGA,163320.001,3755.4794,S,07003.3061,W,1,08,1.1,1108.2,M,24.0,M,,0000*69
$GPGSA,M,3,21,30,29,16,18,31,25,06,,,,,2.2,1.1,1.9*30
$GPRMC,163320.001,A,3755.4794,S,07003.3061,W,28.26,159.67,110511,,,A*58
$GPGGA,163320.999,3755.4865,S,07003.3021,W,1,08,1.1,1110.2,M,24.0,M,,0000*6D
$GPGSA,M,3,21,30,29,16,18,31,25,06,,,,,2.2,1.1,1.9*30
$GPGSV,3,1,11,21,87,146,39,30,56,234,39,29,37,106,31,16,32,224,37*7D
$GPGSV,3,2,11,18,27,020,36,31,26,312,30,25,26,035,39,06,19,251,38*7A
$GPGSV,3,3,11,03,08,252,,05,06,144,,22,05,356,*40
$GPRMC,163320.999,A,3755.4865,S,07003.3021,W,28.32,154.10,110511,,,A*5D
$GPGGA,163322.003,3755.4932,S,07003.2975,W,1,08,1.1,1111.7,M,24.0,M,,0000*6B
$GPGSA,M,3,21,30,29,16,18,31,25,06,,,,,2.2,1.1,1.9*30
$GPRMC,163322.003,A,3755.4932,S,07003.2975,W,27.83,150.15,110511,,,A*5B
$GPGGA,163322.999,3755.4995,S,07003.2923,W,1,08,1.1,1113.2,M,24.0,M,,0000*68
$GPGSA,M,3,21,30,29,16,18,31,25,06,,,,,2.2,1.1,1.9*30
$GPRMC,163322.999,A,3755.4995,S,07003.2923,W,27.88,144.89,110511,,,A*54
$GPGGA,163324.001,3755.5051,S,07003.2866,W,1,08,1.1,1115.0,M,24.0,M,,0000*62
$GPGSA,M,3,21,30,29,16,18,31,25,06,,,,,2.2,1.1,1.9*30
$GPRMC,163324.001,A,3755.5051,S,07003.2866,W,27.72,142.05,110511,,,A*5D
$GPGGA,163325.001,3755.5113,S,07003.2800,W,1,08,1.1,1115.2,M,24.0,M,,0000*66
$GPGSA,M,3,21,30,29,16,18,31,25,06,,,,,2.2,1.1,1.9*30
$GPRMC,163325.001,A,3755.5113,S,07003.2800,W,28.24,140.08,110511,,,A*58
$GPGGA,163326.001,3755.5171,S,07003.2735,W,1,08,1.1,1116.4,M,24.0,M,,0000*6D
$GPGSA,M,3,21,30,29,16,18,31,25,06,,,,,2.2,1.1,1.9*30
$GPGSV,3,1,11,21,87,146,39,30,56,234,41,29,37,106,36,16,32,224,38*7A
$GPGSV,3,2,11,18,27,020,31,31,26,312,38,25,26,035,36,06,19,251,38*7A
$GPGSV,3,3,11,03,08,252,36,05,06,144,,22,05,356,28*4F
$GPRMC,163326.001,A,3755.5171,S,07003.2735,W,27.93,139.48,110511,,,A*5F
$GPGGA,163326.999,3755.5230,S,07003.2669,W,1,07,1.3,1116.6,M,24.0,M,,0000*64
$GPGSA,M,3,21,30,29,16,18,25,06,,,,,,2.3,1.3,1.9*31
$GPRMC,163326.999,A,3755.5230,S,07003.2669,W,28.11,138.06,110511,,,A*57
$GPGGA,163328.000,3755.5287,S,07003.2601,W,1,08,1.1,1117.3,M,24.0,M,,0000*68
$GPGSA,M,3,21,30,29,16,18,31,25,06,,,,,2.2,1.1,1.9*30
$GPRMC,163328.000,A,3755.5287,S,07003.2601,W,27.59,138.49,110511,,,A*5A
$GPGGA,163328.999,3755.5342,S,07003.2539,W,1,08,1.1,1117.4,M,24.0,M,,0000*66
$GPGSA,M,3,21,30,29,16,18,31,25,06,,,,,2.2,1.1,1.9*30
$GPRMC,163328.999,A,3755.5342,S,07003.2539,W,27.11,137.82,110511,,,A*57
$GPGGA,163329.999,3755.5399,S,07003.2473,W,1,08,1.1,1118.2,M,24.0,M,,0000*67
$GPGSA,M,3,21,30,29,16,18,31,25,06,,,,,2.2,1.1,1.9*30
$GPRMC,163329.999,A,3755.5399,S,07003.2473,W,27.81,138.48,110511,,,A*5F
$GPGGA,163331.001,3755.5456,S,07003.2405,W,1,08,1.1,1119.7,M,24.0,M,,0000*67
$GPGSA,M,3,21,30,29,16,18,31,25,06,,,,,2.2,1.1,1.9*30
$GPGSV,3,1,11,21,87,146,40,30,56,234,41,29,37,106,35,16,32,224,36*79
$GPGSV,3,2,11,18,27,020,34,31,26,312,37,25,26,035,37,06,19,251,33*7A
$GPGSV,3,3,11,03,08,252,,05,06,144,,22,05,356,32*41
$GPRMC,163331.001,A,3755.5456,S,07003.2405,W,27.36,137.86,110511,,,A*5A
$GPGGA,163332.001,3755.5512,S,07003.2342,W,1,07,1.2,1120.2,M,24.0,M,,0000*62
$GPGSA,M,3,21,30,29,16,18,31,25,,,,,,2.5,1.2,2.2*3A
$GPRMC,163332.001,A,3755.5512,S,07003.2342,W,27.80,138.22,110511,,,A*50
$GPGGA,163333.001,3755.5572,S,07003.2275,W,1,08,1.1,1119.8,M,24.0,M,,0000*6C
$GPGSA,M,3,21,30,29,16,18,31,25,06,,,,,2.2,1.1,1.9*30
$GPRMC,163333.001,A,3755.5572,S,07003.2275,W,27.75,138.26,110511,,,A*5C
$GPGGA,163334.002,3755.5626,S,07003.2209,W,1,08,1.1,1121.5,M,24.0,M,,0000*67
$GPGSA,M,3,21,30,29,16,18,31,25,06,,,,,2.2,1.1,1.9*30
$GPRMC,163334.002,A,3755.5626,S,07003.2209,W,27.41,138.32,110511,,,A*53
$GPGGA,163334.997,3755.5685,S,07003.2145,W,1,08,1.1,1123.3,M,24.0,M,,0000*64
$GPGSA,M,3,21,30,29,16,18,31,25,06,,,,,2.2,1.1,1.9*30
$GPRMC,163334.997,A,3755.5685,S,07003.2145,W,27.49,139.59,110511,,,A*50
$GPGGA,163336.002,3755.5745,S,07003.2082,W,1,08,1.1,1123.6,M,24.0,M,,0000*61
$GPGSA,M,3,21,30,29,16,18,31,25,06,,,,,2.2,1.1,1.9*30
$GPGSV,3,1,11,21,87,146,37,30,56,234,40,29,37,106,26,16,32,224,39*75
$GPGSV,3,2,11,18,27,020,36,31,26,312,36,25,26,035,38,06,19,251,37*72
$GPGSV,3,3,11,03,08,252,,05,06,144,23,22,05,356,*41
$GPRMC,163336.002,A,3755.5745,S,07003.2082,W,28.04,142.03,110511,,,A*55
$GPGGA,163337.002,3755.5809,S,07003.2024,W,1,07,1.7,1124.3,M,24.0,M,,0000*60
$GPGSA,M,3,21,30,16,18,31,25,06,,,,,,2.7,1.7,2.1*33
$GPRMC,163337.002,A,3755.5809,S,07003.2024,W,28.07,144.92,110511,,,A*52
$GPGGA,163337.998,3755.5876,S,07003.1970,W,1,07,1.7,1124.2,M,24.0,M,,0000*68
$GPGSA,M,3,21,30,16,18,31,25,06,,,,,,2.7,1.7,2.1*33
$GPRMC,163337.998,A,3755.5876,S,07003.1970,W,28.43,148.11,110511,,,A*5C
$GPGGA,163339.000,3755.5941,S,07003.1922,W,1,08,1.1,1125.1,M,24.0,M,,0000*67
$GPGSA,M,3,21,30,29,16,18,31,25,06,,,,,2.2,1.1,1.9*30
$GPRMC,163339.000,A,3755.5941,S,07003.1922,W,26.79,151.46,110511,,,A*55
$GPGGA,163339.999,3755.6012,S,07003.1879,W,1,07,1.2,1125.0,M,24.0,M,,0000*60
$GPGSA,M,3,21,30,29,16,31,25,06,,,,,,2.2,1.2,1.9*3A
$GPRMC,163339.999,A,3755.6012,S,07003.1879,W,27.54,158.12,110511,,,A*59
$GPGGA,163341.002,3755.6086,S,07003.1843,W,1,08,1.1,1125.1,M,24.0,M,,0000*6D
$GPGSA,M,3,21,30,29,16,18,31,25,06,,,,,2.2,1.1,1.9*30
$GPGSV,3,1,11,21,87,146,38,30,56,234,40,29,37,106,35,16,32,224,39*78
$GPGSV,3,2,11,18,27,020,32,31,26,312,38,25,26,035,37,06,19,251,32*72
$GPGSV,3,3,11,03,08,252,,05,06,144,,22,05,356,32*41
$GPRMC,163341.002,A,3755.6086,S,07003.1843,W,27.87,161.70,110511,,,A*59
$GPGGA,163342.000,3755.6163,S,07003.1812,W,1,08,1.1,1124.9,M,24.0,M,,0000*6B
$GPGSA,M,3,21,30,29,16,18,31,25,06,,,,,2.2,1.1,1.9*30
$GPRMC,163342.000,A,3755.6163,S,07003.1812,W,28.33,163.81,110511,,,A*5A
$GPGGA,163343.000,3755.6240,S,07003.1788,W,1,07,1.2,1125.2,M,24.0,M,,0000*62
$GPGSA,M,3,21,30,29,16,18,31,25,,,,,,2.5,1.2,2.2*3A
$GPRMC,163343.000,A,3755.6240,S,07003.1788,W,28.82,167.26,110511,,,A*56
$GPGGA,163343.999,3755.6318,S,07003.1767,W,1,06,1.7,1125.5,M,24.0,M,,0000*65
$GPGSA,M,3,21,30,16,18,31,25,,,,,,,3.0,1.7,2.5*37
$GPRMC,163343.999,A,3755.6318,S,07003.1767,W,28.47,168.59,110511,,,A*5C
$GPGGA,163344.999,3755.6398,S,07003.1757,W,1,08,1.1,1125.6,M,24.0,M,,0000*62
$GPGSA,M,3,21,30,29,16,18,31,25,06,,,,,2.2,1.1,1.9*30
$GPRMC,163344.999,A,3755.6398,S,07003.1757,W,28.87,173.79,110511,,,A*54
$GPGGA,163346.001,3755.6475,S,07003.1764,W,1,08,1.1,1126.4,M,24.0,M,,0000*6D
$GPGSA,M,3,21,30,29,16,18,31,25,06,,,,,2.2,1.1,1.9*30
$GPGSV,3,1,11,21,85,147,38,30,58,235,39,29,36,104,31,16,33,225,37*73
$GPGSV,3,2,11,18,28,021,32,31,25,313,38,25,24,034,31,06,20,250,35*77
$GPGSV,3,3,11,05,06,144,27,03,09,251,,22,07,356,30*46
$GPRMC,163346.001,A,3755.6475,S,07003.1764,W,28.81,181.88,110511,,,A*5F
$GPGGA,163346.999,3755.6558,S,07003.1770,W,1,08,1.1,1127.2,M,24.0,M,,0000*69
$GPGSA,M,3,21,30,29,16,18,31,25,06,,,,,2.2,1.1,1.9*30
$GPRMC,163346.999,A,3755.6558,S,07003.1770,W,28.44,184.24,110511,,,A*56
$GPGGA,163348.002,3755.6638,S,07003.1774,W,1,08,1.1,1127.0,M,24.0,M,,0000*6F
$GPGSA,M,3,21,30,29,16,18,31,25,06,,,,,2.2,1.1,1.9*30
$GPRMC,163348.002,A,3755.6638,S,07003.1774,W,28.36,186.33,110511,,,A*53
$GPGGA,163349.001,3755.6715,S,07003.1794,W,1,08,1.1,1128.5,M,24.0,M,,0000*67
$GPGSA,M,3,21,30,29,16,18,31,25,06,,,,,2.2,1.1,1.9*30
$GPRMC,163349.001,A,3755.6715,S,07003.1794,W,27.21,188.60,110511,,,A*50
$GPGGA,163350.002,3755.6791,S,07003.1816,W,1,08,1.1,1129.1,M,24.0,M,,0000*60
$GPGSA,M,3,21,30,29,16,18,31,25,06,,,,,2.2,1.1,1.9*30
$GPRMC,163350.002,A,3755.6791,S,07003.1816,W,27.76,194.39,110511,,,A*51
$GPGGA,163350.999,3755.6868,S,07003.1862,W,1,08,1.1,1130.0,M,24.0,M,,0000*68
$GPGSA,M,3,21,30,29,16,18,31,25,06,,,,,2.2,1.1,1.9*30
$GPGSV,3,1,11,21,85,147,38,30,58,235,40,29,36,104,38,16,33,225,35*76
$GPGSV,3,2,11,18,28,021,31,31,25,313,41,25,24,034,37,06,20,250,37*7E
$GPGSV,3,3,11,03,09,251,,22,07,356,33,05,06,144,*40
$GPRMC,163350.999,A,3755.6868,S,07003.1862,W,28.42,201.04,110511,,,A*59
$GPGGA,163352.000,3755.6941,S,07003.1913,W,1,08,1.1,1131.2,M,24.0,M,,0000*6D
$GPGSA,M,3,21,30,29,16,18,31,25,06,,,,,2.2,1.1,1.9*30
$GPRMC,163352.000,A,3755.6941,S,07003.1913,W,29.28,206.45,110511,,,A*50
$GPGGA,163353.002,3755.7012,S,07003.1963,W,1,08,1.1,1132.9,M,24.0,M,,0000*6F
