$GPGGA,121343.141,,,,,0,00,,,M,0.0,M,,0000*54
$GPGSA,M,1,,,,,,,,,,,,,,,*12
$GPRMC,121343.141,V,,,,,,,010511,,,N*4B
$GPGGA,121344.141,,,,,0,00,,,M,0.0,M,,0000*53
$GPGSA,M,1,,,,,,,,,,,,,,,*12
$GPRMC,121344.141,V,,,,,,,010511,,,N*4C
$GPGGA,121345.141,,,,,0,00,,,M,0.0,M,,0000*52
$GPGSA,M,1,,,,,,,,,,,,,,,*12
$GPGSV,3,1,10,12,43,203,46,25,23,245,42,09,66,159,33,27,65,100,*7D
$GPGSV,3,2,10,15,39,346,42,02,37,074,33,29,33,316,44,04,19,113,34*72
$GPGSV,3,3,10,26,13,014,,14,10,221,*7E
$GPRMC,121345.141,V,,,,,,,010511,,,N*4D
$GPGGA,121346.141,,,,,0,00,,,M,0.0,M,,0000*51
$GPGSA,M,1,,,,,,,,,,,,,,,*12
$GPRMC,121346.141,V,,,,,,,010511,,,N*4E
$GPGGA,121347.141,,,,,0,00,,,M,0.0,M,,0000*50
$GPGSA,M,1,,,,,,,,,,,,,,,*12
$GPRMC,121347.141,V,,,,,,,010511,,,N*4F
$GPGGA,121348.141,,,,,0,00,,,M,0.0,M,,0000*5F
$GPGSA,M,1,,,,,,,,,,,,,,,*12
$GPRMC,121348.141,V,,,,,,,010511,,,N*40
$GPGGA,121349.141,,,,,0,00,,,M,0.0,M,,0000*5E
$GPGSA,M,1,,,,,,,,,,,,,,,*12
$GPRMC,121349.141,V,,,,,,,010511,,,N*41
$GPGGA,121350.141,,,,,0,00,,,M,0.0,M,,0000*56
$GPGSA,M,1,,,,,,,,,,,,,,,*12
$GPGSV,3,1,10,12,43,203,46,25,23,245,43,09,66,159,33,27,65,100,*7C
$GPGSV,3,2,10,15,39,346,42,02,37,074,28,29,33,316,44,04,19,113,33*7F
$GPGSV,3,3,10,26,13,014,,14,10,221,*7E
$GPRMC,121350.141,V,,,,,,,010511,,,N*49
$GPGGA,121351.141,,,,,0,00,,,M,0.0,M,,0000*57
$GPGSA,M,1,,,,,,,,,,,,,,,*12
$GPRMC,121351.141,V,,,,,,,010511,,,N*48
$GPGGA,121352.141,,,,,0,00,,,M,0.0,M,,0000*54
$GPGSA,M,1,,,,,,,,,,,,,,,*12
$GPRMC,121352.141,V,,,,,,,010511,,,N*4B
$GPGGA,121353.141,,,,,0,00,,,M,0.0,M,,0000*55
$GPGSA,M,1,,,,,,,,,,,,,,,*12
$GPRMC,121353.141,V,,,,,,,010511,,,N*4A
$GPGGA,121354.141,,,,,0,00,,,M,0.0,M,,0000*52
$GPGSA,M,1,,,,,,,,,,,,,,,*12
$GPRMC,121354.141,V,,,,,,,010511,,,N*4D
$GPGGA,121355.141,,,,,0,00,,,M,0.0,M,,0000*53
$GPGSA,M,1,,,,,,,,,,,,,,,*12
$GPGSV,3,1,10,12,43,203,40,25,23,245,38,09,66,159,24,27,65,100,*70
$GPGSV,3,2,10,15,39,346,39,02,37,074,38,29,33,316,41,04,19,113,39*7D
$GPGSV,3,3,10,26,13,014,,14,10,221,29*75
$GPRMC,121355.141,V,,,,,,,010511,,,N*4C
$GPGGA,121356.141,,,,,0,00,,,M,0.0,M,,0000*50
$GPGSA,M,1,,,,,,,,,,,,,,,*12
$GPRMC,121356.141,V,,,,,,,010511,,,N*4F
$GPGGA,121357.141,,,,,0,00,,,M,0.0,M,,0000*51
$GPGSA,M,1,,,,,,,,,,,,,,,*12
$GPRMC,121357.141,V,,,,,,,010511,,,N*4E
$GPGGA,121358.141,,,,,0,00,,,M,0.0,M,,0000*5E
$GPGSA,M,1,,,,,,,,,,,,,,,*12
$GPRMC,121358.141,V,,,,,,,010511,,,N*41
$GPGGA,121359.141,,,,,0,00,,,M,0.0,M,,0000*5F
$GPGSA,M,1,,,,,,,,,,,,,,,*12
$GPRMC,121359.141,V,,,,,,,010511,,,N*40
$GPGGA,121400.141,,,,,0,00,,,M,0.0,M,,0000*54
$GPGSA,M,1,,,,,,,,,,,,,,,*12
$GPGSV,3,1,10,12,43,203,25,25,23,245,19,09,66,159,15,27,65,100,*72
$GPGSV,3,2,10,15,39,346,,02,37,074,17,29,33,316,14,04,19,113,15*74
$GPGSV,3,3,10,26,13,014,,14,10,221,23*7F
$GPRMC,121400.141,V,,,,,,,010511,,,N*4B
$GPGGA,121401.141,,,,,0,00,,,M,0.0,M,,0000*55
$GPGSA,M,1,,,,,,,,,,,,,,,*12
$GPRMC,121401.141,V,,,,,,,010511,,,N*4A
$GPGGA,121402.141,,,,,0,00,,,M,0.0,M,,0000*56
$GPGSA,M,1,,,,,,,,,,,,,,,*12
$GPRMC,121402.141,V,,,,,,,010511,,,N*49
$GPGGA,121403.141,,,,,0,00,,,M,0.0,M,,0000*57
$GPGSA,M,1,,,,,,,,,,,,,,,*12
$GPRMC,121403.141,V,,,,,,,010511,,,N*48
$GPGGA,121404.141,,,,,0,00,,,M,0.0,M,,0000*50
$GPGSA,M,1,,,,,,,,,,,,,,,*12
$GPRMC,121404.141,V,,,,,,,010511,,,N*4F
$GPGGA,121405.141,,,,,0,00,,,M,0.0,M,,0000*51
$GPGSA,M,1,,,,,,,,,,,,,,,*12
$GPGSV,3,1,10,12,43,203,40,25,23,245,29,09,66,159,35,27,65,100,32*71
$GPGSV,3,2,10,15,39,346,,02,37,074,43,29,33,316,34,04,19,113,43*74
$GPGSV,3,3,10,26,13,014,,14,10,221,23*7F
$GPRMC,121405.141,V,,,,,,,010511,,,N*4E
$GPGGA,121406.141,,,,,0,00,,,M,0.0,M,,0000*52
$GPGSA,M,1,,,,,,,,,,,,,,,*12
$GPRMC,121406.141,V,,,,,,,010511,,,N*4D
$GPGGA,121407.141,,,,,0,00,,,M,0.0,M,,0000*53
$GPGSA,M,1,,,,,,,,,,,,,,,*12
$GPRMC,121407.141,V,,,,,,,010511,,,N*4C
$GPGGA,121408.141,,,,,0,00,,,M,0.0,M,,0000*5C
$GPGSA,M,1,,,,,,,,,,,,,,,*12
$GPRMC,121408.141,V,,,,,,,010511,,,N*43
$GPGGA,121409.141,,,,,0,00,,,M,0.0,M,,0000*5D
$GPGSA,M,1,,,,,,,,,,,,,,,*12
$GPRMC,121409.141,V,,,,,,,010511,,,N*42
$GPGGA,121410.141,,,,,0,00,,,M,0.0,M,,0000*55
$GPGSA,M,1,,,,,,,,,,,,,,,*12
$GPGSV,3,1,10,12,43,203,39,25,23,245,31,09,66,159,24,27,65,100,25*70
$GPGSV,3,2,10,15,39,346,39,02,37,074,31,29,33,316,30,04,19,113,32*79
$GPGSV,3,3,10,26,13,014,,14,10,221,27*7B
$GPRMC,121410.141,V,,,,,,,010511,,,N*4A
$GPGGA,121411.141,,,,,0,00,,,M,0.0,M,,0000*54
$GPGSA,M,1,,,,,,,,,,,,,,,*12
$GPRMC,121411.141,V,,,,,,,010511,,,N*4B
$GPGGA,121412.141,,,,,0,00,,,M,0.0,M,,0000*57
$GPGSA,M,1,,,,,,,,,,,,,,,*12
$GPRMC,121412.141,V,,,,,,,010511,,,N*48
$GPGGA,121413.141,,,,,0,00,,,M,0.0,M,,0000*56
$GPGSA,M,1,,,,,,,,,,,,,,,*12
$GPRMC,121413.141,V,,,,,,,010511,,,N*49
$GPGGA,121414.141,,,,,0,00,,,M,0.0,M,,0000*51
$GPGSA,M,1,,,,,,,,,,,,,,,*12
$GPRMC,121414.141,V,,,,,,,010511,,,N*4E
$GPGGA,121415.141,,,,,0,00,,,M,0.0,M,,0000*50
$GPGSA,M,1,,,,,,,,,,,,,,,*12
$GPGSV,3,1,10,12,43,203,38,25,23,245,36,09,66,159,31,27,65,100,33*75
$GPGSV,3,2,10,15,39,346,31,02,37,074,40,29,33,316,36,04,19,113,33*70
$GPGSV,3,3,10,26,13,014,,14,10,221,29*75
$GPRMC,121415.141,V,,,,,,,010511,,,N*4F
$GPGGA,121416.141,,,,,0,00,,,M,0.0,M,,0000*53
$GPGSA,M,1,,,,,,,,,,,,,,,*12
$GPRMC,121416.141,V,,,,,,,010511,,,N*4C
$GPGGA,121417.141,,,,,0,00,,,M,0.0,M,,0000*52
$GPGSA,M,1,,,,,,,,,,,,,,,*12
$GPRMC,121417.141,V,,,,,,,010511,,,N*4D
$GPGGA,121418.141,,,,,0,00,,,M,0.0,M,,0000*5D
$GPGSA,M,1,,,,,,,,,,,,,,,*12
$GPRMC,121418.141,V,,,,,,,010511,,,N*42
$GPGGA,121419.141,,,,,0,00,,,M,0.0,M,,0000*5C
$GPGSA,M,1,,,,,,,,,,,,,,,*12
$GPRMC,121419.141,V,,,,,,,010511,,,N*43
$GPGGA,121420.141,,,,,0,00,,,M,0.0,M,,0000*56
$GPGSA,M,1,,,,,,,,,,,,,,,*12
$GPGSV,3,1,10,12,43,203,41,25,23,245,28,09,66,159,28,27,65,100,34*7B
$GPGSV,3,2,10,15,39,346,33,02,37,074,38,29,33,316,37,04,19,113,39*76
$GPGSV,3,3,10,26,13,014,,14,10,221,32*7F
$GPRMC,121420.141,V,,,,,,,010511,,,N*49
$GPGGA,121421.141,,,,,0,00,,,M,0.0,M,,0000*57
$GPGSA,M,1,,,,,,,,,,,,,,,*12
$GPRMC,121421.141,V,,,,,,,010511,,,N*48
$GPGGA,121422.141,,,,,0,00,,,M,0.0,M,,0000*54
$GPGSA,M,1,,,,,,,,,,,,,,,*12
$GPRMC,121422.141,V,,,,,,,010511,,,N*4B
$GPGGA,121423.141,,,,,0,00,,,M,0.0,M,,0000*55
$GPGSA,M,1,,,,,,,,,,,,,,,*12
$GPRMC,121423.141,V,,,,,,,010511,,,N*4A
$GPGGA,121424.141,,,,,0,00,,,M,0.0,M,,0000*52
$GPGSA,M,1,,,,,,,,,,,,,,,*12
$GPRMC,121424.141,V,,,,,,,010511,,,N*4D
$GPGGA,121425.141,,,,,0,00,,,M,0.0,M,,0000*53
$GPGSA,M,1,,,,,,,,,,,,,,,*12
$GPGSV,3,1,10,12,43,203,37,25,23,245,36,09,66,159,30,27,65,100,33*7B
$GPGSV,3,2,10,15,39,346,36,02,37,074,43,29,33,316,37,04,19,113,33*75
$GPGSV,3,3,10,26,13,014,,14,10,221,29*75
$GPRMC,121425.141,V,,,,,,,010511,,,N*4C
$GPGGA,121426.141,,,,,0,00,,,M,0.0,M,,0000*50
$GPGSA,M,1,,,,,,,,,,,,,,,*12
$GPRMC,121426.141,V,,,,,,,010511,,,N*4F
$GPGGA,121427.141,,,,,0,00,,,M,0.0,M,,0000*51
$GPGSA,M,1,,,,,,,,,,,,,,,*12
$GPRMC,121427.141,V,,,,,,,010511,,,N*4E
$GPGGA,121428.141,,,,,0,00,,,M,0.0,M,,0000*5E
$GPGSA,M,1,,,,,,,,,,,,,,,*12
$GPRMC,121428.141,V,,,,,,,010511,,,N*41
$GPGGA,121429.141,,,,,0,00,,,M,0.0,M,,0000*5F
$GPGSA,M,1,,,,,,,,,,,,,,,*12
$GPRMC,121429.141,V,,,,,,,010511,,,N*40
$GPGGA,121430.141,,,,,0,00,,,M,0.0,M,,0000*57
$GPGSA,M,1,,,,,,,,,,,,,,,*12
$GPGSV,3,1,10,12,43,203,42,25,23,245,40,09,66,159,27,27,65,100,24*78
$GPGSV,3,2,10,15,39,346,30,02,37,074,44,29,33,316,34,04,19,113,26*73
$GPGSV,3,3,10,26,13,014,,14,10,221,27*7B
$GPRMC,121430.141,V,,,,,,,010511,,,N*48
$GPGGA,121431.141,,,,,0,00,,,M,0.0,M,,0000*56
$GPGSA,M,1,,,,,,,,,,,,,,,*12
$GPRMC,121431.141,V,,,,,,,010511,,,N*49
$GPGGA,121432.141,,,,,0,00,,,M,0.0,M,,0000*55
$GPGSA,M,1,,,,,,,,,,,,,,,*12
$GPRMC,121432.141,V,,,,,,,010511,,,N*4A
$GPGGA,121433.141,,,,,0,00,,,M,0.0,M,,0000*54
$GPGSA,M,1,,,,,,,,,,,,,,,*12
$GPRMC,121433.141,V,,,,,,,010511,,,N*4B
$GPGGA,121434.141,,,,,0,00,,,M,0.0,M,,0000*53
$GPGSA,M,1,,,,,,,,,,,,,,,*12
$GPRMC,121434.141,V,,,,,,,010511,,,N*4C
$GPGGA,121435.141,,,,,0,00,,,M,0.0,M,,0000*52
$GPGSA,M,1,,,,,,,,,,,,,,,*12
$GPGSV,3,1,10,12,43,203,42,25,23,245,39,09,66,159,24,27,65,100,31*71
$GPGSV,3,2,10,15,39,346,27,02,37,074,45,29,33,316,35,04,19,113,31*73
$GPGSV,3,3,10,26,13,014,,14,10,221,28*74
$GPRMC,121435.141,V,,,,,,,010511,,,N*4D
$GPGGA,121436.141,,,,,0,00,,,M,0.0,M,,0000*51
$GPGSA,M,1,,,,,,,,,,,,,,,*12
$GPRMC,121436.141,V,,,,,,,010511,,,N*4E
$GPGGA,121437.141,,,,,0,00,,,M,0.0,M,,0000*50
$GPGSA,M,1,,,,,,,,,,,,,,,*12
$GPRMC,121437.141,V,,,,,,,010511,,,N*4F
$GPGGA,121438.141,,,,,0,00,,,M,0.0,M,,0000*5F
$GPGSA,M,1,,,,,,,,,,,,,,,*12
$GPRMC,121438.141,V,,,,,,,010511,,,N*40
$GPGGA,121439.141,,,,,0,00,,,M,0.0,M,,0000*5E
$GPGSA,M,1,,,,,,,,,,,,,,,*12
$GPRMC,121439.141,V,,,,,,,010511,,,N*41
$GPGGA,121440.141,,,,,0,00,,,M,0.0,M,,0000*50
$GPGSA,M,1,,,,,,,,,,,,,,,*12
$GPGSV,3,1,10,12,43,202,43,25,24,244,40,09,67,158,34,27,65,099,37*7F
$GPGSV,3,2,10,15,39,346,29,02,37,074,41,29,34,315,36,04,19,114,33*7B
$GPGSV,3,3,10,26,12,014,,14,10,221,33*7F
$GPRMC,121440.141,V,,,,,,,010511,,,N*4F
$GPGGA,121441.141,,,,,0,00,,,M,0.0,M,,0000*51
$GPGSA,M,1,,,,,,,,,,,,,,,*12
$GPRMC,121441.141,V,,,,,,,010511,,,N*4E
$GPGGA,121442.141,,,,,0,00,,,M,0.0,M,,0000*52
$GPGSA,M,1,,,,,,,,,,,,,,,*12
$GPRMC,121442.141,V,,,,,,,010511,,,N*4D
$GPGGA,121443.141,,,,,0,00,,,M,0.0,M,,0000*53
$GPGSA,M,1,,,,,,,,,,,,,,,*12
$GPRMC,121443.141,V,,,,,,,010511,,,N*4C
$GPGGA,121444.141,,,,,0,00,,,M,0.0,M,,0000*54
$GPGSA,M,1,,,,,,,,,,,,,,,*12
$GPRMC,121444.141,V,,,,,,,010511,,,N*4B
$GPGGA,121445.141,,,,,0,00,,,M,0.0,M,,0000*55
$GPGSA,M,1,,,,,,,,,,,,,,,*12
$GPGSV,3,1,10,12,43,202,43,25,24,244,39,09,67,158,36,27,65,099,36*72
$GPGSV,3,2,10,15,39,346,36,02,37,074,43,29,34,315,42,04,19,114,30*77
$GPGSV,3,3,10,26,12,014,,14,10,221,34*78
$GPRMC,121445.141,V,,,,,,,010511,,,N*4A
$GPGGA,122753.301,,,,,0,00,,,M,0.0,M,,0000*54
$GPGSA,M,1,,,,,,,,,,,,,,,*12
$GPRMC,122753.301,V,,,,,,,010511,,,N*4B
$GPGGA,122754.301,,,,,0,00,,,M,0.0,M,,0000*53
$GPGSA,M,1,,,,,,,,,,,,,,,*12
$GPRMC,122754.301,V,,,,,,,010511,,,N*4C
$GPGGA,122755.301,,,,,0,00,,,M,0.0,M,,0000*52
$GPGSA,M,1,,,,,,,,,,,,,,,*12
$GPRMC,122755.301,V,,,,,,,010511,,,N*4D
$GPGGA,122756.301,,,,,0,00,,,M,0.0,M,,0000*51
$GPGSA,M,1,,,,,,,,,,,,,,,*12
$GPRMC,122756.301,V,,,,,,,010511,,,N*4E
$GPGGA,122757.301,,,,,0,00,,,M,0.0,M,,0000*50
$GPGSA,M,1,,,,,,,,,,,,,,,*12
$GPGSV,3,1,10,12,43,194,43,02,38,082,45,25,25,238,39,09,71,143,35*7B
$GPGSV,3,2,10,27,63,082,35,29,39,310,43,15,33,349,37,04,17,119,30*77
$GPGSV,3,3,10,14,14,225,35,26,07,016,*7F
$GPRMC,122757.301,V,,,,,,,010511,,,N*4F
$GPGGA,122758.301,,,,,0,00,,,M,0.0,M,,0000*5F
$GPGSA,M,1,,,,,,,,,,,,,,,*12
$GPRMC,122758.301,V,,,,,,,010511,,,N*40
$GPGGA,122759.301,,,,,0,00,,,M,0.0,M,,0000*5E
$GPGSA,M,1,,,,,,,,,,,,,,,*12
$GPRMC,122759.301,V,,,,,,,010511,,,N*41
$GPGGA,122800.301,,,,,0,00,,,M,0.0,M,,0000*5D
$GPGSA,M,1,,,,,,,,,,,,,,,*12
$GPRMC,122800.301,V,,,,,,,010511,,,N*42
$GPGGA,122801.301,,,,,0,00,,,M,0.0,M,,0000*5C
$GPGSA,M,1,,,,,,,,,,,,,,,*12
$GPRMC,122801.301,V,,,,,,,010511,,,N*43
$GPGGA,122802.301,,,,,0,00,,,M,0.0,M,,0000*5F
$GPGSA,M,1,,,,,,,,,,,,,,,*12
$GPGSV,3,1,10,12,43,194,43,02,38,082,40,25,25,238,39,09,71,143,33*78
$GPGSV,3,2,10,27,63,082,35,29,39,310,42,15,33,349,32,04,17,119,30*73
$GPGSV,3,3,10,14,14,225,36,26,07,016,*7C
$GPRMC,122802.301,V,,,,,,,010511,,,N*40
$GPGGA,122803.301,,,,,0,00,,,M,0.0,M,,0000*5E
$GPGSA,M,1,,,,,,,,,,,,,,,*12
$GPRMC,122803.301,V,,,,,,,010511,,,N*41
$GPGGA,122804.301,1926.9286,S,06958.0612,W,1,04,3.6,1094.6,M,35.0,M,,0000*6F
$GPGSA,M,3,12,25,02,14,,,,,,,,,5.6,3.6,4.3*3C
$GPRMC,122804.301,A,1926.9286,S,06958.0612,W,0.10,119.65,010511,,,A*6F
$GPGGA,122805.301,1926.9284,S,06958.0613,W,1,04,3.6,1094.9,M,35.0,M,,0000*62
$GPGSA,M,3,12,25,02,14,,,,,,,,,5.6,3.6,4.3*3C
$GPRMC,122805.301,A,1926.9284,S,06958.0613,W,0.10,96.34,010511,,,A*5F
$GPGGA,122806.000,1926.9284,S,06958.0613,W,1,04,3.6,1094.8,M,35.0,M,,0000*62
$GPGSA,M,3,12,25,02,14,,,,,,,,,5.6,3.6,4.3*3C
$GPRMC,122806.000,A,1926.9284,S,06958.0613,W,0.21,128.88,010511,,,A*6F
$GPGGA,122807.000,1926.9285,S,06958.0612,W,1,04,3.6,1094.6,M,35.0,M,,0000*6D
$GPGSA,M,3,12,25,02,14,,,,,,,,,5.6,3.6,4.3*3C
$GPGSV,3,1,10,12,43,194,44,02,38,083,45,25,26,238,39,14,14,225,37*70
$GPGSV,3,2,10,09,71,143,36,27,63,082,33,29,39,310,43,15,33,349,41*74
$GPGSV,3,3,10,04,17,120,35,26,07,016,*7B
$GPRMC,122807.000,A,1926.9285,S,06958.0612,W,0.10,99.58,010511,,,A*5A
$GPGGA,122808.000,1926.9286,S,06958.0611,W,1,04,3.6,1094.4,M,35.0,M,,0000*60
$GPGSA,M,3,12,25,02,14,,,,,,,,,5.6,3.6,4.3*3C
$GPRMC,122808.000,A,1926.9286,S,06958.0611,W,0.13,111.76,010511,,,A*6B
$GPGGA,122809.000,1926.9287,S,06958.0610,W,1,04,3.6,1094.2,M,35.0,M,,0000*67
$GPGSA,M,3,12,25,02,14,,,,,,,,,5.6,3.6,4.3*3C
$GPRMC,122809.000,A,1926.9287,S,06958.0610,W,0.13,105.56,010511,,,A*6D
$GPGGA,122810.000,1926.9288,S,06958.0609,W,1,04,3.6,1094.0,M,35.0,M,,0000*6A
$GPGSA,M,3,12,25,02,14,,,,,,,,,5.6,3.6,4.3*3C
$GPRMC,122810.000,A,1926.9288,S,06958.0609,W,0.11,107.11,010511,,,A*61
$GPGGA,122811.000,1926.9289,S,06958.0608,W,1,04,3.6,1093.7,M,35.0,M,,0000*6B
$GPGSA,M,3,12,25,02,14,,,,,,,,,5.6,3.6,4.3*3C
$GPRMC,122811.000,A,1926.9289,S,06958.0608,W,0.14,110.01,010511,,,A*62
$GPGGA,122812.000,1926.9290,S,06958.0607,W,1,04,3.6,1093.5,M,35.0,M,,0000*6D
$GPGSA,M,3,12,25,02,14,,,,,,,,,5.6,3.6,4.3*3C
$GPGSV,3,1,10,12,43,194,45,02,38,083,46,25,26,238,38,14,14,225,37*73
$GPGSV,3,2,10,09,71,143,37,27,63,082,32,29,39,310,43,15,33,349,41*74
$GPGSV,3,3,10,04,17,120,35,26,07,016,*7B
$GPRMC,122812.000,A,1926.9290,S,06958.0607,W,0.18,117.28,010511,,,A*66
$GPGGA,122813.000,1926.9292,S,06958.0605,W,1,04,3.6,1093.2,M,35.0,M,,0000*6B
$GPGSA,M,3,12,25,02,14,,,,,,,,,5.6,3.6,4.3*3C
$GPRMC,122813.000,A,1926.9292,S,06958.0605,W,0.14,112.29,010511,,,A*6F
$GPGGA,122814.000,1926.9293,S,06958.0604,W,1,04,3.6,1092.9,M,35.0,M,,0000*66
$GPGSA,M,3,12,25,02,14,,,,,,,,,5.6,3.6,4.3*3C
$GPRMC,122814.000,A,1926.9293,S,06958.0604,W,0.14,111.87,010511,,,A*6F
$GPGGA,122815.000,1926.9295,S,06958.0603,W,1,04,3.6,1092.6,M,35.0,M,,0000*69
$GPGSA,M,3,12,25,02,14,,,,,,,,,5.6,3.6,4.3*3C
$GPRMC,122815.000,A,1926.9295,S,06958.0603,W,0.14,115.18,010511,,,A*6D
$GPGGA,122816.166,1926.9293,S,06958.0604,W,1,04,3.6,1092.3,M,35.0,M,,0000*6F
$GPGSA,M,3,12,02,25,14,,,,,,,,,5.6,3.6,4.3*3C
$GPRMC,122816.166,A,1926.9293,S,06958.0604,W,0.31,357.27,010511,,,A*61
$GPGGA,122817.001,1926.9294,S,06958.0602,W,1,04,3.6,1091.9,M,35.0,M,,0000*66
$GPGSA,M,3,12,02,25,14,,,,,,,,,5.6,3.6,4.3*3C
$GPGSV,3,1,10,09,71,143,37,27,63,082,28,12,43,194,40,29,39,310,38*73
$GPGSV,3,2,10,02,38,083,41,15,33,349,32,25,26,238,37,04,17,120,34*7D
$GPGSV,3,3,10,14,14,225,34,26,07,016,*7E
$GPRMC,122817.001,A,1926.9294,S,06958.0602,W,0.37,66.26,010511,,,A*57
$GPGGA,122818.017,1926.9293,S,06958.0602,W,1,04,3.6,1091.9,M,35.0,M,,0000*69
$GPGSA,M,3,12,02,25,14,,,,,,,,,5.6,3.6,4.3*3C
$GPRMC,122818.017,A,1926.9293,S,06958.0602,W,0.17,80.69,010511,,,A*59
$GPGGA,122818.984,1926.9290,S,06958.0604,W,1,04,3.6,1092.1,M,35.0,M,,0000*64
$GPGSA,M,3,12,02,25,14,,,,,,,,,5.6,3.6,4.3*3C
$GPRMC,122818.984,A,1926.9290,S,06958.0604,W,0.41,325.21,010511,,,A*6C
$GPGGA,122820.000,1926.9290,S,06958.0603,W,1,04,3.6,1091.9,M,35.0,M,,0000*66
$GPGSA,M,3,12,02,25,14,,,,,,,,,5.6,3.6,4.3*3C
$GPRMC,122820.000,A,1926.9290,S,06958.0603,W,0.28,90.73,010511,,,A*50
$GPGGA,122821.000,1926.9288,S,06958.0605,W,1,04,3.6,1091.9,M,35.0,M,,0000*68
$GPGSA,M,3,12,02,25,14,,,,,,,,,5.6,3.6,4.3*3C
$GPRMC,122821.000,A,1926.9288,S,06958.0605,W,0.06,166.67,010511,,,A*6F
$GPGGA,122821.998,1926.9287,S,06958.0606,W,1,04,3.6,1091.8,M,35.0,M,,0000*6D
$GPGSA,M,3,12,02,25,14,,,,,,,,,5.6,3.6,4.3*3C
$GPGSV,3,1,10,09,71,143,33,27,63,082,37,12,43,194,39,29,39,310,40*78
$GPGSV,3,2,10,02,38,083,36,15,33,349,23,25,26,238,38,04,17,120,*75
$GPGSV,3,3,10,14,14,225,31,26,07,016,*7B
$GPRMC,122821.998,A,1926.9287,S,06958.0606,W,0.64,171.35,010511,,,A*6E
$GPGGA,122823.002,1926.9289,S,06958.0606,W,1,04,3.6,1091.6,M,35.0,M,,0000*65
$GPGSA,M,3,12,02,25,14,,,,,,,,,5.6,3.6,4.3*3C
$GPRMC,122823.002,A,1926.9289,S,06958.0606,W,0.34,240.97,010511,,,A*64
$GPGGA,122824.000,1926.9289,S,06958.0606,W,1,04,3.6,1091.0,M,35.0,M,,0000*66
$GPGSA,M,3,12,02,25,14,,,,,,,,,5.6,3.6,4.3*3C
$GPRMC,122824.000,A,1926.9289,S,06958.0606,W,0.46,337.75,010511,,,A*69
$GPGGA,122824.998,1926.9291,S,06958.0605,W,1,04,3.6,1091.8,M,35.0,M,,0000*6C
$GPGSA,M,3,12,02,25,14,,,,,,,,,5.6,3.6,4.3*3C
$GPRMC,122824.998,A,1926.9291,S,06958.0605,W,0.19,138.82,010511,,,A*64
$GPGGA,122826.002,1926.9294,S,06958.0603,W,1,04,3.6,1091.8,M,35.0,M,,0000*67
$GPGSA,M,3,12,02,25,14,,,,,,,,,5.6,3.6,4.3*3C
$GPRMC,122826.002,A,1926.9294,S,06958.0603,W,0.67,128.13,010511,,,A*6F
$GPGGA,122827.002,1926.9296,S,06958.0602,W,1,04,3.6,1091.5,M,35.0,M,,0000*68
$GPGSA,M,3,12,02,25,14,,,,,,,,,5.6,3.6,4.3*3C
$GPGSV,3,1,10,09,71,143,,27,63,082,32,12,43,194,40,29,39,310,32*76
$GPGSV,3,2,10,02,38,083,38,15,33,349,29,25,26,238,35,04,17,120,31*7E
$GPGSV,3,3,10,14,14,225,31,26,07,016,*7B
$GPRMC,122827.002,A,1926.9296,S,06958.0602,W,0.51,162.03,010511,,,A*67
$GPGGA,122827.998,1926.9306,S,06958.0597,W,1,04,3.6,1091.4,M,35.0,M,,0000*64
$GPGSA,M,3,12,02,25,14,,,,,,,,,5.6,3.6,4.3*3C
$GPRMC,122827.998,A,1926.9306,S,06958.0597,W,0.15,223.78,010511,,,A*60
$GPGGA,122829.004,1926.9308,S,06958.0594,W,1,04,3.6,1091.0,M,35.0,M,,0000*6F
$GPGSA,M,3,12,02,25,14,,,,,,,,,5.6,3.6,4.3*3C
$GPRMC,122829.004,A,1926.9308,S,06958.0594,W,0.67,103.76,010511,,,A*65
$GPGGA,122829.999,1926.9304,S,06958.0595,W,1,04,3.6,1090.8,M,35.0,M,,0000*66
$GPGSA,M,3,12,02,25,14,,,,,,,,,5.6,3.6,4.3*3C
$GPRMC,122829.999,A,1926.9304,S,06958.0595,W,0.76,170.07,010511,,,A*67
$GPGGA,122830.997,1926.9301,S,06958.0598,W,1,04,3.6,1090.9,M,35.0,M,,0000*69
$GPGSA,M,3,12,02,25,14,,,,,,,,,5.6,3.6,4.3*3C
$GPRMC,122830.997,A,1926.9301,S,06958.0598,W,0.90,345.91,010511,,,A*6A
$GPGGA,122832.005,1926.9297,S,06958.0599,W,1,04,3.6,1091.8,M,35.0,M,,0000*66
$GPGSA,M,3,12,02,25,14,,,,,,,,,5.7,3.6,4.3*3D
$GPGSV,3,1,10,09,71,143,30,27,63,082,36,12,43,194,38,29,39,310,39*75
$GPGSV,3,2,10,02,38,083,39,15,33,349,31,25,26,238,37,04,17,120,31*74
$GPGSV,3,3,10,14,14,225,33,26,07,016,*79
$GPRMC,122832.005,A,1926.9297,S,06958.0599,W,0.37,72.48,010511,,,A*5B
$GPGGA,122832.997,1926.9299,S,06958.0598,W,1,04,3.6,1091.2,M,35.0,M,,0000*61
$GPGSA,M,3,12,02,25,14,,,,,,,,,5.7,3.6,4.3*3D
$GPRMC,122832.997,A,1926.9299,S,06958.0598,W,1.21,157.07,010511,,,A*6D
$GPGGA,122834.002,1926.9304,S,06958.0595,W,1,04,3.6,1091.2,M,35.0,M,,0000*6A
$GPGSA,M,3,12,02,25,14,,,,,,,,,5.7,3.6,4.3*3D
$GPRMC,122834.002,A,1926.9304,S,06958.0595,W,0.16,159.18,010511,,,A*63
$GPGGA,122835.000,1926.9303,S,06958.0596,W,1,04,3.6,1091.4,M,35.0,M,,0000*6B
$GPGSA,M,3,12,02,25,14,,,,,,,,,5.7,3.6,4.3*3D
$GPRMC,122835.000,A,1926.9303,S,06958.0596,W,0.97,131.12,010511,,,A*69
$GPGGA,122836.000,1926.9305,S,06958.0594,W,1,04,3.6,1091.7,M,35.0,M,,0000*6F
$GPGSA,M,3,12,02,25,14,,,,,,,,,5.7,3.6,4.3*3D
$GPRMC,122836.000,A,1926.9305,S,06958.0594,W,1.24,138.26,010511,,,A*69
$GPGGA,122837.000,1926.9306,S,06958.0594,W,1,04,3.6,1091.6,M,35.0,M,,0000*6C
$GPGSA,M,3,12,02,25,14,,,,,,,,,5.7,3.6,4.3*3D
$GPGSV,3,1,10,09,71,143,30,27,63,082,36,12,43,194,39,29,39,310,40*7A
$GPGSV,3,2,10,02,38,083,39,15,33,349,38,25,26,238,37,04,17,120,31*7D
$GPGSV,3,3,10,14,14,225,36,26,07,016,26*78
$GPRMC,122837.000,A,1926.9306,S,06958.0594,W,0.42,142.73,010511,,,A*67
$GPGGA,122838.000,1926.9311,S,06958.0591,W,1,04,3.6,1091.3,M,35.0,M,,0000*65
$GPGSA,M,3,12,02,25,14,,,,,,,,,5.7,3.6,4.3*3D
$GPRMC,122838.000,A,1926.9311,S,06958.0591,W,0.99,154.21,010511,,,A*6D
$GPGGA,122838.998,1926.9315,S,06958.0589,W,1,04,3.6,1091.2,M,35.0,M,,0000*61
$GPGSA,M,3,12,02,25,14,,,,,,,,,5.7,3.6,4.3*3D
$GPRMC,122838.998,A,1926.9315,S,06958.0589,W,1.12,141.54,010511,,,A*6C
$GPGGA,122840.000,1926.9317,S,06958.0587,W,1,04,3.6,1091.1,M,35.0,M,,0000*69
$GPGSA,M,3,12,02,25,14,,,,,,,,,5.7,3.6,4.4*3A
$GPRMC,122840.000,A,1926.9317,S,06958.0587,W,0.06,152.68,010511,,,A*6E
$GPGGA,122841.000,1926.9317,S,06958.0586,W,1,04,3.6,1090.6,M,35.0,M,,0000*6F
$GPGSA,M,3,12,02,25,14,,,,,,,,,5.7,3.6,4.4*3A
$GPRMC,122841.000,A,1926.9317,S,06958.0586,W,0.21,13.58,010511,,,A*5C
$GPGGA,122842.000,1926.9319,S,06958.0584,W,1,04,3.6,1090.4,M,35.0,M,,0000*62
$GPGSA,M,3,12,02,25,14,,,,,,,,,5.7,3.6,4.4*3A
$GPGSV,3,1,10,09,71,143,30,27,63,082,35,12,43,194,39,29,39,310,40*79
$GPGSV,3,2,10,02,38,083,39,15,33,349,41,25,26,238,36,04,17,120,29*7B
$GPGSV,3,3,10,14,14,225,37,26,07,016,*7D
$GPRMC,122842.000,A,1926.9319,S,06958.0584,W,0.60,131.90,010511,,,A*63
$GPGGA,122843.000,1926.9321,S,06958.0584,W,1,04,3.6,1090.7,M,35.0,M,,0000*6B
$GPGSA,M,3,12,02,25,14,,,,,,,,,5.7,3.6,4.4*3A
$GPRMC,122843.000,A,1926.9321,S,06958.0584,W,0.44,117.30,010511,,,A*61
$GPGGA,122844.002,1926.9323,S,06958.0582,W,1,04,3.6,1090.1,M,35.0,M,,0000*6C
$GPGSA,M,3,12,02,25,14,,,,,,,,,5.7,3.6,4.4*3A
$GPRMC,122844.002,A,1926.9323,S,06958.0582,W,0.07,127.01,010511,,,A*66
$GPGGA,122844.998,1926.9324,S,06958.0582,W,1,04,3.6,1090.3,M,35.0,M,,0000*63
$GPGSA,M,3,12,02,25,14,,,,,,,,,5.7,3.6,4.4*3A
$GPRMC,122844.998,A,1926.9324,S,06958.0582,W,0.53,150.53,010511,,,A*6D
$GPGGA,122846.000,1926.9324,S,06958.0582,W,1,04,3.6,1090.1,M,35.0,M,,0000*6B
$GPGSA,M,3,12,02,25,14,,,,,,,,,5.7,3.6,4.4*3A
$GPRMC,122846.000,A,1926.9324,S,06958.0582,W,0.59,143.98,010511,,,A*68
$GPGGA,122847.004,1926.9326,S,06958.0581,W,1,04,3.6,1089.6,M,35.0,M,,0000*60
$GPGSA,M,3,12,02,25,14,,,,,,,,,5.7,3.6,4.4*3A
$GPGSV,3,1,10,09,71,143,31,27,63,082,36,12,43,194,39,29,39,310,41*7A
$GPGSV,3,2,10,02,38,083,40,15,33,349,41,25,26,238,36,04,17,120,*7E
$GPGSV,3,3,10,14,14,225,37,26,07,016,*7D
$GPRMC,122847.004,A,1926.9326,S,06958.0581,W,0.41,168.58,010511,,,A*60
$GPGGA,122847.995,1926.9325,S,06958.0584,W,1,04,3.6,1089.1,M,35.0,M,,0000*60
$GPGSA,M,3,12,02,25,14,,,,,,,,,5.7,3.6,4.4*3A
$GPRMC,122847.995,A,1926.9325,S,06958.0584,W,0.15,343.01,010511,,,A*61
$GPGGA,122849.012,1926.9321,S,06958.0585,W,1,04,3.6,1088.7,M,35.0,M,,0000*6A
$GPGSA,M,3,12,02,25,14,,,,,,,,,5.7,3.6,4.4*3A
$GPRMC,122849.012,A,1926.9321,S,06958.0585,W,0.55,153.22,010511,,,A*6A
$GPGGA,122849.991,1926.9318,S,06958.0586,W,1,04,3.6,1088.7,M,35.0,M,,0000*61
$GPGSA,M,3,12,02,25,14,,,,,,,,,5.7,3.6,4.4*3A
$GPRMC,122849.991,A,1926.9318,S,06958.0586,W,0.51,331.71,010511,,,A*65
$GPGGA,122851.000,1926.9314,S,06958.0589,W,1,04,3.6,1089.2,M,35.0,M,,0000*6E
$GPGSA,M,3,12,02,25,14,,,,,,,,,5.7,3.6,4.4*3A
$GPRMC,122851.000,A,1926.9314,S,06958.0589,W,0.33,163.22,010511,,,A*69
$GPGGA,122851.999,1926.9317,S,06958.0587,W,1,04,3.7,1089.2,M,35.0,M,,0000*6B
$GPGSA,M,3,12,02,25,14,,,,,,,,,5.7,3.7,4.4*3B
$GPGSV,3,1,10,09,71,143,27,27,63,082,33,12,43,194,38,29,39,310,40*78
$GPGSV,3,2,10,02,38,083,40,15,33,349,41,25,26,238,37,04,17,120,29*74
$GPGSV,3,3,10,14,14,225,36,26,07,016,*7C
$GPRMC,122851.999,A,1926.9317,S,06958.0587,W,0.65,139.19,010511,,,A*69
$GPGGA,122853.000,1926.9320,S,06958.0586,W,1,04,3.7,1088.9,M,35.0,M,,0000*6F
$GPGSA,M,3,12,02,25,14,,,,,,,,,5.7,3.7,4.4*3B
$GPRMC,122853.000,A,1926.9320,S,06958.0586,W,0.84,166.60,010511,,,A*6C
$GPGGA,122854.000,1926.9331,S,06958.0579,W,1,04,3.7,1088.5,M,35.0,M,,0000*64
$GPGSA,M,3,12,02,25,14,,,,,,,,,5.7,3.7,4.4*3B
$GPRMC,122854.000,A,1926.9331,S,06958.0579,W,0.57,119.25,010511,,,A*6C
$GPGGA,122854.999,1926.9329,S,06958.0579,W,1,04,3.7,1088.6,M,35.0,M,,0000*67
$GPGSA,M,3,12,02,25,14,,,,,,,,,5.7,3.7,4.4*3B
$GPRMC,122854.999,A,1926.9329,S,06958.0579,W,0.77,132.76,010511,,,A*61
$GPGGA,122855.999,1926.9326,S,06958.0578,W,1,04,3.7,1088.4,M,35.0,M,,0000*6A
$GPGSA,M,3,12,02,25,14,,,,,,,,,5.7,3.7,4.4*3B
$GPRMC,122855.999,A,1926.9326,S,06958.0578,W,0.08,41.30,010511,,,A*51
$GPGGA,122857.001,1926.9330,S,06958.0578,W,1,04,3.7,1089.0,M,35.0,M,,0000*62
$GPGSA,M,3,12,02,25,14,,,,,,,,,5.7,3.7,4.4*3B
$GPGSV,3,1,10,09,71,143,27,27,63,082,34,12,43,194,39,29,39,310,38*71
$GPGSV,3,2,10,02,38,083,37,15,33,349,36,25,26,238,30,04,17,120,28*72
$GPGSV,3,3,10,14,14,225,34,26,07,016,*7E
$GPRMC,122857.001,A,1926.9330,S,06958.0578,W,1.63,153.89,010511,,,A*60
$GPGGA,122858.001,1926.9334,S,06958.0576,W,1,04,3.7,1089.4,M,35.0,M,,0000*63
$GPGSA,M,3,12,02,25,14,,,,,,,,,5.7,3.7,4.4*3B
$GPRMC,122858.001,A,1926.9334,S,06958.0576,W,0.66,168.70,010511,,,A*6F
$GPGGA,122859.004,1926.9337,S,06958.0573,W,1,04,3.7,1089.4,M,35.0,M,,0000*61
$GPGSA,M,3,12,02,25,14,,,,,,,,,5.7,3.7,4.4*3B
$GPRMC,122859.004,A,1926.9337,S,06958.0573,W,0.39,177.46,010511,,,A*6C
$GPGGA,122859.997,1926.9338,S,06958.0575,W,1,04,3.7,1090.7,M,35.0,M,,0000*60
$GPGSA,M,3,12,02,25,14,,,,,,,,,5.7,3.7,4.4*3B
$GPRMC,122859.997,A,1926.9338,S,06958.0575,W,0.43,188.81,010511,,,A*60
$GPGGA,122901.000,1926.9339,S,06958.0575,W,1,04,3.7,1090.7,M,35.0,M,,0000*6A
$GPGSA,M,3,12,02,25,14,,,,,,,,,5.7,3.7,4.4*3B
$GPRMC,122901.000,A,1926.9339,S,06958.0575,W,0.37,339.48,010511,,,A*64
$GPGGA,122902.000,1926.9334,S,06958.0574,W,1,04,3.7,1090.1,M,35.0,M,,0000*63
$GPGSA,M,3,12,02,25,14,,,,,,,,,5.7,3.7,4.4*3B
$GPGSV,3,1,10,09,71,143,28,27,63,082,36,12,43,194,39,29,39,310,39*7D
$GPGSV,3,2,10,02,38,083,39,15,33,349,33,25,26,238,38,04,17,120,33*7B
$GPGSV,3,3,10,14,14,225,37,26,07,016,*7D
$GPRMC,122902.000,A,1926.9334,S,06958.0574,W,0.32,131.58,010511,,,A*65
$GPGGA,122903.001,1926.9336,S,06958.0571,W,1,04,3.7,1090.2,M,35.0,M,,0000*67
$GPGSA,M,3,12,02,25,14,,,,,,,,,5.7,3.7,4.4*3B
$GPRMC,122903.001,A,1926.9336,S,06958.0571,W,0.36,26.41,010511,,,A*59
$GPGGA,122904.002,1926.9330,S,06958.0574,W,1,04,3.7,1091.3,M,35.0,M,,0000*60
$GPGSA,M,3,12,02,25,14,,,,,,,,,5.7,3.7,4.4*3B
$GPRMC,122904.002,A,1926.9330,S,06958.0574,W,0.18,281.05,010511,,,A*6D
$GPGGA,122904.998,1926.9323,S,06958.0577,W,1,04,3.7,1091.4,M,35.0,M,,0000*6C
$GPGSA,M,3,12,02,25,14,,,,,,,,,5.7,3.7,4.4*3B
$GPRMC,122904.998,A,1926.9323,S,06958.0577,W,0.70,305.10,010511,,,A*61
$GPGGA,122906.002,1926.9321,S,06958.0578,W,1,04,3.7,1091.4,M,35.0,M,,0000*69
$GPGSA,M,3,12,02,25,14,,,,,,,,,5.7,3.7,4.4*3B
$GPRMC,122906.002,A,1926.9321,S,06958.0578,W,0.72,332.96,010511,,,A*6C
$GPGGA,122906.998,1926.9324,S,06958.0577,W,1,04,3.7,1092.0,M,35.0,M,,0000*6E
$GPGSA,M,3,12,02,25,14,,,,,,,,,5.7,3.7,4.4*3B
$GPGSV,3,1,10,09,71,143,30,27,63,082,29,12,43,194,34,29,39,310,28*77
$GPGSV,3,2,10,02,38,083,36,15,33,349,28,25,26,238,33,04,17,120,31*77
$GPGSV,3,3,10,14,14,225,30,26,07,016,*7A
$GPRMC,122906.998,A,1926.9324,S,06958.0577,W,0.45,102.10,010511,,,A*67
$GPGGA,122908.000,1926.9326,S,06958.0576,W,1,04,3.7,1092.6,M,35.0,M,,0000*6D
$GPGSA,M,3,12,02,25,14,,,,,,,,,5.7,3.7,4.4*3B
$GPRMC,122908.000,A,1926.9326,S,06958.0576,W,1.46,143.21,010511,,,A*67
$GPGGA,122909.000,1926.9324,S,06958.0577,W,1,04,3.7,1092.9,M,35.0,M,,0000*60
$GPGSA,M,3,12,02,25,14,,,,,,,,,5.7,3.7,4.4*3B
$GPRMC,122909.000,A,1926.9324,S,06958.0577,W,0.27,120.23,010511,,,A*64
$GPGGA,122910.000,1926.9316,S,06958.0586,W,1,04,3.7,1095.1,M,35.0,M,,0000*68
$GPGSA,M,3,12,02,25,14,,,,,,,,,5.7,3.7,4.4*3B
$GPRMC,122910.000,A,1926.9316,S,06958.0586,W,0.42,327.73,010511,,,A*60
$GPGGA,122911.000,1926.9310,S,06958.0588,W,1,04,3.7,1095.2,M,35.0,M,,0000*62
$GPGSA,M,3,12,02,25,14,,,,,,,,,5.7,3.7,4.4*3B
$GPRMC,122911.000,A,1926.9310,S,06958.0588,W,0.49,328.75,010511,,,A*6B
$GPGGA,122912.000,1926.9315,S,06958.0582,W,1,04,3.7,1092.4,M,35.0,M,,0000*6F
$GPGSA,M,3,12,02,25,14,,,,,,,,,5.8,3.7,4.4*34
$GPGSV,3,1,10,12,43,193,39,02,38,083,35,25,26,237,36,14,14,225,35*78
$GPGSV,3,2,10,09,71,141,36,27,63,081,31,29,39,310,32,15,33,350,36*79
$GPGSV,3,3,10,04,17,120,27,26,07,016,*78
$GPRMC,122912.000,A,1926.9315,S,06958.0582,W,0.35,333.76,010511,,,A*65
$GPGGA,122913.000,1926.9329,S,06958.0570,W,1,04,3.7,1088.7,M,35.0,M,,0000*64
$GPGSA,M,3,12,02,25,14,,,,,,,,,5.8,3.7,4.4*34
$GPRMC,122913.000,A,1926.9329,S,06958.0570,W,0.11,1.69,010511,,,A*6C
$GPGGA,122914.000,1926.9323,S,06958.0573,W,1,04,3.7,1090.7,M,35.0,M,,0000*63
$GPGSA,M,3,12,02,25,14,,,,,,,,,5.8,3.7,4.4*34
$GPRMC,122914.000,A,1926.9323,S,06958.0573,W,0.23,341.51,010511,,,A*6F
$GPGGA,122915.000,1926.9315,S,06958.0583,W,1,04,3.7,1094.3,M,35.0,M,,0000*68
$GPGSA,M,3,12,02,25,14,,,,,,,,,5.8,3.7,4.4*34
$GPRMC,122915.000,A,1926.9315,S,06958.0583,W,0.32,333.23,010511,,,A*64
$GPGGA,122916.000,1926.9318,S,06958.0581,W,1,04,3.7,1093.6,M,35.0,M,,0000*66
$GPGSA,M,3,12,02,25,14,,,,,,,,,5.8,3.7,4.4*34
$GPRMC,122916.000,A,1926.9318,S,06958.0581,W,0.30,331.69,010511,,,A*66
$GPGGA,122917.000,1926.9322,S,06958.0579,W,1,04,3.7,1092.7,M,35.0,M,,0000*69
$GPGSA,M,3,12,02,25,14,,,,,,,,,5.8,3.7,4.4*34
$GPGSV,3,1,10,09,71,141,26,27,63,080,38,12,43,193,39,29,39,310,26*74
$GPGSV,3,2,10,02,38,083,41,15,33,350,36,25,26,237,35,04,17,120,36*7E
$GPGSV,3,3,10,14,14,225,31,26,07,016,*7B
$GPRMC,122917.000,A,1926.9322,S,06958.0579,W,0.10,326.14,010511,,,A*67
$GPGGA,122918.000,1926.9319,S,06958.0580,W,1,04,3.7,1093.0,M,35.0,M,,0000*6E
$GPGSA,M,3,12,02,25,14,,,,,,,,,5.8,3.7,4.4*34
$GPRMC,122918.000,A,1926.9319,S,06958.0580,W,0.28,346.37,010511,,,A*6A
$GPGGA,122919.000,1926.9316,S,06958.0583,W,1,04,3.7,1092.8,M,35.0,M,,0000*6A
$GPGSA,M,3,12,02,25,14,,,,,,,,,5.8,3.7,4.4*34
$GPRMC,122919.000,A,1926.9316,S,06958.0583,W,0.28,340.48,010511,,,A*69
$GPGGA,122920.000,1926.9316,S,06958.0583,W,1,04,3.7,1092.2,M,35.0,M,,0000*6A
$GPGSA,M,3,12,02,25,14,,,,,,,,,5.8,3.7,4.4*34
$GPRMC,122920.000,A,1926.9316,S,06958.0583,W,0.22,342.28,010511,,,A*6D
$GPGGA,122921.002,1926.9318,S,06958.0580,W,1,04,3.7,1091.9,M,35.0,M,,0000*6C
$GPGSA,M,3,12,02,25,14,,,,,,,,,5.8,3.7,4.4*34
$GPRMC,122921.002,A,1926.9318,S,06958.0580,W,0.57,183.75,010511,,,A*66
$GPGGA,122921.999,1926.9322,S,06958.0579,W,1,04,3.7,1092.7,M,35.0,M,,0000*65
$GPGSA,M,3,12,02,25,14,,,,,,,,,5.8,3.7,4.4*34
$GPGSV,3,1,10,09,71,141,35,27,63,080,38,12,43,193,38,29,39,310,29*78
$GPGSV,3,2,10,02,38,083,40,15,33,350,30,25,26,237,32,04,17,120,29*70
$GPGSV,3,3,10,14,14,225,28,26,07,016,*73
$GPRMC,122921.999,A,1926.9322,S,06958.0579,W,0.42,108.61,010511,,,A*60
$GPGGA,122923.000,1926.9320,S,06958.0580,W,1,04,3.7,1093.4,M,35.0,M,,0000*68
$GPGSA,M,3,12,02,25,14,,,,,,,,,5.8,3.7,4.4*34
$GPRMC,122923.000,A,1926.9320,S,06958.0580,W,0.47,116.58,010511,,,A*6F
$GPGGA,122924.000,1926.9321,S,06958.0579,W,0,00,,1093.6,M,35.0,M,,0000*45
$GPGSA,M,1,,,,,,,,,,,,,,,*12
$GPRMC,122924.000,V,1926.9321,S,06958.0579,W,,,010511,,,N*7F
$GPGGA,122925.000,1926.9321,S,06958.0577,W,0,00,,1093.8,M,35.0,M,,0000*44
$GPGSA,M,1,,,,,,,,,,,,,,,*12
$GPRMC,122925.000,V,1926.9321,S,06958.0577,W,,,010511,,,N*70
$GPGGA,122926.000,1926.9322,S,06958.0576,W,0,00,,1094.1,M,35.0,M,,0000*4B
$GPGSA,M,1,,,,,,,,,,,,,,,*12
$GPRMC,122926.000,V,1926.9322,S,06958.0576,W,,,010511,,,N*71
$GPGGA,122927.000,1926.9315,S,06958.0582,W,1,04,3.7,1094.9,M,35.0,M,,0000*62
$GPGSA,M,3,12,02,25,14,,,,,,,,,5.8,3.7,4.5*35
$GPGSV,3,1,10,12,43,193,41,02,38,083,40,25,26,237,38,14,14,225,34*7A
$GPGSV,3,2,10,09,71,141,28,27,63,080,36,29,39,310,37,15,33,350,41*75
$GPGSV,3,3,10,04,17,120,34,26,06,016,*7B
$GPRMC,122927.000,A,1926.9315,S,06958.0582,W,0.30,350.86,010511,,,A*6C
$GPGGA,122928.000,1926.9310,S,06958.0586,W,1,04,3.7,1094.5,M,35.0,M,,0000*60
$GPGSA,M,3,12,02,25,14,,,,,,,,,5.8,3.7,4.5*35
$GPRMC,122928.000,A,1926.9310,S,06958.0586,W,0.34,336.10,010511,,,A*69
$GPGGA,122929.000,1926.9305,S,06958.0591,W,1,04,3.7,1094.5,M,35.0,M,,0000*63
$GPGSA,M,3,12,02,25,14,,,,,,,,,5.8,3.7,4.5*35
$GPRMC,122929.000,A,1926.9305,S,06958.0591,W,0.28,342.95,010511,,,A*69
$GPGGA,122930.000,1926.9301,S,06958.0593,W,1,04,3.7,1093.5,M,35.0,M,,0000*6A
$GPGSA,M,3,12,02,25,14,,,,,,,,,5.8,3.7,4.5*35
$GPRMC,122930.000,A,1926.9301,S,06958.0593,W,0.36,334.88,010511,,,A*65
$GPGGA,122931.000,1926.9301,S,06958.0594,W,1,04,3.7,1093.3,M,35.0,M,,0000*6A
$GPGSA,M,3,12,02,25,14,,,,,,,,,5.8,3.7,4.5*35
$GPRMC,122931.000,A,1926.9301,S,06958.0594,W,0.23,339.33,010511,,,A*6A
$GPGGA,122932.000,1926.9299,S,06958.0594,W,1,04,3.7,1093.4,M,35.0,M,,0000*6E
$GPGSA,M,3,12,02,25,14,,,,,,,,,5.8,3.7,4.5*35
$GPGSV,3,1,10,12,43,193,42,02,38,083,40,25,26,237,38,14,14,225,33*7E
$GPGSV,3,2,10,09,71,141,28,27,63,080,36,29,39,310,37,15,33,350,44*70
$GPGSV,3,3,10,04,17,120,35,26,06,016,*7A
$GPRMC,122932.000,A,1926.9299,S,06958.0594,W,0.21,343.57,010511,,,A*64
$GPGGA,122933.000,1926.9298,S,06958.0593,W,1,04,3.7,1092.5,M,35.0,M,,0000*69
$GPGSA,M,3,12,02,25,14,,,,,,,,,5.8,3.7,4.5*35
$GPRMC,122933.000,A,1926.9298,S,06958.0593,W,0.19,0.11,010511,,,A*6E
$GPGGA,122934.000,1926.9300,S,06958.0591,W,1,04,3.7,1091.5,M,35.0,M,,0000*6F
$GPGSA,M,3,12,02,25,14,,,,,,,,,5.8,3.7,4.5*35
$GPRMC,122934.000,A,1926.9300,S,06958.0591,W,0.13,359.67,010511,,,A*6F
$GPGGA,122935.000,1926.9300,S,06958.0591,W,1,04,3.7,1091.1,M,35.0,M,,0000*6A
$GPGSA,M,3,12,02,25,14,,,,,,,,,5.8,3.7,4.5*35
$GPRMC,122935.000,A,1926.9300,S,06958.0591,W,0.07,4.78,010511,,,A*6E
$GPGGA,122936.000,1926.9300,S,06958.0592,W,1,04,3.7,1091.0,M,35.0,M,,0000*6B
$GPGSA,M,3,12,02,25,14,,,,,,,,,5.8,3.7,4.5*35
$GPRMC,122936.000,A,1926.9300,S,06958.0592,W,0.11,19.68,010511,,,A*54
$GPGGA,122937.000,1926.9300,S,06958.0592,W,1,04,3.7,1090.6,M,35.0,M,,0000*6D
$GPGSA,M,3,12,02,25,14,,,,,,,,,5.8,3.7,4.5*35
$GPGSV,3,1,10,12,43,193,41,02,38,083,40,25,26,237,38,14,14,225,33*7D
$GPGSV,3,2,10,09,71,141,28,27,63,080,36,29,39,310,37,15,33,350,45*71
$GPGSV,3,3,10,04,17,120,36,26,06,016,23*78
$GPRMC,122937.000,A,1926.9300,S,06958.0592,W,0.09,13.61,010511,,,A*5F
$GPGGA,122938.002,1926.9300,S,06958.0591,W,1,04,3.7,1090.5,M,35.0,M,,0000*60
$GPGSA,M,3,12,02,25,14,,,,,,,,,5.8,3.7,4.5*35
$GPRMC,122938.002,A,1926.9300,S,06958.0591,W,0.64,145.99,010511,,,A*6F
$GPGGA,122938.999,1926.9299,S,06958.0592,W,1,04,3.7,1091.0,M,35.0,M,,0000*6D
$GPGSA,M,3,12,02,25,14,,,,,,,,,5.8,3.7,4.5*35
$GPRMC,122938.999,A,1926.9299,S,06958.0592,W,0.19,125.15,010511,,,A*6E
$GPGGA,122939.999,1926.9301,S,06958.0591,W,1,04,3.7,1090.7,M,35.0,M,,0000*69
$GPGSA,M,3,12,02,25,14,,,,,,,,,5.8,3.7,4.5*35
$GPRMC,122939.999,A,1926.9301,S,06958.0591,W,0.62,129.60,010511,,,A*6E
$GPGGA,122941.002,1926.9303,S,06958.0590,W,1,04,3.7,1091.3,M,35.0,M,,0000*6B
$GPGSA,M,3,12,02,25,14,,,,,,,,,5.8,3.7,4.5*35
$GPRMC,122941.002,A,1926.9303,S,06958.0590,W,1.13,129.64,010511,,,A*6A
$GPGGA,122942.005,1926.9302,S,06958.0590,W,1,04,3.7,1092.4,M,35.0,M,,0000*6A
$GPGSA,M,3,12,02,25,14,,,,,,,,,5.8,3.7,4.5*35
$GPGSV,3,1,10,09,71,141,,27,63,080,34,12,43,193,38,29,39,310,36*7C
$GPGSV,3,2,10,02,38,083,38,15,33,350,40,25,26,237,36,04,17,120,34*70
$GPGSV,3,3,10,14,14,225,30,26,06,016,*7B
$GPRMC,122942.005,A,1926.9302,S,06958.0590,W,0.92,142.54,010511,,,A*69
$GPGGA,122942.993,1926.9300,S,06958.0592,W,1,04,3.7,1092.5,M,35.0,M,,0000*6D
$GPGSA,M,3,12,02,25,14,,,,,,,,,5.8,3.7,4.5*35
$GPRMC,122942.993,A,1926.9300,S,06958.0592,W,0.02,34.56,010511,,,A*54
$GPGGA,122944.010,1926.9298,S,06958.0593,W,1,04,3.7,1093.2,M,35.0,M,,0000*6E
$GPGSA,M,3,12,02,25,14,,,,,,,,,5.8,3.7,4.5*35
$GPRMC,122944.010,A,1926.9298,S,06958.0593,W,0.52,11.20,010511,,,A*52
$GPGGA,122944.991,1926.9300,S,06958.0591,W,1,04,3.7,1092.9,M,35.0,M,,0000*66
$GPGSA,M,3,12,02,25,14,,,,,,,,,5.8,3.7,4.5*35
$GPRMC,122944.991,A,1926.9300,S,06958.0591,W,0.45,8.23,010511,,,A*6D
$GPGGA,122946.000,1926.9300,S,06958.0591,W,1,04,3.7,1093.5,M,35.0,M,,0000*68
$GPGSA,M,3,12,02,25,14,,,,,,,,,5.8,3.7,4.5*35
$GPRMC,122946.000,A,1926.9300,S,06958.0591,W,0.29,127.88,010511,,,A*69
$GPGGA,122946.999,1926.9299,S,06958.0592,W,1,04,3.7,1094.6,M,35.0,M,,0000*67
$GPGSA,M,3,12,02,25,14,,,,,,,,,5.8,3.7,4.5*35
$GPGSV,3,1,10,09,71,141,,27,63,080,31,12,43,193,37,29,39,310,36*76
$GPGSV,3,2,10,02,38,083,38,15,33,350,41,25,26,237,36,04,17,120,29*7D
$GPGSV,3,3,10,14,14,225,36,26,06,016,*7D
$GPRMC,122946.999,A,1926.9299,S,06958.0592,W,0.57,91.33,010511,,,A*57
$GPGGA,122948.002,1926.9301,S,06958.0590,W,1,04,3.7,1094.6,M,35.0,M,,0000*60
$GPGSA,M,3,12,02,25,14,,,,,,,,,5.8,3.7,4.5*35
$GPRMC,122948.002,A,1926.9301,S,06958.0590,W,0.85,145.22,010511,,,A*67
$GPGGA,122948.999,1926.9304,S,06958.0589,W,1,04,3.7,1094.9,M,35.0,M,,0000*69
$GPGSA,M,3,12,02,25,14,,,,,,,,,5.8,3.7,4.5*35
$GPRMC,122948.999,A,1926.9304,S,06958.0589,W,1.26,150.21,010511,,,A*6E
$GPGGA,122950.000,1926.9304,S,06958.0589,W,1,04,3.7,1094.8,M,35.0,M,,0000*68
$GPGSA,M,3,12,02,25,14,,,,,,,,,5.9,3.7,4.5*34
$GPRMC,122950.000,A,1926.9304,S,06958.0589,W,0.62,124.41,010511,,,A*6A
$GPGGA,122951.002,1926.9303,S,06958.0589,W,1,04,3.7,1095.2,M,35.0,M,,0000*67
$GPGSA,M,3,12,02,25,14,,,,,,,,,5.9,3.7,4.5*34
$GPRMC,122951.002,A,1926.9303,S,06958.0589,W,0.94,144.55,010511,,,A*64
$GPGGA,122951.998,1926.9298,S,06958.0593,W,1,04,3.7,1095.2,M,35.0,M,,0000*65
$GPGSA,M,3,12,02,25,14,,,,,,,,,5.9,3.7,4.5*34
$GPGSV,3,1,10,09,71,141,26,27,63,080,33,12,43,193,37,29,39,310,35*73
$GPGSV,3,2,10,02,38,083,38,15,33,350,40,25,26,237,34,04,17,120,30*76
$GPGSV,3,3,10,14,14,225,33,26,06,016,*78
$GPRMC,122951.998,A,1926.9298,S,06958.0593,W,0.48,337.41,010511,,,A*64
$GPGGA,122953.000,1926.9296,S,06958.0596,W,1,04,3.7,1095.7,M,35.0,M,,0000*61
$GPGSA,M,3,12,02,25,14,,,,,,,,,5.9,3.7,4.5*34
$GPRMC,122953.000,A,1926.9296,S,06958.0596,W,0.18,302.19,010511,,,A*6B
$GPGGA,122954.000,1926.9292,S,06958.0599,W,1,04,3.7,1096.3,M,35.0,M,,0000*6A
$GPGSA,M,3,12,02,25,14,,,,,,,,,5.9,3.7,4.5*34
$GPRMC,122954.000,A,1926.9292,S,06958.0599,W,0.23,45.26,010511,,,A*53
$GPGGA,122955.003,1926.9291,S,06958.0600,W,1,04,3.7,1097.6,M,35.0,M,,0000*6C
$GPGSA,M,3,12,02,25,14,,,,,,,,,5.9,3.7,4.5*34
$GPRMC,122955.003,A,1926.9291,S,06958.0600,W,0.26,71.41,010511,,,A*52
$GPGGA,122955.995,1926.9289,S,06958.0600,W,1,04,3.7,1097.7,M,35.0,M,,0000*62
$GPGSA,M,3,12,02,25,14,,,,,,,,,5.9,3.7,4.5*34
$GPRMC,122955.995,A,1926.9289,S,06958.0600,W,0.16,103.24,010511,,,A*69
$GPGGA,122957.013,1926.9291,S,06958.0600,W,1,04,3.7,1098.2,M,35.0,M,,0000*64
$GPGSA,M,3,12,02,25,14,,,,,,,,,5.9,3.7,4.5*34
$GPGSV,3,1,10,09,71,141,23,27,63,080,32,12,43,193,38,29,39,310,35*78
$GPGSV,3,2,10,02,38,083,38,15,33,350,41,25,26,237,35,04,17,120,29*7E
$GPGSV,3,3,10,14,14,225,30,26,06,016,*7B
$GPRMC,122957.013,A,1926.9291,S,06958.0600,W,0.28,301.13,010511,,,A*6C
$GPGGA,122957.991,1926.9294,S,06958.0597,W,1,04,3.7,1097.2,M,35.0,M,,0000*60
$GPGSA,M,3,12,02,25,14,,,,,,,,,5.9,3.7,4.5*34
$GPRMC,122957.991,A,1926.9294,S,06958.0597,W,0.94,127.81,010511,,,A*6D
$GPGGA,122958.997,1926.9294,S,06958.0598,W,1,04,3.7,1097.5,M,35.0,M,,0000*61
$GPGSA,M,3,12,02,25,14,,,,,,,,,5.9,3.7,4.5*34
$GPRMC,122958.997,A,1926.9294,S,06958.0598,W,0.63,153.41,010511,,,A*6C
$GPGGA,123000.000,1926.9290,S,06958.0601,W,1,04,3.7,1097.8,M,35.0,M,,0000*69
$GPGSA,M,3,12,02,25,14,,,,,,,,,5.9,3.7,4.5*34
$GPRMC,123000.000,A,1926.9290,S,06958.0601,W,0.61,145.73,010511,,,A*6D
$GPGGA,123001.000,1926.9283,S,06958.0603,W,1,04,3.7,1097.7,M,35.0,M,,0000*67
$GPGSA,M,3,12,02,25,14,,,,,,,,,5.9,3.7,4.5*34
$GPRMC,123001.000,A,1926.9283,S,06958.0603,W,0.80,132.29,010511,,,A*6C
$GPGGA,123002.000,1926.9284,S,06958.0601,W,1,04,3.7,1096.6,M,35.0,M,,0000*61
$GPGSA,M,3,12,02,25,14,,,,,,,,,5.9,3.7,4.5*34
$GPGSV,3,1,10,09,71,141,24,27,63,080,34,12,43,193,38,29,39,310,37*7B
$GPGSV,3,2,10,02,38,083,38,15,33,350,41,25,26,237,36,04,17,120,28*7C
$GPGSV,3,3,10,14,14,225,33,26,06,016,*78
$GPRMC,123002.000,A,1926.9284,S,06958.0601,W,0.80,154.84,010511,,,A*6D
$GPGGA,123003.000,1926.9289,S,06958.0597,W,1,04,3.8,1096.8,M,35.0,M,,0000*60
$GPGSA,M,3,12,02,25,14,,,,,,,,,5.9,3.8,4.5*3B
$GPRMC,123003.000,A,1926.9289,S,06958.0597,W,0.74,145.04,010511,,,A*6E
$GPGGA,123004.000,1926.9289,S,06958.0597,W,1,04,3.8,1097.0,M,35.0,M,,0000*6E
$GPGSA,M,3,12,02,25,14,,,,,,,,,5.9,3.8,4.5*3B
$GPRMC,123004.000,A,1926.9289,S,06958.0597,W,0.43,110.42,010511,,,A*6F
$GPGGA,123005.000,1926.9287,S,06958.0596,W,1,04,3.8,1095.7,M,35.0,M,,0000*65
$GPGSA,M,3,12,02,25,14,,,,,,,,,5.9,3.8,4.5*3B
$GPRMC,123005.000,A,1926.9287,S,06958.0596,W,0.01,169.17,010511,,,A*69
$GPGGA,123006.000,1926.9286,S,06958.0597,W,1,04,3.8,1096.7,M,35.0,M,,0000*65
$GPGSA,M,3,12,02,25,14,,,,,,,,,5.9,3.8,4.5*3B
$GPRMC,123006.000,A,1926.9286,S,06958.0597,W,0.32,173.37,010511,,,A*63
$GPGGA,123007.000,1926.9286,S,06958.0596,W,1,04,3.8,1096.7,M,35.0,M,,0000*65
$GPGSA,M,3,12,02,25,14,,,,,,,,,5.9,3.8,4.5*3B
$GPGSV,3,1,10,09,71,141,30,27,63,080,32,12,43,193,38,29,39,310,33*7C
$GPGSV,3,2,10,02,38,083,39,15,33,350,40,25,26,237,35,04,17,120,*75
$GPGSV,3,3,10,14,14,225,31,26,06,016,*7A
$GPRMC,123007.000,A,1926.9286,S,06958.0596,W,0.58,145.67,010511,,,A*6F
$GPGGA,123008.000,1926.9293,S,06958.0590,W,1,04,3.8,1094.4,M,35.0,M,,0000*69
$GPGSA,M,3,12,02,25,14,,,,,,,,,5.9,3.8,4.6*38
$GPRMC,123008.000,A,1926.9293,S,06958.0590,W,0.68,150.45,010511,,,A*65
$GPGGA,123009.002,1926.9303,S,06958.0587,W,1,04,3.8,1093.5,M,35.0,M,,0000*62
$GPGSA,M,3,12,02,25,14,,,,,,,,,5.9,3.8,4.6*38
$GPRMC,123009.002,A,1926.9303,S,06958.0587,W,0.50,137.68,010511,,,A*6D
$GPGGA,123009.998,1926.9300,S,06958.0589,W,1,04,3.8,1093.8,M,35.0,M,,0000*68
$GPGSA,M,3,12,02,25,14,,,,,,,,,5.9,3.8,4.6*38
$GPRMC,123009.998,A,1926.9300,S,06958.0589,W,0.88,137.02,010511,,,A*63
$GPGGA,123011.000,1926.9303,S,06958.0589,W,1,04,3.8,1093.3,M,35.0,M,,0000*61
$GPGSA,M,3,12,02,25,14,,,,,,,,,5.9,3.8,4.6*38
$GPRMC,123011.000,A,1926.9303,S,06958.0589,W,0.32,265.03,010511,,,A*65
$GPGGA,123012.000,1926.9311,S,06958.0587,W,1,04,3.8,1092.2,M,35.0,M,,0000*6F
$GPGSA,M,3,12,02,25,14,,,,,,,,,5.9,3.8,4.6*38
$GPGSV,3,1,10,09,71,141,31,27,63,080,33,12,43,193,38,29,39,310,35*7A
$GPGSV,3,2,10,02,38,083,37,15,33,350,41,25,26,237,37,04,17,120,35*7E
$GPGSV,3,3,10,14,14,225,32,26,06,016,*79
$GPRMC,123012.000,A,1926.9311,S,06958.0587,W,0.26,197.75,010511,,,A*61
$GPGGA,123013.000,1926.9312,S,06958.0587,W,1,04,3.8,1092.1,M,35.0,M,,0000*6E
$GPGSA,M,3,12,02,25,14,,,,,,,,,5.9,3.8,4.6*38
$GPRMC,123013.000,A,1926.9312,S,06958.0587,W,0.65,110.69,010511,,,A*66
$GPGGA,123014.000,1926.9303,S,06958.0591,W,1,04,3.8,1092.4,M,35.0,M,,0000*6B
$GPGSA,M,3,12,02,25,14,,,,,,,,,5.9,3.8,4.6*38
$GPRMC,123014.000,A,1926.9303,S,06958.0591,W,0.12,90.61,010511,,,A*57
$GPGGA,123015.000,1926.9305,S,06958.0591,W,1,04,3.8,1092.4,M,35.0,M,,0000*6C
$GPGSA,M,3,12,02,25,14,,,,,,,,,5.9,3.8,4.6*38
$GPRMC,123015.000,A,1926.9305,S,06958.0591,W,0.38,99.73,010511,,,A*52
$GPGGA,123016.000,1926.9302,S,06958.0594,W,1,04,3.8,1093.4,M,35.0,M,,0000*6C
$GPGSA,M,3,12,02,25,14,,,,,,,,,5.9,3.8,4.6*38
$GPRMC,123016.000,A,1926.9302,S,06958.0594,W,0.15,283.41,010511,,,A*64
$GPGGA,123017.000,1926.9302,S,06958.0594,W,1,04,3.8,1093.0,M,35.0,M,,0000*69
$GPGSA,M,3,12,02,25,14,,,,,,,,,5.9,3.8,4.6*38
$GPGSV,3,1,10,09,71,141,29,27,63,080,36,12,43,193,37,29,39,310,35*79
$GPGSV,3,2,10,02,38,083,39,15,33,350,41,25,26,237,38,04,17,120,31*7B
$GPGSV,3,3,10,14,14,225,32,26,06,016,*79
$GPRMC,123017.000,A,1926.9302,S,06958.0594,W,0.71,156.62,010511,,,A*6D
$GPGGA,123018.000,1926.9302,S,06958.0594,W,1,04,3.8,1093.0,M,35.0,M,,0000*66
$GPGSA,M,3,12,02,25,14,,,,,,,,,5.9,3.8,4.6*38
$GPRMC,123018.000,A,1926.9302,S,06958.0594,W,0.97,128.46,010511,,,A*65
$GPGGA,123019.002,1926.9305,S,06958.0594,W,1,04,3.8,1092.4,M,35.0,M,,0000*67
$GPGSA,M,3,12,02,25,14,,,,,,,,,5.9,3.8,4.6*38
$GPRMC,123019.002,A,1926.9305,S,06958.0594,W,0.91,153.35,010511,,,A*6F
$GPGGA,123020.002,1926.9305,S,06958.0594,W,1,04,3.8,1092.8,M,35.0,M,,0000*61
$GPGSA,M,3,12,02,25,14,,,,,,,,,5.9,3.8,4.6*38
$GPRMC,123020.002,A,1926.9305,S,06958.0594,W,0.58,142.72,010511,,,A*63
$GPGGA,123021.002,1926.9302,S,06958.0598,W,1,04,3.8,1094.3,M,35.0,M,,0000*66
$GPGSA,M,3,12,02,25,14,,,,,,,,,5.9,3.8,4.6*38
$GPRMC,123021.002,A,1926.9302,S,06958.0598,W,0.49,137.23,010511,,,A*6F
$GPGGA,123021.996,1926.9300,S,06958.0599,W,1,04,3.8,1094.3,M,35.0,M,,0000*61
$GPGSA,M,3,12,02,25,14,,,,,,,,,5.9,3.8,4.6*38
$GPGSV,3,1,10,09,71,141,15,27,63,080,35,12,43,193,38,29,39,310,36*79
$GPGSV,3,2,10,02,38,083,39,15,33,350,41,25,26,237,35,04,17,120,*74
$GPGSV,3,3,10,14,14,225,33,26,06,016,*78
$GPRMC,123021.996,A,1926.9300,S,06958.0599,W,0.93,145.75,010511,,,A*69
$GPGGA,123022.998,1926.9290,S,06958.0605,W,1,04,3.8,1095.1,M,35.0,M,,0000*61
$GPGSA,M,3,12,02,25,14,,,,,,,,,5.9,3.8,4.6*38
$GPRMC,123022.998,A,1926.9290,S,06958.0605,W,0.66,138.00,010511,,,A*68
$GPGGA,123024.000,1926.9293,S,06958.0603,W,1,04,3.8,1094.6,M,35.0,M,,0000*6C
$GPGSA,M,3,12,02,25,14,,,,,,,,,5.9,3.8,4.6*38
$GPRMC,123024.000,A,1926.9293,S,06958.0603,W,0.51,138.45,010511,,,A*66
$GPGGA,123025.000,1926.9298,S,06958.0600,W,1,04,3.8,1093.0,M,35.0,M,,0000*64
$GPGSA,M,3,12,02,25,14,,,,,,,,,5.9,3.8,4.6*38
$GPRMC,123025.000,A,1926.9298,S,06958.0600,W,0.92,147.93,010511,,,A*63
$GPGGA,123026.000,1926.9305,S,06958.0595,W,1,04,3.8,1091.7,M,35.0,M,,0000*68
$GPGSA,M,3,12,02,25,14,,,,,,,,,6.0,3.8,4.6*32
$GPRMC,123026.000,A,1926.9305,S,06958.0595,W,0.41,156.49,010511,,,A*63
$GPGGA,123027.000,1926.9302,S,06958.0598,W,1,04,3.8,1090.6,M,35.0,M,,0000*63
$GPGSA,M,3,12,02,25,14,,,,,,,,,6.0,3.8,4.6*32
$GPGSV,3,1,10,09,71,141,,27,63,080,34,12,43,193,38,29,39,310,36*7C
$GPGSV,3,2,10,02,38,083,38,15,33,350,41,25,26,237,36,04,17,120,*76
$GPGSV,3,3,10,14,14,225,35,26,06,016,*7E
$GPRMC,123027.000,A,1926.9302,S,06958.0598,W,0.85,148.10,010511,,,A*63
$GPGGA,123028.000,1926.9299,S,06958.0595,W,1,04,3.8,1087.2,M,35.0,M,,0000*60
$GPGSA,M,3,12,02,25,14,,,,,,,,,6.0,3.8,4.6*32
$GPRMC,123028.000,A,1926.9299,S,06958.0595,W,0.39,146.64,010511,,,A*68
$GPGGA,123029.002,1926.9298,S,06958.0595,W,1,04,3.8,1086.2,M,35.0,M,,0000*63
$GPGSA,M,3,12,02,25,14,,,,,,,,,6.0,3.8,4.6*32
$GPRMC,123029.002,A,1926.9298,S,06958.0595,W,0.62,116.47,010511,,,A*60
$GPGGA,123029.998,1926.9286,S,06958.0599,W,1,04,3.8,1084.7,M,35.0,M,,0000*6D
$GPGSA,M,3,12,02,25,14,,,,,,,,,6.0,3.8,4.6*32
$GPRMC,123029.998,A,1926.9286,S,06958.0599,W,0.63,163.25,010511,,,A*6E
$GPGGA,123031.000,1926.9296,S,06958.0596,W,1,04,3.8,1084.8,M,35.0,M,,0000*6D
$GPGSA,M,3,12,02,25,14,,,,,,,,,6.0,3.8,4.6*32
$GPRMC,123031.000,A,1926.9296,S,06958.0596,W,0.44,126.38,010511,,,A*69
$GPGGA,123032.002,1926.9304,S,06958.0592,W,1,04,3.8,1086.7,M,35.0,M,,0000*6F
$GPGSA,M,3,12,02,25,14,,,,,,,,,6.0,3.8,4.6*32
$GPGSV,3,1,10,09,71,141,,27,63,080,37,12,43,193,38,29,39,310,37*7E
$GPGSV,3,2,10,02,38,083,38,15,33,350,40,25,26,237,37,04,17,120,23*77
$GPGSV,3,3,10,14,14,225,31,26,06,016,*7A
$GPRMC,123032.002,A,1926.9304,S,06958.0592,W,0.36,158.53,010511,,,A*67
$GPGGA,123032.996,1926.9297,S,06958.0598,W,1,04,3.8,1087.7,M,35.0,M,,0000*6B
$GPGSA,M,3,12,02,25,14,,,,,,,,,6.0,3.8,4.6*32
$GPRMC,123032.996,A,1926.9297,S,06958.0598,W,0.41,345.59,010511,,,A*66
$GPGGA,123034.004,1926.9298,S,06958.0595,W,1,04,3.8,1087.4,M,35.0,M,,0000*6E
$GPGSA,M,3,12,02,25,14,,,,,,,,,6.0,3.8,4.6*32
$GPRMC,123034.004,A,1926.9298,S,06958.0595,W,0.34,145.90,010511,,,A*65
$GPGGA,123035.000,1926.9288,S,06958.0599,W,1,04,3.8,1087.0,M,35.0,M,,0000*62
$GPGSA,M,3,12,02,25,14,,,,,,,,,6.0,3.8,4.6*32
$GPRMC,123035.000,A,1926.9288,S,06958.0599,W,0.65,129.95,010511,,,A*66
$GPGGA,123035.998,1926.9296,S,06958.0591,W,1,04,3.8,1084.9,M,35.0,M,,0000*67
$GPGSA,M,3,12,02,25,14,,,,,,,,,6.0,3.8,4.6*32
$GPRMC,123035.998,A,1926.9296,S,06958.0591,W,0.57,137.33,010511,,,A*6B
$GPGGA,123037.000,1926.9302,S,06958.0588,W,1,04,3.8,1084.0,M,35.0,M,,0000*60
$GPGSA,M,3,12,02,25,14,,,,,,,,,6.0,3.8,4.6*32
$GPGSV,3,1,10,09,71,141,,27,63,080,35,12,43,193,38,29,39,310,36*7D
$GPGSV,3,2,10,02,38,083,39,15,33,350,41,25,26,237,36,04,17,120,*77
$GPGSV,3,3,10,14,14,225,31,26,06,016,*7A
$GPRMC,123037.000,A,1926.9302,S,06958.0588,W,0.32,105.51,010511,,,A*63
$GPGGA,123038.000,1926.9296,S,06958.0588,W,1,04,3.8,1083.0,M,35.0,M,,0000*64
$GPGSA,M,3,12,02,25,14,,,,,,,,,6.0,3.8,4.6*32
$GPRMC,123038.000,A,1926.9296,S,06958.0588,W,0.27,327.00,010511,,,A*62
$GPGGA,123039.004,1926.9288,S,06958.0593,W,1,04,3.8,1083.0,M,35.0,M,,0000*64
$GPGSA,M,3,12,02,25,14,,,,,,,,,6.0,3.8,4.6*32
$GPRMC,123039.004,A,1926.9288,S,06958.0593,W,0.73,139.07,010511,,,A*69
$GPGGA,123039.996,1926.9293,S,06958.0599,W,1,04,3.8,1086.3,M,35.0,M,,0000*60
$GPGSA,M,3,12,02,25,14,,,,,,,,,6.0,3.8,4.6*32
$GPRMC,123039.996,A,1926.9293,S,06958.0599,W,0.10,222.61,010511,,,A*67
$GPGGA,123041.012,1926.9287,S,06958.0602,W,1,04,3.8,1086.0,M,35.0,M,,0000*6D
$GPGSA,M,3,12,02,25,14,,,,,,,,,6.0,3.8,4.6*32
$GPRMC,123041.012,A,1926.9287,S,06958.0602,W,0.26,58.51,010511,,,A*50
$GPGGA,123041.988,1926.9297,S,06958.0596,W,1,04,3.8,1085.9,M,35.0,M,,0000*62
$GPGSA,M,3,12,02,25,14,,,,,,,,,6.0,3.8,4.6*32
$GPGSV,3,1,10,09,71,141,,27,63,080,36,12,43,193,37,29,39,310,37*70
$GPGSV,3,2,10,02,38,083,38,15,33,350,40,25,26,237,36,04,17,120,*77
$GPGSV,3,3,10,14,14,225,32,26,06,016,*79
$GPRMC,123041.988,A,1926.9297,S,06958.0596,W,1.01,157.05,010511,,,A*6E
$GPGGA,123043.000,1926.9298,S,06958.0598,W,1,04,3.8,1086.0,M,35.0,M,,0000*62
$GPGSA,M,3,12,02,25,14,,,,,,,,,6.0,3.8,4.6*32
$GPRMC,123043.000,A,1926.9298,S,06958.0598,W,0.41,131.80,010511,,,A*6C
$GPGGA,123044.001,1926.9289,S,06958.0599,W,1,04,3.8,1084.0,M,35.0,M,,0000*67
$GPGSA,M,3,12,02,25,14,,,,,,,,,6.0,3.8,4.6*32
$GPRMC,123044.001,A,1926.9289,S,06958.0599,W,0.21,120.88,010511,,,A*65
$GPGGA,123045.001,1926.9290,S,06958.0596,W,1,04,3.8,1083.6,M,35.0,M,,0000*60
$GPGSA,M,3,12,02,25,14,,,,,,,,,6.0,3.8,4.6*32
$GPRMC,123045.001,A,1926.9290,S,06958.0596,W,0.58,128.23,010511,,,A*64
$GPGGA,123046.000,1926.9292,S,06958.0593,W,1,04,3.8,1082.0,M,35.0,M,,0000*62
$GPGSA,M,3,12,02,25,14,,,,,,,,,6.0,3.8,4.6*32
$GPRMC,123046.000,A,1926.9292,S,06958.0593,W,0.68,109.21,010511,,,A*63
$GPGGA,123047.000,1926.9291,S,06958.0592,W,1,04,3.8,1081.6,M,35.0,M,,0000*64
$GPGSA,M,3,12,02,25,14,,,,,,,,,6.0,3.8,4.6*32
$GPGSV,3,1,10,09,71,141,,27,63,080,37,12,43,193,38,29,39,310,36*7F
$GPGSV,3,2,10,02,38,083,39,15,33,350,41,25,26,237,38,04,17,120,*79
$GPGSV,3,3,10,14,14,225,34,26,06,016,*7F
$GPRMC,123047.000,A,1926.9291,S,06958.0592,W,0.59,142.36,010511,,,A*6B
$GPGGA,123048.001,1926.9290,S,06958.0587,W,1,04,3.8,1079.6,M,35.0,M,,0000*68
$GPGSA,M,3,12,02,25,14,,,,,,,,,6.0,3.8,4.6*32
$GPRMC,123048.001,A,1926.9290,S,06958.0587,W,1.13,150.49,010511,,,A*64
$GPGGA,123049.001,1926.9294,S,06958.0579,W,1,04,3.8,1076.9,M,35.0,M,,0000*6C
$GPGSA,M,3,12,02,25,14,,,,,,,,,6.0,3.8,4.7*33
$GPRMC,123049.001,A,1926.9294,S,06958.0579,W,0.54,145.29,010511,,,A*60
$GPGGA,123050.001,1926.9298,S,06958.0575,W,1,04,3.8,1075.1,M,35.0,M,,0000*6F
$GPGSA,M,3,12,02,25,14,,,,,,,,,6.0,3.8,4.7*33
$GPRMC,123050.001,A,1926.9298,S,06958.0575,W,1.15,156.33,010511,,,A*65
$GPGGA,123051.001,1926.9299,S,06958.0575,W,1,04,3.8,1075.5,M,35.0,M,,0000*6B
$GPGSA,M,3,12,02,25,14,,,,,,,,,6.0,3.8,4.7*33
$GPRMC,123051.001,A,1926.9299,S,06958.0575,W,0.39,132.06,010511,,,A*6E
$GPGGA,123052.001,1926.9302,S,06958.0574,W,1,04,3.8,1074.2,M,35.0,M,,0000*6C
$GPGSA,M,3,12,02,25,14,,,,,,,,,6.0,3.8,4.7*33
$GPGSV,3,1,10,09,71,141,,27,63,080,37,12,43,193,37,29,39,310,37*71
$GPGSV,3,2,10,02,38,083,40,15,33,350,41,25,26,237,36,04,17,120,26*7D
$GPGSV,3,3,10,14,14,225,34,26,06,016,*7F
$GPRMC,123052.001,A,1926.9302,S,06958.0574,W,0.81,130.18,010511,,,A*61
$GPGGA,123053.003,1926.9296,S,06958.0576,W,1,04,3.8,1074.2,M,35.0,M,,0000*61
$GPGSA,M,3,12,02,25,14,,,,,,,,,6.0,3.8,4.7*33
$GPRMC,123053.003,A,1926.9296,S,06958.0576,W,0.33,114.01,010511,,,A*6B
$GPGGA,123053.996,1926.9295,S,06958.0577,W,1,04,3.8,1074.2,M,35.0,M,,0000*66
$GPGSA,M,3,12,02,25,14,,,,,,,,,6.0,3.8,4.7*33
$GPRMC,123053.996,A,1926.9295,S,06958.0577,W,0.84,121.88,010511,,,A*67
$GPGGA,123055.005,1926.9285,S,06958.0582,W,1,04,3.8,1075.1,M,35.0,M,,0000*6A
$GPGSA,M,3,12,02,25,14,,,,,,,,,6.0,3.8,4.7*33
$GPRMC,123055.005,A,1926.9285,S,06958.0582,W,0.88,155.71,010511,,,A*60
$GPGGA,123055.995,1926.9279,S,06958.0590,W,1,04,3.8,1077.0,M,35.0,M,,0000*69
$GPGSA,M,3,12,02,25,14,,,,,,,,,6.0,3.8,4.7*33
$GPRMC,123055.995,A,1926.9279,S,06958.0590,W,0.26,309.95,010511,,,A*65
$GPGGA,123057.012,1926.9270,S,06958.0594,W,1,04,3.8,1075.3,M,35.0,M,,0000*61
$GPGSA,M,3,12,02,25,14,,,,,,,,,6.0,3.8,4.7*33
$GPGSV,3,1,10,09,71,141,,27,63,080,35,12,43,193,36,29,39,310,37*72
$GPGSV,3,2,10,02,38,083,38,15,33,350,41,25,26,237,36,04,17,120,*76
$GPGSV,3,3,10,14,14,225,30,26,06,016,*7B
$GPRMC,123057.012,A,1926.9270,S,06958.0594,W,0.23,119.23,010511,,,A*67
$GPGGA,123057.986,1926.9273,S,06958.0598,W,1,04,3.8,1078.2,M,35.0,M,,0000*66
$GPGSA,M,3,12,02,25,14,,,,,,,,,6.0,3.8,4.7*33
$GPRMC,123057.986,A,1926.9273,S,06958.0598,W,0.65,142.80,010511,,,A*69
$GPGGA,123059.004,1926.9262,S,06958.0604,W,1,04,3.8,1078.8,M,35.0,M,,0000*67
$GPGSA,M,3,12,02,25,14,,,,,,,,,6.0,3.8,4.7*33
$GPRMC,123059.004,A,1926.9262,S,06958.0604,W,0.41,87.94,010511,,,A*59
$GPGGA,123059.996,1926.9275,S,06958.0597,W,1,04,3.8,1077.9,M,35.0,M,,0000*64
$GPGSA,M,3,12,02,25,14,,,,,,,,,6.0,3.8,4.7*33
$GPRMC,123059.996,A,1926.9275,S,06958.0597,W,0.85,147.92,010511,,,A*67
$GPGGA,123101.002,1926.9286,S,06958.0592,W,1,04,3.8,1076.8,M,35.0,M,,0000*65
$GPGSA,M,3,12,02,25,14,,,,,,,,,6.1,3.8,4.7*32
$GPRMC,123101.002,A,1926.9286,S,06958.0592,W,0.78,144.78,010511,,,A*63
$GPGGA,123102.002,1926.9285,S,06958.0593,W,1,04,3.8,1076.7,M,35.0,M,,0000*6B
$GPGSA,M,3,12,02,25,14,,,,,,,,,6.1,3.8,4.7*32
$GPGSV,3,1,10,09,71,141,,27,63,080,36,12,43,193,38,29,39,310,38*70
$GPGSV,3,2,10,02,38,083,39,15,33,350,40,25,26,237,36,04,17,120,*76
$GPGSV,3,3,10,14,14,225,35,26,06,016,*7E
$GPRMC,123102.002,A,1926.9285,S,06958.0593,W,0.59,130.75,010511,,,A*6F
$GPGGA,123102.998,1926.9288,S,06958.0593,W,1,04,3.8,1076.8,M,35.0,M,,0000*63
$GPGSA,M,3,12,02,25,14,,,,,,,,,6.1,3.8,4.7*32
$GPRMC,123102.998,A,1926.9288,S,06958.0593,W,0.32,132.65,010511,,,A*66
$GPGGA,123104.000,1926.9291,S,06958.0589,W,1,04,3.8,1074.3,M,35.0,M,,0000*67
$GPGSA,M,3,12,02,25,14,,,,,,,,,6.1,3.8,4.7*32
$GPRMC,123104.000,A,1926.9291,S,06958.0589,W,0.56,153.27,010511,,,A*68
$GPGGA,123105.000,1926.9288,S,06958.0593,W,1,04,3.8,1074.7,M,35.0,M,,0000*61
$GPGSA,M,3,12,02,25,14,,,,,,,,,6.1,3.8,4.7*32
$GPRMC,123105.000,A,1926.9288,S,06958.0593,W,0.44,178.30,010511,,,A*66
$GPGGA,123106.000,1926.9290,S,06958.0589,W,1,04,3.8,1073.6,M,35.0,M,,0000*66
$GPGSA,M,3,12,02,25,14,,,,,,,,,6.1,3.8,4.7*32
$GPRMC,123106.000,A,1926.9290,S,06958.0589,W,0.81,130.30,010511,,,A*62
$GPGGA,123107.000,1926.9293,S,06958.0586,W,1,04,3.8,1072.1,M,35.0,M,,0000*6D
$GPGSA,M,3,12,02,25,14,,,,,,,,,6.1,3.8,4.7*32
$GPGSV,3,1,10,09,71,141,,27,63,080,35,12,43,193,38,29,39,310,37*7C
$GPGSV,3,2,10,02,38,083,38,15,33,350,41,25,26,237,36,04,17,120,*76
$GPGSV,3,3,10,14,14,225,33,26,06,016,*78
$GPRMC,123107.000,A,1926.9293,S,06958.0586,W,1.15,145.37,010511,,,A*66
$GPGGA,123108.000,1926.9290,S,06958.0586,W,1,04,3.8,1073.3,M,35.0,M,,0000*62
$GPGSA,M,3,12,02,25,14,,,,,,,,,6.1,3.8,4.7*32
$GPRMC,123108.000,A,1926.9290,S,06958.0586,W,0.45,137.73,010511,,,A*6B
$GPGGA,123109.000,1926.9286,S,06958.0591,W,1,04,3.8,1074.3,M,35.0,M,,0000*65
$GPGSA,M,3,12,02,25,14,,,,,,,,,6.1,3.8,4.7*32
$GPRMC,123109.000,A,1926.9286,S,06958.0591,W,0.35,203.87,010511,,,A*63
$GPGGA,123110.000,1926.9287,S,06958.0596,W,1,04,3.9,1076.3,M,35.0,M,,0000*68
$GPGSA,M,3,12,02,25,14,,,,,,,,,6.1,3.9,4.7*33
$GPRMC,123110.000,A,1926.9287,S,06958.0596,W,0.32,67.58,010511,,,A*58
$GPGGA,123111.001,1926.9283,S,06958.0594,W,1,04,3.9,1075.7,M,35.0,M,,0000*69
$GPGSA,M,3,12,02,25,14,,,,,,,,,6.1,3.9,4.7*33
$GPRMC,123111.001,A,1926.9283,S,06958.0594,W,2.38,143.49,010511,,,A*61
$GPGGA,123112.001,1926.9284,S,06958.0595,W,1,04,3.9,1075.8,M,35.0,M,,0000*63
$GPGSA,M,3,12,02,25,14,,,,,,,,,6.1,3.9,4.7*33
$GPGSV,3,1,10,09,71,141,,27,63,080,37,12,43,193,37,29,39,310,36*70
$GPGSV,3,2,10,02,38,083,38,15,33,350,40,25,26,237,38,04,17,120,*79
$GPGSV,3,3,10,14,14,225,33,26,06,016,*78
$GPRMC,123112.001,A,1926.9284,S,06958.0595,W,0.55,138.98,010511,,,A*6D
$GPGGA,123113.000,1926.9272,S,06958.0600,W,1,04,3.9,1076.9,M,35.0,M,,0000*67
$GPGSA,M,3,12,02,25,14,,,,,,,,,6.1,3.9,4.7*33
$GPRMC,123113.000,A,1926.9272,S,06958.0600,W,0.21,93.03,010511,,,A*5A
$GPGGA,123114.001,1926.9276,S,06958.0599,W,1,04,3.9,1076.8,M,35.0,M,,0000*67
$GPGSA,M,3,12,02,25,14,,,,,,,,,6.1,3.9,4.7*33
$GPRMC,123114.001,A,1926.9276,S,06958.0599,W,0.35,151.77,010511,,,A*62
$GPGGA,123115.003,1926.9277,S,06958.0598,W,1,04,3.9,1076.8,M,35.0,M,,0000*64
$GPGSA,M,3,12,02,25,14,,,,,,,,,6.1,3.9,4.7*33
$GPRMC,123115.003,A,1926.9277,S,06958.0598,W,0.41,214.99,010511,,,A*60
$GPGGA,123115.997,1926.9281,S,06958.0598,W,1,04,3.9,1077.2,M,35.0,M,,0000*62
$GPGSA,M,3,12,02,25,14,,,,,,,,,6.1,3.9,4.7*33
$GPRMC,123115.997,A,1926.9281,S,06958.0598,W,0.49,134.05,010511,,,A*61
$GPGGA,123117.014,1926.9271,S,06958.0600,W,1,04,3.9,1078.5,M,35.0,M,,0000*67
$GPGSA,M,3,12,02,25,14,,,,,,,,,6.1,3.9,4.7*33
$GPGSV,3,1,10,09,71,141,,27,63,080,35,12,43,193,37,29,39,310,36*72
$GPGSV,3,2,10,02,38,083,38,15,33,350,41,25,26,237,37,04,17,120,*77
$GPGSV,3,3,10,14,14,225,31,26,06,016,*7A
$GPRMC,123117.014,A,1926.9271,S,06958.0600,W,0.40,90.37,010511,,,A*5B
$GPGGA,123117.986,1926.9274,S,06958.0599,W,1,04,3.9,1078.5,M,35.0,M,,0000*63
$GPGSA,M,3,12,02,25,14,,,,,,,,,6.1,3.9,4.7*33
$GPRMC,123117.986,A,1926.9274,S,06958.0599,W,1.35,164.11,010511,,,A*62
$GPGGA,123118.999,1926.9279,S,06958.0599,W,1,04,3.9,1076.2,M,35.0,M,,0000*66
$GPGSA,M,3,12,02,25,14,,,,,,,,,6.1,3.9,4.7*33
$GPRMC,123118.999,A,1926.9279,S,06958.0599,W,0.93,169.64,010511,,,A*6C
$GPGGA,123120.000,1926.9280,S,06958.0600,W,1,04,3.9,1075.8,M,35.0,M,,0000*68
$GPGSA,M,3,12,02,25,14,,,,,,,,,6.1,3.9,4.7*33
$GPRMC,123120.000,A,1926.9280,S,06958.0600,W,0.75,142.18,010511,,,A*61
$GPGGA,123121.002,1926.9281,S,06958.0600,W,1,04,3.9,1076.1,M,35.0,M,,0000*60
$GPGSA,M,3,12,02,25,14,,,,,,,,,6.1,3.9,4.7*33
$GPRMC,123121.002,A,1926.9281,S,06958.0600,W,0.60,106.92,010511,,,A*65
$GPGGA,123122.001,1926.9289,S,06958.0596,W,1,04,3.9,1076.7,M,35.0,M,,0000*62
$GPGSA,M,3,12,02,25,14,,,,,,,,,6.1,3.9,4.7*33
$GPGSV,3,1,10,09,71,141,,27,63,080,34,12,43,193,37,29,39,310,38*7D
$GPGSV,3,2,10,02,38,083,40,15,33,350,40,25,26,237,37,04,17,120,25*7E
$GPGSV,3,3,10,14,14,225,32,26,06,016,*79
$GPRMC,123122.001,A,1926.9289,S,06958.0596,W,0.40,90.72,010511,,,A*53
$GPGGA,123123.000,1926.9285,S,06958.0596,W,1,04,3.9,1076.9,M,35.0,M,,0000*60
$GPGSA,M,3,12,02,25,14,,,,,,,,,6.1,3.9,4.7*33
$GPRMC,123123.000,A,1926.9285,S,06958.0596,W,0.19,168.34,010511,,,A*67
$GPGGA,123124.000,1926.9289,S,06958.0595,W,1,04,3.9,1076.3,M,35.0,M,,0000*62
$GPGSA,M,3,12,02,25,14,,,,,,,,,6.1,3.9,4.7*33
$GPRMC,123124.000,A,1926.9289,S,06958.0595,W,0.23,90.38,010511,,,A*5C
$GPGGA,123125.000,1926.9293,S,06958.0594,W,1,04,3.9,1077.5,M,35.0,M,,0000*6E
$GPGSA,M,3,12,02,25,14,,,,,,,,,6.1,3.9,4.7*33
$GPRMC,123125.000,A,1926.9293,S,06958.0594,W,0.22,214.02,010511,,,A*61
$GPGGA,123126.001,1926.9293,S,06958.0597,W,1,04,3.9,1078.0,M,35.0,M,,0000*65
$GPGSA,M,3,12,02,25,14,,,,,,,,,6.1,3.9,4.7*33
$GPRMC,123126.001,A,1926.9293,S,06958.0597,W,0.67,128.18,010511,,,A*66
$GPGGA,123126.998,1926.9299,S,06958.0594,W,1,04,3.9,1078.5,M,35.0,M,,0000*60
$GPGSA,M,3,12,02,25,14,,,,,,,,,6.1,3.9,4.7*33
$GPGSV,3,1,10,09,71,141,,27,63,080,31,12,43,193,38,29,39,310,36*79
$GPGSV,3,2,10,02,38,083,39,15,33,350,41,25,26,237,37,04,17,120,28*7C
$GPGSV,3,3,10,14,14,225,32,26,06,016,*79
$GPRMC,123126.998,A,1926.9299,S,06958.0594,W,0.44,137.03,010511,,,A*63
$GPGGA,123128.000,1926.9304,S,06958.0589,W,1,04,3.9,1076.9,M,35.0,M,,0000*6D
$GPGSA,M,3,12,02,25,14,,,,,,,,,6.1,3.9,4.7*33
$GPRMC,123128.000,A,1926.9304,S,06958.0589,W,0.89,332.12,010511,,,A*6A
$GPGGA,123129.001,1926.9307,S,06958.0588,W,1,04,3.9,1077.1,M,35.0,M,,0000*66
$GPGSA,M,3,12,02,25,14,,,,,,,,,6.1,3.9,4.8*3C
$GPRMC,123129.001,A,1926.9307,S,06958.0588,W,0.45,335.27,010511,,,A*69
$GPGGA,123130.001,1926.9302,S,06958.0590,W,1,04,3.9,1077.3,M,35.0,M,,0000*60
$GPGSA,M,3,12,02,25,14,,,,,,,,,6.1,3.9,4.8*3C
$GPRMC,123130.001,A,1926.9302,S,06958.0590,W,1.55,348.27,010511,,,A*67
$GPGGA,123131.000,1926.9308,S,06958.0584,W,1,04,3.9,1074.8,M,35.0,M,,0000*67
$GPGSA,M,3,12,02,25,14,,,,,,,,,6.1,3.9,4.8*3C
$GPRMC,123131.000,A,1926.9308,S,06958.0584,W,1.02,348.90,010511,,,A*66
$GPGGA,123132.000,1926.9317,S,06958.0578,W,1,04,3.9,1075.5,M,35.0,M,,0000*65
$GPGSA,M,3,12,02,25,14,,,,,,,,,6.1,3.9,4.8*3C
$GPGSV,3,1,10,09,71,141,28,27,63,080,36,12,43,193,37,29,39,310,36*7B
$GPGSV,3,2,10,02,38,083,39,15,33,350,40,25,26,237,37,04,17,120,34*70
$GPGSV,3,3,10,14,14,225,33,26,06,016,*78
$GPRMC,123132.000,A,1926.9317,S,06958.0578,W,0.82,343.39,010511,,,A*69
$GPGGA,123133.000,1926.9321,S,06958.0576,W,1,04,3.9,1075.6,M,35.0,M,,0000*6C
$GPGSA,M,3,12,02,25,14,,,,,,,,,6.1,3.9,4.8*3C
$GPRMC,123133.000,A,1926.9321,S,06958.0576,W,0.29,3.31,010511,,,A*6D
$GPGGA,123134.000,1926.9324,S,06958.0573,W,1,04,3.9,1073.8,M,35.0,M,,0000*63
$GPGSA,M,3,12,02,25,14,,,,,,,,,6.1,3.9,4.8*3C
$GPRMC,123134.000,A,1926.9324,S,06958.0573,W,0.55,67.67,010511,,,A*50
$GPGGA,123135.002,1926.9338,S,06958.0566,W,1,04,3.9,1074.1,M,35.0,M,,0000*67
$GPGSA,M,3,12,02,25,14,,,,,,,,,6.2,3.9,4.8*3F
$GPRMC,123135.002,A,1926.9338,S,06958.0566,W,0.71,140.34,010511,,,A*6E
$GPGGA,123135.996,1926.9338,S,06958.0566,W,1,04,3.9,1074.0,M,35.0,M,,0000*62
$GPGSA,M,3,12,02,25,14,,,,,,,,,6.2,3.9,4.8*3F
$GPRMC,123135.996,A,1926.9338,S,06958.0566,W,0.86,345.62,010511,,,A*66
$GPGGA,123137.000,1926.9337,S,06958.0562,W,1,04,3.9,1072.2,M,35.0,M,,0000*69
$GPGSA,M,3,12,02,25,14,,,,,,,,,6.2,3.9,4.8*3F
