$GPGGA,210012.999,1445.1745,S,07403.7412,W,1,08,1.2,3697.3,M,23.4,M,,0000*6F
$GPGSA,M,3,16,06,22,03,30,14,19,18,,,,,2.3,1.2,2.0*3B
$GPRMC,210012.999,A,1445.1745,S,07403.7412,W,13.21,336.26,190411,,,A*54
$GPGGA,210014.002,1445.1712,S,07403.7428,W,1,08,1.2,3697.3,M,23.4,M,,0000*69
$GPGSA,M,3,16,06,22,03,30,14,19,18,,,,,2.3,1.2,2.0*3B
$GPRMC,210014.002,A,1445.1712,S,07403.7428,W,13.53,330.43,190411,,,A*52
$GPGGA,210014.998,1445.1681,S,07403.7445,W,1,08,1.2,3696.7,M,23.4,M,,0000*66
$GPGSA,M,3,16,06,22,03,30,14,19,18,,,,,2.3,1.2,2.0*3B
$GPGSV,3,1,12,16,61,316,41,06,61,166,39,22,54,148,42,03,52,193,41*73
$GPGSV,3,2,12,30,46,348,41,14,32,059,35,19,24,210,40,18,20,143,39*70
$GPGSV,3,3,12,31,04,009,,21,01,114,,32,19,321,39,11,06,252,37*77
$GPRMC,210014.998,A,1445.1681,S,07403.7445,W,12.04,336.30,190411,,,A*59
$GPGGA,210015.999,1445.1653,S,07403.7460,W,1,08,1.2,3695.5,M,23.4,M,,0000*6F
$GPGSA,M,3,16,06,22,03,30,14,19,18,,,,,2.3,1.2,2.0*3B
$GPRMC,210015.999,A,1445.1653,S,07403.7460,W,10.29,333.73,190411,,,A*5E
$GPGGA,210017.001,1445.1627,S,07403.7474,W,1,08,1.2,3693.9,M,23.4,M,,0000*69
$GPGSA,M,3,16,06,22,03,30,14,19,18,,,,,2.3,1.2,2.0*3B
$GPRMC,210017.001,A,1445.1627,S,07403.7474,W,9.90,323.29,190411,,,A*66
$GPGGA,210017.999,1445.1606,S,07403.7494,W,1,08,1.2,3692.9,M,23.4,M,,0000*6D
$GPGSA,M,3,16,06,22,03,30,14,19,18,,,,,2.3,1.2,2.0*3B
$GPRMC,210017.999,A,1445.1606,S,07403.7494,W,9.72,311.87,190411,,,A*6A
$GPGGA,210019.000,1445.1590,S,07403.7519,W,1,08,1.2,3692.5,M,23.4,M,,0000*6E
$GPGSA,M,3,16,06,22,03,30,14,19,18,,,,,2.3,1.2,2.0*3B
$GPRMC,210019.000,A,1445.1590,S,07403.7519,W,10.66,305.85,190411,,,A*5F
$GPGGA,210020.002,1445.1575,S,07403.7547,W,1,08,1.2,3691.0,M,23.4,M,,0000*60
$GPGSA,M,3,16,06,22,03,30,14,19,18,,,,,2.3,1.2,2.0*3B
$GPGSV,3,1,12,16,61,316,39,06,61,166,40,22,54,148,41,03,52,193,40*70
$GPGSV,3,2,12,30,46,348,37,14,32,059,40,19,24,210,40,18,20,143,39*73
$GPGSV,3,3,12,32,19,321,,11,06,252,37,24,05,269,30,31,04,009,*76
$GPRMC,210020.002,A,1445.1575,S,07403.7547,W,11.28,298.00,190411,,,A*54
$GPGGA,210021.000,1445.1572,S,07403.7578,W,1,08,1.2,3690.8,M,23.4,M,,0000*61
$GPGSA,M,3,16,06,22,03,30,14,19,18,,,,,2.3,1.2,2.0*3B
$GPRMC,210021.000,A,1445.1572,S,07403.7578,W,10.93,284.26,190411,,,A*54
$GPGGA,210021.998,1445.1569,S,07403.7605,W,1,08,1.2,3689.7,M,23.4,M,,0000*6D
$GPGSA,M,3,16,06,22,03,30,14,19,18,,,,,2.3,1.2,2.0*3B
$GPRMC,210021.998,A,1445.1569,S,07403.7605,W,9.71,277.17,190411,,,A*65
$GPGGA,210022.999,1445.1576,S,07403.7632,W,1,08,1.2,3688.7,M,23.4,M,,0000*64
$GPGSA,M,3,16,06,22,03,30,14,19,18,,,,,2.3,1.2,2.0*3B
$GPRMC,210022.999,A,1445.1576,S,07403.7632,W,9.28,262.46,190411,,,A*61
$GPGGA,210024.000,1445.1591,S,07403.7660,W,1,08,1.2,3687.8,M,23.4,M,,0000*65
$GPGSA,M,3,16,06,22,03,30,14,19,18,,,,,2.3,1.2,2.0*3B
$GPRMC,210024.000,A,1445.1591,S,07403.7660,W,10.46,253.48,190411,,,A*5C
$GPGGA,210025.003,1445.1632,S,07403.7682,W,1,08,1.2,3688.3,M,23.4,M,,0000*65
$GPGSA,M,3,16,06,22,03,30,14,19,18,,,,,2.3,1.2,2.0*3B
$GPGSV,3,1,12,16,61,316,39,06,61,166,40,22,54,148,41,03,52,193,41*71
$GPGSV,3,2,12,30,46,348,39,14,32,059,39,19,24,210,40,18,20,143,36*7C
$GPGSV,3,3,12,32,19,321,28,11,06,252,29,24,05,269,,31,04,009,*70
$GPRMC,210025.003,A,1445.1632,S,07403.7682,W,10.39,231.68,190411,,,A*56
$GPGGA,210026.000,1445.1671,S,07403.7699,W,1,08,1.2,3688.1,M,23.4,M,,0000*6A
$GPGSA,M,3,16,06,22,03,30,14,19,18,,,,,2.3,1.2,2.0*3B
$GPRMC,210026.000,A,1445.1671,S,07403.7699,W,12.45,214.74,190411,,,A*58
$GPGGA,210027.000,1445.1713,S,07403.7713,W,1,08,1.2,3687.7,M,23.4,M,,0000*64
$GPGSA,M,3,16,06,22,03,30,14,19,18,,,,,2.3,1.2,2.0*3B
$GPRMC,210027.000,A,1445.1713,S,07403.7713,W,12.80,203.26,190411,,,A*57
$GPGGA,210027.999,1445.1748,S,07403.7727,W,1,08,1.2,3686.9,M,23.4,M,,0000*6B
$GPGSA,M,3,16,06,22,03,30,14,19,18,,,,,2.3,1.2,2.0*3B
$GPRMC,210027.999,A,1445.1748,S,07403.7727,W,13.43,207.66,190411,,,A*59
$GPGGA,210029.001,1445.1785,S,07403.7746,W,1,08,1.2,3686.4,M,23.4,M,,0000*66
$GPGSA,M,3,16,06,22,03,30,14,19,18,,,,,2.3,1.2,2.0*3B
$GPRMC,210029.001,A,1445.1785,S,07403.7746,W,13.25,205.85,190411,,,A*56
$GPGGA,210029.997,1445.1818,S,07403.7762,W,1,08,1.2,3685.2,M,23.4,M,,0000*68
$GPGSA,M,3,16,06,22,03,30,14,19,18,,,,,2.3,1.2,2.0*3B
$GPGSV,3,1,12,16,61,316,41,06,61,166,39,22,54,148,39,03,52,193,38*71
$GPGSV,3,2,12,30,46,348,39,14,32,059,38,19,24,210,37,18,20,143,34*7F
$GPGSV,3,3,12,32,19,321,36,11,06,252,28,24,05,269,,31,04,009,*7E
$GPRMC,210029.997,A,1445.1818,S,07403.7762,W,13.22,205.55,190411,,,A*57
$GPGGA,210031.002,1445.1845,S,07403.7778,W,1,08,1.2,3685.2,M,23.4,M,,0000*67
$GPGSA,M,3,16,06,22,03,30,14,19,18,,,,,2.3,1.2,2.0*3B
$GPRMC,210031.002,A,1445.1845,S,07403.7778,W,11.80,200.17,190411,,,A*51
$GPGGA,210032.002,1445.1882,S,07403.7785,W,1,08,1.2,3685.2,M,23.4,M,,0000*6D
$GPGSA,M,3,16,06,22,03,30,14,19,18,,,,,2.3,1.2,2.0*3B
$GPRMC,210032.002,A,1445.1882,S,07403.7785,W,10.92,198.27,190411,,,A*58
$GPGGA,210032.996,1445.1916,S,07403.7788,W,1,08,1.2,3685.9,M,23.4,M,,0000*63
$GPGSA,M,3,16,06,22,03,30,14,19,18,,,,,2.3,1.2,2.0*3B
$GPRMC,210032.996,A,1445.1916,S,07403.7788,W,11.38,182.13,190411,,,A*50
$GPGGA,210034.004,1445.1953,S,07403.7787,W,1,08,1.2,3685.4,M,23.4,M,,0000*64
$GPGSA,M,3,16,06,22,03,30,14,19,18,,,,,2.3,1.2,2.0*3B
$GPRMC,210034.004,A,1445.1953,S,07403.7787,W,11.44,178.23,190411,,,A*57
$GPGGA,210034.997,1445.1980,S,07403.7782,W,1,08,1.2,3684.1,M,23.4,M,,0000*68
$GPGSA,M,3,16,06,22,03,30,14,19,18,,,,,2.3,1.2,2.0*3B
$GPGSV,3,1,12,16,61,316,41,06,61,166,37,22,54,148,42,03,52,193,38*73
$GPGSV,3,2,12,30,46,348,41,14,32,059,31,19,24,210,31,18,20,143,37*7C
$GPGSV,3,3,12,32,19,321,39,11,06,252,30,24,05,269,28,31,04,009,*72
$GPRMC,210034.997,A,1445.1980,S,07403.7782,W,11.21,167.89,190411,,,A*52
$GPGGA,210036.000,1445.2018,S,07403.7766,W,1,08,1.2,3684.2,M,23.4,M,,0000*6F
$GPGSA,M,3,16,06,22,03,30,14,19,18,,,,,2.3,1.2,2.0*3B
$GPRMC,210036.000,A,1445.2018,S,07403.7766,W,12.36,160.45,190411,,,A*54
$GPGGA,210037.002,1445.2047,S,07403.7750,W,1,07,1.8,3682.9,M,23.4,M,,0000*6B
$GPGSA,M,3,16,06,22,03,30,14,18,,,,,,3.6,1.8,3.1*3D
$GPRMC,210037.002,A,1445.2047,S,07403.7750,W,10.99,152.57,190411,,,A*5D
$GPGGA,210037.998,1445.2076,S,07403.7739,W,1,08,1.2,3682.4,M,23.4,M,,0000*64
$GPGSA,M,3,16,06,22,03,30,14,19,18,,,,,2.3,1.2,2.0*3B
$GPRMC,210037.998,A,1445.2076,S,07403.7739,W,10.24,156.41,190411,,,A*5F
$GPGGA,210039.002,1445.2101,S,07403.7733,W,1,08,1.2,3680.8,M,23.4,M,,0000*65
$GPGSA,M,3,16,06,22,03,30,14,19,18,,,,,2.3,1.2,2.0*3B
$GPRMC,210039.002,A,1445.2101,S,07403.7733,W,10.49,172.35,190411,,,A*5E
$GPGGA,210040.000,1445.2129,S,07403.7732,W,1,07,1.5,3680.9,M,23.4,M,,0000*6B
$GPGSA,M,3,16,06,22,03,30,19,18,,,,,,2.6,1.5,2.1*3D
$GPGSV,3,1,12,16,61,316,41,06,61,166,41,22,54,148,36,03,52,193,41*7F
$GPGSV,3,2,12,30,46,348,41,14,32,059,,19,24,210,32,18,20,143,38*72
$GPGSV,3,3,12,32,19,321,38,11,06,252,30,24,05,269,30,31,04,009,*7A
$GPRMC,210040.000,A,1445.2129,S,07403.7732,W,9.99,186.51,190411,,,A*65
$GPGGA,210041.000,1445.2153,S,07403.7731,W,1,08,1.2,3680.6,M,23.4,M,,0000*63
$GPGSA,M,3,16,06,22,03,30,14,19,18,,,,,2.3,1.2,2.0*3B
$GPRMC,210041.000,A,1445.2153,S,07403.7731,W,8.95,194.77,190411,,,A*60
$GPGGA,210042.000,1445.2174,S,07403.7743,W,1,07,1.3,3679.8,M,23.4,M,,0000*66
$GPGSA,M,3,16,06,22,03,30,14,19,,,,,,2.7,1.3,2.3*34
$GPRMC,210042.000,A,1445.2174,S,07403.7743,W,9.03,207.04,190411,,,A*60
$GPGGA,210043.000,1445.2201,S,07403.7764,W,1,07,1.3,3679.8,M,23.4,M,,0000*63
$GPGSA,M,3,16,06,22,03,30,14,19,,,,,,2.7,1.3,2.3*34
$GPRMC,210043.000,A,1445.2201,S,07403.7764,W,11.52,216.79,190411,,,A*52
$GPGGA,210043.999,1445.2230,S,07403.7783,W,1,07,1.3,3679.1,M,23.4,M,,0000*68
$GPGSA,M,3,16,06,22,03,30,14,19,,,,,,2.7,1.3,2.3*34
$GPRMC,210043.999,A,1445.2230,S,07403.7783,W,12.26,216.33,190411,,,A*5E
$GPGGA,210045.001,1445.2265,S,07403.7814,W,1,08,1.2,3679.1,M,23.4,M,,0000*69
$GPGSA,M,3,16,06,22,03,30,14,19,18,,,,,2.3,1.2,2.0*3B
$GPGSV,3,1,12,16,61,316,38,06,61,166,40,22,54,148,40,03,52,193,41*71
$GPGSV,3,2,12,30,46,348,38,14,32,059,39,19,24,210,40,18,20,143,32*79
$GPGSV,3,3,12,32,19,321,36,11,06,252,28,24,05,269,,31,04,009,*7E
$GPRMC,210045.001,A,1445.2265,S,07403.7814,W,13.56,214.27,190411,,,A*50
$GPGGA,210045.999,1445.2295,S,07403.7837,W,1,08,1.2,3679.3,M,23.4,M,,0000*6D
$GPGSA,M,3,16,06,22,03,30,14,19,18,,,,,2.3,1.2,2.0*3B
$GPRMC,210045.999,A,1445.2295,S,07403.7837,W,12.68,209.94,190411,,,A*5E
$GPGGA,210046.999,1445.2328,S,07403.7853,W,1,08,1.2,3679.1,M,23.4,M,,0000*69
$GPGSA,M,3,16,06,22,03,30,14,19,18,,,,,2.3,1.2,2.0*3B
$GPRMC,210046.999,A,1445.2328,S,07403.7853,W,13.22,202.58,190411,,,A*5C
$GPGGA,210048.000,1445.2360,S,07403.7871,W,1,08,1.2,3678.5,M,23.4,M,,0000*67
$GPGSA,M,3,16,06,22,03,30,14,19,18,,,,,2.3,1.2,2.0*3B
$GPRMC,210048.000,A,1445.2360,S,07403.7871,W,12.74,203.49,190411,,,A*54
$GPGGA,210049.000,1445.2395,S,07403.7890,W,1,08,1.2,3677.9,M,23.4,M,,0000*60
$GPGSA,M,3,16,06,22,03,30,14,19,18,,,,,2.3,1.2,2.0*3B
$GPRMC,210049.000,A,1445.2395,S,07403.7890,W,12.99,202.35,190411,,,A*59
$GPGGA,210050.001,1445.2429,S,07403.7901,W,1,08,1.2,3677.9,M,23.4,M,,0000*60
$GPGSA,M,3,16,06,22,03,30,14,19,18,,,,,2.3,1.2,2.0*3B
$GPGSV,3,1,12,16,61,316,39,06,61,166,41,22,54,148,39,03,52,193,40*7E
$GPGSV,3,2,12,30,46,348,40,14,32,059,38,19,24,210,37,18,20,143,41*73
$GPGSV,3,3,12,32,19,321,36,11,06,252,29,24,05,269,30,31,04,009,*7C
$GPRMC,210050.001,A,1445.2429,S,07403.7901,W,12.54,196.47,190411,,,A*53
$GPGGA,210051.000,1445.2465,S,07403.7917,W,1,08,1.2,3677.7,M,23.4,M,,0000*61
$GPGSA,M,3,16,06,22,03,30,14,19,18,,,,,2.3,1.2,2.0*3B
$GPRMC,210051.000,A,1445.2465,S,07403.7917,W,13.49,206.25,190411,,,A*5F
$GPGGA,210052.003,1445.2504,S,07403.7939,W,1,08,1.2,3678.2,M,23.4,M,,0000*61
$GPGSA,M,3,16,06,22,03,30,14,19,18,,,,,2.3,1.2,2.0*3B
$GPRMC,210052.003,A,1445.2504,S,07403.7939,W,13.84,208.06,190411,,,A*5B
$GPGGA,210052.998,1445.2538,S,07403.7957,W,1,08,1.2,3677.7,M,23.4,M,,0000*67
$GPGSA,M,3,16,06,22,03,30,14,19,18,,,,,2.3,1.2,2.0*3B
$GPRMC,210052.998,A,1445.2538,S,07403.7957,W,14.09,208.13,190411,,,A*51
$GPGGA,210054.002,1445.2572,S,07403.7971,W,1,08,1.2,3678.7,M,23.4,M,,0000*6E
$GPGSA,M,3,16,06,22,03,30,14,19,18,,,,,2.3,1.2,2.0*3B
$GPRMC,210054.002,A,1445.2572,S,07403.7971,W,13.79,207.47,190411,,,A*59
$GPGGA,210054.999,1445.2609,S,07403.7996,W,1,08,1.2,3679.2,M,23.4,M,,0000*67
$GPGSA,M,3,16,06,22,03,30,14,19,18,,,,,2.3,1.2,2.0*3B
$GPGSV,3,1,12,16,61,316,41,06,61,166,38,22,54,148,40,03,52,193,40*71
$GPGSV,3,2,12,30,46,348,39,14,32,059,39,19,24,210,38,18,20,143,38*7D
$GPGSV,3,3,12,32,19,321,33,11,06,252,,24,05,269,,31,04,009,*71
$GPRMC,210054.999,A,1445.2609,S,07403.7996,W,13.08,209.58,190411,,,A*52
$GPGGA,210055.999,1445.2641,S,07403.8015,W,1,08,1.2,3679.2,M,23.4,M,,0000*67
$GPGSA,M,3,16,06,22,03,30,14,19,18,,,,,2.3,1.2,2.0*3B
$GPRMC,210055.999,A,1445.2641,S,07403.8015,W,12.64,206.55,190411,,,A*5B
$GPGGA,210057.000,1445.2674,S,07403.8029,W,1,08,1.2,3678.7,M,23.4,M,,0000*61
$GPGSA,M,3,16,06,22,03,30,14,19,18,,,,,2.3,1.2,2.0*3B
$GPRMC,210057.000,A,1445.2674,S,07403.8029,W,12.15,202.97,190411,,,A*55
$GPGGA,210057.999,1445.2706,S,07403.8039,W,1,07,1.3,3679.2,M,23.4,M,,0000*67
$GPGSA,M,3,16,06,22,03,30,14,19,,,,,,2.7,1.3,2.3*34
$GPRMC,210057.999,A,1445.2706,S,07403.8039,W,11.86,188.88,190411,,,A*5F
$GPGGA,210058.999,1445.2735,S,07403.8042,W,1,08,1.2,3678.2,M,23.4,M,,0000*6B
$GPGSA,M,3,16,06,22,03,30,14,19,18,,,,,2.3,1.2,2.0*3B
$GPRMC,210058.999,A,1445.2735,S,07403.8042,W,11.52,182.43,190411,,,A*58
$GPGGA,210100.004,1445.2764,S,07403.8039,W,1,07,1.7,3677.8,M,23.4,M,,0000*6D
$GPGSA,M,3,16,06,22,03,30,14,18,,,,,,3.6,1.7,3.1*32
$GPGSV,3,1,12,16,61,316,40,06,61,166,41,22,54,148,41,03,52,193,41*7E
$GPGSV,3,2,12,30,46,348,41,14,32,059,32,19,24,210,,18,20,143,35*7F
$GPGSV,3,3,12,32,19,321,38,11,06,252,31,24,05,269,30,31,04,009,*7B
$GPRMC,210100.004,A,1445.2764,S,07403.8039,W,9.30,181.20,190411,,,A*6A
$GPGGA,210100.997,1445.2786,S,07403.8034,W,1,08,1.2,3677.7,M,23.4,M,,0000*6A
$GPGSA,M,3,16,06,22,03,30,14,19,18,,,,,2.3,1.2,2.0*3B
$GPRMC,210100.997,A,1445.2786,S,07403.8034,W,7.04,172.12,190411,,,A*6C
$GPGGA,210102.000,1445.2804,S,07403.8029,W,1,08,1.2,3678.1,M,23.4,M,,0000*6F
$GPGSA,M,3,16,06,22,03,30,14,19,18,,,,,2.3,1.2,2.0*3B
$GPRMC,210102.000,A,1445.2804,S,07403.8029,W,6.03,170.74,190411,,,A*64
$GPGGA,210102.999,1445.2824,S,07403.8025,W,1,08,1.2,3678.2,M,23.4,M,,0000*6B
$GPGSA,M,3,16,06,22,03,30,14,19,18,,,,,2.3,1.2,2.0*3B
$GPRMC,210102.999,A,1445.2824,S,07403.8025,W,6.04,175.34,190411,,,A*65
$GPGGA,210104.003,1445.2838,S,07403.8022,W,1,08,1.2,3677.1,M,23.4,M,,0000*61
$GPGSA,M,3,16,06,22,03,30,14,19,18,,,,,2.3,1.2,2.0*3B
$GPRMC,210104.003,A,1445.2838,S,07403.8022,W,5.39,165.36,190411,,,A*6D
$GPGGA,210104.997,1445.2854,S,07403.8019,W,1,08,1.2,3677.0,M,23.4,M,,0000*66
$GPGSA,M,3,16,06,22,03,30,14,19,18,,,,,2.3,1.2,2.0*3B
$GPGSV,3,1,12,16,61,316,39,06,61,166,41,22,54,148,39,03,52,193,37*7E
$GPGSV,3,2,12,30,46,348,41,14,32,059,31,19,24,210,32,18,20,143,38*70
$GPGSV,3,3,12,32,19,321,39,11,06,252,,24,05,269,32,31,04,009,*7A
$GPRMC,210104.997,A,1445.2854,S,07403.8019,W,5.85,164.27,190411,,,A*6D
$GPGGA,210106.001,1445.2871,S,07403.8016,W,1,08,1.2,3676.8,M,23.4,M,,0000*63
$GPGSA,M,3,16,06,22,03,30,14,19,18,,,,,2.3,1.2,2.0*3B
$GPRMC,210106.001,A,1445.2871,S,07403.8016,W,6.19,168.28,190411,,,A*64
$GPGGA,210107.000,1445.2890,S,07403.8010,W,1,08,1.2,3677.1,M,23.4,M,,0000*62
$GPGSA,M,3,16,06,22,03,30,14,19,18,,,,,2.3,1.2,2.0*3B
$GPRMC,210107.000,A,1445.2890,S,07403.8010,W,6.62,164.59,190411,,,A*6B
$GPGGA,210108.004,1445.2908,S,07403.8004,W,1,08,1.2,3677.0,M,23.4,M,,0000*6D
$GPGSA,M,3,16,06,22,03,30,14,19,18,,,,,2.3,1.2,2.0*3B
$GPRMC,210108.004,A,1445.2908,S,07403.8004,W,7.23,158.72,190411,,,A*67
$GPGGA,210108.999,1445.2928,S,07403.7997,W,1,08,1.2,3677.8,M,23.4,M,,0000*66
$GPGSA,M,3,16,06,22,03,30,14,19,18,,,,,2.3,1.2,2.0*3B
$GPRMC,210108.999,A,1445.2928,S,07403.7997,W,7.64,159.53,190411,,,A*65
$GPGGA,210109.998,1445.2945,S,07403.7989,W,1,08,1.2,3677.9,M,23.4,M,,0000*63
$GPGSA,M,3,16,06,22,03,30,14,19,18,,,,,2.3,1.2,2.0*3B
$GPGSV,3,1,12,16,61,316,37,06,61,166,39,22,54,148,40,03,52,193,36*70
$GPGSV,3,2,12,30,46,348,40,14,32,059,30,19,24,210,29,18,20,143,35*77
$GPGSV,3,3,12,32,19,321,38,11,06,252,32,24,05,269,30,31,04,009,*78
$GPRMC,210109.998,A,1445.2945,S,07403.7989,W,7.84,155.12,190411,,,A*66
$GPGGA,210111.001,1445.2964,S,07403.7982,W,1,08,1.2,3677.3,M,23.4,M,,0000*61
$GPGSA,M,3,16,06,22,03,30,14,19,18,,,,,2.3,1.2,2.0*3B
$GPRMC,210111.001,A,1445.2964,S,07403.7982,W,7.25,150.57,190411,,,A*61
$GPGGA,210112.001,1445.2983,S,07403.7974,W,1,08,1.2,3676.9,M,23.4,M,,0000*69
$GPGSA,M,3,16,06,22,03,30,14,19,18,,,,,2.3,1.2,2.0*3B
$GPRMC,210112.001,A,1445.2983,S,07403.7974,W,7.55,159.77,190411,,,A*6E
$GPGGA,210113.003,1445.3006,S,07403.7962,W,1,08,1.2,3677.5,M,23.4,M,,0000*65
$GPGSA,M,3,16,06,22,03,30,14,19,18,,,,,2.3,1.2,2.0*3B
$GPRMC,210113.003,A,1445.3006,S,07403.7962,W,8.25,155.79,190411,,,A*65
$GPGGA,210113.997,1445.3026,S,07403.7960,W,1,08,1.2,3677.5,M,23.4,M,,0000*61
$GPGSA,M,3,16,06,22,03,30,14,19,18,,,,,2.3,1.2,2.0*3B
$GPRMC,210113.997,A,1445.3026,S,07403.7960,W,7.53,158.68,190411,,,A*62
$GPGGA,210115.002,1445.3046,S,07403.7951,W,1,08,1.2,3677.3,M,23.4,M,,0000*60
$GPGSA,M,3,16,06,22,03,30,14,19,18,,,,,2.3,1.2,2.0*3B
$GPGSV,3,1,12,16,61,316,37,06,61,166,41,22,54,148,39,03,52,193,35*72
$GPGSV,3,2,12,30,46,348,40,14,32,059,40,19,24,210,29,18,20,143,36*73
$GPGSV,3,3,12,32,19,321,41,11,06,252,,24,05,269,30,31,04,009,*77
$GPRMC,210115.002,A,1445.3046,S,07403.7951,W,7.63,163.17,190411,,,A*66
$GPGGA,210115.998,1445.3067,S,07403.7943,W,1,08,1.2,3677.4,M,23.4,M,,0000*6D
$GPGSA,M,3,16,06,22,03,30,14,19,18,,,,,2.3,1.2,2.0*3B
$GPRMC,210115.998,A,1445.3067,S,07403.7943,W,8.00,161.52,190411,,,A*65
$GPGGA,210117.000,1445.3090,S,07403.7935,W,1,08,1.2,3677.3,M,23.4,M,,0000*69
$GPGSA,M,3,16,06,22,03,30,14,19,18,,,,,2.3,1.2,2.0*3B
$GPRMC,210117.000,A,1445.3090,S,07403.7935,W,8.90,159.84,190411,,,A*6F
$GPGGA,210118.002,1445.3114,S,07403.7927,W,1,08,1.2,3677.6,M,23.4,M,,0000*6F
$GPGSA,M,3,16,06,22,03,30,14,19,18,,,,,2.3,1.2,2.0*3B
$GPRMC,210118.002,A,1445.3114,S,07403.7927,W,8.42,165.07,190411,,,A*67
$GPGGA,210119.001,1445.3136,S,07403.7924,W,1,08,1.2,3677.2,M,23.4,M,,0000*6A
$GPGSA,M,3,16,06,22,03,30,14,19,18,,,,,2.3,1.2,2.0*3B
$GPRMC,210119.001,A,1445.3136,S,07403.7924,W,7.89,174.84,190411,,,A*65
$GPGGA,210120.000,1445.3158,S,07403.7920,W,1,08,1.2,3677.3,M,23.4,M,,0000*6C
$GPGSA,M,3,16,06,22,03,30,14,19,18,,,,,2.3,1.2,2.0*3B
$GPGSV,3,1,12,16,61,316,39,06,61,166,40,22,54,148,40,03,52,193,41*70
$GPGSV,3,2,12,30,46,348,41,14,32,059,41,19,24,210,31,18,20,143,40*7B
$GPGSV,3,3,12,32,19,321,38,11,06,252,,24,05,269,29,31,04,009,*71
$GPRMC,210120.000,A,1445.3158,S,07403.7920,W,8.51,178.20,190411,,,A*6A
$GPGGA,210121.000,1445.3180,S,07403.7919,W,1,08,1.2,3677.6,M,23.4,M,,0000*67
$GPGSA,M,3,16,06,22,03,30,14,19,18,,,,,2.3,1.2,2.0*3B
$GPRMC,210121.000,A,1445.3180,S,07403.7919,W,7.36,190.77,190411,,,A*6E
$GPGGA,210121.998,1445.3200,S,07403.7927,W,1,08,1.2,3677.5,M,23.4,M,,0000*6A
$GPGSA,M,3,16,06,22,03,30,14,19,18,,,,,2.3,1.2,2.0*3B
$GPRMC,210121.998,A,1445.3200,S,07403.7927,W,7.30,208.31,190411,,,A*66
$GPGGA,210123.002,1445.3218,S,07403.7944,W,1,08,1.2,3677.6,M,23.4,M,,0000*6D
$GPGSA,M,3,16,06,22,03,30,14,19,18,,,,,2.3,1.2,2.0*3B
$GPRMC,210123.002,A,1445.3218,S,07403.7944,W,8.50,225.94,190411,,,A*6B
$GPGGA,210123.998,1445.3230,S,07403.7962,W,1,08,1.2,3677.1,M,23.4,M,,0000*6E
$GPGSA,M,3,16,06,22,03,30,14,19,18,,,,,2.3,1.2,2.0*3B
$GPRMC,210123.998,A,1445.3230,S,07403.7962,W,8.01,242.67,190411,,,A*66
$GPGGA,210125.002,1445.3236,S,07403.7980,W,1,08,1.2,3677.7,M,23.4,M,,0000*6E
$GPGSA,M,3,16,06,22,03,30,14,19,18,,,,,2.3,1.2,2.0*3B
$GPGSV,3,1,12,16,61,316,38,06,61,166,42,22,54,148,42,03,52,193,39*7E
$GPGSV,3,2,12,30,46,348,34,14,32,059,39,19,24,210,34,18,20,143,36*72
$GPGSV,3,3,12,32,19,321,32,11,06,252,,24,05,269,36,31,04,009,*75
$GPRMC,210125.002,A,1445.3236,S,07403.7980,W,8.28,257.00,190411,,,A*6E
$GPGGA,210125.998,1445.3238,S,07403.8005,W,1,07,1.7,3677.9,M,23.4,M,,0000*65
$GPGSA,M,3,16,06,22,03,30,14,18,,,,,,3.5,1.7,3.1*31
$GPRMC,210125.998,A,1445.3238,S,07403.8005,W,8.49,267.03,190411,,,A*66
$GPGGA,210127.000,1445.3233,S,07403.8027,W,1,08,1.2,3677.6,M,23.4,M,,0000*61
$GPGSA,M,3,16,06,22,03,30,14,19,18,,,,,2.3,1.2,2.0*3B
$GPRMC,210127.000,A,1445.3233,S,07403.8027,W,7.92,278.55,190411,,,A*63
$GPGGA,210128.000,1445.3214,S,07403.8049,W,1,08,1.2,3677.8,M,23.4,M,,0000*6D
$GPGSA,M,3,16,06,22,03,30,14,19,18,,,,,2.3,1.2,2.0*3B
$GPRMC,210128.000,A,1445.3214,S,07403.8049,W,8.86,299.67,190411,,,A*65
$GPGGA,210129.000,1445.3195,S,07403.8069,W,1,08,1.2,3677.2,M,23.4,M,,0000*6E
$GPGSA,M,3,16,06,22,03,30,14,19,18,,,,,2.3,1.2,2.0*3B
$GPRMC,210129.000,A,1445.3195,S,07403.8069,W,9.98,312.62,190411,,,A*65
$GPGGA,210130.000,1445.3161,S,07403.8063,W,1,08,1.2,3676.6,M,23.4,M,,0000*62
$GPGSA,M,3,16,06,22,03,30,14,19,18,,,,,2.3,1.2,2.0*3B
$GPGSV,3,1,12,16,61,316,40,06,61,166,40,22,54,148,39,03,52,193,42*73
$GPGSV,3,2,12,30,46,348,39,14,32,059,35,19,24,210,39,18,20,143,38*70
$GPGSV,3,3,12,32,19,321,39,11,06,252,30,24,05,269,29,31,04,009,*73
$GPRMC,210130.000,A,1445.3161,S,07403.8063,W,10.60,341.81,190411,,,A*58
$GPGGA,210131.000,1445.3123,S,07403.8055,W,1,08,1.2,3676.0,M,23.4,M,,0000*66
$GPGSA,M,3,16,06,22,03,30,14,19,18,,,,,2.3,1.2,2.0*3B
$GPRMC,210131.000,A,1445.3123,S,07403.8055,W,10.10,2.12,190411,,,A*53
$GPGGA,210132.000,1445.3091,S,07403.8048,W,1,08,1.2,3674.8,M,23.4,M,,0000*6B
$GPGSA,M,3,16,06,22,03,30,14,19,18,,,,,2.3,1.2,2.0*3B
$GPRMC,210132.000,A,1445.3091,S,07403.8048,W,10.49,0.93,190411,,,A*53
$GPGGA,210133.000,1445.3061,S,07403.8049,W,1,08,1.2,3674.1,M,23.4,M,,0000*6D
$GPGSA,M,3,16,06,22,03,30,14,19,18,,,,,2.3,1.2,2.0*3B
$GPRMC,210133.000,A,1445.3061,S,07403.8049,W,10.44,353.49,190411,,,A*53
$GPGGA,210134.000,1445.3033,S,07403.8054,W,1,08,1.2,3674.5,M,23.4,M,,0000*65
$GPGSA,M,3,16,06,22,03,30,14,19,18,,,,,2.3,1.2,2.0*3B
$GPRMC,210134.000,A,1445.3033,S,07403.8054,W,10.93,355.48,190411,,,A*52
$GPGGA,210134.999,1445.3001,S,07403.8058,W,1,08,1.2,3674.1,M,23.4,M,,0000*65
$GPGSA,M,3,16,06,22,03,30,14,19,18,,,,,2.3,1.2,2.0*3B
$GPGSV,3,1,12,16,61,316,40,06,61,166,40,22,54,148,39,03,52,193,38*7E
$GPGSV,3,2,12,30,46,348,40,14,32,059,35,19,24,210,37,18,20,143,39*71
$GPGSV,3,3,12,32,19,321,38,11,06,252,36,24,05,269,33,31,04,009,*7F
$GPRMC,210134.999,A,1445.3001,S,07403.8058,W,11.00,348.87,190411,,,A*52
$GPGGA,210136.001,1445.2977,S,07403.8065,W,1,08,1.2,3675.4,M,23.4,M,,0000*6C
$GPGSA,M,3,16,06,22,03,30,14,19,18,,,,,2.3,1.2,2.0*3B
$GPRMC,210136.001,A,1445.2977,S,07403.8065,W,11.60,345.76,190411,,,A*5A
$GPGGA,210137.000,1445.2944,S,07403.8073,W,1,08,1.2,3675.1,M,23.4,M,,0000*6E
$GPGSA,M,3,16,06,22,03,30,14,19,18,,,,,2.3,1.2,2.0*3B
$GPRMC,210137.000,A,1445.2944,S,07403.8073,W,11.04,339.70,190411,,,A*52
$GPGGA,210138.000,1445.2912,S,07403.8082,W,1,08,1.2,3674.5,M,23.4,M,,0000*69
$GPGSA,M,3,16,06,22,03,30,14,19,18,,,,,2.3,1.2,2.0*3B
$GPRMC,210138.000,A,1445.2912,S,07403.8082,W,11.11,342.07,190411,,,A*58
$GPGGA,210139.000,1445.2881,S,07403.8093,W,1,08,1.2,3673.8,M,23.4,M,,0000*69
$GPGSA,M,3,16,06,22,03,30,14,19,18,,,,,2.3,1.2,2.0*3B
$GPRMC,210139.000,A,1445.2881,S,07403.8093,W,11.57,342.91,190411,,,A*5F
$GPGGA,210139.999,1445.2849,S,07403.8102,W,1,07,1.7,3673.9,M,23.4,M,,0000*66
$GPGSA,M,3,16,06,22,03,30,14,18,,,,,,3.5,1.7,3.1*31
$GPGSV,3,1,12,16,61,316,41,06,61,166,41,22,54,148,41,03,52,193,40*7E
$GPGSV,3,2,12,30,46,348,40,14,32,059,36,19,24,210,,18,20,143,39*76
$GPGSV,3,3,12,32,19,321,38,11,06,252,37,24,05,269,35,31,04,009,*78
$GPRMC,210139.999,A,1445.2849,S,07403.8102,W,11.79,344.36,190411,,,A*5C
$GPGGA,210141.001,1445.2812,S,07403.8108,W,1,08,1.2,3672.9,M,23.4,M,,0000*6E
$GPGSA,M,3,16,06,22,03,30,14,19,18,,,,,2.3,1.2,2.0*3B
$GPRMC,210141.001,A,1445.2812,S,07403.8108,W,12.46,347.02,190411,,,A*54
$GPGGA,210142.001,1445.2774,S,07403.8113,W,1,08,1.2,3673.5,M,23.4,M,,0000*65
$GPGSA,M,3,16,06,22,03,30,14,19,18,,,,,2.3,1.2,2.0*3B
$GPRMC,210142.001,A,1445.2774,S,07403.8113,W,12.40,345.48,190411,,,A*58
$GPGGA,210143.001,1445.2741,S,07403.8121,W,1,08,1.2,3672.5,M,23.4,M,,0000*62
$GPGSA,M,3,16,06,22,03,30,14,19,18,,,,,2.3,1.2,2.0*3B
$GPRMC,210143.001,A,1445.2741,S,07403.8121,W,10.90,349.02,190411,,,A*53
$GPGGA,210144.001,1445.2708,S,07403.8125,W,1,08,1.2,3671.4,M,23.4,M,,0000*6E
$GPGSA,M,3,16,06,22,03,30,14,19,18,,,,,2.3,1.2,2.0*3B
$GPRMC,210144.001,A,1445.2708,S,07403.8125,W,10.55,351.51,190411,,,A*5B
$GPGGA,210145.001,1445.2676,S,07403.8130,W,1,08,1.2,3670.6,M,23.4,M,,0000*60
$GPGSA,M,3,16,06,22,03,30,14,19,18,,,,,2.3,1.2,2.0*3B
$GPGSV,3,1,12,16,61,316,42,06,61,166,41,22,54,148,38,03,52,193,38*7C
$GPGSV,3,2,12,30,46,348,39,14,32,059,35,19,24,210,38,18,20,143,36*7F
$GPGSV,3,3,12,32,19,321,37,11,06,252,36,24,05,269,36,31,04,009,*75
$GPRMC,210145.001,A,1445.2676,S,07403.8130,W,10.69,351.69,190411,,,A*52
$GPGGA,210146.001,1445.2644,S,07403.8134,W,1,08,1.2,3670.1,M,23.4,M,,0000*61
$GPGSA,M,3,16,06,22,03,30,14,19,18,,,,,2.3,1.2,2.0*3B
$GPRMC,210146.001,A,1445.2644,S,07403.8134,W,12.05,350.42,190411,,,A*54
$GPGGA,210147.003,1445.2611,S,07403.8138,W,1,08,1.2,3669.5,M,23.4,M,,0000*62
$GPGSA,M,3,16,06,22,03,30,14,19,18,,,,,2.3,1.2,2.0*3B
$GPRMC,210147.003,A,1445.2611,S,07403.8138,W,11.45,358.32,190411,,,A*53
$GPGGA,210148.000,1445.2577,S,07403.8139,W,1,07,1.5,3668.4,M,23.4,M,,0000*64
$GPGSA,M,3,16,06,22,03,30,19,18,,,,,,2.6,1.5,2.1*3D
$GPRMC,210148.000,A,1445.2577,S,07403.8139,W,12.09,2.97,190411,,,A*55
$GPGGA,210149.000,1445.2545,S,07403.8136,W,1,07,1.5,3668.2,M,23.4,M,,0000*6D
$GPGSA,M,3,16,06,22,03,30,19,18,,,,,,2.6,1.5,2.1*3D
$GPRMC,210149.000,A,1445.2545,S,07403.8136,W,11.25,2.52,190411,,,A*5E
$GPGGA,210150.001,1445.2511,S,07403.8131,W,1,08,1.2,3667.9,M,23.4,M,,0000*6E
$GPGSA,M,3,16,06,22,03,30,14,19,18,,,,,2.3,1.2,2.0*3B
$GPGSV,3,1,12,16,61,316,42,06,61,166,42,22,54,148,38,03,52,193,41*71
$GPGSV,3,2,12,30,46,348,39,14,32,059,31,19,24,210,39,18,20,143,24*79
$GPGSV,3,3,12,32,19,321,38,11,06,252,31,24,05,269,25,31,04,009,*7F
$GPRMC,210150.001,A,1445.2511,S,07403.8131,W,11.91,4.54,190411,,,A*5E
$GPGGA,210150.999,1445.2478,S,07403.8132,W,1,07,1.3,3666.2,M,23.4,M,,0000*6F
$GPGSA,M,3,16,06,22,03,30,14,19,,,,,,2.7,1.3,2.4*33
$GPRMC,210150.999,A,1445.2478,S,07403.8132,W,11.44,3.57,190411,,,A*57
$GPGGA,210152.001,1445.2444,S,07403.8130,W,1,08,1.2,3665.4,M,23.4,M,,0000*63
$GPGSA,M,3,16,06,22,03,30,14,19,18,,,,,2.3,1.2,2.0*3B
$GPRMC,210152.001,A,1445.2444,S,07403.8130,W,12.01,0.73,190411,,,A*57
$GPGGA,210152.999,1445.2408,S,07403.8131,W,1,08,1.2,3664.8,M,23.4,M,,0000*6F
$GPGSA,M,3,16,06,22,03,30,14,19,18,,,,,2.3,1.2,2.0*3B
$GPRMC,210152.999,A,1445.2408,S,07403.8131,W,12.75,351.30,190411,,,A*55
$GPGGA,210154.002,1445.2369,S,07403.8132,W,1,08,1.2,3664.5,M,23.4,M,,0000*6C
$GPGSA,M,3,16,06,22,03,30,14,19,18,,,,,2.3,1.2,2.0*3B
$GPRMC,210154.002,A,1445.2369,S,07403.8132,W,13.53,351.86,190411,,,A*53
$GPGGA,210154.998,1445.2331,S,07403.8141,W,1,08,1.2,3664.0,M,23.4,M,,0000*6A
$GPGSA,M,3,16,06,22,03,30,14,19,18,,,,,2.3,1.2,2.0*3B
$GPGSV,3,1,12,16,61,316,41,06,61,166,39,22,54,148,40,03,52,193,39*7E
$GPGSV,3,2,12,30,46,348,41,14,32,059,32,19,24,210,37,18,20,143,41*78
$GPGSV,3,3,12,32,19,321,37,11,06,252,38,24,05,269,36,31,04,009,*7B
$GPRMC,210154.998,A,1445.2331,S,07403.8141,W,13.51,346.00,190411,,,A*5A
$GPGGA,210156.000,1445.2299,S,07403.8153,W,1,08,1.2,3664.8,M,23.4,M,,0000*68
$GPGSA,M,3,16,06,22,03,30,14,19,18,,,,,2.3,1.2,2.0*3B
$GPRMC,210156.000,A,1445.2299,S,07403.8153,W,13.18,345.97,190411,,,A*50
$GPGGA,210157.000,1445.2265,S,07403.8160,W,1,08,1.2,3664.5,M,23.4,M,,0000*67
$GPGSA,M,3,16,06,22,03,30,14,19,18,,,,,2.3,1.2,2.0*3B
$GPRMC,210157.000,A,1445.2265,S,07403.8160,W,12.77,353.70,190411,,,A*54
$GPGGA,210158.000,1445.2228,S,07403.8164,W,1,08,1.2,3664.1,M,23.4,M,,0000*61
$GPGSA,M,3,16,06,22,03,30,14,19,18,,,,,2.3,1.2,2.0*3B
$GPRMC,210158.000,A,1445.2228,S,07403.8164,W,12.58,359.20,190411,,,A*54
$GPGGA,210159.002,1445.2190,S,07403.8160,W,1,07,1.5,3663.8,M,23.4,M,,0000*60
$GPGSA,M,3,16,06,22,03,30,19,18,,,,,,2.6,1.5,2.1*3D
$GPRMC,210159.002,A,1445.2190,S,07403.8160,W,12.52,7.41,190411,,,A*56
$GPGGA,210159.998,1445.2157,S,07403.8157,W,1,08,1.2,3663.8,M,23.4,M,,0000*6D
$GPGSA,M,3,16,06,22,03,30,14,19,18,,,,,2.3,1.2,2.0*3B
$GPGSV,3,1,12,16,61,316,40,06,61,166,38,22,54,148,37,03,52,193,37*70
$GPGSV,3,2,12,30,46,348,40,14,32,059,33,19,24,210,40,18,20,143,37*79
$GPGSV,3,3,12,32,19,321,39,11,06,252,38,24,05,269,36,31,04,009,*75
$GPRMC,210159.998,A,1445.2157,S,07403.8157,W,12.36,2.70,190411,,,A*56
$GPGGA,210201.001,1445.2121,S,07403.8157,W,1,08,1.2,3663.4,M,23.4,M,,0000*67
$GPGSA,M,3,16,06,22,03,30,14,19,18,,,,,2.3,1.2,2.0*3B
$GPRMC,210201.001,A,1445.2121,S,07403.8157,W,12.92,357.33,190411,,,A*5A
$GPGGA,210202.000,1445.2082,S,07403.8160,W,1,08,1.2,3663.4,M,23.4,M,,0000*69
$GPGSA,M,3,16,06,22,03,30,14,19,18,,,,,2.3,1.2,2.0*3B
$GPRMC,210202.000,A,1445.2082,S,07403.8160,W,14.05,352.13,190411,,,A*5B
$GPGGA,210203.000,1445.2047,S,07403.8169,W,1,08,1.2,3663.5,M,23.4,M,,0000*69
$GPGSA,M,3,16,06,22,03,30,14,19,18,,,,,2.3,1.2,2.0*3B
$GPRMC,210203.000,A,1445.2047,S,07403.8169,W,13.23,348.14,190411,,,A*55
$GPGGA,210204.000,1445.2016,S,07403.8180,W,1,08,1.2,3662.9,M,23.4,M,,0000*60
$GPGSA,M,3,16,06,22,03,30,14,19,18,,,,,2.3,1.2,2.0*3B
$GPRMC,210204.000,A,1445.2016,S,07403.8180,W,11.29,342.88,190411,,,A*56
$GPGGA,210205.000,1445.1991,S,07403.8205,W,1,08,1.2,3662.7,M,23.4,M,,0000*64
$GPGSA,M,3,16,06,22,03,30,14,19,18,,,,,2.3,1.2,2.0*3B
$GPGSV,3,1,12,16,61,316,40,06,61,166,41,22,54,148,40,03,52,193,41*7F
$GPGSV,3,2,12,30,46,348,37,14,32,059,32,19,24,210,41,18,20,143,41*78
$GPGSV,3,3,12,32,19,321,36,11,06,252,39,24,05,269,38,31,04,009,*75
$GPRMC,210205.000,A,1445.1991,S,07403.8205,W,13.18,328.73,190411,,,A*54
$GPGGA,210206.000,1445.1965,S,07403.8239,W,1,08,1.2,3661.3,M,23.4,M,,0000*64
$GPGSA,M,3,16,06,22,03,30,14,19,18,,,,,2.3,1.2,2.0*3B
$GPRMC,210206.000,A,1445.1965,S,07403.8239,W,14.12,325.33,190411,,,A*57
$GPGGA,210207.000,1445.1932,S,07403.8259,W,1,08,1.2,3660.9,M,23.4,M,,0000*6A
$GPGSA,M,3,16,06,22,03,30,14,19,18,,,,,2.3,1.2,2.0*3B
$GPRMC,210207.000,A,1445.1932,S,07403.8259,W,13.56,331.66,190411,,,A*50
$GPGGA,210208.000,1445.1898,S,07403.8273,W,1,08,1.2,3661.8,M,23.4,M,,0000*6C
$GPGSA,M,3,16,06,22,03,30,14,19,18,,,,,2.3,1.2,2.0*3B
$GPRMC,210208.000,A,1445.1898,S,07403.8273,W,14.48,340.70,190411,,,A*5F
$GPGGA,210209.000,1445.1859,S,07403.8289,W,1,08,1.2,3661.4,M,23.4,M,,0000*69
$GPGSA,M,3,16,06,22,03,30,14,19,18,,,,,2.3,1.2,2.0*3B
$GPRMC,210209.000,A,1445.1859,S,07403.8289,W,14.51,344.26,190411,,,A*59
$GPGGA,210210.000,1445.1821,S,07403.8301,W,1,08,1.2,3661.4,M,23.4,M,,0000*6F
$GPGSA,M,3,16,06,22,03,30,14,19,18,,,,,2.3,1.2,2.0*3B
$GPGSV,3,1,12,16,61,316,41,06,61,166,41,22,54,148,41,03,52,193,37*7E
$GPGSV,3,2,12,30,46,348,40,14,32,059,34,19,24,210,36,18,20,143,41*7E
$GPGSV,3,3,12,32,19,321,37,11,06,252,37,24,05,269,36,31,04,009,*74
$GPRMC,210210.000,A,1445.1821,S,07403.8301,W,14.68,346.04,190411,,,A*57
$GPGGA,210211.000,1445.1779,S,07403.8314,W,1,08,1.2,3662.0,M,23.4,M,,0000*6F
$GPGSA,M,3,16,06,22,03,30,14,19,18,,,,,2.3,1.2,2.0*3B
$GPRMC,210211.000,A,1445.1779,S,07403.8314,W,14.97,339.88,190411,,,A*5C
$GPGGA,210212.000,1445.1741,S,07403.8330,W,1,08,1.2,3661.6,M,23.4,M,,0000*64
$GPGSA,M,3,16,06,22,03,30,14,19,18,,,,,2.3,1.2,2.0*3B
$GPRMC,210212.000,A,1445.1741,S,07403.8330,W,14.26,333.49,190411,,,A*5F
$GPGGA,210213.002,1445.1707,S,07403.8353,W,1,08,1.2,3661.4,M,23.4,M,,0000*62
$GPGSA,M,3,16,06,22,03,30,14,19,18,,,,,2.3,1.2,2.0*3B
$GPRMC,210213.002,A,1445.1707,S,07403.8353,W,14.59,334.98,190411,,,A*58
$GPGGA,210213.997,1445.1675,S,07403.8378,W,1,08,1.2,3661.0,M,23.4,M,,0000*6E
$GPGSA,M,3,16,06,22,03,30,14,19,18,,,,,2.3,1.2,2.0*3B
$GPRMC,210213.997,A,1445.1675,S,07403.8378,W,13.91,326.75,190411,,,A*53
$GPGGA,210215.001,1445.1642,S,07403.8398,W,1,08,1.2,3660.4,M,23.4,M,,0000*61
$GPGSA,M,3,16,06,22,03,30,14,19,18,,,,,2.3,1.2,2.0*3B
$GPGSV,3,1,12,16,61,316,40,06,61,166,39,22,54,148,40,03,52,193,41*70
$GPGSV,3,2,12,30,46,348,36,14,32,059,30,19,24,210,41,18,20,143,38*75
$GPGSV,3,3,12,32,19,321,36,11,06,252,32,24,05,269,36,31,04,009,*70
$GPRMC,210215.001,A,1445.1642,S,07403.8398,W,14.03,325.52,190411,,,A*53
$GPGGA,210216.001,1445.1609,S,07403.8421,W,1,08,1.2,3659.8,M,23.4,M,,0000*6E
$GPGSA,M,3,16,06,22,03,30,14,19,18,,,,,2.3,1.2,2.0*3B
$GPRMC,210216.001,A,1445.1609,S,07403.8421,W,13.91,323.32,190411,,,A*56
$GPGGA,210217.004,1445.1578,S,07403.8449,W,1,08,1.2,3659.0,M,23.4,M,,0000*69
$GPGSA,M,3,16,06,22,03,30,14,19,18,,,,,2.3,1.2,2.0*3B
$GPRMC,210217.004,A,1445.1578,S,07403.8449,W,14.16,322.51,190411,,,A*55
$GPGGA,210217.996,1445.1546,S,07403.8469,W,1,08,1.2,3659.2,M,23.4,M,,0000*66
$GPGSA,M,3,16,06,22,03,30,14,19,18,,,,,2.3,1.2,2.0*3B
$GPRMC,210217.996,A,1445.1546,S,07403.8469,W,12.65,327.76,190411,,,A*5A
$GPGGA,210219.000,1445.1516,S,07403.8489,W,1,08,1.2,3658.9,M,23.4,M,,0000*6F
$GPGSA,M,3,16,06,22,03,30,14,19,18,,,,,2.3,1.2,2.0*3B
$GPRMC,210219.000,A,1445.1516,S,07403.8489,W,12.72,336.38,190411,,,A*55
$GPGGA,210220.000,1445.1481,S,07403.8496,W,1,08,1.2,3658.6,M,23.4,M,,0000*6B
$GPGSA,M,3,16,06,22,03,30,14,19,18,,,,,2.3,1.2,2.0*3B
$GPGSV,3,1,12,16,61,316,41,06,61,166,41,22,54,148,40,03,52,193,40*7F
$GPGSV,3,2,12,30,46,348,40,14,32,059,36,19,24,210,38,18,20,143,40*73
$GPGSV,3,3,12,32,19,321,37,11,06,252,35,24,05,269,35,31,04,009,*75
$GPRMC,210220.000,A,1445.1481,S,07403.8496,W,12.54,340.06,190411,,,A*56
$GPGGA,210221.000,1445.1451,S,07403.8509,W,1,08,1.2,3657.8,M,23.4,M,,0000*61
$GPGSA,M,3,16,06,22,03,30,14,19,18,,,,,2.3,1.2,2.0*3B
$GPRMC,210221.000,A,1445.1451,S,07403.8509,W,12.59,346.44,190411,,,A*50
$GPGGA,210222.000,1445.1415,S,07403.8513,W,1,08,1.2,3655.9,M,23.4,M,,0000*6A
$GPGSA,M,3,16,06,22,03,30,14,19,18,,,,,2.3,1.2,2.0*3B
$GPRMC,210222.000,A,1445.1415,S,07403.8513,W,12.91,354.33,190411,,,A*5F
$GPGGA,210223.000,1445.1380,S,07403.8518,W,1,08,1.2,3655.0,M,23.4,M,,0000*62
$GPGSA,M,3,16,06,22,03,30,14,19,18,,,,,2.3,1.2,2.0*3B
$GPRMC,210223.000,A,1445.1380,S,07403.8518,W,13.50,1.67,190411,,,A*50
$GPGGA,210224.000,1445.1344,S,07403.8511,W,1,08,1.2,3655.1,M,23.4,M,,0000*65
$GPGSA,M,3,16,06,22,03,30,14,19,18,,,,,2.3,1.2,2.0*3B
$GPRMC,210224.000,A,1445.1344,S,07403.8511,W,12.52,9.11,190411,,,A*5C
$GPGGA,210225.002,1445.1311,S,07403.8510,W,1,07,1.5,3654.7,M,23.4,M,,0000*68
$GPGSA,M,3,16,06,22,03,30,19,18,,,,,,2.6,1.5,2.1*3D
$GPGSV,3,1,12,16,61,316,41,06,61,166,39,22,54,148,38,03,52,193,40*7F
$GPGSV,3,2,12,30,46,348,40,14,32,059,,19,24,210,41,18,20,143,35*7A
$GPGSV,3,3,12,32,19,321,38,11,06,252,30,24,05,269,34,31,04,009,*7E
$GPRMC,210225.002,A,1445.1311,S,07403.8510,W,12.96,4.92,190411,,,A*50
$GPGGA,210225.999,1445.1275,S,07403.8504,W,1,08,1.2,3654.6,M,23.4,M,,0000*6C
$GPGSA,M,3,16,06,22,03,30,14,19,18,,,,,2.3,1.2,2.0*3B
$GPRMC,210225.999,A,1445.1275,S,07403.8504,W,13.38,9.02,190411,,,A*5C
$GPGGA,210226.999,1445.1243,S,07403.8502,W,1,08,1.2,3655.4,M,23.4,M,,0000*6F
$GPGSA,M,3,16,06,22,03,30,14,19,18,,,,,2.3,1.2,2.0*3B
$GPRMC,210226.999,A,1445.1243,S,07403.8502,W,13.41,13.09,190411,,,A*62
$GPGGA,210228.000,1445.1207,S,07403.8495,W,1,08,1.2,3655.3,M,23.4,M,,0000*60
$GPGSA,M,3,16,06,22,03,30,14,19,18,,,,,2.3,1.2,2.0*3B
$GPRMC,210228.000,A,1445.1207,S,07403.8495,W,12.87,6.80,190411,,,A*54
$GPGGA,210229.000,1445.1172,S,07403.8493,W,1,08,1.2,3654.6,M,23.4,M,,0000*62
$GPGSA,M,3,16,06,22,03,30,14,19,18,,,,,2.3,1.2,2.0*3B
$GPRMC,210229.000,A,1445.1172,S,07403.8493,W,12.40,6.36,190411,,,A*54
$GPGGA,210230.000,1445.1142,S,07403.8493,W,1,08,1.2,3654.3,M,23.4,M,,0000*6C
$GPGSA,M,3,16,06,22,03,30,14,19,18,,,,,2.3,1.2,2.0*3B
$GPGSV,3,1,12,16,61,316,40,06,61,166,41,22,54,148,38,03,52,193,39*7F
$GPGSV,3,2,12,30,46,348,39,14,32,059,29,19,24,210,40,18,20,143,36*7D
$GPGSV,3,3,12,32,19,321,37,11,06,252,35,24,05,269,35,31,04,009,*75
$GPRMC,210230.000,A,1445.1142,S,07403.8493,W,11.39,4.89,190411,,,A*54
$GPGGA,210231.002,1445.1111,S,07403.8487,W,1,07,1.3,3654.1,M,23.4,M,,0000*60
$GPGSA,M,3,16,06,22,03,30,14,19,,,,,,2.7,1.3,2.4*33
$GPRMC,210231.002,A,1445.1111,S,07403.8487,W,11.13,11.29,190411,,,A*62
$GPGGA,210231.998,1445.1081,S,07403.8481,W,1,08,1.2,3654.2,M,23.4,M,,0000*69
$GPGSA,M,3,16,06,22,03,30,14,19,18,,,,,2.3,1.2,2.0*3B
$GPRMC,210231.998,A,1445.1081,S,07403.8481,W,11.71,14.84,190411,,,A*60
$GPGGA,210232.999,1445.1051,S,07403.8473,W,1,07,1.3,3654.3,M,23.4,M,,0000*64
$GPGSA,M,3,16,06,22,03,30,14,19,,,,,,2.7,1.3,2.4*33
$GPRMC,210232.999,A,1445.1051,S,07403.8473,W,12.03,23.18,190411,,,A*65
$GPGGA,210234.001,1445.1026,S,07403.8456,W,1,06,2.3,3654.6,M,23.4,M,,0000*6A
$GPGSA,M,3,16,06,22,03,30,19,,,,,,,4.4,2.3,3.7*32
$GPRMC,210234.001,A,1445.1026,S,07403.8456,W,11.25,34.95,190411,,,A*68
$GPGGA,210235.001,1445.0999,S,07403.8438,W,1,06,2.3,3654.4,M,23.4,M,,0000*6D
$GPGSA,M,3,16,06,22,03,30,19,,,,,,,4.4,2.3,3.7*32
$GPGSV,3,1,12,16,61,316,40,06,61,166,41,22,54,148,37,03,52,193,38*71
$GPGSV,3,2,12,30,46,348,38,14,32,059,,19,24,210,40,18,20,143,*72
$GPGSV,3,3,12,32,19,321,35,11,06,252,38,24,05,269,30,31,04,009,*7F
$GPRMC,210235.001,A,1445.0999,S,07403.8438,W,11.27,38.06,190411,,,A*69
$GPGGA,210236.001,1445.0977,S,07403.8415,W,1,08,1.2,3654.1,M,23.4,M,,0000*68
$GPGSA,M,3,16,06,22,03,30,14,19,18,,,,,2.3,1.2,2.0*3B
$GPRMC,210236.001,A,1445.0977,S,07403.8415,W,10.48,45.43,190411,,,A*66
$GPGGA,210237.001,1445.0956,S,07403.8391,W,1,08,1.2,3652.9,M,23.4,M,,0000*6F
$GPGSA,M,3,16,06,22,03,30,14,19,18,,,,,2.3,1.2,2.0*3B
$GPRMC,210237.001,A,1445.0956,S,07403.8391,W,11.31,49.38,190411,,,A*60
$GPGGA,210238.001,1445.0936,S,07403.8365,W,1,08,1.2,3652.7,M,23.4,M,,0000*63
$GPGSA,M,3,16,06,22,03,30,14,19,18,,,,,2.3,1.2,2.0*3B
$GPRMC,210238.001,A,1445.0936,S,07403.8365,W,10.96,52.54,190411,,,A*6E
$GPGGA,210239.003,1445.0914,S,07403.8340,W,1,07,1.5,3652.6,M,23.4,M,,0000*6E
$GPGSA,M,3,16,06,22,03,30,19,18,,,,,,2.6,1.5,2.1*3D
$GPRMC,210239.003,A,1445.0914,S,07403.8340,W,10.90,42.67,190411,,,A*6D
$GPGGA,210239.998,1445.0893,S,07403.8321,W,1,08,1.2,3652.7,M,23.4,M,,0000*65
$GPGSA,M,3,16,06,22,03,30,14,19,18,,,,,2.3,1.2,2.0*3B
$GPGSV,3,1,12,16,61,316,41,06,61,166,36,22,54,148,38,03,52,193,39*7E
$GPGSV,3,2,12,30,46,348,39,14,32,059,29,19,24,210,40,18,20,143,36*7D
$GPGSV,3,3,12,32,19,321,36,11,06,252,35,24,05,269,30,31,04,009,*71
$GPRMC,210239.998,A,1445.0893,S,07403.8321,W,10.83,35.29,190411,,,A*67
$GPGGA,210241.002,1445.0870,S,07403.8303,W,1,07,1.3,3652.8,M,23.4,M,,0000*6C
$GPGSA,M,3,16,06,22,03,30,14,19,,,,,,2.7,1.3,2.4*33
$GPRMC,210241.002,A,1445.0870,S,07403.8303,W,10.54,30.91,190411,,,A*63
$GPGGA,210242.000,1445.0845,S,07403.8290,W,1,07,1.5,3652.5,M,23.4,M,,0000*6B
$GPGSA,M,3,16,06,22,03,30,19,18,,,,,,2.6,1.5,2.1*3D
$GPRMC,210242.000,A,1445.0845,S,07403.8290,W,10.23,23.64,190411,,,A*67
$GPGGA,210242.998,1445.0818,S,07403.8277,W,1,08,1.2,3652.4,M,23.4,M,,0000*6B
$GPGSA,M,3,16,06,22,03,30,14,19,18,,,,,2.3,1.2,2.0*3B
$GPRMC,210242.998,A,1445.0818,S,07403.8277,W,10.65,16.58,190411,,,A*65
$GPGGA,210244.000,1445.0790,S,07403.8280,W,1,08,1.2,3652.8,M,23.4,M,,0000*6E
$GPGSA,M,3,16,06,22,03,30,14,19,18,,,,,2.3,1.2,2.0*3B
$GPRMC,210244.000,A,1445.0790,S,07403.8280,W,10.39,357.09,190411,,,A*57
$GPGGA,210245.000,1445.0763,S,07403.8284,W,1,08,1.2,3653.3,M,23.4,M,,0000*6D
$GPGSA,M,3,16,06,22,03,30,14,19,18,,,,,2.3,1.2,2.0*3B
$GPGSV,3,1,12,16,61,316,40,06,61,166,40,22,54,148,38,03,52,193,38*7F
$GPGSV,3,2,12,30,46,348,40,14,32,059,36,19,24,210,39,18,20,143,38*7D
$GPGSV,3,3,12,32,19,321,38,11,06,252,38,24,05,269,35,31,04,009,*77
$GPRMC,210245.000,A,1445.0763,S,07403.8284,W,10.75,356.82,190411,,,A*54
$GPGGA,210246.000,1445.0734,S,07403.8288,W,1,08,1.2,3652.8,M,23.4,M,,0000*6A
$GPGSA,M,3,16,06,22,03,30,14,19,18,,,,,2.3,1.2,2.0*3B
$GPRMC,210246.000,A,1445.0734,S,07403.8288,W,9.60,353.45,190411,,,A*6B
$GPGGA,210247.000,1445.0711,S,07403.8297,W,1,08,1.2,3653.9,M,23.4,M,,0000*62
$GPGSA,M,3,16,06,22,03,30,14,19,18,,,,,2.3,1.2,2.0*3B
$GPRMC,210247.000,A,1445.0711,S,07403.8297,W,8.90,340.88,190411,,,A*6E
$GPGGA,210248.002,1445.0688,S,07403.8308,W,1,08,1.2,3653.4,M,23.4,M,,0000*64
$GPGSA,M,3,16,06,22,03,30,14,19,18,,,,,2.3,1.2,2.0*3B
$GPRMC,210248.002,A,1445.0688,S,07403.8308,W,8.87,329.74,190411,,,A*6F
$GPGGA,210248.997,1445.0667,S,07403.8325,W,1,08,1.2,3653.7,M,23.4,M,,0000*6C
$GPGSA,M,3,16,06,22,03,30,14,19,18,,,,,2.3,1.2,2.0*3B
$GPRMC,210248.997,A,1445.0667,S,07403.8325,W,7.53,328.68,190411,,,A*6E
$GPGGA,210250.001,1445.0655,S,07403.8340,W,1,08,1.2,3653.6,M,23.4,M,,0000*60
$GPGSA,M,3,16,06,22,03,30,14,19,18,,,,,2.3,1.2,2.0*3B
$GPGSV,3,1,12,16,61,316,42,06,61,166,40,22,54,148,42,03,52,193,40*7F
$GPGSV,3,2,12,30,46,348,37,14,32,059,40,19,24,210,39,18,20,143,30*74
$GPGSV,3,3,12,32,19,321,28,11,06,252,36,24,05,269,28,31,04,009,*74
$GPRMC,210250.001,A,1445.0655,S,07403.8340,W,6.48,319.75,190411,,,A*66
$GPGGA,210251.000,1445.0657,S,07403.8362,W,1,08,1.2,3654.2,M,23.4,M,,0000*61
$GPGSA,M,3,16,06,22,03,30,14,19,18,,,,,2.3,1.2,2.0*3B
$GPRMC,210251.000,A,1445.0657,S,07403.8362,W,5.23,293.69,190411,,,A*64
$GPGGA,210252.003,1445.0664,S,07403.8379,W,1,08,1.2,3653.6,M,23.4,M,,0000*68
$GPGSA,M,3,16,06,22,03,30,14,19,18,,,,,2.3,1.2,2.0*3B
$GPRMC,210252.003,A,1445.0664,S,07403.8379,W,3.87,269.03,190411,,,A*6F
$GPGGA,210253.000,1445.0672,S,07403.8383,W,1,08,1.2,3652.8,M,23.4,M,,0000*67
$GPGSA,M,3,16,06,22,03,30,14,19,18,,,,,2.3,1.2,2.0*3B
$GPRMC,210253.000,A,1445.0672,S,07403.8383,W,3.43,243.59,190411,,,A*60
$GPGGA,210253.997,1445.0711,S,07403.8388,W,1,08,1.2,3653.4,M,23.4,M,,0000*62
$GPGSA,M,3,16,06,22,03,30,14,19,18,,,,,2.3,1.2,2.0*3B
$GPRMC,210253.997,A,1445.0711,S,07403.8388,W,6.84,196.55,190411,,,A*61
$GPGGA,210254.999,1445.0741,S,07403.8389,W,1,08,1.2,3652.5,M,23.4,M,,0000*6F
$GPGSA,M,3,16,06,22,03,30,14,19,18,,,,,2.3,1.2,2.0*3B
$GPGSV,3,1,12,16,61,316,38,06,61,166,40,22,54,148,40,03,52,193,42*72
$GPGSV,3,2,12,30,46,348,41,14,32,059,40,19,24,210,34,18,20,143,40*7F
$GPGSV,3,3,12,32,19,321,39,11,06,252,29,24,05,269,,31,04,009,*70
$GPRMC,210254.999,A,1445.0741,S,07403.8389,W,9.21,178.31,190411,,,A*6E
$GPGGA,210256.003,1445.0784,S,07403.8396,W,1,08,1.2,3653.6,M,23.4,M,,0000*62
$GPGSA,M,3,16,06,22,03,30,14,19,18,,,,,2.3,1.2,2.0*3B
$GPRMC,210256.003,A,1445.0784,S,07403.8396,W,9.66,188.06,190411,,,A*69
$GPGGA,210256.998,1445.0817,S,07403.8405,W,1,08,1.2,3652.9,M,23.4,M,,0000*6F
$GPGSA,M,3,16,06,22,03,30,14,19,18,,,,,2.3,1.2,2.0*3B
$GPRMC,210256.998,A,1445.0817,S,07403.8405,W,10.11,196.09,190411,,,A*52
$GPGGA,210258.000,1445.0845,S,07403.8416,W,1,08,1.2,3650.3,M,23.4,M,,0000*64
$GPGSA,M,3,16,06,22,03,30,14,19,18,,,,,2.3,1.2,2.0*3B
$GPRMC,210258.000,A,1445.0845,S,07403.8416,W,9.23,200.44,190411,,,A*6D
$GPGGA,210259.003,1445.0869,S,07403.8430,W,1,08,1.2,3649.8,M,23.4,M,,0000*6F
$GPGSA,M,3,16,06,22,03,30,14,19,18,,,,,2.3,1.2,2.0*3B
$GPRMC,210259.003,A,1445.0869,S,07403.8430,W,9.72,205.51,190411,,,A*60
$GPGGA,210259.996,1445.0888,S,07403.8446,W,1,08,1.2,3650.1,M,23.4,M,,0000*65
$GPGSA,M,3,16,06,22,03,30,14,19,18,,,,,2.3,1.2,2.0*3B
$GPGSV,3,1,12,16,61,316,36,06,61,166,41,22,54,148,38,03,52,193,42*72
$GPGSV,3,2,12,30,46,348,37,14,32,059,38,19,24,210,39,18,20,143,26*7C
$GPGSV,3,3,12,32,19,321,29,11,06,252,29,24,05,269,,31,04,009,*71
$GPRMC,210259.996,A,1445.0888,S,07403.8446,W,8.54,214.63,190411,,,A*6F
$GPGGA,210301.002,1445.0915,S,07403.8467,W,1,07,1.3,3650.5,M,23.4,M,,0000*61
$GPGSA,M,3,16,06,22,03,30,14,19,,,,,,2.7,1.3,2.4*33
$GPRMC,210301.002,A,1445.0915,S,07403.8467,W,9.41,220.09,190411,,,A*6F
$GPGGA,210302.000,1445.0933,S,07403.8480,W,1,07,1.3,3649.8,M,23.4,M,,0000*68
$GPGSA,M,3,16,06,22,03,30,14,19,,,,,,2.7,1.3,2.4*33
$GPRMC,210302.000,A,1445.0933,S,07403.8480,W,8.51,215.55,190411,,,A*6C
$GPGGA,210303.001,1445.0957,S,07403.8501,W,1,07,1.3,3649.7,M,23.4,M,,0000*6D
$GPGSA,M,3,16,06,22,03,30,14,19,,,,,,2.7,1.3,2.4*33
$GPRMC,210303.001,A,1445.0957,S,07403.8501,W,10.06,231.42,190411,,,A*5D
$GPGGA,210304.001,1445.0977,S,07403.8530,W,1,07,1.3,3649.5,M,23.4,M,,0000*68
$GPGSA,M,3,16,06,22,03,30,14,19,,,,,,2.7,1.3,2.4*33
$GPRMC,210304.001,A,1445.0977,S,07403.8530,W,9.48,228.67,190411,,,A*67
$GPGGA,210305.001,1445.0992,S,07403.8548,W,1,07,1.3,3649.6,M,23.4,M,,0000*6E
$GPGSA,M,3,16,06,22,03,30,14,19,,,,,,2.7,1.3,2.4*33
$GPGSV,3,1,12,16,61,316,38,06,61,166,41,22,54,148,40,03,52,193,40*71
$GPGSV,3,2,12,30,46,348,39,14,32,059,40,19,24,210,33,18,20,143,*73
$GPGSV,3,3,12,32,19,321,23,11,06,252,27,24,05,269,30,31,04,009,*76
$GPRMC,210305.001,A,1445.0992,S,07403.8548,W,7.14,233.84,190411,,,A*62
$GPGGA,210306.000,1445.0999,S,07403.8568,W,1,07,1.3,3649.7,M,23.4,M,,0000*64
$GPGSA,M,3,16,06,22,03,30,14,19,,,,,,2.7,1.3,2.4*33
$GPRMC,210306.000,A,1445.0999,S,07403.8568,W,6.65,249.74,190411,,,A*6C
$GPGGA,210307.001,1445.1008,S,07403.8590,W,1,07,1.3,3650.0,M,23.4,M,,0000*6C
$GPGSA,M,3,16,06,22,03,30,14,19,,,,,,2.7,1.3,2.4*33
$GPRMC,210307.001,A,1445.1008,S,07403.8590,W,6.25,253.97,190411,,,A*69
$GPGGA,210308.001,1445.1008,S,07403.8611,W,1,07,1.3,3649.7,M,23.4,M,,0000*66
$GPGSA,M,3,16,06,22,03,30,14,19,,,,,,2.7,1.3,2.4*33
$GPRMC,210308.001,A,1445.1008,S,07403.8611,W,7.24,274.14,190411,,,A*62
$GPGGA,210308.999,1445.0999,S,07403.8634,W,1,08,1.2,3648.9,M,23.4,M,,0000*68
$GPGSA,M,3,16,06,22,03,30,14,19,18,,,,,2.3,1.2,2.0*3B
$GPRMC,210308.999,A,1445.0999,S,07403.8634,W,7.31,298.76,190411,,,A*6F
$GPGGA,210310.000,1445.0982,S,07403.8649,W,1,08,1.2,3648.7,M,23.4,M,,0000*66
$GPGSA,M,3,16,06,22,03,30,14,19,18,,,,,2.3,1.2,2.0*3B
$GPGSV,3,1,12,16,61,316,39,06,61,166,41,22,54,148,42,03,52,193,41*73
$GPGSV,3,2,12,30,46,348,36,14,32,059,30,19,24,210,41,18,20,143,36*7B
$GPGSV,3,3,12,32,19,321,37,11,06,252,34,24,05,269,36,31,04,009,*77
$GPRMC,210310.000,A,1445.0982,S,07403.8649,W,7.50,312.17,190411,,,A*6C
$GPGGA,210311.000,1445.0967,S,07403.8667,W,1,08,1.2,3648.4,M,23.4,M,,0000*63
$GPGSA,M,3,16,06,22,03,30,14,19,18,,,,,2.3,1.2,2.0*3B
$GPRMC,210311.000,A,1445.0967,S,07403.8667,W,7.55,320.54,190411,,,A*69
$GPGGA,210312.000,1445.0949,S,07403.8674,W,1,08,1.2,3648.8,M,23.4,M,,0000*62
$GPGSA,M,3,16,06,22,03,30,14,19,18,,,,,2.3,1.2,2.0*3B
$GPRMC,210312.000,A,1445.0949,S,07403.8674,W,8.00,332.40,190411,,,A*6D
$GPGGA,210313.000,1445.0915,S,07403.8675,W,1,08,1.2,3648.0,M,23.4,M,,0000*63
$GPGSA,M,3,16,06,22,03,30,14,19,18,,,,,2.3,1.2,2.0*3B
$GPRMC,210313.000,A,1445.0915,S,07403.8675,W,8.99,357.78,190411,,,A*6C
$GPGGA,210314.000,1445.0888,S,07403.8665,W,1,08,1.2,3648.5,M,23.4,M,,0000*65
$GPGSA,M,3,16,06,22,03,30,14,19,18,,,,,2.3,1.2,2.0*3B
$GPRMC,210314.000,A,1445.0888,S,07403.8665,W,7.86,14.00,190411,,,A*55
$GPGGA,210315.001,1445.0875,S,07403.8649,W,1,07,1.5,3649.0,M,23.4,M,,0000*65
$GPGSA,M,3,06,16,03,22,30,19,18,,,,,,2.6,1.5,2.1*3D
$GPGSV,3,1,12,06,62,164,42,16,60,319,40,03,54,192,39,22,53,148,37*7C
$GPGSV,3,2,12,30,45,349,38,14,33,061,,19,25,209,41,18,19,143,34*7F
$GPGSV,3,3,12,31,03,010,,21,01,113,,32,20,321,,11,06,251,38*73
$GPRMC,210315.001,A,1445.0875,S,07403.8649,W,8.65,36.12,190411,,,A*58
$GPGGA,210316.000,1445.0851,S,07403.8638,W,1,08,1.2,3648.4,M,23.4,M,,0000*6A
$GPGSA,M,3,06,16,03,22,30,14,19,18,,,,,2.3,1.2,2.0*3B
$GPRMC,210316.000,A,1445.0851,S,07403.8638,W,8.90,22.78,190411,,,A*59
$GPGGA,210317.000,1445.0827,S,07403.8625,W,1,08,1.2,3648.4,M,23.4,M,,0000*66
$GPGSA,M,3,06,16,03,22,30,14,19,18,,,,,2.3,1.2,2.0*3B
$GPRMC,210317.000,A,1445.0827,S,07403.8625,W,9.28,28.41,190411,,,A*57
$GPGGA,210318.000,1445.0799,S,07403.8611,W,1,08,1.2,3647.6,M,23.4,M,,0000*69
$GPGSA,M,3,06,16,03,22,30,14,19,18,,,,,2.3,1.2,2.0*3B
$GPRMC,210318.000,A,1445.0799,S,07403.8611,W,9.46,27.82,190411,,,A*5D
$GPGGA,210319.002,1445.0772,S,07403.8596,W,1,07,1.3,3648.3,M,23.4,M,,0000*67
$GPGSA,M,3,06,16,03,22,30,14,19,,,,,,2.7,1.3,2.4*33
$GPRMC,210319.002,A,1445.0772,S,07403.8596,W,9.82,12.51,190411,,,A*57
$GPGGA,210319.998,1445.0742,S,07403.8594,W,1,08,1.2,3648.3,M,23.4,M,,0000*62
$GPGSA,M,3,06,16,03,22,30,14,19,18,,,,,2.3,1.2,2.0*3B
$GPGSV,3,1,12,06,62,164,39,16,60,319,42,03,54,192,42,22,53,148,39*70
$GPGSV,3,2,12,30,45,349,41,14,33,061,31,19,25,209,40,32,20,321,39*7B
$GPGSV,3,3,12,18,19,143,36,11,06,251,35,24,06,268,37,31,03,010,*76
$GPRMC,210319.998,A,1445.0742,S,07403.8594,W,10.32,2.15,190411,,,A*5E
$GPGGA,210321.000,1445.0712,S,07403.8594,W,1,08,1.2,3647.9,M,23.4,M,,0000*61
$GPGSA,M,3,06,16,03,22,30,14,19,18,,,,,2.3,1.2,2.0*3B
$GPRMC,210321.000,A,1445.0712,S,07403.8594,W,10.86,3.62,190411,,,A*56
$GPGGA,210321.999,1445.0687,S,07403.8588,W,1,08,1.2,3649.1,M,23.4,M,,0000*6E
$GPGSA,M,3,06,16,03,22,30,14,19,18,,,,,2.3,1.2,2.0*3B
$GPRMC,210321.999,A,1445.0687,S,07403.8588,W,10.48,359.63,190411,,,A*50
$GPGGA,210323.000,1445.0649,S,07403.8589,W,1,08,1.2,3648.3,M,23.4,M,,0000*65
$GPGSA,M,3,06,16,03,22,30,14,19,18,,,,,2.3,1.2,2.0*3B
$GPRMC,210323.000,A,1445.0649,S,07403.8589,W,11.85,351.19,190411,,,A*5D
$GPGGA,210323.999,1445.0616,S,07403.8593,W,1,08,1.2,3646.8,M,23.4,M,,0000*68
$GPGSA,M,3,06,16,03,22,30,14,19,18,,,,,2.3,1.2,2.0*3B
$GPRMC,210323.999,A,1445.0616,S,07403.8593,W,11.04,349.11,190411,,,A*5D
$GPGGA,210324.999,1445.0589,S,07403.8596,W,1,08,1.2,3644.9,M,23.4,M,,0000*6C
$GPGSA,M,3,06,16,03,22,30,14,19,18,,,,,2.3,1.2,2.0*3B
$GPGSV,3,1,12,06,62,164,40,16,60,319,40,03,54,192,38,22,53,148,39*71
$GPGSV,3,2,12,30,45,349,40,14,33,061,32,19,25,209,37,32,20,321,37*77
$GPGSV,3,3,12,18,19,143,40,11,06,251,38,24,06,268,36,31,03,010,*7B
$GPRMC,210324.999,A,1445.0589,S,07403.8596,W,10.60,349.62,190411,,,A*5D
$GPGGA,210325.999,1445.0561,S,07403.8598,W,1,08,1.2,3644.3,M,23.4,M,,0000*6F
$GPGSA,M,3,06,16,03,22,30,14,19,18,,,,,2.3,1.2,2.0*3B
$GPRMC,210325.999,A,1445.0561,S,07403.8598,W,10.53,349.06,190411,,,A*56
$GPGGA,210326.999,1445.0529,S,07403.8603,W,1,08,1.2,3642.9,M,23.4,M,,0000*6D
$GPGSA,M,3,06,16,03,22,30,14,19,18,,,,,2.3,1.2,2.0*3B
$GPRMC,210326.999,A,1445.0529,S,07403.8603,W,10.67,347.35,190411,,,A*51
$GPGGA,210327.999,1445.0498,S,07403.8603,W,1,08,1.2,3643.6,M,23.4,M,,0000*69
$GPGSA,M,3,06,16,03,22,30,14,19,18,,,,,2.3,1.2,2.0*3B
$GPRMC,210327.999,A,1445.0498,S,07403.8603,W,10.73,347.28,190411,,,A*52
$GPGGA,210328.999,1445.0469,S,07403.8609,W,1,08,1.2,3643.2,M,23.4,M,,0000*66
$GPGSA,M,3,06,16,03,22,30,14,19,18,,,,,2.3,1.2,2.0*3B
$GPRMC,210328.999,A,1445.0469,S,07403.8609,W,10.72,343.98,190411,,,A*57
$GPGGA,210330.000,1445.0441,S,07403.8616,W,1,08,1.2,3642.1,M,23.4,M,,0000*60
$GPGSA,M,3,06,16,03,22,30,14,19,18,,,,,2.3,1.2,2.0*3B
$GPGSV,3,1,12,06,62,164,42,16,60,319,41,03,54,192,38,22,53,148,39*72
$GPGSV,3,2,12,30,45,349,41,14,33,061,33,19,25,209,38,32,20,321,37*78
$GPGSV,3,3,12,18,19,143,40,11,06,251,37,24,06,268,31,31,03,010,*73
$GPRMC,210330.000,A,1445.0441,S,07403.8616,W,10.31,348.98,190411,,,A*5F
$GPGGA,210331.000,1445.0415,S,07403.8620,W,1,08,1.2,3641.8,M,23.4,M,,0000*6F
$GPGSA,M,3,06,16,03,22,30,14,19,18,,,,,2.3,1.2,2.0*3B
$GPRMC,210331.000,A,1445.0415,S,07403.8620,W,9.77,344.34,190411,,,A*6A
$GPGGA,210332.000,1445.0392,S,07403.8630,W,1,08,1.2,3641.9,M,23.4,M,,0000*64
$GPGSA,M,3,06,16,03,22,30,14,19,18,,,,,2.3,1.2,2.0*3B
$GPRMC,210332.000,A,1445.0392,S,07403.8630,W,9.29,331.77,190411,,,A*6E
$GPGGA,210333.000,1445.0371,S,07403.8642,W,1,08,1.2,3641.1,M,23.4,M,,0000*65
$GPGSA,M,3,06,16,03,22,30,14,19,18,,,,,2.3,1.2,2.0*3B
$GPRMC,210333.000,A,1445.0371,S,07403.8642,W,7.75,330.63,190411,,,A*64
$GPGGA,210334.000,1445.0352,S,07403.8650,W,1,08,1.2,3640.4,M,23.4,M,,0000*64
$GPGSA,M,3,06,16,03,22,30,14,19,18,,,,,2.3,1.2,2.0*3B
$GPRMC,210334.000,A,1445.0352,S,07403.8650,W,5.85,330.17,190411,,,A*6F
$GPGGA,210335.000,1445.0341,S,07403.8654,W,1,08,1.2,3639.9,M,23.4,M,,0000*60
$GPGSA,M,3,06,16,03,22,30,14,19,18,,,,,2.3,1.2,2.0*3B
$GPGSV,3,1,12,06,62,164,42,16,60,319,42,03,54,192,39,22,53,148,40*7E
$GPGSV,3,2,12,30,45,349,41,14,33,061,31,19,25,209,35,32,20,321,37*77
$GPGSV,3,3,12,18,19,143,41,11,06,251,37,24,06,268,36,31,03,010,*75
$GPRMC,210335.000,A,1445.0341,S,07403.8654,W,4.59,328.38,190411,,,A*6C
$GPGGA,210336.000,1445.0333,S,07403.8657,W,1,08,1.2,3639.4,M,23.4,M,,0000*68
$GPGSA,M,3,06,16,03,22,30,14,19,18,,,,,2.3,1.2,2.0*3B
$GPRMC,210336.000,A,1445.0333,S,07403.8657,W,2.54,324.06,190411,,,A*63
$GPGGA,210337.000,1445.0331,S,07403.8656,W,1,08,1.2,3637.8,M,23.4,M,,0000*68
$GPGSA,M,3,06,16,03,22,30,14,19,18,,,,,2.3,1.2,2.0*3B
$GPRMC,210337.000,A,1445.0331,S,07403.8656,W,0.97,308.68,190411,,,A*6A
$GPGGA,210338.000,1445.0328,S,07403.8658,W,1,08,1.2,3637.5,M,23.4,M,,0000*6C
$GPGSA,M,3,06,16,03,22,30,14,19,18,,,,,2.3,1.2,2.0*3B
$GPRMC,210338.000,A,1445.0328,S,07403.8658,W,1.10,236.76,190411,,,A*6E
$GPGGA,210339.002,1445.0333,S,07403.8660,W,1,07,1.7,3639.3,M,23.4,M,,0000*6C
$GPGSA,M,3,06,16,03,22,30,14,18,,,,,,3.4,1.7,3.0*31
$GPRMC,210339.002,A,1445.0333,S,07403.8660,W,0.64,268.23,190411,,,A*65
$GPGGA,210339.998,1445.0331,S,07403.8662,W,1,08,1.2,3639.0,M,23.4,M,,0000*6F
$GPGSA,M,3,06,16,03,22,30,14,19,18,,,,,2.3,1.2,2.0*3B
$GPGSV,3,1,12,06,62,164,41,16,60,319,41,03,54,192,38,22,53,148,40*7F
$GPGSV,3,2,12,30,45,349,39,14,33,061,33,19,25,209,38,32,20,321,29*78
$GPGSV,3,3,12,18,19,143,40,11,06,251,37,24,06,268,37,31,03,010,*75
$GPRMC,210339.998,A,1445.0331,S,07403.8662,W,0.07,39.72,190411,,,A*58
$GPGGA,210341.002,1445.0337,S,07403.8659,W,1,07,1.7,3639.7,M,23.4,M,,0000*69
$GPGSA,M,3,06,16,03,22,30,14,18,,,,,,3.4,1.7,3.0*31
$GPRMC,210341.002,A,1445.0337,S,07403.8659,W,0.21,81.43,190411,,,A*56
$GPGGA,210341.998,1445.0336,S,07403.8658,W,1,08,1.2,3639.4,M,23.4,M,,0000*6A
$GPGSA,M,3,06,16,03,22,30,14,19,18,,,,,2.3,1.2,2.0*3B
$GPRMC,210341.998,A,1445.0336,S,07403.8658,W,0.45,50.13,190411,,,A*57
$GPGGA,210343.000,1445.0334,S,07403.8655,W,1,08,1.2,3639.5,M,23.4,M,,0000*6E
$GPGSA,M,3,06,16,03,22,30,14,19,18,,,,,2.3,1.2,2.0*3B
$GPRMC,210343.000,A,1445.0334,S,07403.8655,W,0.52,95.88,190411,,,A*5F
$GPGGA,210344.000,1445.0330,S,07403.8653,W,1,08,1.2,3639.0,M,23.4,M,,0000*6E
$GPGSA,M,3,06,16,03,22,30,14,19,18,,,,,2.3,1.2,2.0*3B
$GPRMC,210344.000,A,1445.0330,S,07403.8653,W,0.41,61.48,190411,,,A*5F
$GPGGA,210345.002,1445.0327,S,07403.8653,W,1,07,1.7,3638.7,M,23.4,M,,0000*67
$GPGSA,M,3,06,16,03,22,30,14,18,,,,,,3.4,1.7,3.0*31
$GPGSV,3,1,12,06,62,164,40,16,60,319,41,03,54,192,39,22,53,148,41*7E
$GPGSV,3,2,12,30,45,349,39,14,33,061,33,19,25,209,,32,20,321,31*7A
$GPGSV,3,3,12,18,19,143,40,11,06,251,36,24,06,268,33,31,03,010,*70
$GPRMC,210345.002,A,1445.0327,S,07403.8653,W,0.17,162.97,190411,,,A*69
$GPGGA,210345.998,1445.0327,S,07403.8651,W,1,08,1.2,3638.8,M,23.4,M,,0000*6A
$GPGSA,M,3,06,16,03,22,30,14,19,18,,,,,2.3,1.2,2.0*3B
$GPRMC,210345.998,A,1445.0327,S,07403.8651,W,0.28,11.70,190411,,,A*51
$GPGGA,210347.002,1445.0324,S,07403.8654,W,1,08,1.2,3638.7,M,23.4,M,,0000*6B
$GPGSA,M,3,06,16,03,22,30,14,19,18,,,,,2.3,1.2,2.0*3B
$GPRMC,210347.002,A,1445.0324,S,07403.8654,W,0.62,314.18,190411,,,A*69
$GPGGA,210347.998,1445.0322,S,07403.8654,W,1,08,1.2,3638.7,M,23.4,M,,0000*67
$GPGSA,M,3,06,16,03,22,30,14,19,18,,,,,2.3,1.2,2.0*3B
$GPRMC,210347.998,A,1445.0322,S,07403.8654,W,0.26,111.27,190411,,,A*6E
$GPGGA,210349.000,1445.0323,S,07403.8655,W,1,08,1.2,3638.6,M,23.4,M,,0000*60
$GPGSA,M,3,06,16,03,22,30,14,19,18,,,,,2.3,1.2,2.0*3B
$GPRMC,210349.000,A,1445.0323,S,07403.8655,W,0.27,297.96,190411,,,A*6E
$GPGGA,210350.000,1445.0322,S,07403.8656,W,1,08,1.2,3638.6,M,23.4,M,,0000*6A
$GPGSA,M,3,06,16,03,22,30,14,19,18,,,,,2.3,1.2,2.0*3B
$GPGSV,3,1,12,06,62,164,40,16,60,319,40,03,54,192,38,22,53,148,41*7E
$GPGSV,3,2,12,30,45,349,40,14,33,061,32,19,25,209,37,32,20,321,37*77
$GPGSV,3,3,12,18,19,143,41,11,06,251,36,24,06,268,34,31,03,010,*76
$GPRMC,210350.000,A,1445.0322,S,07403.8656,W,0.09,274.42,190411,,,A*6C
$GPGGA,210351.000,1445.0321,S,07403.8659,W,1,08,1.2,3637.3,M,23.4,M,,0000*6D
$GPGSA,M,3,06,16,03,22,30,14,19,18,,,,,2.3,1.2,2.0*3B
$GPRMC,210351.000,A,1445.0321,S,07403.8659,W,0.06,7.42,190411,,,A*68
$GPGGA,210352.002,1445.0320,S,07403.8657,W,1,08,1.2,3637.4,M,23.4,M,,0000*64
$GPGSA,M,3,06,16,03,22,30,14,19,18,,,,,2.3,1.2,2.0*3B
$GPRMC,210352.002,A,1445.0320,S,07403.8657,W,0.17,51.83,190411,,,A*58
$GPGGA,210353.000,1445.0323,S,07403.8658,W,1,08,1.2,3637.4,M,23.4,M,,0000*6B
$GPGSA,M,3,06,16,03,22,30,14,19,18,,,,,2.3,1.2,2.0*3B
$GPRMC,210353.000,A,1445.0323,S,07403.8658,W,0.10,62.56,190411,,,A*58
$GPGGA,210353.998,1445.0323,S,07403.8657,W,1,08,1.2,3637.0,M,23.4,M,,0000*68
$GPGSA,M,3,06,16,03,22,30,14,19,18,,,,,2.3,1.2,2.0*3B
$GPRMC,210353.998,A,1445.0323,S,07403.8657,W,0.51,89.59,190411,,,A*50
$GPGGA,210355.000,1445.0323,S,07403.8653,W,1,08,1.2,3636.5,M,23.4,M,,0000*66
$GPGSA,M,3,06,16,03,22,30,14,19,18,,,,,2.3,1.2,2.0*3B
$GPGSV,3,1,12,06,62,164,41,16,60,319,41,03,54,192,41,22,53,148,41*70
$GPGSV,3,2,12,30,45,349,40,14,33,061,32,19,25,209,36,32,20,321,39*78
$GPGSV,3,3,12,18,19,143,41,11,06,251,37,24,06,268,26,31,03,010,*74
$GPRMC,210355.000,A,1445.0323,S,07403.8653,W,1.09,54.56,190411,,,A*59
$GPGGA,210355.998,1445.0323,S,07403.8652,W,1,08,1.2,3635.8,M,23.4,M,,0000*61
$GPGSA,M,3,06,16,03,22,30,14,19,18,,,,,2.3,1.2,2.0*3B
$GPRMC,210355.998,A,1445.0323,S,07403.8652,W,0.75,69.04,190411,,,A*53
$GPGGA,210357.002,1445.0322,S,07403.8650,W,1,08,1.2,3635.3,M,23.4,M,,0000*61
$GPGSA,M,3,06,16,03,22,30,14,19,18,,,,,2.3,1.2,2.0*3B
$GPRMC,210357.002,A,1445.0322,S,07403.8650,W,0.83,58.02,190411,,,A*55
$GPGGA,210358.002,1445.0320,S,07403.8649,W,1,08,1.2,3634.9,M,23.4,M,,0000*6F
$GPGSA,M,3,06,16,03,22,30,14,19,18,,,,,2.3,1.2,2.0*3B
$GPRMC,210358.002,A,1445.0320,S,07403.8649,W,0.52,55.89,190411,,,A*52
$GPGGA,210358.996,1445.0322,S,07403.8649,W,1,08,1.2,3634.2,M,23.4,M,,0000*62
$GPGSA,M,3,06,16,03,22,30,14,19,18,,,,,2.3,1.2,2.0*3B
$GPRMC,210358.996,A,1445.0322,S,07403.8649,W,0.16,179.08,190411,,,A*62
$GPGGA,210400.004,1445.0322,S,07403.8648,W,1,08,1.2,3634.3,M,23.4,M,,0000*6A
$GPGSA,M,3,06,16,03,22,30,14,19,18,,,,,2.3,1.2,2.0*3B
$GPGSV,3,1,12,06,62,164,39,16,60,319,41,03,54,192,40,22,53,148,41*7E
$GPGSV,3,2,12,30,45,349,40,14,33,061,33,19,25,209,38,32,20,321,38*76
$GPGSV,3,3,12,18,19,143,40,11,06,251,35,24,06,268,,31,03,010,*73
$GPRMC,210400.004,A,1445.0322,S,07403.8648,W,0.12,87.37,190411,,,A*53
$GPGGA,210400.996,1445.0321,S,07403.8647,W,1,08,1.2,3634.5,M,23.4,M,,0000*62
$GPGSA,M,3,06,16,03,22,30,14,19,18,,,,,2.3,1.2,2.0*3B
$GPRMC,210400.996,A,1445.0321,S,07403.8647,W,0.68,66.18,190411,,,A*52
$GPGGA,210402.004,1445.0320,S,07403.8644,W,1,08,1.2,3633.9,M,23.4,M,,0000*6B
$GPGSA,M,3,06,16,03,22,30,14,19,18,,,,,2.3,1.2,2.0*3B
$GPRMC,210402.004,A,1445.0320,S,07403.8644,W,0.60,77.86,190411,,,A*5F
$GPGGA,210402.996,1445.0322,S,07403.8639,W,1,08,1.2,3633.9,M,23.4,M,,0000*61
$GPGSA,M,3,06,16,03,22,30,14,19,18,,,,,2.3,1.2,2.0*3B
$GPRMC,210402.996,A,1445.0322,S,07403.8639,W,0.69,60.08,190411,,,A*5C
$GPGGA,210404.000,1445.0322,S,07403.8639,W,1,08,1.2,3634.1,M,23.4,M,,0000*6E
$GPGSA,M,3,06,16,03,22,30,14,19,18,,,,,2.3,1.2,2.0*3B
$GPRMC,210404.000,A,1445.0322,S,07403.8639,W,0.33,38.34,190411,,,A*51
$GPGGA,210405.000,1445.0320,S,07403.8636,W,1,08,1.2,3634.4,M,23.4,M,,0000*67
$GPGSA,M,3,06,16,03,22,30,14,19,18,,,,,2.3,1.2,2.0*3B
$GPGSV,3,1,12,06,62,164,40,16,60,319,41,03,54,192,41,22,53,148,42*72
$GPGSV,3,2,12,30,45,349,39,14,33,061,33,19,25,209,37,32,20,321,39*76
$GPGSV,3,3,12,18,19,143,41,11,06,251,36,24,06,268,,31,03,010,*71
$GPRMC,210405.000,A,1445.0320,S,07403.8636,W,0.61,64.86,190411,,,A*5A
$GPGGA,210406.003,1445.0323,S,07403.8637,W,1,08,1.2,3634.2,M,23.4,M,,0000*63
$GPGSA,M,3,06,16,03,22,30,14,19,18,,,,,2.3,1.2,2.0*3B
$GPRMC,210406.003,A,1445.0323,S,07403.8637,W,0.18,45.87,190411,,,A*54
$GPGGA,210407.000,1445.0322,S,07403.8636,W,1,08,1.2,3635.0,M,23.4,M,,0000*62
$GPGSA,M,3,06,16,03,22,30,14,19,18,,,,,2.3,1.2,2.0*3B
$GPRMC,210407.000,A,1445.0322,S,07403.8636,W,0.69,253.44,190411,,,A*6A
$GPGGA,210408.000,1445.0322,S,07403.8637,W,1,08,1.2,3634.1,M,23.4,M,,0000*6C
$GPGSA,M,3,06,16,03,22,30,14,19,18,,,,,2.3,1.2,2.0*3B
$GPRMC,210408.000,A,1445.0322,S,07403.8637,W,0.18,7.71,190411,,,A*67
$GPGGA,210409.001,1445.0322,S,07403.8639,W,1,08,1.2,3633.7,M,23.4,M,,0000*63
$GPGSA,M,3,06,16,03,22,30,14,19,18,,,,,2.3,1.2,2.0*3B
$GPRMC,210409.001,A,1445.0322,S,07403.8639,W,0.39,11.61,190411,,,A*5C
$GPGGA,210409.998,1445.0322,S,07403.8638,W,1,08,1.2,3633.6,M,23.4,M,,0000*6A
$GPGSA,M,3,06,16,03,22,30,14,19,18,,,,,2.3,1.2,2.0*3B
$GPGSV,3,1,12,06,62,164,40,16,60,319,41,03,54,192,41,22,53,148,41*71
$GPGSV,3,2,12,30,45,349,39,14,33,061,33,19,25,209,37,32,20,321,38*77
$GPGSV,3,3,12,18,19,143,41,11,06,251,37,24,06,268,29,31,03,010,*7B
$GPRMC,210409.998,A,1445.0322,S,07403.8638,W,0.55,67.93,190411,,,A*52
$GPGGA,210411.000,1445.0325,S,07403.8636,W,1,08,1.2,3634.6,M,23.4,M,,0000*65
$GPGSA,M,3,06,16,03,22,30,14,19,18,,,,,2.3,1.2,2.0*3B
$GPRMC,210411.000,A,1445.0325,S,07403.8636,W,0.23,225.60,190411,,,A*63
$GPGGA,210412.000,1445.0326,S,07403.8638,W,1,08,1.2,3634.1,M,23.4,M,,0000*6C
$GPGSA,M,3,06,16,03,22,30,14,19,18,,,,,2.3,1.2,2.0*3B
$GPRMC,210412.000,A,1445.0326,S,07403.8638,W,0.24,328.06,190411,,,A*66
$GPGGA,210413.003,1445.0324,S,07403.8639,W,1,08,1.2,3633.7,M,23.4,M,,0000*6C
$GPGSA,M,3,06,16,03,22,30,14,19,18,,,,,2.3,1.2,2.0*3B
$GPRMC,210413.003,A,1445.0324,S,07403.8639,W,0.44,66.38,190411,,,A*55
$GPGGA,210413.999,1445.0324,S,07403.8639,W,1,08,1.2,3633.6,M,23.4,M,,0000*67
$GPGSA,M,3,06,16,03,22,30,14,19,18,,,,,2.3,1.2,2.0*3B
$GPRMC,210413.999,A,1445.0324,S,07403.8639,W,0.46,88.18,190411,,,A*5F
$GPGGA,210415.000,1445.0324,S,07403.8634,W,1,08,1.2,3633.5,M,23.4,M,,0000*66
$GPGSA,M,3,06,16,03,22,30,14,19,18,,,,,2.3,1.2,2.0*3B
$GPGSV,3,1,12,06,62,164,40,16,60,319,40,03,54,192,39,22,53,148,41*7F
$GPGSV,3,2,12,30,45,349,39,14,33,061,32,19,25,209,38,32,20,321,38*79
$GPGSV,3,3,12,18,19,143,40,11,06,251,33,24,06,268,,31,03,010,*75
$GPRMC,210415.000,A,1445.0324,S,07403.8634,W,0.76,62.63,190411,,,A*56
$GPGGA,210416.000,1445.0324,S,07403.8633,W,1,08,1.2,3634.2,M,23.4,M,,0000*62
$GPGSA,M,3,06,16,03,22,30,14,19,18,,,,,2.3,1.2,2.0*3B
$GPRMC,210416.000,A,1445.0324,S,07403.8633,W,0.71,58.62,190411,,,A*5D
$GPGGA,210417.000,1445.0323,S,07403.8630,W,1,08,1.2,3633.9,M,23.4,M,,0000*6B
$GPGSA,M,3,06,16,03,22,30,14,19,18,,,,,2.3,1.2,2.0*3B
$GPRMC,210417.000,A,1445.0323,S,07403.8630,W,0.26,26.06,190411,,,A*51
$GPGGA,210418.000,1445.0325,S,07403.8633,W,1,08,1.2,3633.6,M,23.4,M,,0000*6E
$GPGSA,M,3,06,16,03,22,30,14,19,18,,,,,2.3,1.2,2.0*3B
$GPRMC,210418.000,A,1445.0325,S,07403.8633,W,0.56,241.18,190411,,,A*60
$GPGGA,210419.000,1445.0327,S,07403.8635,W,1,08,1.2,3633.7,M,23.4,M,,0000*6A
$GPGSA,M,3,06,16,03,22,30,14,19,18,,,,,2.3,1.2,2.0*3B
$GPRMC,210419.000,A,1445.0327,S,07403.8635,W,0.10,273.45,190411,,,A*6E
$GPGGA,210420.000,1445.0330,S,07403.8641,W,1,08,1.2,3633.0,M,23.4,M,,0000*62
$GPGSA,M,3,06,16,03,22,30,14,19,18,,,,,2.3,1.2,2.0*3B
