$GPGGA,203250.997,1500.5283,S,07346.8343,W,1,07,1.6,3155.7,M,23.9,M,,0000*6D
$GPGSA,M,3,22,16,30,06,03,18,14,,,,,,3.2,1.6,2.8*3F
$GPRMC,203250.997,A,1500.5283,S,07346.8343,W,7.77,133.64,180411,,,A*6B
$GPGGA,203251.992,1500.5300,S,07346.8327,W,1,07,1.6,3155.9,M,23.9,M,,0000*6F
$GPGSA,M,3,22,16,30,06,03,18,14,,,,,,3.2,1.6,2.8*3F
$GPRMC,203251.992,A,1500.5300,S,07346.8327,W,7.94,137.81,180411,,,A*65
$GPGGA,203252.999,1500.5316,S,07346.8311,W,1,07,1.6,3155.5,M,23.9,M,,0000*69
$GPGSA,M,3,22,16,30,06,03,18,14,,,,,,3.2,1.6,2.8*3F
$GPRMC,203252.999,A,1500.5316,S,07346.8311,W,7.80,140.55,180411,,,A*63
$GPGGA,203254.009,1500.5334,S,07346.8299,W,1,07,1.6,3153.5,M,23.9,M,,0000*68
$GPGSA,M,3,22,16,30,06,03,18,14,,,,,,3.2,1.6,2.8*3F
$GPRMC,203254.009,A,1500.5334,S,07346.8299,W,8.19,136.80,180411,,,A*62
$GPGGA,203255.001,1500.5349,S,07346.8285,W,1,07,1.6,3153.3,M,23.9,M,,0000*60
$GPGSA,M,3,22,16,30,06,03,18,14,,,,,,3.2,1.6,2.8*3F
$GPGSV,3,1,12,22,69,135,34,16,68,279,37,30,61,335,38,06,49,184,33*7A
$GPGSV,3,2,12,03,40,201,36,18,33,140,32,14,25,044,38,19,15,218,*79
$GPGSV,3,3,12,21,07,126,,31,07,357,,32,06,326,28,11,01,264,*74
$GPRMC,203255.001,A,1500.5349,S,07346.8285,W,6.93,134.27,180411,,,A*6F
$GPGGA,203255.997,1500.5364,S,07346.8272,W,1,07,1.6,3153.8,M,23.9,M,,0000*6A
$GPGSA,M,3,22,16,30,06,03,18,14,,,,,,3.2,1.6,2.8*3F
$GPRMC,203255.997,A,1500.5364,S,07346.8272,W,7.85,137.27,180411,,,A*6B
$GPGGA,203257.002,1500.5380,S,07346.8254,W,1,07,1.6,3157.2,M,23.9,M,,0000*6D
$GPGSA,M,3,22,16,30,06,03,18,14,,,,,,3.2,1.6,2.8*3F
$GPRMC,203257.002,A,1500.5380,S,07346.8254,W,7.34,142.66,180411,,,A*6F
$GPGGA,203258.002,1500.5393,S,07346.8244,W,1,06,1.9,3156.3,M,23.9,M,,0000*6F
$GPGSA,M,3,22,16,30,06,03,14,,,,,,,3.3,1.9,2.8*38
$GPRMC,203258.002,A,1500.5393,S,07346.8244,W,7.04,135.47,180411,,,A*63
$GPGGA,203259.001,1500.5405,S,07346.8229,W,1,07,1.6,3156.5,M,23.9,M,,0000*66
$GPGSA,M,3,22,16,30,06,03,18,14,,,,,,3.2,1.6,2.8*3F
$GPRMC,203259.001,A,1500.5405,S,07346.8229,W,7.40,137.10,180411,,,A*62
$GPGGA,203259.991,1500.5420,S,07346.8218,W,1,07,1.6,3156.3,M,23.9,M,,0000*65
$GPGSA,M,3,22,16,30,06,03,18,14,,,,,,3.2,1.6,2.8*3F
$GPGSV,3,1,12,22,69,135,35,16,68,279,38,30,61,335,38,06,49,184,36*71
$GPGSV,3,2,12,03,40,201,37,18,33,140,30,14,25,044,38,19,15,218,27*7F
$GPGSV,3,3,12,21,07,126,,31,07,357,,32,06,326,37,11,01,264,*7A
$GPRMC,203259.991,A,1500.5420,S,07346.8218,W,7.72,136.36,180411,,,A*63
$GPGGA,203301.010,1500.5437,S,07346.8203,W,1,07,1.6,3156.7,M,23.9,M,,0000*61
$GPGSA,M,3,22,16,30,06,03,18,14,,,,,,3.2,1.6,2.8*3F
$GPRMC,203301.010,A,1500.5437,S,07346.8203,W,8.17,137.63,180411,,,A*6E
$GPGGA,203301.991,1500.5452,S,07346.8183,W,1,06,1.9,3157.7,M,23.9,M,,0000*66
$GPGSA,M,3,22,16,30,06,03,14,,,,,,,3.3,1.9,2.8*38
$GPRMC,203301.991,A,1500.5452,S,07346.8183,W,8.18,135.58,180411,,,A*63
$GPGGA,203303.009,1500.5469,S,07346.8176,W,1,07,1.6,3155.4,M,23.9,M,,0000*61
$GPGSA,M,3,22,16,30,06,03,18,14,,,,,,3.2,1.6,2.8*3F
$GPRMC,203303.009,A,1500.5469,S,07346.8176,W,8.15,133.52,180411,,,A*6A
$GPGGA,203303.990,1500.5480,S,07346.8164,W,1,07,1.6,3156.4,M,23.9,M,,0000*6F
$GPGSA,M,3,22,16,30,06,03,18,14,,,,,,3.2,1.6,2.8*3F
$GPRMC,203303.990,A,1500.5480,S,07346.8164,W,7.13,134.59,180411,,,A*62
$GPGGA,203305.007,1500.5496,S,07346.8149,W,1,07,1.6,3156.6,M,23.9,M,,0000*64
$GPGSA,M,3,22,16,30,06,03,18,14,,,,,,3.2,1.6,2.8*3F
$GPGSV,3,1,12,22,69,135,29,16,68,279,32,30,61,335,35,06,49,184,30*7D
$GPGSV,3,2,12,03,40,201,28,18,33,140,26,14,25,044,34,19,15,218,*7F
$GPGSV,3,3,12,21,07,126,,31,07,357,,32,06,326,32,11,01,264,*7F
$GPRMC,203305.007,A,1500.5496,S,07346.8149,W,7.29,137.35,180411,,,A*6B
$GPGGA,203305.993,1500.5509,S,07346.8131,W,1,06,1.9,3158.9,M,23.9,M,,0000*67
$GPGSA,M,3,22,16,30,06,03,14,,,,,,,3.3,1.9,2.8*38
$GPRMC,203305.993,A,1500.5509,S,07346.8131,W,7.09,129.89,180411,,,A*6D
$GPGGA,203307.009,1500.5524,S,07346.8113,W,1,07,1.6,3160.2,M,23.9,M,,0000*6E
$GPGSA,M,3,22,16,30,06,03,18,14,,,,,,3.2,1.6,2.8*3F
$GPRMC,203307.009,A,1500.5524,S,07346.8113,W,7.95,130.88,180411,,,A*66
$GPGGA,203307.992,1500.5539,S,07346.8100,W,1,07,1.6,3159.9,M,23.9,M,,0000*6A
$GPGSA,M,3,22,16,30,06,03,18,14,,,,,,3.2,1.6,2.8*3F
$GPRMC,203307.992,A,1500.5539,S,07346.8100,W,7.53,136.99,180411,,,A*6F
$GPGGA,203309.006,1500.5554,S,07346.8080,W,1,07,1.6,3161.5,M,23.9,M,,0000*65
$GPGSA,M,3,22,16,30,06,03,18,14,,,,,,3.2,1.6,2.8*3F
$GPRMC,203309.006,A,1500.5554,S,07346.8080,W,8.52,132.85,180411,,,A*60
$GPGGA,203310.000,1500.5571,S,07346.8064,W,1,07,1.6,3162.0,M,23.9,M,,0000*60
$GPGSA,M,3,22,16,30,06,03,18,14,,,,,,3.2,1.6,2.8*3F
$GPGSV,3,1,12,22,69,135,36,16,68,279,36,30,61,335,40,06,49,184,37*72
$GPGSV,3,2,12,03,40,201,35,18,33,140,31,14,25,044,39,19,15,218,28*72
$GPGSV,3,3,12,21,07,126,,31,07,357,,32,06,326,38,11,01,264,*75
$GPRMC,203310.000,A,1500.5571,S,07346.8064,W,7.16,135.48,180411,,,A*6A
$GPGGA,203310.999,1500.5586,S,07346.8049,W,1,07,1.6,3161.8,M,23.9,M,,0000*65
$GPGSA,M,3,22,16,30,06,03,18,14,,,,,,3.2,1.6,2.8*3F
$GPRMC,203310.999,A,1500.5586,S,07346.8049,W,6.88,135.38,180411,,,A*65
$GPGGA,203312.003,1500.5602,S,07346.8032,W,1,07,1.6,3163.3,M,23.9,M,,0000*67
$GPGSA,M,3,22,16,30,06,03,18,14,,,,,,3.2,1.6,2.8*3F
$GPRMC,203312.003,A,1500.5602,S,07346.8032,W,7.74,135.00,180411,,,A*67
$GPGGA,203312.998,1500.5615,S,07346.8018,W,1,07,1.6,3164.0,M,23.9,M,,0000*66
$GPGSA,M,3,22,16,30,06,03,18,14,,,,,,3.2,1.6,2.8*3F
$GPRMC,203312.998,A,1500.5615,S,07346.8018,W,7.51,133.34,180411,,,A*64
$GPGGA,203313.999,1500.5631,S,07346.7994,W,1,07,1.6,3164.6,M,23.9,M,,0000*64
$GPGSA,M,3,22,16,30,06,03,18,14,,,,,,3.2,1.6,2.8*3F
$GPRMC,203313.999,A,1500.5631,S,07346.7994,W,8.33,133.61,180411,,,A*6B
$GPGGA,203315.000,1500.5647,S,07346.7978,W,1,07,1.6,3165.6,M,23.9,M,,0000*69
$GPGSA,M,3,22,16,30,06,03,18,14,,,,,,3.2,1.6,2.8*3F
$GPGSV,3,1,12,22,69,135,27,16,68,279,30,30,61,335,34,06,49,184,28*79
$GPGSV,3,2,12,03,40,201,29,18,33,140,26,14,25,044,30,19,15,218,*7A
$GPGSV,3,3,12,21,07,126,,31,07,357,,32,06,326,,11,01,264,*7E
$GPRMC,203315.000,A,1500.5647,S,07346.7978,W,8.49,138.67,180411,,,A*67
$GPGGA,203316.000,1500.5663,S,07346.7960,W,1,07,1.6,3165.8,M,23.9,M,,0000*6B
$GPGSA,M,3,22,16,30,06,03,18,14,,,,,,3.2,1.6,2.8*3F
$GPRMC,203316.000,A,1500.5663,S,07346.7960,W,7.49,134.93,180411,,,A*63
$GPGGA,203317.003,1500.5678,S,07346.7947,W,1,07,1.6,3165.5,M,23.9,M,,0000*6B
$GPGSA,M,3,22,16,30,06,03,18,14,,,,,,3.2,1.6,2.8*3F
$GPRMC,203317.003,A,1500.5678,S,07346.7947,W,7.68,141.63,180411,,,A*60
$GPGGA,203317.999,1500.5694,S,07346.7930,W,1,07,1.6,3166.8,M,23.9,M,,0000*6D
$GPGSA,M,3,22,16,30,06,03,18,14,,,,,,3.2,1.6,2.8*3F
$GPRMC,203317.999,A,1500.5694,S,07346.7930,W,7.67,139.54,180411,,,A*6C
$GPGGA,203319.000,1500.5710,S,07346.7914,W,1,07,1.6,3166.7,M,23.9,M,,0000*6E
$GPGSA,M,3,22,16,30,06,03,18,14,,,,,,3.2,1.6,2.8*3F
$GPRMC,203319.000,A,1500.5710,S,07346.7914,W,7.50,134.88,180411,,,A*68
$GPGGA,203320.002,1500.5726,S,07346.7897,W,1,07,1.6,3166.9,M,23.9,M,,0000*67
$GPGSA,M,3,22,16,30,06,03,18,14,,,,,,3.2,1.6,2.8*3F
$GPGSV,3,1,12,22,69,135,33,16,68,279,37,30,61,335,39,06,49,184,37*78
$GPGSV,3,2,12,03,40,201,35,18,33,140,30,14,25,044,39,19,15,218,29*72
$GPGSV,3,3,12,21,07,126,,31,07,357,29,32,06,326,35,11,01,264,*73
$GPRMC,203320.002,A,1500.5726,S,07346.7897,W,8.37,137.88,180411,,,A*62
$GPGGA,203320.998,1500.5743,S,07346.7884,W,1,06,1.8,3165.9,M,23.9,M,,0000*60
$GPGSA,M,3,22,16,30,06,03,14,,,,,,,3.3,1.8,2.8*39
$GPRMC,203320.998,A,1500.5743,S,07346.7884,W,9.04,138.18,180411,,,A*6E
$GPGGA,203322.001,1500.5764,S,07346.7868,W,1,07,1.6,3164.2,M,23.9,M,,0000*69
$GPGSA,M,3,22,16,30,06,03,18,14,,,,,,3.2,1.6,2.8*3F
$GPRMC,203322.001,A,1500.5764,S,07346.7868,W,8.87,138.69,180411,,,A*6E
$GPGGA,203323.001,1500.5780,S,07346.7854,W,1,07,1.6,3163.6,M,23.9,M,,0000*6E
$GPGSA,M,3,22,16,30,06,03,18,14,,,,,,3.2,1.6,2.8*3F
$GPRMC,203323.001,A,1500.5780,S,07346.7854,W,8.80,140.22,180411,,,A*6D
$GPGGA,203324.000,1500.5796,S,07346.7840,W,1,07,1.6,3164.1,M,23.9,M,,0000*6A
$GPGSA,M,3,22,16,30,06,03,18,14,,,,,,3.2,1.6,2.8*3F
$GPRMC,203324.000,A,1500.5796,S,07346.7840,W,8.70,136.05,180411,,,A*62
$GPGGA,203324.992,1500.5818,S,07346.7818,W,1,07,1.6,3163.5,M,24.4,M,,0000*65
$GPGSA,M,3,22,16,30,06,03,18,14,,,,,,3.2,1.6,2.8*3F
$GPGSV,3,1,12,22,69,135,36,16,68,279,36,30,61,335,39,06,49,184,36*7D
$GPGSV,3,2,12,03,40,201,34,18,33,140,34,14,25,044,36,19,15,218,31*71
$GPGSV,3,3,12,21,07,126,,31,07,357,28,32,06,326,37,11,01,264,*70
$GPRMC,203324.992,A,1500.5818,S,07346.7818,W,9.02,140.89,180411,,,A*65
$GPGGA,203326.008,1500.5841,S,07346.7804,W,1,07,1.6,3163.0,M,24.4,M,,0000*69
$GPGSA,M,3,22,16,30,06,03,18,14,,,,,,3.2,1.6,2.8*3F
$GPRMC,203326.008,A,1500.5841,S,07346.7804,W,9.64,143.60,180411,,,A*68
$GPGGA,203326.991,1500.5863,S,07346.7786,W,1,05,2.3,3163.2,M,24.4,M,,0000*63
$GPGSA,M,3,22,16,30,06,14,,,,,,,,4.6,2.3,4.0*3E
$GPRMC,203326.991,A,1500.5863,S,07346.7786,W,10.67,140.83,180411,,,A*51
$GPGGA,203328.010,1500.5889,S,07346.7761,W,1,07,1.6,3163.9,M,24.4,M,,0000*6F
$GPGSA,M,3,22,16,30,06,03,18,14,,,,,,3.2,1.6,2.8*3F
$GPRMC,203328.010,A,1500.5889,S,07346.7761,W,10.77,146.59,180411,,,A*52
$GPGGA,203328.991,1500.5916,S,07346.7750,W,1,07,1.6,3161.9,M,24.4,M,,0000*68
$GPGSA,M,3,22,16,30,06,03,18,14,,,,,,3.2,1.6,2.8*3F
$GPRMC,203328.991,A,1500.5916,S,07346.7750,W,10.91,149.50,180411,,,A*59
$GPGGA,203330.009,1500.5945,S,07346.7737,W,1,07,1.6,3161.7,M,24.4,M,,0000*60
$GPGSA,M,3,22,16,30,06,03,18,14,,,,,,3.2,1.6,2.8*3F
$GPGSV,3,1,12,22,69,135,37,16,68,279,37,30,61,335,35,06,49,184,30*77
$GPGSV,3,2,12,03,40,201,30,18,33,140,31,14,25,044,32,19,15,218,34*71
$GPGSV,3,3,12,21,07,126,,31,07,357,37,32,06,326,36,11,01,264,*7F
$GPRMC,203330.009,A,1500.5945,S,07346.7737,W,10.01,159.15,180411,,,A*56
$GPGGA,203330.991,1500.5969,S,07346.7734,W,1,07,1.6,3159.8,M,24.4,M,,0000*61
$GPGSA,M,3,22,16,30,06,03,18,14,,,,,,3.2,1.6,2.8*3F
$GPRMC,203330.991,A,1500.5969,S,07346.7734,W,10.17,165.53,180411,,,A*59
$GPGGA,203332.007,1500.6000,S,07346.7739,W,1,07,1.6,3158.6,M,24.4,M,,0000*62
$GPGSA,M,3,22,16,30,06,03,18,14,,,,,,3.2,1.6,2.8*3F
$GPRMC,203332.007,A,1500.6000,S,07346.7739,W,11.06,178.47,180411,,,A*5D
$GPGGA,203332.993,1500.6027,S,07346.7750,W,1,07,1.6,3154.9,M,24.4,M,,0000*6F
$GPGSA,M,3,22,16,30,06,03,18,14,,,,,,3.2,1.6,2.8*3F
$GPRMC,203332.993,A,1500.6027,S,07346.7750,W,10.16,180.37,180411,,,A*53
$GPGGA,203334.003,1500.6055,S,07346.7748,W,1,07,1.6,3155.3,M,24.4,M,,0000*6E
$GPGSA,M,3,22,16,30,06,03,18,14,,,,,,3.2,1.6,2.8*3F
$GPRMC,203334.003,A,1500.6055,S,07346.7748,W,9.43,181.77,180411,,,A*64
$GPGGA,203335.000,1500.6080,S,07346.7743,W,1,07,1.6,3155.6,M,24.4,M,,0000*6A
$GPGSA,M,3,22,16,30,06,03,18,14,,,,,,3.2,1.6,2.8*3F
$GPGSV,3,1,12,22,69,135,41,16,68,279,37,30,61,335,35,06,49,184,34*72
$GPGSV,3,2,12,03,40,201,36,18,33,140,38,14,25,044,33,19,15,218,38*73
$GPGSV,3,3,12,21,07,126,,31,07,357,40,32,06,326,39,11,01,264,*70
$GPRMC,203335.000,A,1500.6080,S,07346.7743,W,8.80,183.30,180411,,,A*6A
$GPGGA,203336.005,1500.6105,S,07346.7749,W,1,07,1.6,3153.5,M,24.4,M,,0000*6F
$GPGSA,M,3,22,16,30,06,03,18,14,,,,,,3.2,1.6,2.8*3F
$GPRMC,203336.005,A,1500.6105,S,07346.7749,W,8.87,186.01,180411,,,A*6A
$GPGGA,203336.997,1500.6128,S,07346.7751,W,1,07,1.6,3151.4,M,24.4,M,,0000*68
$GPGSA,M,3,22,16,30,06,03,18,14,,,,,,3.2,1.6,2.8*3F
$GPRMC,203336.997,A,1500.6128,S,07346.7751,W,8.47,187.08,180411,,,A*6A
$GPGGA,203338.003,1500.6152,S,07346.7756,W,1,07,1.6,3151.2,M,24.4,M,,0000*6E
$GPGSA,M,3,22,16,30,06,03,18,14,,,,,,3.2,1.6,2.8*3F
$GPRMC,203338.003,A,1500.6152,S,07346.7756,W,8.73,186.00,180411,,,A*64
$GPGGA,203339.001,1500.6171,S,07346.7759,W,1,07,1.6,3150.3,M,24.4,M,,0000*63
$GPGSA,M,3,22,16,30,06,03,18,14,,,,,,3.2,1.6,2.8*3F
$GPRMC,203339.001,A,1500.6171,S,07346.7759,W,6.93,183.72,180411,,,A*69
$GPGGA,203339.997,1500.6190,S,07346.7758,W,1,07,1.6,3150.5,M,24.4,M,,0000*6D
$GPGSA,M,3,22,16,30,06,03,18,14,,,,,,3.2,1.6,2.8*3F
$GPGSV,3,1,12,22,69,135,38,16,68,279,32,30,61,335,33,06,49,184,31*7A
$GPGSV,3,2,12,03,40,201,30,18,33,140,36,14,25,044,31,19,15,218,26*76
$GPGSV,3,3,12,21,07,126,,31,07,357,38,32,06,326,38,11,01,264,*7E
$GPRMC,203339.997,A,1500.6190,S,07346.7758,W,5.69,182.18,180411,,,A*6A
$GPGGA,203341.001,1500.6206,S,07346.7759,W,1,07,1.6,3151.3,M,24.4,M,,0000*6E
$GPGSA,M,3,22,16,30,06,03,18,14,,,,,,3.2,1.6,2.8*3F
$GPRMC,203341.001,A,1500.6206,S,07346.7759,W,5.75,194.62,180411,,,A*69
$GPGGA,203342.004,1500.6221,S,07346.7762,W,1,07,1.6,3150.4,M,24.4,M,,0000*63
$GPGSA,M,3,22,16,30,06,03,18,14,,,,,,3.2,1.6,2.8*3F
$GPRMC,203342.004,A,1500.6221,S,07346.7762,W,4.51,187.29,180411,,,A*68
$GPGGA,203342.996,1500.6235,S,07346.7759,W,1,07,1.6,3150.4,M,24.4,M,,0000*6C
$GPGSA,M,3,22,16,30,06,03,18,14,,,,,,3.2,1.6,2.8*3F
$GPRMC,203342.996,A,1500.6235,S,07346.7759,W,5.14,166.05,180411,,,A*66
$GPGGA,203343.995,1500.6249,S,07346.7753,W,1,07,1.6,3151.6,M,24.4,M,,0000*6C
$GPGSA,M,3,22,16,30,06,03,18,14,,,,,,3.2,1.6,2.8*3F
$GPRMC,203343.995,A,1500.6249,S,07346.7753,W,4.65,177.07,180411,,,A*60
$GPGGA,203345.007,1500.6265,S,07346.7755,W,1,07,1.6,3151.2,M,24.4,M,,0000*64
$GPGSA,M,3,22,16,30,06,03,18,14,,,,,,3.2,1.6,2.8*3F
$GPGSV,3,1,12,22,69,135,38,16,68,279,32,30,61,335,35,06,49,184,31*7C
$GPGSV,3,2,12,03,40,201,31,18,33,140,34,14,25,044,33,19,15,218,*73
$GPGSV,3,3,12,21,07,126,,31,07,357,32,32,06,326,,11,01,264,*7F
$GPRMC,203345.007,A,1500.6265,S,07346.7755,W,6.09,185.01,180411,,,A*6F
$GPGGA,203345.996,1500.6284,S,07346.7754,W,1,07,1.6,3151.9,M,24.4,M,,0000*60
$GPGSA,M,3,22,16,30,06,03,18,14,,,,,,3.2,1.6,2.8*3F
$GPRMC,203345.996,A,1500.6284,S,07346.7754,W,7.10,180.94,180411,,,A*60
$GPGGA,203347.006,1500.6304,S,07346.7758,W,1,07,1.6,3151.1,M,24.4,M,,0000*6F
$GPGSA,M,3,22,16,30,06,03,18,14,,,,,,3.2,1.6,2.8*3F
$GPRMC,203347.006,A,1500.6304,S,07346.7758,W,6.62,182.80,180411,,,A*64
$GPGGA,203347.989,1500.6325,S,07346.7746,W,1,07,1.6,3154.0,M,24.4,M,,0000*69
$GPGSA,M,3,22,16,30,06,03,18,14,,,,,,3.2,1.6,2.8*3F
$GPRMC,203347.989,A,1500.6325,S,07346.7746,W,7.83,173.58,180411,,,A*63
$GPGGA,203349.010,1500.6346,S,07346.7746,W,1,07,1.6,3154.7,M,24.4,M,,0000*6C
$GPGSA,M,3,22,16,30,06,03,18,14,,,,,,3.2,1.6,2.8*3F
$GPRMC,203349.010,A,1500.6346,S,07346.7746,W,8.29,181.62,180411,,,A*6A
$GPGGA,203349.998,1500.6368,S,07346.7751,W,1,06,1.8,3154.2,M,24.4,M,,0000*65
$GPGSA,M,3,22,16,30,06,03,14,,,,,,,3.4,1.8,2.8*3E
$GPGSV,3,1,12,22,69,135,40,16,68,279,35,30,61,335,37,06,49,184,37*70
$GPGSV,3,2,12,03,40,201,36,18,33,140,,14,25,044,36,19,15,218,36*73
$GPGSV,3,3,12,21,07,126,,31,07,357,38,32,06,326,36,11,01,264,*70
$GPRMC,203349.998,A,1500.6368,S,07346.7751,W,8.01,183.10,180411,,,A*64
$GPGGA,203351.001,1500.6391,S,07346.7752,W,1,07,1.6,3154.1,M,24.4,M,,0000*6C
$GPGSA,M,3,22,16,30,06,03,18,14,,,,,,3.2,1.6,2.8*3F
$GPRMC,203351.001,A,1500.6391,S,07346.7752,W,8.41,179.18,180411,,,A*68
$GPGGA,203352.001,1500.6415,S,07346.7753,W,1,07,1.6,3153.9,M,24.4,M,,0000*6A
$GPGSA,M,3,22,16,30,06,03,18,14,,,,,,3.2,1.6,2.8*3F
$GPRMC,203352.001,A,1500.6415,S,07346.7753,W,8.09,184.83,180411,,,A*6D
$GPGGA,203352.999,1500.6436,S,07346.7754,W,1,07,1.6,3152.6,M,24.4,M,,0000*6A
$GPGSA,M,3,22,16,30,06,03,18,14,,,,,,3.2,1.6,2.8*3F
$GPRMC,203352.999,A,1500.6436,S,07346.7754,W,7.61,177.18,180411,,,A*6C
$GPGGA,203353.999,1500.6460,S,07346.7753,W,1,07,1.6,3152.0,M,24.4,M,,0000*69
$GPGSA,M,3,22,16,30,06,03,18,14,,,,,,3.2,1.6,2.8*3F
$GPRMC,203353.999,A,1500.6460,S,07346.7753,W,8.45,181.46,180411,,,A*62
$GPGGA,203354.999,1500.6481,S,07346.7756,W,1,07,1.6,3150.5,M,24.4,M,,0000*63
$GPGSA,M,3,22,16,30,06,03,18,14,,,,,,3.2,1.6,2.8*3F
$GPGSV,3,1,12,22,69,135,36,16,68,279,32,30,61,335,30,06,49,184,29*7E
$GPGSV,3,2,12,03,40,201,30,18,33,140,35,14,25,044,26,19,15,218,*77
$GPGSV,3,3,12,21,07,126,,31,07,357,37,32,06,326,,11,01,264,*7A
$GPRMC,203354.999,A,1500.6481,S,07346.7756,W,7.23,178.68,180411,,,A*6A
$GPGGA,203356.003,1500.6504,S,07346.7754,W,1,07,1.6,3149.6,M,24.4,M,,0000*6E
$GPGSA,M,3,22,16,30,06,03,18,14,,,,,,3.2,1.6,2.8*3F
$GPRMC,203356.003,A,1500.6504,S,07346.7754,W,7.73,176.74,180411,,,A*6A
$GPGGA,203356.998,1500.6524,S,07346.7756,W,1,07,1.6,3147.6,M,24.4,M,,0000*6B
$GPGSA,M,3,22,16,30,06,03,18,14,,,,,,3.2,1.6,2.8*3F
$GPRMC,203356.998,A,1500.6524,S,07346.7756,W,7.73,172.54,180411,,,A*67
$GPGGA,203358.000,1500.6541,S,07346.7757,W,1,07,1.6,3146.3,M,24.4,M,,0000*6B
$GPGSA,M,3,22,16,30,06,03,18,14,,,,,,3.2,1.6,2.8*3F
$GPRMC,203358.000,A,1500.6541,S,07346.7757,W,7.56,174.89,180411,,,A*62
$GPGGA,203359.001,1500.6565,S,07346.7763,W,1,07,1.6,3144.9,M,24.4,M,,0000*62
$GPGSA,M,3,22,16,30,06,03,18,14,,,,,,3.2,1.6,2.8*3F
$GPRMC,203359.001,A,1500.6565,S,07346.7763,W,8.15,180.59,180411,,,A*6D
$GPGGA,203400.003,1500.6589,S,07346.7764,W,1,07,1.6,3145.7,M,24.4,M,,0000*61
$GPGSA,M,3,22,16,30,06,03,18,14,,,,,,3.2,1.6,2.8*3F
$GPGSV,3,1,12,22,69,135,41,16,68,279,38,30,61,335,37,06,49,184,37*7C
$GPGSV,3,2,12,03,40,201,37,18,33,140,37,14,25,044,36,19,15,218,26*77
$GPGSV,3,3,12,21,07,126,,31,07,357,38,32,06,326,30,11,01,264,*76
$GPRMC,203400.003,A,1500.6589,S,07346.7764,W,8.16,178.31,180411,,,A*6B
$GPGGA,203400.996,1500.6612,S,07346.7762,W,1,07,1.6,3147.6,M,24.4,M,,0000*60
$GPGSA,M,3,22,16,30,06,03,18,14,,,,,,3.2,1.6,2.8*3F
$GPRMC,203400.996,A,1500.6612,S,07346.7762,W,7.71,176.67,180411,,,A*6A
$GPGGA,203402.002,1500.6636,S,07346.7761,W,1,07,1.6,3147.0,M,24.4,M,,0000*65
$GPGSA,M,3,22,16,30,06,03,18,14,,,,,,3.2,1.6,2.8*3F
$GPRMC,203402.002,A,1500.6636,S,07346.7761,W,8.34,183.08,180411,,,A*64
$GPGGA,203403.000,1500.6660,S,07346.7761,W,1,06,1.6,3147.7,M,24.4,M,,0000*63
$GPGSA,M,3,22,16,30,03,18,14,,,,,,,3.3,1.6,2.8*38
$GPRMC,203403.000,A,1500.6660,S,07346.7761,W,8.81,174.26,180411,,,A*6E
$GPGGA,203404.001,1500.6682,S,07346.7756,W,1,07,1.6,3147.8,M,24.4,M,,0000*63
$GPGSA,M,3,22,16,30,06,03,18,14,,,,,,3.3,1.6,2.8*3E
$GPRMC,203404.001,A,1500.6682,S,07346.7756,W,7.52,166.74,180411,,,A*65
$GPGGA,203404.994,1500.6706,S,07346.7754,W,1,07,1.6,3147.0,M,24.4,M,,0000*61
$GPGSA,M,3,22,16,30,06,03,18,14,,,,,,3.3,1.6,2.8*3E
$GPGSV,3,1,12,22,69,135,40,16,68,279,39,30,61,335,36,06,49,184,33*79
$GPGSV,3,2,12,03,40,201,34,18,33,140,36,14,25,044,36,19,15,218,34*76
$GPGSV,3,3,12,21,07,126,26,31,07,357,37,32,06,326,,11,01,264,*7E
$GPRMC,203404.994,A,1500.6706,S,07346.7754,W,8.34,172.39,180411,,,A*6C
$GPGGA,203406.009,1500.6729,S,07346.7749,W,1,07,1.6,3146.8,M,24.4,M,,0000*66
$GPGSA,M,3,22,16,30,06,03,18,14,,,,,,3.3,1.6,2.8*3E
$GPRMC,203406.009,A,1500.6729,S,07346.7749,W,8.07,167.13,180411,,,A*6E
$GPGGA,203406.990,1500.6752,S,07346.7745,W,1,05,3.1,3146.4,M,24.4,M,,0000*64
$GPGSA,M,3,22,16,06,03,18,,,,,,,,6.4,3.1,5.6*36
$GPRMC,203406.990,A,1500.6752,S,07346.7745,W,8.53,168.88,180411,,,A*6B
$GPGGA,203408.000,1500.6780,S,07346.7740,W,1,05,3.1,3146.0,M,24.4,M,,0000*64
$GPGSA,M,3,22,16,06,03,18,,,,,,,,6.4,3.1,5.6*36
$GPRMC,203408.000,A,1500.6780,S,07346.7740,W,10.26,170.47,180411,,,A*5E
$GPGGA,203409.000,1500.6811,S,07346.7726,W,1,05,3.1,3148.0,M,24.4,M,,0000*6C
$GPGSA,M,3,22,16,06,03,18,,,,,,,,6.4,3.1,5.6*36
$GPRMC,203409.000,A,1500.6811,S,07346.7726,W,11.58,167.12,180411,,,A*56
$GPGGA,203410.000,1500.6846,S,07346.7716,W,1,07,1.6,3148.8,M,24.4,M,,0000*6A
$GPGSA,M,3,22,16,06,03,18,14,30,,,,,,3.3,1.6,2.8*3E
$GPGSV,3,1,12,22,68,137,44,16,68,282,43,30,60,336,31,06,50,183,37*79
$GPGSV,3,2,12,03,41,201,30,18,33,141,35,14,25,044,35,19,15,218,*75
$GPGSV,3,3,12,32,07,326,27,21,07,125,28,31,07,358,43,11,01,263,*7C
$GPRMC,203410.000,A,1500.6846,S,07346.7716,W,11.13,163.38,180411,,,A*5C
$GPGGA,203411.000,1500.6888,S,07346.7704,W,1,07,1.6,3152.9,M,24.4,M,,0000*60
$GPGSA,M,3,22,16,06,03,18,14,30,,,,,,3.3,1.6,2.8*3E
$GPRMC,203411.000,A,1500.6888,S,07346.7704,W,11.71,161.39,180411,,,A*5B
$GPGGA,203412.000,1500.6926,S,07346.7691,W,1,06,2.2,3155.6,M,24.4,M,,0000*65
$GPGSA,M,3,22,16,06,18,14,30,,,,,,,4.5,2.2,3.9*3B
$GPRMC,203412.000,A,1500.6926,S,07346.7691,W,12.21,162.61,180411,,,A*58
$GPGGA,203413.000,1500.6961,S,07346.7678,W,1,07,1.6,3156.9,M,24.4,M,,0000*6A
$GPGSA,M,3,22,16,06,18,14,30,03,,,,,,3.3,1.6,2.8*3E
$GPRMC,203413.000,A,1500.6961,S,07346.7678,W,12.35,158.26,180411,,,A*52
$GPGGA,203414.000,1500.6994,S,07346.7661,W,1,06,1.8,3158.4,M,24.4,M,,0000*63
$GPGSA,M,3,22,16,06,14,30,03,,,,,,,3.4,1.8,2.8*3E
$GPRMC,203414.000,A,1500.6994,S,07346.7661,W,12.20,155.30,180411,,,A*59
$GPGGA,203415.000,1500.7025,S,07346.7642,W,1,07,1.6,3159.8,M,24.4,M,,0000*63
$GPGSA,M,3,22,16,06,18,14,30,03,,,,,,3.3,1.6,2.8*3E
$GPGSV,3,1,12,22,68,137,40,16,68,282,41,30,60,336,39,06,50,183,42*75
$GPGSV,3,2,12,03,41,201,38,18,33,141,30,14,25,044,38,19,15,218,30*76
$GPGSV,3,3,12,32,07,326,,21,07,125,20,31,07,358,41,11,01,263,*73
$GPRMC,203415.000,A,1500.7025,S,07346.7642,W,12.09,150.41,180411,,,A*53
$GPGGA,203416.000,1500.7053,S,07346.7621,W,1,07,1.6,3161.1,M,24.4,M,,0000*66
$GPGSA,M,3,22,16,06,18,14,30,03,,,,,,3.3,1.6,2.8*3E
$GPRMC,203416.000,A,1500.7053,S,07346.7621,W,11.97,144.33,180411,,,A*50
$GPGGA,203417.000,1500.7078,S,07346.7599,W,1,07,1.6,3162.2,M,24.4,M,,0000*6E
$GPGSA,M,3,22,16,06,18,14,30,03,,,,,,3.3,1.6,2.8*3E
$GPRMC,203417.000,A,1500.7078,S,07346.7599,W,11.81,139.21,180411,,,A*56
$GPGGA,203418.000,1500.7102,S,07346.7572,W,1,07,1.6,3162.5,M,24.4,M,,0000*6F
$GPGSA,M,3,22,16,06,18,14,30,03,,,,,,3.3,1.6,2.8*3E
$GPRMC,203418.000,A,1500.7102,S,07346.7572,W,11.66,133.42,180411,,,A*56
$GPGGA,203419.004,1500.7124,S,07346.7546,W,1,07,1.6,3162.9,M,24.4,M,,0000*65
$GPGSA,M,3,22,16,30,06,03,18,14,,,,,,3.3,1.6,2.8*3E
$GPRMC,203419.004,A,1500.7124,S,07346.7546,W,12.38,128.12,180411,,,A*57
$GPGGA,203419.995,1500.7144,S,07346.7517,W,1,06,2.4,3163.4,M,24.4,M,,0000*6A
$GPGSA,M,3,16,30,06,03,18,14,,,,,,,5.5,2.4,5.0*30
$GPGSV,3,1,12,22,68,137,,16,68,282,28,30,60,337,36,06,50,183,27*73
$GPGSV,3,2,12,03,41,201,31,18,33,141,31,14,25,045,30,19,15,218,*74
$GPGSV,3,3,12,32,07,326,33,21,07,125,,31,07,358,,11,01,263,*74
$GPRMC,203419.995,A,1500.7144,S,07346.7517,W,12.26,125.95,180411,,,A*59
$GPGGA,203421.007,1500.7165,S,07346.7489,W,0,00,,3163.8,M,24.4,M,,0000*45
$GPGSA,M,1,,,,,,,,,,,,,,,*12
$GPRMC,203421.007,V,1500.7165,S,07346.7489,W,,,180411,,,N*70
$GPGGA,203421.705,1500.7179,S,07346.7469,W,0,00,,3164.1,M,24.4,M,,0000*4D
$GPGSA,M,1,,,,,,,,,,,,,,,*12
$GPRMC,203421.705,V,1500.7179,S,07346.7469,W,,,180411,,,N*76
$GPGGA,203422.000,1500.7184,S,07346.7460,W,0,00,,3164.2,M,24.4,M,,0000*44
$GPGSA,M,1,,,,,,,,,,,,,,,*12
$GPRMC,203422.000,V,1500.7184,S,07346.7460,W,,,180411,,,N*7C
$GPGGA,203423.000,1500.7205,S,07346.7432,W,0,00,,3164.6,M,24.4,M,,0000*4C
$GPGSA,M,1,,,,,,,,,,,,,,,*12
$GPRMC,203423.000,V,1500.7205,S,07346.7432,W,,,180411,,,N*70
$GPGGA,203424.000,1500.7209,S,07346.7421,W,1,07,1.6,3166.1,M,24.4,M,,0000*6F
$GPGSA,M,3,03,22,18,14,16,30,06,,,,,,3.3,1.6,2.8*3E
$GPRMC,203424.000,A,1500.7209,S,07346.7421,W,7.29,130.78,180411,,,A*60
$GPGGA,203425.000,1500.7221,S,07346.7406,W,1,07,1.6,3166.4,M,24.4,M,,0000*64
$GPGSA,M,3,03,22,18,14,16,30,06,,,,,,3.3,1.6,2.8*3E
$GPGSV,3,1,12,22,68,137,39,16,68,282,37,30,60,337,44,06,50,183,41*72
$GPGSV,3,2,12,03,41,201,33,18,33,141,35,14,25,045,40,19,15,218,38*7E
$GPGSV,3,3,12,32,07,326,45,21,07,125,,31,07,358,28,11,01,263,*7F
$GPRMC,203425.000,A,1500.7221,S,07346.7406,W,7.10,139.15,180411,,,A*66
$GPGGA,203426.000,1500.7238,S,07346.7395,W,1,07,1.6,3166.7,M,24.4,M,,0000*61
$GPGSA,M,3,03,22,18,14,16,30,06,,,,,,3.3,1.6,2.8*3E
$GPRMC,203426.000,A,1500.7238,S,07346.7395,W,7.06,144.93,180411,,,A*63
$GPGGA,203427.000,1500.7255,S,07346.7385,W,1,07,1.6,3167.2,M,24.4,M,,0000*6E
$GPGSA,M,3,03,22,18,14,16,30,06,,,,,,3.3,1.6,2.8*3E
$GPRMC,203427.000,A,1500.7255,S,07346.7385,W,7.28,148.39,180411,,,A*68
$GPGGA,203428.000,1500.7272,S,07346.7374,W,1,07,1.6,3167.8,M,24.4,M,,0000*60
$GPGSA,M,3,03,22,18,14,16,30,06,,,,,,3.3,1.6,2.8*3E
$GPRMC,203428.000,A,1500.7272,S,07346.7374,W,7.12,147.92,180411,,,A*6B
$GPGGA,203429.000,1500.7286,S,07346.7364,W,1,07,1.6,3168.6,M,24.4,M,,0000*6A
$GPGSA,M,3,03,22,18,14,16,30,06,,,,,,3.3,1.6,2.8*3E
$GPRMC,203429.000,A,1500.7286,S,07346.7364,W,6.95,151.18,180411,,,A*6B
$GPGGA,203430.000,1500.7301,S,07346.7355,W,1,07,1.6,3169.1,M,24.4,M,,0000*68
$GPGSA,M,3,03,22,18,14,16,30,06,,,,,,3.3,1.6,2.9*3F
$GPGSV,3,1,12,22,68,137,37,16,68,282,41,30,60,337,42,06,50,183,39*74
$GPGSV,3,2,12,03,41,201,41,18,33,141,25,14,25,045,38,19,15,218,39*74
$GPGSV,3,3,12,32,07,326,40,21,07,125,,31,07,358,41,11,01,263,*75
$GPRMC,203430.000,A,1500.7301,S,07346.7355,W,6.80,148.42,180411,,,A*6C
$GPGGA,203431.000,1500.7315,S,07346.7347,W,1,07,1.6,3169.1,M,24.4,M,,0000*6F
$GPGSA,M,3,03,22,18,14,16,30,06,,,,,,3.3,1.6,2.9*3F
$GPRMC,203431.000,A,1500.7315,S,07346.7347,W,6.32,143.69,180411,,,A*60
$GPGGA,203432.000,1500.7327,S,07346.7337,W,1,07,1.6,3170.0,M,24.4,M,,0000*63
$GPGSA,M,3,03,22,18,14,16,30,06,,,,,,3.3,1.6,2.9*3F
$GPRMC,203432.000,A,1500.7327,S,07346.7337,W,6.39,139.49,180411,,,A*61
$GPGGA,203433.000,1500.7340,S,07346.7321,W,1,07,1.6,3170.3,M,24.4,M,,0000*67
$GPGSA,M,3,03,22,18,14,16,30,06,,,,,,3.3,1.6,2.9*3F
$GPRMC,203433.000,A,1500.7340,S,07346.7321,W,6.77,128.95,180411,,,A*6D
$GPGGA,203434.000,1500.7351,S,07346.7304,W,1,07,1.6,3170.3,M,24.4,M,,0000*67
$GPGSA,M,3,03,22,18,14,16,30,06,,,,,,3.3,1.6,2.9*3F
$GPRMC,203434.000,A,1500.7351,S,07346.7304,W,7.20,119.42,180411,,,A*66
$GPGGA,203435.000,1500.7360,S,07346.7284,W,1,06,1.6,3170.6,M,24.4,M,,0000*69
$GPGSA,M,3,22,16,30,03,18,14,,,,,,,3.3,1.6,2.9*39
$GPGSV,3,1,12,22,68,137,30,16,68,282,32,30,60,337,39,06,50,183,*71
$GPGSV,3,2,12,03,41,201,30,18,33,141,33,14,25,045,36,19,15,218,32*70
$GPGSV,3,3,12,32,07,326,35,21,07,125,,31,07,358,21,11,01,263,*71
$GPRMC,203435.000,A,1500.7360,S,07346.7284,W,7.75,109.36,180411,,,A*6E
$GPGGA,203435.995,1500.7366,S,07346.7262,W,1,05,2.6,3170.8,M,24.4,M,,0000*6C
$GPGSA,M,3,22,16,30,18,14,,,,,,,,5.1,2.6,4.4*36
$GPRMC,203435.995,A,1500.7366,S,07346.7262,W,8.06,105.48,180411,,,A*6B
$GPGGA,203437.008,1500.7365,S,07346.7236,W,1,07,1.6,3170.9,M,24.4,M,,0000*61
$GPGSA,M,3,22,16,30,06,03,18,14,,,,,,3.3,1.6,2.9*3F
$GPRMC,203437.008,A,1500.7365,S,07346.7236,W,9.35,84.90,180411,,,A*5A
$GPGGA,203437.989,1500.7361,S,07346.7213,W,1,07,1.6,3171.4,M,24.4,M,,0000*6E
$GPGSA,M,3,22,16,30,06,03,18,14,,,,,,3.3,1.6,2.9*3F
$GPRMC,203437.989,A,1500.7361,S,07346.7213,W,9.79,76.86,180411,,,A*5B
$GPGGA,203439.006,1500.7352,S,07346.7185,W,1,07,1.6,3171.7,M,24.4,M,,0000*61
$GPGSA,M,3,22,16,30,06,03,18,14,,,,,,3.3,1.6,2.9*3F
$GPRMC,203439.006,A,1500.7352,S,07346.7185,W,9.79,72.50,180411,,,A*58
$GPGGA,203440.003,1500.7343,S,07346.7160,W,1,07,1.6,3172.1,M,24.4,M,,0000*64
$GPGSA,M,3,22,16,30,06,03,18,14,,,,,,3.3,1.6,2.9*3F
$GPGSV,3,1,12,22,68,137,40,16,68,282,38,30,60,337,40,06,50,183,40*76
$GPGSV,3,2,12,03,41,201,40,18,33,141,39,14,25,045,35,19,15,218,37*7B
$GPGSV,3,3,12,32,07,326,16,21,07,125,,31,07,358,,11,01,263,*73
$GPRMC,203440.003,A,1500.7343,S,07346.7160,W,8.28,62.37,180411,,,A*5D
$GPGGA,203441.001,1500.7332,S,07346.7139,W,1,07,1.6,3172.4,M,24.4,M,,0000*68
$GPGSA,M,3,22,16,30,06,03,18,14,,,,,,3.3,1.6,2.9*3F
$GPRMC,203441.001,A,1500.7332,S,07346.7139,W,8.07,54.66,180411,,,A*58
$GPGGA,203442.000,1500.7320,S,07346.7117,W,1,07,1.6,3173.2,M,24.4,M,,0000*62
$GPGSA,M,3,22,16,30,06,03,18,14,,,,,,3.3,1.6,2.9*3F
$GPRMC,203442.000,A,1500.7320,S,07346.7117,W,8.68,57.76,180411,,,A*5E
$GPGGA,203442.998,1500.7306,S,07346.7093,W,1,05,2.6,3173.5,M,24.4,M,,0000*65
$GPGSA,M,3,16,30,03,18,14,,,,,,,,6.0,2.6,5.4*36
$GPRMC,203442.998,A,1500.7306,S,07346.7093,W,8.23,55.73,180411,,,A*57
$GPGGA,203444.001,1500.7294,S,07346.7068,W,1,07,1.6,3174.8,M,24.4,M,,0000*6F
$GPGSA,M,3,22,16,30,06,03,18,14,,,,,,3.3,1.6,2.9*3F
$GPRMC,203444.001,A,1500.7294,S,07346.7068,W,9.17,59.46,180411,,,A*5A
$GPGGA,203445.002,1500.7282,S,07346.7045,W,1,07,1.6,3175.2,M,24.4,M,,0000*6E
$GPGSA,M,3,22,16,30,06,03,18,14,,,,,,3.3,1.6,2.9*3F
$GPGSV,3,1,12,22,68,137,31,16,68,282,36,30,60,337,36,06,50,183,29*70
$GPGSV,3,2,12,03,41,201,27,18,33,141,29,14,25,045,27,19,15,218,29*77
$GPGSV,3,3,12,32,07,326,,21,07,125,,31,07,358,,11,01,263,*74
$GPRMC,203445.002,A,1500.7282,S,07346.7045,W,9.86,61.51,180411,,,A*55
$GPGGA,203446.002,1500.7272,S,07346.7022,W,1,07,1.6,3176.1,M,24.4,M,,0000*63
$GPGSA,M,3,22,16,30,06,03,18,14,,,,,,3.3,1.6,2.9*3F
$GPRMC,203446.002,A,1500.7272,S,07346.7022,W,8.44,68.20,180411,,,A*58
$GPGGA,203446.998,1500.7264,S,07346.6997,W,1,07,1.6,3176.4,M,24.4,M,,0000*6D
$GPGSA,M,3,22,16,30,06,03,18,14,,,,,,3.3,1.6,2.9*3F
$GPRMC,203446.998,A,1500.7264,S,07346.6997,W,9.12,71.77,180411,,,A*5B
$GPGGA,203447.997,1500.7253,S,07346.6972,W,1,07,1.6,3176.3,M,24.4,M,,0000*6B
$GPGSA,M,3,22,16,30,06,03,18,14,,,,,,3.3,1.6,2.9*3F
$GPRMC,203447.997,A,1500.7253,S,07346.6972,W,8.91,71.68,180411,,,A*5E
$GPGGA,203449.001,1500.7245,S,07346.6944,W,1,07,1.6,3177.2,M,24.4,M,,0000*61
$GPGSA,M,3,22,16,30,06,03,18,14,,,,,,3.3,1.6,2.9*3F
$GPRMC,203449.001,A,1500.7245,S,07346.6944,W,9.07,70.11,180411,,,A*55
$GPGGA,203450.000,1500.7235,S,07346.6917,W,1,07,1.6,3177.5,M,24.4,M,,0000*6E
$GPGSA,M,3,22,16,30,06,03,18,14,,,,,,3.3,1.6,2.9*3F
$GPGSV,3,1,12,22,68,137,36,16,68,282,38,30,60,337,39,06,50,183,33*7D
$GPGSV,3,2,12,03,41,201,39,18,33,141,38,14,25,045,35,19,15,218,37*74
$GPGSV,3,3,12,32,07,326,19,21,07,125,,31,07,358,,11,01,263,*7C
$GPRMC,203450.000,A,1500.7235,S,07346.6917,W,10.28,68.45,180411,,,A*60
$GPGGA,203451.001,1500.7223,S,07346.6891,W,1,07,1.6,3177.6,M,24.4,M,,0000*65
$GPGSA,M,3,22,16,30,06,03,18,14,,,,,,3.3,1.6,2.9*3F
$GPRMC,203451.001,A,1500.7223,S,07346.6891,W,10.35,60.37,180411,,,A*69
$GPGGA,203452.000,1500.7208,S,07346.6860,W,1,07,1.6,3177.4,M,24.4,M,,0000*62
$GPGSA,M,3,22,16,30,06,03,18,14,,,,,,3.3,1.6,2.9*3F
$GPRMC,203452.000,A,1500.7208,S,07346.6860,W,11.24,53.95,180411,,,A*65
$GPGGA,203452.993,1500.7191,S,07346.6829,W,1,07,1.6,3179.1,M,24.4,M,,0000*64
$GPGSA,M,3,22,16,30,06,03,18,14,,,,,,3.3,1.6,2.9*3F
$GPRMC,203452.993,A,1500.7191,S,07346.6829,W,11.31,57.97,180411,,,A*6A
$GPGGA,203454.008,1500.7172,S,07346.6805,W,1,07,1.6,3179.5,M,24.4,M,,0000*6E
$GPGSA,M,3,22,16,30,06,03,18,14,,,,,,3.3,1.6,2.9*3F
$GPRMC,203454.008,A,1500.7172,S,07346.6805,W,10.21,48.24,180411,,,A*62
$GPGGA,203455.000,1500.7151,S,07346.6780,W,1,07,1.6,3179.6,M,24.4,M,,0000*67
$GPGSA,M,3,22,16,30,06,03,18,14,,,,,,3.3,1.6,2.9*3F
$GPGSV,3,1,12,22,68,137,38,16,68,282,40,30,60,337,39,06,50,183,37*78
$GPGSV,3,2,12,03,41,201,33,18,33,141,32,14,25,045,32,19,15,218,39*7D
$GPGSV,3,3,12,32,07,326,,21,07,125,,31,07,358,,11,01,263,*74
$GPRMC,203455.000,A,1500.7151,S,07346.6780,W,11.46,51.49,180411,,,A*6B
$GPGGA,203456.001,1500.7133,S,07346.6754,W,1,06,2.5,3178.6,M,24.4,M,,0000*68
$GPGSA,M,3,16,30,06,03,18,14,,,,,,,5.7,2.5,5.1*32
$GPRMC,203456.001,A,1500.7133,S,07346.6754,W,11.55,57.47,180411,,,A*6E
$GPGGA,203457.002,1500.7115,S,07346.6723,W,1,07,1.6,3179.1,M,24.4,M,,0000*69
$GPGSA,M,3,22,16,30,06,03,18,14,,,,,,3.3,1.6,2.9*3F
$GPRMC,203457.002,A,1500.7115,S,07346.6723,W,12.51,60.49,180411,,,A*65
$GPGGA,203458.002,1500.7098,S,07346.6691,W,1,06,2.2,3179.6,M,24.4,M,,0000*6B
$GPGSA,M,3,22,16,30,06,18,14,,,,,,,4.5,2.2,3.9*3B
$GPRMC,203458.002,A,1500.7098,S,07346.6691,W,11.59,57.25,180411,,,A*63
$GPGGA,203458.998,1500.7085,S,07346.6662,W,1,07,1.6,3179.8,M,24.4,M,,0000*69
$GPGSA,M,3,22,16,30,06,03,18,14,,,,,,3.3,1.6,2.9*3F
$GPRMC,203458.998,A,1500.7085,S,07346.6662,W,10.81,67.24,180411,,,A*6F
$GPGGA,203459.998,1500.7077,S,07346.6631,W,1,07,1.6,3179.9,M,24.4,M,,0000*62
$GPGSA,M,3,22,16,30,06,03,18,14,,,,,,3.3,1.6,2.9*3F
$GPGSV,3,1,12,22,68,137,32,16,68,282,33,30,60,337,37,06,50,183,36*79
$GPGSV,3,2,12,03,41,201,36,18,33,141,33,14,25,045,32,19,15,218,34*74
$GPGSV,3,3,12,32,07,326,,21,07,125,,31,07,358,,11,01,263,*74
$GPRMC,203459.998,A,1500.7077,S,07346.6631,W,10.26,75.74,180411,,,A*6E
$GPGGA,203501.000,1500.7075,S,07346.6606,W,1,07,1.6,3178.9,M,24.4,M,,0000*61
$GPGSA,M,3,22,16,30,06,03,18,14,,,,,,3.3,1.6,2.9*3F
$GPRMC,203501.000,A,1500.7075,S,07346.6606,W,9.57,83.01,180411,,,A*59
$GPGGA,203502.001,1500.7073,S,07346.6567,W,1,06,2.0,3180.8,M,24.4,M,,0000*63
$GPGSA,M,3,22,16,30,06,03,18,,,,,,,4.7,2.0,4.2*31
$GPRMC,203502.001,A,1500.7073,S,07346.6567,W,10.64,86.24,180411,,,A*63
$GPGGA,203502.999,1500.7071,S,07346.6543,W,1,07,1.6,3179.4,M,24.4,M,,0000*61
$GPGSA,M,3,22,16,30,06,03,18,14,,,,,,3.3,1.6,2.9*3F
$GPRMC,203502.999,A,1500.7071,S,07346.6543,W,9.46,92.73,180411,,,A*50
$GPGGA,203504.000,1500.7073,S,07346.6517,W,1,07,1.6,3180.0,M,24.4,M,,0000*6F
$GPGSA,M,3,22,16,30,06,03,18,14,,,,,,3.3,1.6,2.9*3F
$GPRMC,203504.000,A,1500.7073,S,07346.6517,W,9.20,98.61,180411,,,A*55
$GPGGA,203504.999,1500.7077,S,07346.6495,W,1,07,1.6,3179.2,M,24.4,M,,0000*6D
$GPGSA,M,3,22,16,30,06,03,18,14,,,,,,3.3,1.6,2.9*3F
$GPGSV,3,1,12,22,68,137,36,16,68,282,37,30,60,337,40,06,50,183,38*77
$GPGSV,3,2,12,03,41,201,32,18,33,141,36,14,25,045,37,19,15,218,36*72
$GPGSV,3,3,12,32,07,326,,21,07,125,,31,07,358,,11,01,263,*74
$GPRMC,203504.999,A,1500.7077,S,07346.6495,W,8.38,113.90,180411,,,A*67
$GPGGA,203506.000,1500.7089,S,07346.6476,W,1,06,1.8,3179.2,M,24.4,M,,0000*65
$GPGSA,M,3,22,16,30,06,03,14,,,,,,,3.4,1.8,2.9*3F
$GPRMC,203506.000,A,1500.7089,S,07346.6476,W,8.11,132.55,180411,,,A*61
$GPGGA,203507.000,1500.7107,S,07346.6464,W,1,07,1.6,3180.3,M,24.4,M,,0000*68
$GPGSA,M,3,22,16,30,06,03,18,14,,,,,,3.3,1.6,2.9*3F
$GPRMC,203507.000,A,1500.7107,S,07346.6464,W,8.48,154.17,180411,,,A*6E
$GPGGA,203508.001,1500.7130,S,07346.6458,W,1,07,1.6,3178.7,M,24.4,M,,0000*6E
$GPGSA,M,3,22,16,30,06,03,18,14,,,,,,3.3,1.6,2.9*3F
$GPRMC,203508.001,A,1500.7130,S,07346.6458,W,8.69,163.00,180411,,,A*6A
$GPGGA,203509.001,1500.7153,S,07346.6462,W,1,07,1.6,3178.3,M,24.4,M,,0000*67
$GPGSA,M,3,22,16,30,06,03,18,14,,,,,,3.3,1.6,2.9*3F
$GPRMC,203509.001,A,1500.7153,S,07346.6462,W,9.03,173.30,180411,,,A*68
$GPGGA,203509.995,1500.7183,S,07346.6471,W,1,07,1.6,3178.1,M,24.4,M,,0000*6E
$GPGSA,M,3,22,16,30,06,03,18,14,,,,,,3.3,1.6,2.9*3F
$GPGSV,3,1,12,22,68,137,39,16,68,282,38,30,60,337,40,06,50,183,35*7A
$GPGSV,3,2,12,03,41,201,37,18,33,141,38,14,25,045,41,19,15,218,27*78
$GPGSV,3,3,12,32,07,326,28,21,07,125,,31,07,358,37,11,01,263,*7A
$GPRMC,203509.995,A,1500.7183,S,07346.6471,W,10.24,183.61,180411,,,A*55
$GPGGA,203511.008,1500.7210,S,07346.6475,W,1,07,1.6,3177.7,M,24.4,M,,0000*6E
$GPGSA,M,3,22,16,30,06,03,18,14,,,,,,3.3,1.6,2.9*3F
$GPRMC,203511.008,A,1500.7210,S,07346.6475,W,9.23,186.31,180411,,,A*63
$GPGGA,203511.992,1500.7236,S,07346.6477,W,1,07,1.6,3178.1,M,24.4,M,,0000*6B
$GPGSA,M,3,22,16,30,06,03,18,14,,,,,,3.3,1.6,2.9*3F
$GPRMC,203511.992,A,1500.7236,S,07346.6477,W,8.20,189.66,180411,,,A*60
$GPGGA,203513.007,1500.7255,S,07346.6500,W,1,07,1.6,3178.7,M,24.4,M,,0000*6E
$GPGSA,M,3,22,16,30,06,03,18,14,,,,,,3.3,1.6,2.9*3F
$GPRMC,203513.007,A,1500.7255,S,07346.6500,W,8.53,214.94,180411,,,A*6D
$GPGGA,203513.989,1500.7273,S,07346.6538,W,1,07,1.6,3179.9,M,24.4,M,,0000*61
$GPGSA,M,3,22,16,30,06,03,18,14,,,,,,3.3,1.6,2.9*3F
$GPRMC,203513.989,A,1500.7273,S,07346.6538,W,9.66,218.21,180411,,,A*68
$GPGGA,203515.010,1500.7297,S,07346.6555,W,1,07,1.6,3181.2,M,24.4,M,,0000*63
$GPGSA,M,3,22,16,30,06,03,18,14,,,,,,3.3,1.6,2.9*3F
$GPGSV,3,1,12,22,68,137,36,16,68,282,36,30,60,337,35,06,50,183,33*7F
$GPGSV,3,2,12,03,41,201,30,18,33,141,34,14,25,045,36,19,15,218,*76
$GPGSV,3,3,12,32,07,326,34,21,07,125,,31,07,358,32,11,01,263,*72
$GPRMC,203515.010,A,1500.7297,S,07346.6555,W,8.52,208.63,180411,,,A*67
$GPGGA,203515.992,1500.7319,S,07346.6572,W,1,07,1.6,3181.5,M,24.4,M,,0000*65
$GPGSA,M,3,22,16,30,06,03,18,14,,,,,,3.3,1.6,2.9*3F
$GPRMC,203515.992,A,1500.7319,S,07346.6572,W,9.03,198.99,180411,,,A*6C
$GPGGA,203517.006,1500.7339,S,07346.6586,W,1,07,1.6,3180.2,M,24.4,M,,0000*6C
$GPGSA,M,3,22,16,30,06,03,18,14,,,,,,3.3,1.6,2.9*3F
$GPRMC,203517.006,A,1500.7339,S,07346.6586,W,8.42,200.53,180411,,,A*63
$GPGGA,203517.996,1500.7365,S,07346.6591,W,1,07,1.6,3180.7,M,24.4,M,,0000*66
$GPGSA,M,3,22,16,30,06,03,18,14,,,,,,3.3,1.6,2.9*3F
$GPRMC,203517.996,A,1500.7365,S,07346.6591,W,9.64,189.87,180411,,,A*62
$GPGGA,203519.004,1500.7391,S,07346.6593,W,1,07,1.6,3180.2,M,24.4,M,,0000*66
$GPGSA,M,3,22,16,30,06,03,18,14,,,,,,3.3,1.6,2.9*3F
$GPRMC,203519.004,A,1500.7391,S,07346.6593,W,9.23,183.51,180411,,,A*65
$GPGGA,203520.002,1500.7417,S,07346.6606,W,1,07,1.6,3180.7,M,24.4,M,,0000*69
$GPGSA,M,3,22,16,30,06,03,18,14,,,,,,3.3,1.6,2.9*3F
$GPGSV,3,1,12,22,68,137,40,16,68,282,36,30,60,337,38,06,50,183,37*77
$GPGSV,3,2,12,03,41,201,31,18,33,141,36,14,25,045,35,19,15,218,*76
$GPGSV,3,3,12,32,07,326,37,21,07,125,,31,07,358,40,11,01,263,*74
$GPRMC,203520.002,A,1500.7417,S,07346.6606,W,9.16,192.48,180411,,,A*61
$GPGGA,203521.001,1500.7443,S,07346.6614,W,1,07,1.6,3179.2,M,24.4,M,,0000*6A
$GPGSA,M,3,22,16,30,06,03,18,14,,,,,,3.3,1.6,2.9*3F
$GPRMC,203521.001,A,1500.7443,S,07346.6614,W,9.23,186.82,180411,,,A*64
$GPGGA,203522.002,1500.7467,S,07346.6612,W,1,07,1.6,3180.0,M,24.4,M,,0000*6E
$GPGSA,M,3,22,16,30,06,03,18,14,,,,,,3.3,1.6,2.9*3F
$GPRMC,203522.002,A,1500.7467,S,07346.6612,W,9.31,185.80,180411,,,A*66
$GPGGA,203522.999,1500.7490,S,07346.6612,W,1,06,2.0,3180.7,M,24.4,M,,0000*6E
$GPGSA,M,3,22,16,30,06,03,18,,,,,,,4.6,2.0,4.2*30
$GPRMC,203522.999,A,1500.7490,S,07346.6612,W,8.66,179.55,180411,,,A*6D
$GPGGA,203524.001,1500.7512,S,07346.6613,W,1,07,1.6,3179.9,M,24.4,M,,0000*66
$GPGSA,M,3,22,16,30,06,03,18,14,,,,,,3.3,1.6,2.9*3F
$GPRMC,203524.001,A,1500.7512,S,07346.6613,W,8.35,189.56,180411,,,A*63
$GPGGA,203525.000,1500.7534,S,07346.6621,W,1,07,1.6,3177.9,M,24.4,M,,0000*6D
$GPGSA,M,3,22,16,30,06,03,18,14,,,,,,3.3,1.6,2.9*3F
$GPGSV,3,1,12,22,68,137,35,16,68,282,30,30,60,337,33,06,50,183,32*7D
$GPGSV,3,2,12,03,41,201,22,18,33,141,31,14,25,045,31,19,15,218,*77
$GPGSV,3,3,12,32,07,326,30,21,07,125,,31,07,358,,11,01,263,*77
$GPRMC,203525.000,A,1500.7534,S,07346.6621,W,8.70,187.95,180411,,,A*66
$GPGGA,203526.000,1500.7561,S,07346.6623,W,1,07,1.6,3176.7,M,24.4,M,,0000*63
$GPGSA,M,3,22,16,30,06,03,18,14,,,,,,3.3,1.6,2.9*3F
$GPRMC,203526.000,A,1500.7561,S,07346.6623,W,8.99,185.90,180411,,,A*67
$GPGGA,203526.998,1500.7584,S,07346.6627,W,1,06,2.2,3176.1,M,24.4,M,,0000*64
$GPGSA,M,3,22,16,30,06,18,14,,,,,,,4.5,2.2,4.0*35
$GPRMC,203526.998,A,1500.7584,S,07346.6627,W,9.26,184.78,180411,,,A*62
$GPGGA,203528.001,1500.7611,S,07346.6629,W,1,07,1.6,3174.7,M,24.4,M,,0000*60
$GPGSA,M,3,22,16,30,06,03,18,14,,,,,,3.3,1.6,2.9*3F
$GPRMC,203528.001,A,1500.7611,S,07346.6629,W,9.36,190.83,180411,,,A*64
$GPGGA,203529.001,1500.7637,S,07346.6633,W,1,06,2.2,3174.8,M,24.4,M,,0000*67
$GPGSA,M,3,22,16,30,06,18,14,,,,,,,4.5,2.2,4.0*35
$GPRMC,203529.001,A,1500.7637,S,07346.6633,W,9.39,182.95,180411,,,A*61
$GPGGA,203530.002,1500.7668,S,07346.6639,W,1,07,1.6,3175.9,M,24.4,M,,0000*6A
$GPGSA,M,3,22,16,30,06,03,18,14,,,,,,3.3,1.6,2.9*3F
$GPGSV,3,1,12,22,68,137,41,16,68,282,38,30,60,337,37,06,50,183,37*77
$GPGSV,3,2,12,03,41,201,27,18,33,141,39,14,25,045,36,19,15,218,28*77
$GPGSV,3,3,12,32,07,326,31,21,07,125,,31,07,358,38,11,01,263,*7D
$GPRMC,203530.002,A,1500.7668,S,07346.6639,W,9.44,187.17,180411,,,A*6F
$GPGGA,203530.997,1500.7690,S,07346.6648,W,1,06,2.2,3173.9,M,24.4,M,,0000*6E
$GPGSA,M,3,22,16,30,06,18,14,,,,,,,4.6,2.2,4.0*36
$GPRMC,203530.997,A,1500.7690,S,07346.6648,W,8.86,183.16,180411,,,A*61
$GPGGA,203532.003,1500.7717,S,07346.6656,W,1,07,1.6,3174.0,M,24.4,M,,0000*61
$GPGSA,M,3,22,16,30,06,03,18,14,,,,,,3.3,1.6,2.9*3F
$GPRMC,203532.003,A,1500.7717,S,07346.6656,W,9.50,186.07,180411,,,A*69
$GPGGA,203532.992,1500.7741,S,07346.6667,W,1,07,1.6,3173.0,M,24.4,M,,0000*66
$GPGSA,M,3,22,16,30,06,03,18,14,,,,,,3.3,1.6,2.9*3F
$GPRMC,203532.992,A,1500.7741,S,07346.6667,W,8.90,187.14,180411,,,A*67
$GPGGA,203534.005,1500.7769,S,07346.6677,W,1,07,1.6,3171.2,M,24.4,M,,0000*6C
$GPGSA,M,3,22,16,30,06,03,18,14,,,,,,3.3,1.6,2.9*3F
$GPRMC,203534.005,A,1500.7769,S,07346.6677,W,9.72,186.79,180411,,,A*6A
$GPGGA,203535.002,1500.7799,S,07346.6687,W,1,07,1.6,3171.8,M,24.4,M,,0000*60
$GPGSA,M,3,22,16,30,06,03,18,14,,,,,,3.3,1.6,2.9*3F
$GPGSV,3,1,12,22,68,137,40,16,68,282,38,30,60,337,38,06,50,183,37*79
$GPGSV,3,2,12,03,41,201,30,18,33,141,37,14,25,045,36,19,15,218,21*76
$GPGSV,3,3,12,32,07,326,,21,07,125,,31,07,358,35,11,01,263,*72
$GPRMC,203535.002,A,1500.7799,S,07346.6687,W,9.16,189.95,180411,,,A*63
$GPGGA,203535.998,1500.7826,S,07346.6696,W,1,07,1.6,3169.5,M,24.4,M,,0000*65
$GPGSA,M,3,22,16,30,06,03,18,14,,,,,,3.3,1.6,2.9*3F
$GPRMC,203535.998,A,1500.7826,S,07346.6696,W,9.33,182.32,180411,,,A*63
$GPGGA,203537.003,1500.7848,S,07346.6708,W,1,07,1.6,3168.7,M,24.4,M,,0000*61
$GPGSA,M,3,22,16,30,06,03,18,14,,,,,,3.3,1.6,2.9*3F
$GPRMC,203537.003,A,1500.7848,S,07346.6708,W,9.51,186.84,180411,,,A*69
$GPGGA,203537.997,1500.7876,S,07346.6710,W,1,07,1.6,3167.6,M,24.4,M,,0000*6F
$GPGSA,M,3,22,16,30,06,03,18,14,,,,,,3.3,1.6,2.9*3F
$GPRMC,203537.997,A,1500.7876,S,07346.6710,W,9.99,182.62,180411,,,A*61
$GPGGA,203539.001,1500.7896,S,07346.6715,W,1,06,2.0,3168.6,M,24.4,M,,0000*67
$GPGSA,M,3,22,16,30,06,03,18,,,,,,,4.6,2.0,4.2*30
$GPRMC,203539.001,A,1500.7896,S,07346.6715,W,9.81,176.41,180411,,,A*61
$GPGGA,203540.003,1500.7922,S,07346.6709,W,1,06,2.2,3168.6,M,24.4,M,,0000*6A
$GPGSA,M,3,22,16,30,06,18,14,,,,,,,4.6,2.2,4.0*36
$GPGSV,3,1,12,22,68,137,36,16,68,282,34,30,60,337,30,06,50,183,28*72
$GPGSV,3,2,12,03,41,201,,18,33,141,33,14,25,045,32,19,15,218,*76
$GPGSV,3,3,12,32,07,326,,21,07,125,,31,07,358,29,11,01,263,*7F
$GPRMC,203540.003,A,1500.7922,S,07346.6709,W,9.53,170.32,180411,,,A*63
$GPGGA,203540.999,1500.7948,S,07346.6702,W,1,07,1.6,3168.9,M,24.4,M,,0000*6E
$GPGSA,M,3,22,16,30,06,03,18,14,,,,,,3.3,1.6,2.9*3F
$GPRMC,203540.999,A,1500.7948,S,07346.6702,W,9.38,171.36,180411,,,A*66
$GPGGA,203542.002,1500.7977,S,07346.6701,W,1,07,1.6,3169.1,M,24.4,M,,0000*61
$GPGSA,M,3,22,16,30,06,03,18,14,,,,,,3.3,1.6,2.9*3F
$GPRMC,203542.002,A,1500.7977,S,07346.6701,W,9.12,164.41,180411,,,A*6C
$GPGGA,203543.001,1500.8004,S,07346.6697,W,1,07,1.6,3167.7,M,24.4,M,,0000*67
$GPGSA,M,3,22,16,30,06,03,18,14,,,,,,3.3,1.6,2.9*3F
$GPRMC,203543.001,A,1500.8004,S,07346.6697,W,9.11,162.30,180411,,,A*61
$GPGGA,203543.997,1500.8025,S,07346.6687,W,1,07,1.6,3167.8,M,24.4,M,,0000*6C
$GPGSA,M,3,22,16,30,06,03,18,14,,,,,,3.3,1.6,2.9*3F
$GPRMC,203543.997,A,1500.8025,S,07346.6687,W,8.82,163.44,180411,,,A*6C
$GPGGA,203544.999,1500.8044,S,07346.6682,W,1,07,1.6,3167.5,M,24.4,M,,0000*6A
$GPGSA,M,3,22,16,30,06,03,18,14,,,,,,3.3,1.6,2.9*3F
$GPGSV,3,1,12,22,68,137,36,16,68,282,40,30,60,337,37,06,50,183,38*77
$GPGSV,3,2,12,03,41,201,37,18,33,141,30,14,25,045,37,19,15,218,*74
$GPGSV,3,3,12,32,07,326,37,21,07,125,,31,07,358,39,11,01,263,*7A
$GPRMC,203544.999,A,1500.8044,S,07346.6682,W,8.55,162.64,180411,,,A*6E
$GPGGA,203546.004,1500.8063,S,07346.6668,W,1,06,1.8,3170.4,M,24.4,M,,0000*6C
$GPGSA,M,3,22,16,30,06,03,14,,,,,,,3.5,1.8,2.9*3E
$GPRMC,203546.004,A,1500.8063,S,07346.6668,W,8.86,161.67,180411,,,A*6E
$GPGGA,203546.998,1500.8092,S,07346.6660,W,1,07,1.6,3171.5,M,24.4,M,,0000*69
$GPGSA,M,3,22,16,30,06,03,18,14,,,,,,3.3,1.6,2.9*3F
$GPRMC,203546.998,A,1500.8092,S,07346.6660,W,8.72,158.69,180411,,,A*6B
$GPGGA,203548.000,1500.8115,S,07346.6654,W,1,07,1.6,3170.5,M,24.4,M,,0000*67
$GPGSA,M,3,22,16,30,06,03,18,14,,,,,,3.3,1.6,2.9*3F
$GPRMC,203548.000,A,1500.8115,S,07346.6654,W,8.17,156.50,180411,,,A*63
$GPGGA,203549.000,1500.8133,S,07346.6636,W,1,07,1.6,3173.7,M,24.4,M,,0000*67
$GPGSA,M,3,22,16,30,06,03,18,14,,,,,,3.3,1.6,2.9*3F
$GPRMC,203549.000,A,1500.8133,S,07346.6636,W,7.90,151.81,180411,,,A*69
$GPGGA,203549.991,1500.8151,S,07346.6614,W,1,06,1.8,3177.2,M,24.4,M,,0000*6C
$GPGSA,M,3,22,16,30,06,03,14,,,,,,,3.5,1.8,2.9*3E
$GPGSV,3,1,12,22,68,137,36,16,68,282,39,30,60,337,39,06,50,183,39*76
$GPGSV,3,2,12,03,41,201,38,18,33,141,,14,25,045,36,19,15,218,27*7C
$GPGSV,3,3,12,32,07,326,36,21,07,125,,31,07,358,39,11,01,263,*7B
$GPRMC,203549.991,A,1500.8151,S,07346.6614,W,8.11,158.01,180411,,,A*6B
$GPGGA,203551.006,1500.8175,S,07346.6602,W,1,05,3.2,3177.7,M,24.4,M,,0000*6D
$GPGSA,M,3,22,16,30,06,03,,,,,,,,8.1,3.2,7.5*35
$GPRMC,203551.006,A,1500.8175,S,07346.6602,W,9.53,154.59,180411,,,A*62
$GPGGA,203551.997,1500.8200,S,07346.6596,W,1,05,3.2,3176.6,M,24.4,M,,0000*63
$GPGSA,M,3,22,16,30,06,03,,,,,,,,8.1,3.2,7.5*35
$GPRMC,203551.997,A,1500.8200,S,07346.6596,W,8.65,160.93,180411,,,A*69
$GPGGA,203553.006,1500.8219,S,07346.6584,W,1,07,1.6,3177.1,M,24.4,M,,0000*69
$GPGSA,M,3,22,16,30,06,03,18,14,,,,,,3.4,1.6,2.9*38
$GPRMC,203553.006,A,1500.8219,S,07346.6584,W,7.96,151.17,180411,,,A*6C
$GPGGA,203553.989,1500.8241,S,07346.6576,W,1,07,1.6,3176.6,M,24.4,M,,0000*61
$GPGSA,M,3,22,16,30,06,03,18,14,,,,,,3.4,1.6,2.9*38
$GPRMC,203553.989,A,1500.8241,S,07346.6576,W,9.09,164.12,180411,,,A*69
$GPGGA,203555.013,1500.8265,S,07346.6566,W,1,07,1.6,3177.2,M,24.4,M,,0000*6F
$GPGSA,M,3,22,16,30,06,03,18,14,,,,,,3.4,1.6,2.9*38
$GPGSV,3,1,12,22,68,137,30,16,68,282,36,30,60,337,32,06,50,183,35*78
$GPGSV,3,2,12,03,41,201,30,18,33,141,18,14,25,045,28,19,15,218,*77
$GPGSV,3,3,12,32,07,326,29,21,07,125,,31,07,358,26,11,01,263,*7B
$GPRMC,203555.013,A,1500.8265,S,07346.6566,W,8.58,163.51,180411,,,A*67
$GPGGA,203555.992,1500.8287,S,07346.6561,W,1,06,1.8,3176.9,M,24.4,M,,0000*61
$GPGSA,M,3,22,16,30,06,03,14,,,,,,,3.5,1.8,2.9*3E
$GPRMC,203555.992,A,1500.8287,S,07346.6561,W,8.59,162.46,180411,,,A*6A
$GPGGA,203557.007,1500.8313,S,07346.6557,W,1,07,1.6,3176.4,M,24.4,M,,0000*6D
$GPGSA,M,3,22,16,30,06,03,18,14,,,,,,3.4,1.6,2.9*38
$GPRMC,203557.007,A,1500.8313,S,07346.6557,W,9.78,164.62,180411,,,A*66
$GPGGA,203557.988,1500.8336,S,07346.6551,W,1,07,1.6,3177.1,M,24.4,M,,0000*66
$GPGSA,M,3,22,16,30,06,03,18,14,,,,,,3.4,1.6,2.9*38
$GPRMC,203557.988,A,1500.8336,S,07346.6551,W,8.29,164.67,180411,,,A*69
$GPGGA,203559.012,1500.8358,S,07346.6556,W,1,07,1.6,3174.7,M,24.4,M,,0000*68
$GPGSA,M,3,22,16,30,06,03,18,14,,,,,,3.4,1.6,2.9*38
$GPRMC,203559.012,A,1500.8358,S,07346.6556,W,8.81,174.17,180411,,,A*66
$GPGGA,203600.000,1500.8376,S,07346.6563,W,1,07,1.6,3174.2,M,24.4,M,,0000*6B
$GPGSA,M,3,22,16,30,06,03,18,14,,,,,,3.4,1.6,2.9*38
$GPGSV,3,1,12,22,68,137,40,16,68,282,33,30,60,337,36,06,50,183,35*7E
$GPGSV,3,2,12,03,41,201,31,18,33,141,37,14,25,045,36,19,15,218,32*75
$GPGSV,3,3,12,32,07,326,29,21,07,125,,31,07,358,38,11,01,263,*74
$GPRMC,203600.000,A,1500.8376,S,07346.6563,W,8.72,190.75,180411,,,A*62
$GPGGA,203600.998,1500.8401,S,07346.6572,W,1,07,1.6,3173.9,M,24.4,M,,0000*68
$GPGSA,M,3,22,16,30,06,03,18,14,,,,,,3.4,1.6,2.9*38
$GPRMC,203600.998,A,1500.8401,S,07346.6572,W,9.07,198.48,180411,,,A*68
$GPGGA,203602.002,1500.8424,S,07346.6582,W,1,07,1.6,3174.8,M,24.4,M,,0000*6E
$GPGSA,M,3,22,16,30,06,03,18,14,,,,,,3.4,1.6,2.9*38
$GPRMC,203602.002,A,1500.8424,S,07346.6582,W,8.20,202.59,180411,,,A*6C
$GPGGA,203602.998,1500.8443,S,07346.6592,W,1,07,1.6,3175.9,M,24.4,M,,0000*64
$GPGSA,M,3,22,16,30,06,03,18,14,,,,,,3.4,1.6,2.9*38
$GPRMC,203602.998,A,1500.8443,S,07346.6592,W,8.44,198.31,180411,,,A*6A
$GPGGA,203603.999,1500.8462,S,07346.6605,W,1,06,2.0,3175.5,M,24.4,M,,0000*62
$GPGSA,M,3,22,16,30,06,03,18,,,,,,,4.6,2.0,4.1*33
$GPRMC,203603.999,A,1500.8462,S,07346.6605,W,9.22,199.98,180411,,,A*67
$GPGGA,203604.999,1500.8485,S,07346.6607,W,1,06,2.3,3174.8,M,24.4,M,,0000*61
$GPGSA,M,3,22,16,30,06,18,14,,,,,,,4.6,2.3,4.0*37
$GPGSV,3,1,12,22,68,137,36,16,68,282,29,30,60,337,32,06,50,183,33*76
$GPGSV,3,2,12,03,41,201,,18,33,141,32,14,25,045,31,19,15,218,*74
$GPGSV,3,3,12,32,07,326,27,21,07,125,,31,07,358,33,11,01,263,*71
$GPRMC,203604.999,A,1500.8485,S,07346.6607,W,8.76,190.79,180411,,,A*6D
$GPGGA,203606.001,1500.8507,S,07346.6611,W,1,07,1.6,3174.0,M,24.4,M,,0000*68
$GPGSA,M,3,22,16,30,06,03,18,14,,,,,,3.4,1.6,2.9*38
$GPRMC,203606.001,A,1500.8507,S,07346.6611,W,8.18,188.09,180411,,,A*6D
$GPGGA,203607.002,1500.8529,S,07346.6622,W,1,07,1.6,3172.1,M,24.4,M,,0000*61
$GPGSA,M,3,22,16,30,06,03,18,14,,,,,,3.4,1.6,2.9*38
$GPRMC,203607.002,A,1500.8529,S,07346.6622,W,8.67,192.56,180411,,,A*6A
$GPGGA,203608.000,1500.8554,S,07346.6626,W,1,07,1.6,3171.1,M,24.4,M,,0000*61
$GPGSA,M,3,22,16,30,06,03,18,14,,,,,,3.4,1.6,2.9*38
$GPRMC,203608.000,A,1500.8554,S,07346.6626,W,9.09,192.58,180411,,,A*6E
$GPGGA,203609.002,1500.8578,S,07346.6632,W,1,07,1.6,3170.8,M,24.4,M,,0000*61
$GPGSA,M,3,22,16,30,06,03,18,14,,,,,,3.4,1.6,2.9*38
$GPRMC,203609.002,A,1500.8578,S,07346.6632,W,8.97,193.94,180411,,,A*61
$GPGGA,203609.996,1500.8600,S,07346.6640,W,1,07,1.6,3170.9,M,24.4,M,,0000*6D
$GPGSA,M,3,22,16,30,06,03,18,14,,,,,,3.4,1.6,2.9*38
$GPGSV,3,1,12,22,68,137,40,16,68,282,36,30,60,337,37,06,50,183,38*77
$GPGSV,3,2,12,03,41,201,35,18,33,141,37,14,25,045,38,19,15,218,37*7A
$GPGSV,3,3,12,32,07,326,27,21,07,125,,31,07,358,32,11,01,263,*70
$GPRMC,203609.996,A,1500.8600,S,07346.6640,W,8.88,188.45,180411,,,A*64
$GPGGA,203611.000,1500.8625,S,07346.6640,W,1,07,1.6,3170.8,M,24.4,M,,0000*64
$GPGSA,M,3,22,16,30,06,03,18,14,,,,,,3.4,1.6,2.9*38
$GPRMC,203611.000,A,1500.8625,S,07346.6640,W,8.78,182.49,180411,,,A*65
$GPGGA,203612.004,1500.8652,S,07346.6647,W,1,07,1.6,3170.2,M,24.4,M,,0000*6E
$GPGSA,M,3,22,16,30,06,03,18,14,,,,,,3.4,1.6,2.9*38
$GPRMC,203612.004,A,1500.8652,S,07346.6647,W,9.78,193.59,180411,,,A*65
$GPGGA,203612.991,1500.8674,S,07346.6653,W,1,07,1.6,3169.3,M,24.4,M,,0000*63
$GPGSA,M,3,22,16,30,06,03,18,14,,,,,,3.4,1.6,2.9*38
$GPRMC,203612.991,A,1500.8674,S,07346.6653,W,8.97,181.94,180411,,,A*63
$GPGGA,203614.003,1500.8698,S,07346.6653,W,1,07,1.6,3169.0,M,24.4,M,,0000*66
$GPGSA,M,3,22,16,30,06,03,18,14,,,,,,3.4,1.6,2.9*38
$GPRMC,203614.003,A,1500.8698,S,07346.6653,W,8.48,181.24,180411,,,A*6C
$GPGGA,203615.001,1500.8721,S,07346.6657,W,1,07,1.6,3168.6,M,24.4,M,,0000*65
$GPGSA,M,3,22,16,30,06,03,18,14,,,,,,3.4,1.6,2.9*38
$GPGSV,3,1,12,22,68,137,41,16,68,282,38,30,60,337,36,06,50,183,38*79
$GPGSV,3,2,12,03,41,201,37,18,33,141,35,14,25,045,38,19,15,218,36*7B
$GPGSV,3,3,12,32,07,326,38,21,07,125,,31,07,358,37,11,01,263,*7B
$GPRMC,203615.001,A,1500.8721,S,07346.6657,W,9.10,191.35,180411,,,A*65
$GPGGA,203616.002,1500.8748,S,07346.6660,W,1,07,1.6,3168.7,M,24.4,M,,0000*6F
$GPGSA,M,3,22,16,30,06,03,18,14,,,,,,3.4,1.6,2.9*38
$GPRMC,203616.002,A,1500.8748,S,07346.6660,W,9.84,188.87,180411,,,A*62
$GPGGA,203617.003,1500.8780,S,07346.6667,W,1,07,1.6,3169.0,M,24.4,M,,0000*6A
$GPGSA,M,3,22,16,30,06,03,18,14,,,,,,3.4,1.6,2.9*38
$GPRMC,203617.003,A,1500.8780,S,07346.6667,W,10.70,197.23,180411,,,A*52
$GPGGA,203617.997,1500.8805,S,07346.6679,W,1,07,1.6,3168.3,M,24.4,M,,0000*61
$GPGSA,M,3,22,16,30,06,03,18,14,,,,,,3.4,1.6,3.0*30
$GPRMC,203617.997,A,1500.8805,S,07346.6679,W,10.58,197.71,180411,,,A*56
$GPGGA,203619.003,1500.8833,S,07346.6689,W,1,07,1.6,3165.6,M,24.4,M,,0000*69
$GPGSA,M,3,22,16,30,06,03,18,14,,,,,,3.4,1.6,3.0*30
$GPRMC,203619.003,A,1500.8833,S,07346.6689,W,10.42,205.24,180411,,,A*55
$GPGGA,203619.999,1500.8864,S,07346.6706,W,1,07,1.6,3164.1,M,24.4,M,,0000*61
$GPGSA,M,3,22,16,30,06,03,18,14,,,,,,3.4,1.6,3.0*30
$GPGSV,3,1,12,22,68,137,36,16,68,282,30,30,60,337,34,06,50,183,34*7F
$GPGSV,3,2,12,03,41,201,33,18,33,141,35,14,25,045,32,19,15,218,34*77
$GPGSV,3,3,12,32,07,326,,21,07,125,,31,07,358,27,11,01,263,*71
$GPRMC,203619.999,A,1500.8864,S,07346.6706,W,10.28,201.25,180411,,,A*52
$GPGGA,203621.000,1500.8884,S,07346.6715,W,1,07,1.6,3163.9,M,24.4,M,,0000*60
$GPGSA,M,3,22,16,30,06,03,18,14,,,,,,3.4,1.6,3.0*30
$GPRMC,203621.000,A,1500.8884,S,07346.6715,W,9.11,206.47,180411,,,A*6D
$GPGGA,203622.000,1500.8906,S,07346.6724,W,1,07,1.6,3164.4,M,24.4,M,,0000*60
$GPGSA,M,3,22,16,30,06,03,18,14,,,,,,3.4,1.6,3.0*30
$GPRMC,203622.000,A,1500.8906,S,07346.6724,W,8.49,210.50,180411,,,A*6A
$GPGGA,203623.001,1500.8925,S,07346.6736,W,1,07,1.6,3163.7,M,24.4,M,,0000*66
$GPGSA,M,3,22,16,30,06,03,18,14,,,,,,3.4,1.6,3.0*30
$GPRMC,203623.001,A,1500.8925,S,07346.6736,W,8.55,213.91,180411,,,A*6B
$GPGGA,203623.999,1500.8946,S,07346.6748,W,1,07,1.6,3163.3,M,24.4,M,,0000*66
$GPGSA,M,3,22,16,30,06,03,18,14,,,,,,3.4,1.6,3.0*30
$GPRMC,203623.999,A,1500.8946,S,07346.6748,W,8.18,212.60,180411,,,A*69
$GPGGA,203625.000,1500.8968,S,07346.6763,W,1,07,1.6,3163.2,M,24.4,M,,0000*6D
$GPGSA,M,3,22,16,30,06,03,18,14,,,,,,3.4,1.6,3.0*30
$GPGSV,3,1,12,22,68,137,40,16,68,282,38,30,60,337,39,06,50,183,39*76
$GPGSV,3,2,12,03,41,201,39,18,33,141,33,14,25,045,40,19,15,218,36*7C
$GPGSV,3,3,12,32,07,326,22,21,07,125,,31,07,358,,11,01,263,*74
$GPRMC,203625.000,A,1500.8968,S,07346.6763,W,8.58,207.69,180411,,,A*6A
$GPGGA,203625.999,1500.8991,S,07346.6775,W,1,06,1.8,3163.1,M,24.4,M,,0000*69
$GPGSA,M,3,22,16,30,06,03,14,,,,,,,3.5,1.8,3.0*36
$GPRMC,203625.999,A,1500.8991,S,07346.6775,W,8.64,197.06,180411,,,A*6E
$GPGGA,203627.003,1500.9015,S,07346.6779,W,1,07,1.6,3162.8,M,24.4,M,,0000*6E
$GPGSA,M,3,22,16,30,06,03,18,14,,,,,,3.4,1.6,3.0*30
$GPRMC,203627.003,A,1500.9015,S,07346.6779,W,9.01,183.35,180411,,,A*69
$GPGGA,203627.995,1500.9039,S,07346.6783,W,1,07,1.6,3161.6,M,24.4,M,,0000*6E
$GPGSA,M,3,22,16,30,06,03,18,14,,,,,,3.4,1.6,3.0*30
$GPRMC,203627.995,A,1500.9039,S,07346.6783,W,9.51,174.22,180411,,,A*6F
$GPGGA,203629.001,1500.9068,S,07346.6779,W,1,07,1.6,3160.6,M,24.4,M,,0000*64
$GPGSA,M,3,22,16,30,06,03,18,14,,,,,,3.4,1.6,3.0*30
$GPRMC,203629.001,A,1500.9068,S,07346.6779,W,10.24,162.35,180411,,,A*5F
$GPGGA,203629.994,1500.9095,S,07346.6766,W,1,07,1.6,3159.7,M,24.4,M,,0000*66
$GPGSA,M,3,22,16,30,06,03,18,14,,,,,,3.4,1.6,3.0*30
$GPGSV,3,1,12,22,68,137,38,16,68,282,37,30,60,337,40,06,50,183,38*79
$GPGSV,3,2,12,03,41,201,30,18,33,141,36,14,25,045,32,19,15,218,36*75
$GPGSV,3,3,12,32,07,326,,21,07,125,,31,07,358,28,11,01,263,*7E
$GPRMC,203629.994,A,1500.9095,S,07346.6766,W,10.37,153.58,180411,,,A*5D
$GPGGA,203631.008,1500.9122,S,07346.6752,W,1,06,2.0,3159.2,M,24.4,M,,0000*68
$GPGSA,M,3,22,16,30,06,03,18,,,,,,,4.6,2.0,4.1*33
$GPRMC,203631.008,A,1500.9122,S,07346.6752,W,10.20,154.01,180411,,,A*5F
$GPGGA,203631.993,1500.9148,S,07346.6736,W,1,05,2.7,3158.8,M,24.4,M,,0000*62
$GPGSA,M,3,22,16,30,06,18,,,,,,,,5.3,2.7,4.6*34
$GPRMC,203631.993,A,1500.9148,S,07346.6736,W,10.95,149.29,180411,,,A*52
$GPGGA,203633.008,1500.9175,S,07346.6713,W,1,07,1.6,3159.3,M,24.4,M,,0000*68
$GPGSA,M,3,22,16,30,06,03,18,14,,,,,,3.4,1.6,3.0*30
$GPRMC,203633.008,A,1500.9175,S,07346.6713,W,11.71,144.18,180411,,,A*56
$GPGGA,203633.990,1500.9202,S,07346.6697,W,1,05,2.7,3159.0,M,24.4,M,,0000*6D
$GPGSA,M,3,22,16,30,06,18,,,,,,,,5.3,2.7,4.6*34
$GPRMC,203633.990,A,1500.9202,S,07346.6697,W,10.76,149.57,180411,,,A*50
$GPGGA,203635.008,1500.9226,S,07346.6680,W,1,05,2.7,3157.9,M,24.4,M,,0000*64
$GPGSA,M,3,22,16,30,06,18,,,,,,,,5.3,2.7,4.6*34
$GPGSV,3,1,12,22,68,137,34,16,68,282,31,30,60,337,33,06,50,183,30*7F
$GPGSV,3,2,12,03,41,201,,18,33,141,29,14,25,045,,19,15,218,*7C
$GPGSV,3,3,12,32,07,326,27,21,07,125,,31,07,358,,11,01,263,*71
$GPRMC,203635.008,A,1500.9226,S,07346.6680,W,9.90,145.28,180411,,,A*6A
$GPGGA,203635.994,1500.9248,S,07346.6668,W,1,04,3.3,3157.3,M,24.4,M,,0000*68
$GPGSA,M,3,22,16,30,06,,,,,,,,,9.9,3.3,9.3*36
$GPRMC,203635.994,A,1500.9248,S,07346.6668,W,9.03,149.89,180411,,,A*65
$GPGGA,203637.010,1500.9267,S,07346.6650,W,1,07,1.6,3158.6,M,24.4,M,,0000*67
$GPGSA,M,3,22,16,30,06,03,18,14,,,,,,3.4,1.6,3.0*30
$GPRMC,203637.010,A,1500.9267,S,07346.6650,W,8.27,143.22,180411,,,A*68
$GPGGA,203637.986,1500.9283,S,07346.6636,W,1,06,2.0,3156.7,M,24.4,M,,0000*60
$GPGSA,M,3,22,16,30,06,03,18,,,,,,,4.6,2.0,4.1*33
$GPRMC,203637.986,A,1500.9283,S,07346.6636,W,7.64,145.56,180411,,,A*69
$GPGGA,203639.011,1500.9299,S,07346.6629,W,1,06,2.0,3156.6,M,24.4,M,,0000*6D
$GPGSA,M,3,22,16,30,06,03,18,,,,,,,4.6,2.0,4.1*33
$GPRMC,203639.011,A,1500.9299,S,07346.6629,W,6.04,157.81,180411,,,A*6B
$GPGGA,203640.003,1500.9312,S,07346.6635,W,1,07,1.6,3154.8,M,24.4,M,,0000*67
$GPGSA,M,3,22,16,30,06,03,18,14,,,,,,3.4,1.6,3.0*30
$GPGSV,3,1,12,22,68,137,40,16,68,282,32,30,60,337,36,06,50,183,38*72
$GPGSV,3,2,12,03,41,201,37,18,33,141,38,14,25,045,29,19,15,218,38*78
$GPGSV,3,3,12,32,07,326,,21,07,125,,31,07,358,,11,01,263,*74
$GPRMC,203640.003,A,1500.9312,S,07346.6635,W,5.22,176.72,180411,,,A*61
$GPGGA,203641.000,1500.9327,S,07346.6639,W,1,07,1.6,3155.4,M,24.4,M,,0000*62
$GPGSA,M,3,22,16,30,06,03,18,14,,,,,,3.4,1.6,3.0*30
$GPRMC,203641.000,A,1500.9327,S,07346.6639,W,5.17,196.17,180411,,,A*62
$GPGGA,203641.998,1500.9342,S,07346.6646,W,1,07,1.6,3155.2,M,24.4,M,,0000*67
$GPGSA,M,3,22,16,30,06,03,18,14,,,,,,3.4,1.6,3.0*30
$GPRMC,203641.998,A,1500.9342,S,07346.6646,W,5.78,205.19,180411,,,A*6F
$GPGGA,203643.000,1500.9357,S,07346.6655,W,1,07,1.6,3155.2,M,24.4,M,,0000*6B
$GPGSA,M,3,22,16,30,06,03,18,14,,,,,,3.4,1.6,3.0*30
$GPRMC,203643.000,A,1500.9357,S,07346.6655,W,6.17,221.35,180411,,,A*61
$GPGGA,203644.001,1500.9368,S,07346.6668,W,1,07,1.6,3155.3,M,24.4,M,,0000*6E
$GPGSA,M,3,22,16,30,06,03,18,14,,,,,,3.4,1.6,3.0*30
$GPRMC,203644.001,A,1500.9368,S,07346.6668,W,6.09,226.44,180411,,,A*6B
$GPGGA,203645.000,1500.9379,S,07346.6681,W,1,07,1.6,3154.7,M,24.4,M,,0000*6C
$GPGSA,M,3,22,16,30,06,03,18,14,,,,,,3.4,1.6,3.0*30
$GPGSV,3,1,12,22,68,137,36,16,68,282,32,30,60,337,35,06,50,183,30*78
$GPGSV,3,2,12,03,41,201,32,18,33,141,34,14,25,045,32,19,15,218,*70
$GPGSV,3,3,12,32,07,326,,21,07,125,,31,07,358,,11,01,263,*74
$GPRMC,203645.000,A,1500.9379,S,07346.6681,W,6.37,236.53,180411,,,A*66
$GPGGA,203645.999,1500.9387,S,07346.6702,W,1,07,1.6,3154.8,M,24.4,M,,0000*61
$GPGSA,M,3,22,16,30,06,03,18,14,,,,,,3.4,1.6,3.0*30
$GPRMC,203645.999,A,1500.9387,S,07346.6702,W,5.57,236.17,180411,,,A*61
$GPGGA,203647.004,1500.9394,S,07346.6713,W,1,07,1.6,3156.0,M,24.4,M,,0000*66
$GPGSA,M,3,22,16,30,06,03,18,14,,,,,,3.4,1.6,3.0*30
$GPRMC,203647.004,A,1500.9394,S,07346.6713,W,4.98,256.59,180411,,,A*62
$GPGGA,203647.997,1500.9395,S,07346.6729,W,1,07,1.6,3156.8,M,24.4,M,,0000*65
$GPGSA,M,3,22,16,30,06,03,18,14,,,,,,3.4,1.6,3.0*30
$GPRMC,203647.997,A,1500.9395,S,07346.6729,W,5.60,262.05,180411,,,A*61
$GPGGA,203648.996,1500.9397,S,07346.6746,W,1,06,2.0,3157.2,M,24.4,M,,0000*6F
$GPGSA,M,3,22,16,30,06,03,18,,,,,,,4.6,2.0,4.1*33
$GPRMC,203648.996,A,1500.9397,S,07346.6746,W,5.24,257.87,180411,,,A*68
$GPGGA,203650.003,1500.9398,S,07346.6761,W,1,07,1.6,3154.9,M,24.4,M,,0000*65
$GPGSA,M,3,22,16,30,06,03,18,14,,,,,,3.4,1.6,3.0*30
$GPGSV,3,1,12,22,68,137,38,16,68,282,36,30,60,337,40,06,50,183,35*75
$GPGSV,3,2,12,03,41,201,36,18,33,141,36,14,25,045,32,19,15,218,28*7C
$GPGSV,3,3,12,32,07,326,35,21,07,125,,31,07,358,36,11,01,263,*77
$GPRMC,203650.003,A,1500.9398,S,07346.6761,W,3.57,265.46,180411,,,A*60
$GPGGA,203650.997,1500.9403,S,07346.6774,W,1,07,1.6,3154.7,M,24.4,M,,0000*6E
$GPGSA,M,3,22,16,30,06,03,18,14,,,,,,3.4,1.6,3.0*30
$GPRMC,203650.997,A,1500.9403,S,07346.6774,W,4.96,240.31,180411,,,A*68
$GPGGA,203652.003,1500.9413,S,07346.6789,W,1,07,1.6,3153.4,M,24.4,M,,0000*6F
$GPGSA,M,3,22,16,30,06,03,18,14,,,,,,3.4,1.6,3.0*30
$GPRMC,203652.003,A,1500.9413,S,07346.6789,W,4.42,224.47,180411,,,A*67
$GPGGA,203652.992,1500.9422,S,07346.6800,W,1,07,1.6,3155.2,M,24.4,M,,0000*62
$GPGSA,M,3,22,16,30,06,03,18,14,,,,,,3.4,1.6,3.0*30
$GPRMC,203652.992,A,1500.9422,S,07346.6800,W,4.21,209.31,180411,,,A*61
$GPGGA,203654.009,1500.9432,S,07346.6807,W,1,07,1.6,3155.1,M,24.4,M,,0000*6A
$GPGSA,M,3,22,16,30,06,03,18,14,,,,,,3.4,1.6,3.0*30
$GPRMC,203654.009,A,1500.9432,S,07346.6807,W,4.05,216.59,180411,,,A*6C
$GPGGA,203654.999,1500.9437,S,07346.6814,W,1,07,1.6,3155.8,M,24.4,M,,0000*64
$GPGSA,M,3,22,16,30,06,03,18,14,,,,,,3.4,1.6,3.0*30
$GPGSV,3,1,12,22,68,137,39,16,68,282,29,30,60,337,39,06,50,183,38*79
$GPGSV,3,2,12,03,41,201,28,18,33,141,36,14,25,045,37,19,15,218,23*7D
$GPGSV,3,3,12,32,07,326,,21,07,125,,31,07,358,38,11,01,263,*7F
$GPRMC,203654.999,A,1500.9437,S,07346.6814,W,2.74,239.09,180411,,,A*63
$GPGGA,203655.996,1500.9439,S,07346.6822,W,1,05,2.5,3155.5,M,24.4,M,,0000*6E
$GPGSA,M,3,22,30,06,18,14,,,,,,,,4.8,2.5,4.1*39
$GPRMC,203655.996,A,1500.9439,S,07346.6822,W,3.14,263.68,180411,,,A*69
$GPGGA,203657.002,1500.9433,S,07346.6831,W,1,04,2.7,3154.8,M,24.4,M,,0000*6F
$GPGSA,M,3,22,30,06,14,,,,,,,,,5.2,2.7,4.5*3D
$GPRMC,203657.002,A,1500.9433,S,07346.6831,W,3.11,285.00,180411,,,A*64
$GPGGA,203658.005,1500.9431,S,07346.6840,W,0,00,,3155.0,M,24.4,M,,0000*44
$GPGSA,M,1,,,,,,,,,,,,,,,*12
$GPRMC,203658.005,V,1500.9431,S,07346.6840,W,,,180411,,,N*7C
$GPGGA,203659.000,1500.9429,S,07346.6848,W,0,00,,3155.1,M,24.4,M,,0000*40
$GPGSA,M,1,,,,,,,,,,,,,,,*12
$GPRMC,203659.000,V,1500.9429,S,07346.6848,W,,,180411,,,N*79
$GPGGA,203700.000,1500.9426,S,07346.6857,W,0,00,,3155.3,M,24.4,M,,0000*4E
$GPGSA,M,1,,,,,,,,,,,,,,,*12
$GPGSV,3,1,12,16,68,286,,22,67,138,,30,58,338,36,06,51,182,*7C
$GPGSV,3,2,12,03,42,200,,18,31,141,,14,26,046,42,19,16,217,27*78
$GPGSV,3,3,12,32,08,325,,21,06,124,,31,06,359,,11,01,262,*79
$GPRMC,203700.000,V,1500.9426,S,07346.6857,W,,,180411,,,N*75
$GPGGA,203701.000,1500.9426,S,07346.6836,W,1,06,1.7,3155.6,M,24.4,M,,0000*62
$GPGSA,M,3,30,14,22,06,18,03,,,,,,,3.5,1.7,3.0*37
