$GPGGA,213159.999,1717.6357,S,06950.3350,W,1,11,0.9,4443.8,M,34.4,M,,0000*6A
$GPGSA,M,3,03,06,19,14,32,22,16,11,30,24,20,,1.6,0.9,1.3*3B
$GPGSV,3,1,12,03,86,210,40,06,74,058,30,19,52,203,36,14,45,096,33*79
$GPGSV,3,2,12,32,35,297,31,22,31,148,37,16,29,341,33,11,16,230,36*70
$GPGSV,3,3,12,30,16,359,34,24,11,243,37,20,11,300,30,31,04,031,*77
$GPRMC,213159.999,A,1717.6357,S,06950.3350,W,8.03,221.62,280411,,,A*6D
$GPGGA,213200.999,1717.6372,S,06950.3365,W,1,11,0.9,4443.8,M,34.4,M,,0000*64
$GPGSA,M,3,03,06,19,14,32,22,16,11,30,24,20,,1.6,0.9,1.3*3B
$GPRMC,213200.999,A,1717.6372,S,06950.3365,W,8.62,225.25,280411,,,A*63
$GPGGA,213202.005,1717.6390,S,06950.3382,W,1,11,0.9,4444.3,M,34.4,M,,0000*63
$GPGSA,M,3,03,06,19,14,32,22,16,11,30,24,20,,1.6,0.9,1.3*3B
$GPRMC,213202.005,A,1717.6390,S,06950.3382,W,8.57,224.82,280411,,,A*62
$GPGGA,213203.001,1717.6408,S,06950.3399,W,1,11,0.9,4444.8,M,34.4,M,,0000*61
$GPGSA,M,3,03,06,19,14,32,22,16,11,30,24,20,,1.6,0.9,1.3*3B
$GPRMC,213203.001,A,1717.6408,S,06950.3399,W,8.82,224.18,280411,,,A*60
$GPGGA,213204.001,1717.6423,S,06950.3417,W,1,10,0.9,4445.3,M,34.4,M,,0000*65
$GPGSA,M,3,03,06,19,14,32,22,11,30,24,20,,,1.6,0.9,1.3*3C
$GPRMC,213204.001,A,1717.6423,S,06950.3417,W,8.59,226.43,280411,,,A*65
$GPGGA,213204.998,1717.6438,S,06950.3434,W,1,09,1.0,4445.6,M,34.4,M,,0000*62
$GPGSA,M,3,03,06,19,14,32,22,11,30,24,,,,1.7,1.0,1.3*37
$GPGSV,3,1,12,03,86,210,40,06,74,058,35,19,52,203,35,14,45,096,34*78
$GPGSV,3,2,12,32,35,297,33,22,31,148,35,16,29,341,,11,16,230,36*70
$GPGSV,3,3,12,30,16,359,33,24,11,243,33,20,11,300,,31,04,031,26*73
$GPRMC,213204.998,A,1717.6438,S,06950.3434,W,8.28,226.44,280411,,,A*66
$GPGGA,213206.002,1717.6451,S,06950.3450,W,1,11,0.9,4445.1,M,34.4,M,,0000*61
$GPGSA,M,3,03,06,19,14,32,22,16,11,30,24,20,,1.6,0.9,1.3*3B
$GPRMC,213206.002,A,1717.6451,S,06950.3450,W,8.77,228.34,280411,,,A*60
$GPGGA,213207.003,1717.6469,S,06950.3469,W,1,09,1.1,4445.3,M,34.4,M,,0000*62
$GPGSA,M,3,03,06,19,14,32,16,11,30,24,,,,1.9,1.1,1.5*39
$GPRMC,213207.003,A,1717.6469,S,06950.3469,W,8.96,221.94,280411,,,A*6D
$GPGGA,213207.998,1717.6488,S,06950.3484,W,1,11,0.9,4443.9,M,34.4,M,,0000*69
$GPGSA,M,3,03,06,19,14,32,22,16,11,30,24,20,,1.6,0.9,1.3*3B
$GPRMC,213207.998,A,1717.6488,S,06950.3484,W,9.73,226.61,280411,,,A*6D
$GPGGA,213209.000,1717.6507,S,06950.3502,W,1,11,0.9,4443.9,M,34.4,M,,0000*66
$GPGSA,M,3,03,06,19,14,32,22,16,11,30,24,20,,1.6,0.9,1.3*3B
$GPRMC,213209.000,A,1717.6507,S,06950.3502,W,9.33,223.76,280411,,,A*65
$GPGGA,213210.002,1717.6525,S,06950.3520,W,1,11,0.9,4443.8,M,34.4,M,,0000*6D
$GPGSA,M,3,03,06,19,14,32,22,16,11,30,24,20,,1.6,0.9,1.3*3B
$GPGSV,3,1,12,03,86,210,40,06,74,058,36,19,52,203,35,14,45,096,33*7C
$GPGSV,3,2,12,32,35,297,32,22,31,148,36,16,29,341,30,11,16,230,37*70
$GPGSV,3,3,12,30,16,359,34,24,11,243,36,20,11,300,28,31,04,031,26*7B
$GPRMC,213210.002,A,1717.6525,S,06950.3520,W,8.95,223.31,280411,,,A*61
$GPGGA,213210.999,1717.6544,S,06950.3540,W,1,11,0.9,4444.8,M,34.4,M,,0000*60
$GPGSA,M,3,03,06,19,14,32,22,16,11,30,24,20,,1.6,0.9,1.3*3B
$GPRMC,213210.999,A,1717.6544,S,06950.3540,W,9.20,226.70,280411,,,A*64
$GPGGA,213212.003,1717.6562,S,06950.3560,W,1,10,0.9,4445.0,M,34.4,M,,0000*66
$GPGSA,M,3,03,06,19,14,32,22,11,30,24,20,,,1.6,0.9,1.3*3C
$GPRMC,213212.003,A,1717.6562,S,06950.3560,W,9.68,221.75,280411,,,A*64
$GPGGA,213213.001,1717.6577,S,06950.3578,W,1,10,0.9,4445.4,M,34.4,M,,0000*6C
$GPGSA,M,3,03,06,19,14,32,22,11,30,24,20,,,1.6,0.9,1.3*3C
$GPRMC,213213.001,A,1717.6577,S,06950.3578,W,8.37,226.31,280411,,,A*66
$GPGGA,213214.001,1717.6592,S,06950.3594,W,1,10,0.9,4445.9,M,34.4,M,,0000*6F
$GPGSA,M,3,03,06,19,14,32,22,11,30,24,20,,,1.6,0.9,1.3*3C
$GPRMC,213214.001,A,1717.6592,S,06950.3594,W,8.90,225.85,280411,,,A*69
$GPGGA,213214.999,1717.6609,S,06950.3615,W,1,09,1.0,4447.8,M,34.4,M,,0000*6F
$GPGSA,M,3,03,06,19,14,32,22,11,30,24,,,,1.7,1.0,1.3*37
$GPGSV,3,1,12,03,86,210,39,06,74,058,35,19,52,203,35,14,45,096,34*76
$GPGSV,3,2,12,32,35,297,34,22,31,148,37,16,29,341,,11,16,230,37*74
$GPGSV,3,3,12,30,16,359,35,24,11,243,33,20,11,300,,31,04,031,*71
$GPRMC,213214.999,A,1717.6609,S,06950.3615,W,8.36,223.27,280411,,,A*68
$GPGGA,213216.001,1717.6626,S,06950.3632,W,1,11,0.9,4447.4,M,34.4,M,,0000*60
$GPGSA,M,3,03,06,19,14,32,22,16,11,30,24,20,,1.6,0.9,1.3*3B
$GPRMC,213216.001,A,1717.6626,S,06950.3632,W,8.62,225.98,280411,,,A*69
$GPGGA,213217.001,1717.6645,S,06950.3651,W,1,09,1.0,4448.4,M,34.4,M,,0000*6F
$GPGSA,M,3,03,06,19,14,32,22,11,30,24,,,,1.7,1.0,1.3*37
$GPRMC,213217.001,A,1717.6645,S,06950.3651,W,9.33,223.17,280411,,,A*6C
$GPGGA,213217.999,1717.6662,S,06950.3672,W,1,10,0.9,4448.1,M,34.4,M,,0000*66
$GPGSA,M,3,03,06,19,14,32,22,11,30,24,20,,,1.6,0.9,1.3*3C
$GPRMC,213217.999,A,1717.6662,S,06950.3672,W,9.96,225.89,280411,,,A*6E
$GPGGA,213219.002,1717.6683,S,06950.3693,W,1,10,0.9,4449.5,M,34.4,M,,0000*66
$GPGSA,M,3,03,06,19,14,32,22,11,30,24,20,,,1.6,0.9,1.3*3C
$GPRMC,213219.002,A,1717.6683,S,06950.3693,W,9.65,226.97,280411,,,A*6B
$GPGGA,213219.999,1717.6700,S,06950.3714,W,1,10,0.9,4449.3,M,34.4,M,,0000*6F
$GPGSA,M,3,03,06,19,14,32,22,11,30,24,20,,,1.6,0.9,1.3*3C
$GPGSV,3,1,12,03,86,210,40,06,74,058,35,19,52,203,34,14,45,096,31*7C
$GPGSV,3,2,12,32,35,297,36,22,31,148,28,16,29,341,,11,16,230,36*79
$GPGSV,3,3,12,30,16,359,32,24,11,243,32,20,11,300,30,31,04,031,*74
$GPRMC,213219.999,A,1717.6700,S,06950.3714,W,9.45,230.40,280411,,,A*6B
$GPGGA,213221.003,1717.6717,S,06950.3734,W,1,11,0.9,4449.6,M,34.4,M,,0000*6E
$GPGSA,M,3,03,06,19,14,32,22,16,11,30,24,20,,1.6,0.9,1.3*3B
$GPRMC,213221.003,A,1717.6717,S,06950.3734,W,9.30,227.59,280411,,,A*62
$GPGGA,213222.001,1717.6735,S,06950.3757,W,1,11,0.9,4450.4,M,34.4,M,,0000*60
$GPGSA,M,3,03,06,19,14,32,22,16,11,30,24,20,,1.6,0.9,1.3*3B
$GPRMC,213222.001,A,1717.6735,S,06950.3757,W,9.55,223.49,280411,,,A*60
$GPGGA,213223.003,1717.6749,S,06950.3775,W,1,11,0.9,4451.1,M,34.4,M,,0000*6C
$GPGSA,M,3,03,06,19,14,32,22,16,11,30,24,20,,1.6,0.9,1.3*3B
$GPRMC,213223.003,A,1717.6749,S,06950.3775,W,9.50,224.92,280411,,,A*6C
$GPGGA,213223.999,1717.6766,S,06950.3797,W,1,11,0.9,4451.2,M,34.4,M,,0000*64
$GPGSA,M,3,03,06,19,14,32,22,16,11,30,24,20,,1.6,0.9,1.3*3B
$GPRMC,213223.999,A,1717.6766,S,06950.3797,W,8.99,228.61,280411,,,A*63
$GPGGA,213225.001,1717.6783,S,06950.3817,W,1,09,1.0,4451.9,M,34.4,M,,0000*6C
$GPGSA,M,3,03,06,19,14,32,22,11,30,24,,,,1.7,1.0,1.3*37
$GPGSV,3,1,12,03,87,223,39,06,73,054,38,19,53,203,34,14,44,098,33*79
$GPGSV,3,2,12,32,36,296,34,22,29,147,35,16,28,342,,11,17,229,37*79
$GPGSV,3,3,12,30,15,000,32,24,12,242,36,20,11,299,,31,04,032,*7F
$GPRMC,213225.001,A,1717.6783,S,06950.3817,W,9.53,223.02,280411,,,A*68
$GPGGA,213225.999,1717.6803,S,06950.3837,W,1,10,0.9,4451.8,M,34.4,M,,0000*60
$GPGSA,M,3,03,06,19,14,32,22,16,11,30,24,,,1.6,0.9,1.3*39
$GPRMC,213225.999,A,1717.6803,S,06950.3837,W,9.58,225.20,280411,,,A*68
$GPGGA,213227.001,1717.6824,S,06950.3855,W,1,10,0.9,4452.2,M,34.4,M,,0000*62
$GPGSA,M,3,03,06,19,14,32,22,11,30,24,20,,,1.6,0.9,1.3*3C
$GPRMC,213227.001,A,1717.6824,S,06950.3855,W,9.73,222.11,280411,,,A*6F
$GPGGA,213228.002,1717.6845,S,06950.3876,W,1,11,0.9,4452.4,M,34.4,M,,0000*6F
$GPGSA,M,3,03,06,19,14,32,22,16,11,30,24,20,,1.6,0.9,1.3*3B
$GPRMC,213228.002,A,1717.6845,S,06950.3876,W,9.79,224.36,280411,,,A*6C
$GPGGA,213229.002,1717.6861,S,06950.3895,W,1,09,1.1,4452.9,M,34.4,M,,0000*68
$GPGSA,M,3,03,06,19,14,32,22,16,11,24,,,,1.9,1.1,1.6*39
$GPRMC,213229.002,A,1717.6861,S,06950.3895,W,9.25,226.79,280411,,,A*66
$GPGGA,213230.000,1717.6879,S,06950.3916,W,1,11,0.9,4453.8,M,34.4,M,,0000*61
$GPGSA,M,3,03,06,19,14,32,22,16,11,30,24,20,,1.6,0.9,1.3*3B
$GPGSV,3,1,12,03,87,223,41,06,73,054,36,19,53,203,34,14,44,098,35*7E
$GPGSV,3,2,12,32,36,296,31,22,29,147,36,16,28,342,31,11,17,229,37*7D
$GPGSV,3,3,12,30,15,000,35,24,12,242,37,20,11,299,26,31,04,032,*7D
$GPRMC,213230.000,A,1717.6879,S,06950.3916,W,9.56,222.22,280411,,,A*61
$GPGGA,213231.002,1717.6897,S,06950.3936,W,1,10,0.9,4455.1,M,34.4,M,,0000*6E
$GPGSA,M,3,03,06,19,14,32,22,16,11,30,24,,,1.6,0.9,1.3*39
$GPRMC,213231.002,A,1717.6897,S,06950.3936,W,9.30,221.63,280411,,,A*66
$GPGGA,213231.999,1717.6915,S,06950.3955,W,1,11,0.9,4454.9,M,34.4,M,,0000*63
$GPGSA,M,3,03,06,19,14,32,22,16,11,30,24,20,,1.6,0.9,1.3*3B
$GPRMC,213231.999,A,1717.6915,S,06950.3955,W,9.84,223.30,280411,,,A*68
$GPGGA,213233.003,1717.6936,S,06950.3975,W,1,11,0.9,4455.4,M,34.4,M,,0000*64
$GPGSA,M,3,03,06,19,14,32,22,16,11,30,24,20,,1.6,0.9,1.3*3B
$GPRMC,213233.003,A,1717.6936,S,06950.3975,W,9.20,223.34,280411,,,A*69
$GPGGA,213234.001,1717.6955,S,06950.3994,W,1,09,1.0,4455.2,M,34.4,M,,0000*6C
$GPGSA,M,3,03,06,19,14,32,22,11,30,24,,,,1.7,1.0,1.3*37
$GPRMC,213234.001,A,1717.6955,S,06950.3994,W,8.94,225.26,280411,,,A*6D
$GPGGA,213235.001,1717.6972,S,06950.4014,W,1,10,0.9,4455.8,M,34.4,M,,0000*64
$GPGSA,M,3,03,06,19,14,32,22,11,30,24,20,,,1.6,0.9,1.3*3C
$GPGSV,3,1,12,03,87,223,40,06,73,054,37,19,53,203,35,14,44,098,35*7F
$GPGSV,3,2,12,32,36,296,36,22,29,147,35,16,28,342,,11,17,229,36*7A
$GPGSV,3,3,12,30,15,000,35,24,12,242,36,20,11,299,28,31,04,032,*72
$GPRMC,213235.001,A,1717.6972,S,06950.4014,W,8.55,220.18,280411,,,A*6A
$GPGGA,213235.997,1717.6989,S,06950.4031,W,1,11,0.9,4456.9,M,34.4,M,,0000*62
$GPGSA,M,3,03,06,19,14,32,22,16,11,30,24,20,,1.6,0.9,1.3*3B
$GPRMC,213235.997,A,1717.6989,S,06950.4031,W,8.99,225.39,280411,,,A*69
$GPGGA,213237.000,1717.7009,S,06950.4053,W,1,09,1.0,4456.8,M,34.4,M,,0000*63
$GPGSA,M,3,03,06,19,14,32,22,11,30,24,,,,1.7,1.0,1.3*37
$GPRMC,213237.000,A,1717.7009,S,06950.4053,W,9.88,231.88,280411,,,A*66
$GPGGA,213238.002,1717.7029,S,06950.4073,W,1,11,0.9,4457.9,M,34.4,M,,0000*6F
$GPGSA,M,3,03,06,19,14,32,22,16,11,30,24,20,,1.6,0.9,1.3*3B
$GPRMC,213238.002,A,1717.7029,S,06950.4073,W,9.10,224.94,280411,,,A*63
$GPGGA,213239.000,1717.7048,S,06950.4091,W,1,11,0.9,4458.0,M,34.4,M,,0000*61
$GPGSA,M,3,03,06,19,14,32,22,16,11,30,24,20,,1.6,0.9,1.3*3B
$GPRMC,213239.000,A,1717.7048,S,06950.4091,W,9.58,222.89,280411,,,A*6D
$GPGGA,213240.000,1717.7065,S,06950.4115,W,1,11,0.9,4458.8,M,34.4,M,,0000*65
$GPGSA,M,3,03,06,19,14,32,22,16,11,30,24,20,,1.6,0.9,1.3*3B
$GPGSV,3,1,12,03,87,223,40,06,73,054,38,19,53,203,35,14,44,098,35*70
$GPGSV,3,2,12,32,36,296,36,22,29,147,36,16,28,342,29,11,17,229,34*70
$GPGSV,3,3,12,30,15,000,35,24,12,242,36,20,11,299,29,31,04,032,*73
$GPRMC,213240.000,A,1717.7065,S,06950.4115,W,9.39,223.28,280411,,,A*6C
$GPGGA,213241.000,1717.7083,S,06950.4133,W,1,11,0.9,4458.9,M,34.4,M,,0000*69
$GPGSA,M,3,03,06,19,14,32,22,16,11,30,24,20,,1.6,0.9,1.3*3B
$GPRMC,213241.000,A,1717.7083,S,06950.4133,W,9.12,230.52,280411,,,A*67
$GPGGA,213242.001,1717.7098,S,06950.4158,W,1,11,0.9,4458.7,M,34.4,M,,0000*62
$GPGSA,M,3,03,06,19,14,32,22,16,11,30,24,20,,1.6,0.9,1.3*3B
$GPRMC,213242.001,A,1717.7098,S,06950.4158,W,9.65,229.25,280411,,,A*6A
$GPGGA,213243.002,1717.7114,S,06950.4177,W,1,11,0.9,4459.6,M,34.4,M,,0000*68
$GPGSA,M,3,03,06,19,14,32,22,16,11,30,24,20,,1.6,0.9,1.3*3B
$GPRMC,213243.002,A,1717.7114,S,06950.4177,W,8.69,221.68,280411,,,A*6C
$GPGGA,213244.000,1717.7133,S,06950.4196,W,1,09,1.0,4460.0,M,34.4,M,,0000*6A
$GPGSA,M,3,03,06,19,14,22,16,11,30,24,,,,1.7,1.0,1.4*36
$GPRMC,213244.000,A,1717.7133,S,06950.4196,W,8.31,223.37,280411,,,A*66
$GPGGA,213245.001,1717.7152,S,06950.4215,W,1,10,0.9,4461.2,M,34.4,M,,0000*66
$GPGSA,M,3,03,06,19,14,32,22,16,11,30,24,,,1.6,0.9,1.3*39
$GPGSV,3,1,12,03,87,223,39,06,73,054,37,19,53,203,35,14,44,098,33*77
$GPGSV,3,2,12,32,36,296,28,22,29,147,36,16,28,342,28,11,17,229,36*7C
$GPGSV,3,3,12,30,15,000,35,24,12,242,36,20,11,299,,31,04,032,*78
$GPRMC,213245.001,A,1717.7152,S,06950.4215,W,8.52,226.75,280411,,,A*6F
$GPGGA,213245.999,1717.7170,S,06950.4233,W,1,10,0.9,4460.9,M,34.4,M,,0000*60
$GPGSA,M,3,03,06,19,14,32,22,11,30,24,20,,,1.6,0.9,1.3*3C
$GPRMC,213245.999,A,1717.7170,S,06950.4233,W,9.74,219.94,280411,,,A*65
$GPGGA,213247.003,1717.7192,S,06950.4251,W,1,10,0.9,4460.0,M,34.4,M,,0000*69
$GPGSA,M,3,03,06,19,14,32,22,16,11,30,24,,,1.6,0.9,1.3*39
$GPRMC,213247.003,A,1717.7192,S,06950.4251,W,9.59,221.32,280411,,,A*6D
$GPGGA,213247.999,1717.7212,S,06950.4270,W,1,11,0.9,4459.4,M,34.4,M,,0000*64
$GPGSA,M,3,03,06,19,14,32,22,16,11,30,24,20,,1.6,0.9,1.3*3B
$GPRMC,213247.999,A,1717.7212,S,06950.4270,W,9.90,223.89,280411,,,A*68
$GPGGA,213249.001,1717.7232,S,06950.4288,W,1,11,0.9,4458.9,M,34.4,M,,0000*6B
$GPGSA,M,3,03,06,19,14,32,22,16,11,30,24,20,,1.6,0.9,1.3*3B
$GPRMC,213249.001,A,1717.7232,S,06950.4288,W,9.75,223.16,280411,,,A*66
$GPGGA,213250.001,1717.7252,S,06950.4307,W,1,11,0.9,4458.6,M,34.4,M,,0000*6C
$GPGSA,M,3,03,06,19,14,32,22,16,11,30,24,20,,1.6,0.9,1.3*3B
$GPGSV,3,1,12,03,87,223,41,06,73,054,37,19,53,203,35,14,44,098,35*7E
$GPGSV,3,2,12,32,36,296,35,22,29,147,38,16,28,342,34,11,17,229,37*72
$GPGSV,3,3,12,30,15,000,34,24,12,242,37,20,11,299,27,31,04,032,*7D
$GPRMC,213250.001,A,1717.7252,S,06950.4307,W,9.64,221.61,280411,,,A*6C
$GPGGA,213251.001,1717.7274,S,06950.4325,W,1,11,0.9,4459.4,M,34.4,M,,0000*6A
$GPGSA,M,3,03,06,19,14,32,22,16,11,30,24,20,,1.6,0.9,1.3*3B
$GPRMC,213251.001,A,1717.7274,S,06950.4325,W,9.19,222.18,280411,,,A*6E
$GPGGA,213252.000,1717.7294,S,06950.4342,W,1,11,0.9,4458.7,M,34.4,M,,0000*65
$GPGSA,M,3,03,06,19,14,32,22,16,11,30,24,20,,1.6,0.9,1.3*3B
$GPRMC,213252.000,A,1717.7294,S,06950.4342,W,8.62,220.27,280411,,,A*60
$GPGGA,213253.001,1717.7311,S,06950.4359,W,1,09,1.0,4459.8,M,34.4,M,,0000*6C
$GPGSA,M,3,03,06,19,14,32,22,11,30,24,,,,1.7,1.0,1.3*37
$GPRMC,213253.001,A,1717.7311,S,06950.4359,W,8.24,224.47,280411,,,A*66
$GPGGA,213254.001,1717.7328,S,06950.4376,W,1,11,0.9,4459.6,M,34.4,M,,0000*63
$GPGSA,M,3,03,06,19,14,32,22,16,11,30,24,20,,1.6,0.9,1.3*3B
$GPRMC,213254.001,A,1717.7328,S,06950.4376,W,8.10,225.19,280411,,,A*6B
$GPGGA,213254.999,1717.7345,S,06950.4393,W,1,10,0.9,4459.4,M,34.4,M,,0000*68
$GPGSA,M,3,03,06,19,14,32,22,16,11,30,24,,,1.6,0.9,1.3*39
$GPGSV,3,1,12,03,87,223,40,06,73,054,37,19,53,203,35,14,44,098,35*7F
$GPGSV,3,2,12,32,36,296,35,22,29,147,34,16,28,342,29,11,17,229,38*7D
$GPGSV,3,3,12,30,15,000,36,24,12,242,37,20,11,299,,31,04,032,*7A
$GPRMC,213254.999,A,1717.7345,S,06950.4393,W,7.27,222.97,280411,,,A*69
$GPGGA,213256.003,1717.7361,S,06950.4411,W,1,09,1.0,4460.7,M,34.4,M,,0000*62
$GPGSA,M,3,03,06,19,14,32,22,11,30,24,,,,1.7,1.0,1.3*37
$GPRMC,213256.003,A,1717.7361,S,06950.4411,W,7.50,224.78,280411,,,A*6D
$GPGGA,213257.001,1717.7378,S,06950.4426,W,1,09,1.0,4460.8,M,34.4,M,,0000*62
$GPGSA,M,3,03,06,19,14,32,22,11,30,24,,,,1.7,1.0,1.3*37
$GPRMC,213257.001,A,1717.7378,S,06950.4426,W,7.13,218.58,280411,,,A*68
$GPGGA,213258.000,1717.7396,S,06950.4437,W,1,10,0.9,4461.7,M,34.4,M,,0000*62
$GPGSA,M,3,03,06,19,14,32,22,16,11,30,24,,,1.6,0.9,1.3*39
$GPRMC,213258.000,A,1717.7396,S,06950.4437,W,7.61,218.60,280411,,,A*68
$GPGGA,213258.999,1717.7413,S,06950.4448,W,1,10,0.9,4461.1,M,34.4,M,,0000*6F
$GPGSA,M,3,03,06,19,14,32,22,16,11,30,24,,,1.6,0.9,1.3*39
$GPRMC,213258.999,A,1717.7413,S,06950.4448,W,7.84,221.94,280411,,,A*69
$GPGGA,213300.002,1717.7429,S,06950.4463,W,1,11,0.9,4461.8,M,34.4,M,,0000*60
$GPGSA,M,3,03,06,19,14,32,22,16,11,30,24,20,,1.6,0.9,1.3*3B
$GPGSV,3,1,12,03,87,223,40,06,73,054,36,19,53,203,36,14,44,098,36*7E
$GPGSV,3,2,12,32,36,296,35,22,29,147,36,16,28,342,31,11,17,229,36*78
$GPGSV,3,3,12,30,15,000,36,24,12,242,37,20,11,299,30,31,04,032,*79
$GPRMC,213300.002,A,1717.7429,S,06950.4463,W,7.80,219.39,280411,,,A*66
$GPGGA,213301.002,1717.7440,S,06950.4478,W,1,08,1.5,4462.8,M,34.4,M,,0000*62
$GPGSA,M,3,03,06,19,14,32,22,11,24,,,,,2.5,1.5,2.0*30
$GPRMC,213301.002,A,1717.7440,S,06950.4478,W,6.79,225.41,280411,,,A*65
$GPGGA,213301.999,1717.7453,S,06950.4492,W,1,10,0.9,4462.9,M,34.4,M,,0000*6A
$GPGSA,M,3,03,06,19,14,32,22,11,30,24,20,,,1.6,0.9,1.3*3C
$GPRMC,213301.999,A,1717.7453,S,06950.4492,W,7.29,227.05,280411,,,A*6E
$GPGGA,213303.002,1717.7468,S,06950.4506,W,1,11,0.9,4462.7,M,34.4,M,,0000*68
$GPGSA,M,3,03,06,19,14,32,22,16,11,30,24,20,,1.6,0.9,1.3*3B
$GPRMC,213303.002,A,1717.7468,S,06950.4506,W,7.24,222.38,280411,,,A*65
$GPGGA,213304.003,1717.7483,S,06950.4520,W,1,10,0.9,4462.6,M,34.4,M,,0000*6F
$GPGSA,M,3,03,06,19,14,32,22,16,11,30,24,,,1.6,0.9,1.3*39
$GPRMC,213304.003,A,1717.7483,S,06950.4520,W,7.46,222.27,280411,,,A*68
$GPGGA,213305.000,1717.7500,S,06950.4535,W,1,09,1.1,4463.3,M,34.4,M,,0000*66
$GPGSA,M,3,03,06,19,14,32,11,30,24,20,,,,1.9,1.1,1.5*3C
$GPGSV,3,1,12,03,87,223,40,06,73,054,38,19,53,203,33,14,44,098,34*77
$GPGSV,3,2,12,32,36,296,31,22,29,147,,16,28,342,,11,17,229,39*74
$GPGSV,3,3,12,30,15,000,35,24,12,242,37,20,11,299,30,31,04,032,*7A
$GPRMC,213305.000,A,1717.7500,S,06950.4535,W,7.02,216.40,280411,,,A*62
$GPGGA,213305.998,1717.7517,S,06950.4548,W,1,11,0.9,4463.5,M,34.4,M,,0000*64
$GPGSA,M,3,03,06,19,14,32,22,16,11,30,24,20,,1.6,0.9,1.3*3B
$GPRMC,213305.998,A,1717.7517,S,06950.4548,W,7.70,218.72,280411,,,A*6C
$GPGGA,213307.000,1717.7534,S,06950.4559,W,1,11,0.9,4462.9,M,34.4,M,,0000*62
$GPGSA,M,3,03,06,19,14,32,22,16,11,30,24,20,,1.6,0.9,1.3*3B
$GPRMC,213307.000,A,1717.7534,S,06950.4559,W,7.13,220.55,280411,,,A*6C
$GPGGA,213308.000,1717.7548,S,06950.4571,W,1,11,0.9,4462.6,M,34.4,M,,0000*63
$GPGSA,M,3,03,06,19,14,32,22,16,11,30,24,20,,1.6,0.9,1.3*3B
$GPRMC,213308.000,A,1717.7548,S,06950.4571,W,7.17,226.19,280411,,,A*68
$GPGGA,213309.001,1717.7564,S,06950.4587,W,1,09,1.0,4463.8,M,34.4,M,,0000*6A
$GPGSA,M,3,03,06,19,14,32,22,11,30,24,,,,1.7,1.0,1.3*37
$GPRMC,213309.001,A,1717.7564,S,06950.4587,W,7.45,223.39,280411,,,A*6F
$GPGGA,213309.999,1717.7578,S,06950.4601,W,1,11,0.9,4463.2,M,34.4,M,,0000*69
$GPGSA,M,3,03,06,19,14,32,22,16,11,30,24,20,,1.6,0.9,1.3*3B
$GPGSV,3,1,12,03,87,223,40,06,73,054,37,19,53,203,34,14,44,098,32*79
$GPGSV,3,2,12,32,36,296,31,22,29,147,34,16,28,342,29,11,17,229,37*76
$GPGSV,3,3,12,30,15,000,32,24,12,242,36,20,11,299,26,31,04,032,*7B
$GPRMC,213309.999,A,1717.7578,S,06950.4601,W,7.60,226.20,280411,,,A*6D
$GPGGA,213311.000,1717.7594,S,06950.4617,W,1,11,0.9,4463.9,M,34.4,M,,0000*67
$GPGSA,M,3,03,06,19,14,32,22,16,11,30,24,20,,1.6,0.9,1.3*3B
$GPRMC,213311.000,A,1717.7594,S,06950.4617,W,7.46,219.31,280411,,,A*60
$GPGGA,213312.001,1717.7610,S,06950.4631,W,1,11,0.9,4464.0,M,34.4,M,,0000*60
$GPGSA,M,3,03,06,19,14,32,22,16,11,30,24,20,,1.6,0.9,1.3*3B
$GPRMC,213312.001,A,1717.7610,S,06950.4631,W,7.44,220.04,280411,,,A*67
$GPGGA,213313.000,1717.7626,S,06950.4646,W,1,11,0.9,4464.7,M,34.4,M,,0000*62
$GPGSA,M,3,03,06,19,14,32,22,16,11,30,24,20,,1.6,0.9,1.3*3B
$GPRMC,213313.000,A,1717.7626,S,06950.4646,W,7.68,220.01,280411,,,A*69
$GPGGA,213314.002,1717.7642,S,06950.4662,W,1,10,0.9,4465.0,M,34.4,M,,0000*64
$GPGSA,M,3,03,06,19,14,32,22,16,11,30,24,,,1.6,0.9,1.3*39
$GPRMC,213314.002,A,1717.7642,S,06950.4662,W,8.02,222.25,280411,,,A*6F
$GPGGA,213314.998,1717.7658,S,06950.4681,W,1,11,0.9,4465.4,M,34.4,M,,0000*6D
$GPGSA,M,3,03,06,19,14,32,22,16,11,30,24,20,,1.6,0.9,1.3*3B
$GPGSV,3,1,12,03,87,223,40,06,73,054,38,19,53,203,34,14,44,098,32*76
$GPGSV,3,2,12,32,36,296,29,22,29,147,36,16,28,342,28,11,17,229,35*7E
$GPGSV,3,3,12,30,15,000,32,24,12,242,37,20,11,299,29,31,04,032,*75
$GPRMC,213314.998,A,1717.7658,S,06950.4681,W,8.08,221.80,280411,,,A*65
$GPGGA,213315.998,1717.7676,S,06950.4695,W,1,10,0.9,4464.8,M,34.4,M,,0000*69
$GPGSA,M,3,03,06,19,14,32,22,11,30,24,20,,,1.6,0.9,1.3*3C
$GPRMC,213315.998,A,1717.7676,S,06950.4695,W,7.84,218.58,280411,,,A*69
$GPGGA,213317.002,1717.7693,S,06950.4712,W,1,11,0.9,4465.2,M,34.4,M,,0000*6E
$GPGSA,M,3,03,06,19,14,32,22,16,11,30,24,20,,1.6,0.9,1.3*3B
$GPRMC,213317.002,A,1717.7693,S,06950.4712,W,7.99,223.30,280411,,,A*6E
$GPGGA,213318.000,1717.7711,S,06950.4728,W,1,11,0.9,4465.7,M,34.4,M,,0000*64
$GPGSA,M,3,03,06,19,14,32,22,16,11,30,24,20,,1.6,0.9,1.3*3B
$GPRMC,213318.000,A,1717.7711,S,06950.4728,W,7.94,224.43,280411,,,A*6F
$GPGGA,213318.998,1717.7726,S,06950.4748,W,1,10,0.9,4465.2,M,34.4,M,,0000*6A
$GPGSA,M,3,03,06,19,14,32,22,11,30,24,20,,,1.6,0.9,1.3*3C
$GPRMC,213318.998,A,1717.7726,S,06950.4748,W,8.36,222.02,280411,,,A*61
$GPGGA,213320.002,1717.7744,S,06950.4763,W,1,11,0.9,4464.9,M,34.4,M,,0000*6D
$GPGSA,M,3,03,06,19,14,32,22,16,11,30,24,20,,1.6,0.9,1.3*3B
$GPGSV,3,1,12,03,87,223,41,06,73,054,37,19,53,203,33,14,44,098,34*79
$GPGSV,3,2,12,32,36,296,30,22,29,147,34,16,28,342,30,11,17,229,36*7E
$GPGSV,3,3,12,30,15,000,35,24,12,242,35,20,11,299,30,31,04,032,*78
$GPRMC,213320.002,A,1717.7744,S,06950.4763,W,8.30,223.08,280411,,,A*60
$GPGGA,213320.998,1717.7762,S,06950.4780,W,1,10,0.9,4465.1,M,34.4,M,,0000*66
$GPGSA,M,3,03,06,19,14,32,22,11,30,24,20,,,1.6,0.9,1.3*3C
$GPRMC,213320.998,A,1717.7762,S,06950.4780,W,8.70,223.19,280411,,,A*67
$GPGGA,213322.002,1717.7779,S,06950.4798,W,1,11,0.9,4465.0,M,34.4,M,,0000*6D
$GPGSA,M,3,03,06,19,14,32,22,16,11,30,24,20,,1.6,0.9,1.3*3B
$GPRMC,213322.002,A,1717.7779,S,06950.4798,W,8.30,223.02,280411,,,A*62
$GPGGA,213322.998,1717.7798,S,06950.4816,W,1,10,0.9,4466.4,M,34.4,M,,0000*67
$GPGSA,M,3,03,06,19,14,32,22,11,30,24,20,,,1.6,0.9,1.3*3C
$GPRMC,213322.998,A,1717.7798,S,06950.4816,W,8.33,226.26,280411,,,A*6E
$GPGGA,213324.001,1717.7812,S,06950.4833,W,1,11,0.9,4465.9,M,34.4,M,,0000*6D
$GPGSA,M,3,03,06,19,14,32,22,16,11,30,24,20,,1.6,0.9,1.3*3B
$GPRMC,213324.001,A,1717.7812,S,06950.4833,W,8.80,220.92,280411,,,A*6A
$GPGGA,213324.999,1717.7828,S,06950.4850,W,1,10,0.9,4465.9,M,34.4,M,,0000*68
$GPGSA,M,3,03,06,19,14,32,22,16,11,30,24,,,1.6,0.9,1.3*39
$GPGSV,3,1,12,03,87,223,40,06,73,054,38,19,53,203,36,14,44,098,35*73
$GPGSV,3,2,12,32,36,296,35,22,29,147,31,16,28,342,29,11,17,229,36*76
$GPGSV,3,3,12,30,15,000,36,24,12,242,35,20,11,299,,31,04,032,*78
$GPRMC,213324.999,A,1717.7828,S,06950.4850,W,8.66,224.09,280411,,,A*60
$GPGGA,213325.999,1717.7845,S,06950.4866,W,1,10,0.9,4466.7,M,34.4,M,,0000*6A
$GPGSA,M,3,03,06,19,14,32,22,11,30,24,20,,,1.6,0.9,1.3*3C
$GPRMC,213325.999,A,1717.7845,S,06950.4866,W,8.66,222.48,280411,,,A*6C
$GPGGA,213327.000,1717.7863,S,06950.4881,W,1,11,0.9,4465.9,M,34.4,M,,0000*60
$GPGSA,M,3,03,06,19,14,32,22,16,11,30,24,20,,1.6,0.9,1.3*3B
$GPRMC,213327.000,A,1717.7863,S,06950.4881,W,9.19,222.75,280411,,,A*6D
$GPGGA,213327.999,1717.7882,S,06950.4899,W,1,10,0.9,4466.8,M,34.4,M,,0000*6C
$GPGSA,M,3,03,06,19,14,32,22,16,11,30,24,,,1.6,0.9,1.3*39
$GPRMC,213327.999,A,1717.7882,S,06950.4899,W,9.29,227.26,280411,,,A*62
$GPGGA,213329.000,1717.7898,S,06950.4916,W,1,11,0.9,4465.8,M,34.4,M,,0000*64
$GPGSA,M,3,03,06,19,14,32,22,16,11,30,24,20,,1.6,0.9,1.3*3B
$GPRMC,213329.000,A,1717.7898,S,06950.4916,W,9.68,231.41,280411,,,A*6B
$GPGGA,213330.000,1717.7913,S,06950.4938,W,1,11,0.9,4466.7,M,34.4,M,,0000*6E
$GPGSA,M,3,03,06,19,14,32,22,16,11,30,24,20,,1.6,0.9,1.3*3B
$GPGSV,3,1,12,03,87,223,41,06,73,054,36,19,53,203,36,14,44,098,35*7C
$GPGSV,3,2,12,32,36,296,32,22,29,147,36,16,28,342,34,11,17,229,37*7B
$GPGSV,3,3,12,30,15,000,35,24,12,242,35,20,11,299,28,31,04,032,*71
$GPRMC,213330.000,A,1717.7913,S,06950.4938,W,8.90,223.11,280411,,,A*6D
$GPGGA,213331.000,1717.7931,S,06950.4956,W,1,11,0.9,4466.5,M,34.4,M,,0000*65
$GPGSA,M,3,03,06,19,14,32,22,16,11,30,24,20,,1.6,0.9,1.3*3B
$GPRMC,213331.000,A,1717.7931,S,06950.4956,W,9.09,220.84,280411,,,A*6A
$GPGGA,213331.999,1717.7949,S,06950.4975,W,1,10,0.9,4467.6,M,34.4,M,,0000*61
$GPGSA,M,3,03,06,19,14,32,22,16,11,30,24,,,1.6,0.9,1.3*39
$GPRMC,213331.999,A,1717.7949,S,06950.4975,W,9.04,224.06,280411,,,A*6E
$GPGGA,213332.999,1717.7968,S,06950.4996,W,1,10,0.9,4468.5,M,34.4,M,,0000*60
$GPGSA,M,3,03,06,19,14,32,22,16,11,30,24,,,1.6,0.9,1.3*39
$GPRMC,213332.999,A,1717.7968,S,06950.4996,W,9.07,222.96,280411,,,A*6F
$GPGGA,213334.000,1717.7986,S,06950.5013,W,1,11,0.9,4468.3,M,34.4,M,,0000*6D
$GPGSA,M,3,03,06,19,14,32,22,16,11,30,24,20,,1.6,0.9,1.3*3B
$GPRMC,213334.000,A,1717.7986,S,06950.5013,W,9.35,224.48,280411,,,A*61
$GPGGA,213335.000,1717.8004,S,06950.5032,W,1,11,0.9,4469.0,M,34.4,M,,0000*61
$GPGSA,M,3,03,06,19,14,32,22,16,11,30,24,20,,1.6,0.9,1.3*3B
$GPGSV,3,1,12,03,87,223,41,06,73,054,39,19,53,203,36,14,44,098,35*73
$GPGSV,3,2,12,32,36,296,35,22,29,147,30,16,28,342,31,11,17,229,37*7F
$GPGSV,3,3,12,30,15,000,33,24,12,242,35,20,11,299,25,31,04,032,*7A
$GPRMC,213335.000,A,1717.8004,S,06950.5032,W,8.84,220.61,280411,,,A*6B
$GPGGA,213335.999,1717.8021,S,06950.5050,W,1,10,0.9,4469.2,M,34.4,M,,0000*68
$GPGSA,M,3,03,06,19,14,32,22,16,11,30,24,,,1.6,0.9,1.3*39
$GPRMC,213335.999,A,1717.8021,S,06950.5050,W,8.78,224.77,280411,,,A*61
$GPGGA,213337.000,1717.8038,S,06950.5065,W,1,11,0.9,4469.1,M,34.4,M,,0000*6F
$GPGSA,M,3,03,06,19,14,32,22,16,11,30,24,20,,1.6,0.9,1.3*3B
$GPRMC,213337.000,A,1717.8038,S,06950.5065,W,8.51,224.26,280411,,,A*6B
$GPGGA,213338.000,1717.8056,S,06950.5083,W,1,11,0.9,4468.9,M,34.4,M,,0000*69
$GPGSA,M,3,03,06,19,14,32,22,16,11,30,24,20,,1.6,0.9,1.3*3B
$GPRMC,213338.000,A,1717.8056,S,06950.5083,W,9.65,224.00,280411,,,A*66
$GPGGA,213339.002,1717.8075,S,06950.5104,W,1,10,0.9,4468.7,M,34.4,M,,0000*6A
$GPGSA,M,3,03,06,19,14,32,22,16,11,30,24,,,1.6,0.9,1.3*39
$GPRMC,213339.002,A,1717.8075,S,06950.5104,W,9.40,227.62,280411,,,A*6A
$GPGGA,213339.998,1717.8092,S,06950.5121,W,1,11,0.9,4468.6,M,34.4,M,,0000*6E
$GPGSA,M,3,03,06,19,14,32,22,16,11,30,24,20,,1.6,0.9,1.3*3B
$GPGSV,3,1,12,03,87,223,40,06,73,054,36,19,53,203,35,14,44,098,35*7E
$GPGSV,3,2,12,32,36,296,32,22,29,147,36,16,28,342,34,11,17,229,36*7A
$GPGSV,3,3,12,30,15,000,32,24,12,242,39,20,11,299,30,31,04,032,*73
$GPRMC,213339.998,A,1717.8092,S,06950.5121,W,8.84,222.71,280411,,,A*60
$GPGGA,213340.999,1717.8109,S,06950.5138,W,1,10,0.9,4467.9,M,34.4,M,,0000*6B
$GPGSA,M,3,03,06,19,14,32,22,16,11,30,24,,,1.6,0.9,1.3*39
$GPRMC,213340.999,A,1717.8109,S,06950.5138,W,8.31,226.12,280411,,,A*6B
$GPGGA,213342.000,1717.8125,S,06950.5156,W,1,11,0.9,4468.1,M,34.4,M,,0000*60
$GPGSA,M,3,03,06,19,14,32,22,16,11,30,24,20,,1.6,0.9,1.3*3B
$GPRMC,213342.000,A,1717.8125,S,06950.5156,W,8.43,226.29,280411,,,A*6B
$GPGGA,213343.001,1717.8145,S,06950.5174,W,1,11,0.9,4468.6,M,34.4,M,,0000*61
$GPGSA,M,3,03,06,19,14,32,22,16,11,30,24,20,,1.6,0.9,1.3*3B
$GPRMC,213343.001,A,1717.8145,S,06950.5174,W,8.45,221.19,280411,,,A*6F
$GPGGA,213344.001,1717.8163,S,06950.5191,W,1,11,0.9,4469.0,M,34.4,M,,0000*6E
$GPGSA,M,3,03,06,19,14,32,22,16,11,30,24,20,,1.6,0.9,1.3*3B
$GPRMC,213344.001,A,1717.8163,S,06950.5191,W,8.50,223.18,280411,,,A*60
$GPGGA,213345.000,1717.8178,S,06950.5212,W,1,11,0.9,4469.8,M,34.4,M,,0000*64
$GPGSA,M,3,03,06,19,14,32,22,16,11,30,24,20,,1.6,0.9,1.3*3B
$GPGSV,3,1,12,03,87,223,40,06,73,054,35,19,53,203,35,14,44,098,35*7D
$GPGSV,3,2,12,32,36,296,34,22,29,147,37,16,28,342,35,11,17,229,35*7F
$GPGSV,3,3,12,30,15,000,35,24,12,242,39,20,11,299,30,31,04,032,*74
$GPRMC,213345.000,A,1717.8178,S,06950.5212,W,8.56,226.69,280411,,,A*67
$GPGGA,213346.000,1717.8193,S,06950.5230,W,1,11,0.9,4470.1,M,34.4,M,,0000*63
$GPGSA,M,3,03,06,19,14,32,22,16,11,30,24,20,,1.6,0.9,1.3*3B
$GPRMC,213346.000,A,1717.8193,S,06950.5230,W,8.38,225.21,280411,,,A*66
$GPGGA,213347.001,1717.8212,S,06950.5245,W,1,11,0.9,4469.9,M,34.4,M,,0000*6B
$GPGSA,M,3,03,06,19,14,32,22,16,11,30,24,20,,1.6,0.9,1.3*3B
$GPRMC,213347.001,A,1717.8212,S,06950.5245,W,8.65,223.29,280411,,,A*68
$GPGGA,213348.000,1717.8230,S,06950.5262,W,1,09,1.1,4470.2,M,34.4,M,,0000*63
$GPGSA,M,3,03,06,19,14,32,11,30,24,20,,,,1.9,1.1,1.5*3C
$GPRMC,213348.000,A,1717.8230,S,06950.5262,W,8.65,223.08,280411,,,A*60
$GPGGA,213348.998,1717.8246,S,06950.5280,W,1,10,0.9,4470.0,M,34.4,M,,0000*65
$GPGSA,M,3,03,06,19,14,32,22,11,30,24,20,,,1.6,0.9,1.3*3C
$GPRMC,213348.998,A,1717.8246,S,06950.5280,W,8.39,227.54,280411,,,A*61
$GPGGA,213350.002,1717.8260,S,06950.5296,W,1,10,1.1,4469.5,M,34.4,M,,0000*61
$GPGSA,M,3,03,06,19,14,32,16,11,30,24,20,,,1.8,1.1,1.5*3A
$GPGSV,3,1,12,03,87,223,41,06,73,054,38,19,53,203,35,14,44,098,35*71
$GPGSV,3,2,12,32,36,296,33,22,29,147,,16,28,342,29,11,17,229,36*72
$GPGSV,3,3,12,30,15,000,31,24,12,242,35,20,11,299,31,31,04,032,26*79
$GPRMC,213350.002,A,1717.8260,S,06950.5296,W,7.90,230.45,280411,,,A*6B
$GPGGA,213351.000,1717.8273,S,06950.5319,W,1,11,0.9,4469.2,M,34.4,M,,0000*69
$GPGSA,M,3,03,06,19,14,32,22,16,11,30,24,20,,1.6,0.9,1.3*3B
$GPRMC,213351.000,A,1717.8273,S,06950.5319,W,8.39,230.89,280411,,,A*60
$GPGGA,213352.000,1717.8289,S,06950.5336,W,1,11,0.9,4468.6,M,34.4,M,,0000*67
$GPGSA,M,3,03,06,19,14,32,22,16,11,30,24,20,,1.6,0.9,1.3*3B
$GPRMC,213352.000,A,1717.8289,S,06950.5336,W,8.24,232.71,280411,,,A*62
$GPGGA,213353.000,1717.8304,S,06950.5353,W,1,11,0.9,4468.5,M,34.4,M,,0000*62
$GPGSA,M,3,03,06,19,14,32,22,16,11,30,24,20,,1.6,0.9,1.3*3B
$GPRMC,213353.000,A,1717.8304,S,06950.5353,W,7.86,223.95,280411,,,A*69
$GPGGA,213354.000,1717.8318,S,06950.5369,W,1,09,1.1,4468.2,M,34.4,M,,0000*66
$GPGSA,M,3,03,06,19,14,32,11,30,24,20,,,,1.9,1.1,1.5*3C
$GPRMC,213354.000,A,1717.8318,S,06950.5369,W,7.53,223.38,280411,,,A*65
$GPGGA,213354.999,1717.8332,S,06950.5383,W,1,10,0.9,4468.1,M,34.4,M,,0000*61
$GPGSA,M,3,03,06,19,14,32,22,16,11,30,24,,,1.6,0.9,1.3*39
$GPGSV,3,1,12,03,87,223,39,06,73,054,37,19,53,203,35,14,44,098,31*75
$GPGSV,3,2,12,32,36,296,34,22,29,147,36,16,28,342,30,11,17,229,36*78
$GPGSV,3,3,12,30,15,000,30,24,12,242,38,20,11,299,,31,04,032,*73
$GPRMC,213354.999,A,1717.8332,S,06950.5383,W,6.72,223.22,280411,,,A*69
$GPGGA,213355.999,1717.8347,S,06950.5398,W,1,10,0.9,4468.3,M,34.4,M,,0000*6A
$GPGSA,M,3,03,06,19,14,32,22,16,11,30,24,,,1.6,0.9,1.3*39
$GPRMC,213355.999,A,1717.8347,S,06950.5398,W,6.59,225.38,280411,,,A*64
$GPGGA,213357.000,1717.8360,S,06950.5415,W,1,11,0.9,4468.9,M,34.4,M,,0000*6D
$GPGSA,M,3,03,06,19,14,32,22,16,11,30,24,20,,1.6,0.9,1.3*3B
$GPRMC,213357.000,A,1717.8360,S,06950.5415,W,6.40,225.67,280411,,,A*6A
$GPGGA,213357.998,1717.8371,S,06950.5428,W,1,10,0.9,4469.1,M,34.4,M,,0000*63
$GPGSA,M,3,03,06,19,14,32,22,16,11,30,24,,,1.6,0.9,1.3*39
$GPRMC,213357.998,A,1717.8371,S,06950.5428,W,6.41,225.38,280411,,,A*67
$GPGGA,213359.000,1717.8383,S,06950.5442,W,1,10,0.9,4469.1,M,34.4,M,,0000*64
$GPGSA,M,3,03,06,19,14,32,22,16,11,30,24,,,1.6,0.9,1.3*39
$GPRMC,213359.000,A,1717.8383,S,06950.5442,W,6.53,220.62,280411,,,A*69
$GPGGA,213400.002,1717.8398,S,06950.5452,W,1,11,0.9,4469.6,M,34.4,M,,0000*60
$GPGSA,M,3,03,06,19,14,32,22,16,11,30,24,20,,1.6,0.9,1.3*3B
$GPGSV,3,1,12,03,87,223,41,06,73,054,37,19,53,203,36,14,44,098,35*7D
$GPGSV,3,2,12,32,36,296,36,22,29,147,33,16,28,342,31,11,17,229,37*7F
$GPGSV,3,3,12,30,15,000,30,24,12,242,36,20,11,299,32,31,04,032,*7C
$GPRMC,213400.002,A,1717.8398,S,06950.5452,W,5.99,230.06,280411,,,A*6D
$GPGGA,213401.001,1717.8408,S,06950.5462,W,1,11,0.9,4468.7,M,34.4,M,,0000*6F
$GPGSA,M,3,03,06,19,14,32,22,16,11,30,24,20,,1.6,0.9,1.3*3B
$GPRMC,213401.001,A,1717.8408,S,06950.5462,W,5.25,227.89,280411,,,A*64
$GPGGA,213401.997,1717.8420,S,06950.5470,W,1,09,1.2,4469.2,M,34.4,M,,0000*67
$GPGSA,M,3,03,06,19,14,32,22,11,24,20,,,,2.0,1.2,1.6*35
$GPRMC,213401.997,A,1717.8420,S,06950.5470,W,3.71,226.83,280411,,,A*67
$GPGGA,213403.000,1717.8427,S,06950.5478,W,1,10,0.9,4468.7,M,34.4,M,,0000*6B
$GPGSA,M,3,03,06,19,14,32,22,11,30,24,20,,,1.6,0.9,1.3*3C
$GPRMC,213403.000,A,1717.8427,S,06950.5478,W,3.86,224.64,280411,,,A*6E
$GPGGA,213404.003,1717.8436,S,06950.5480,W,1,11,0.9,4468.8,M,34.4,M,,0000*66
$GPGSA,M,3,03,06,19,14,32,22,16,11,30,24,20,,1.6,0.9,1.3*3B
$GPRMC,213404.003,A,1717.8436,S,06950.5480,W,3.67,224.16,280411,,,A*67
$GPGGA,213404.998,1717.8442,S,06950.5486,W,1,10,0.9,4468.8,M,34.4,M,,0000*69
$GPGSA,M,3,03,06,19,14,32,22,11,30,24,20,,,1.6,0.9,1.3*3C
$GPGSV,3,1,12,03,87,223,40,06,73,054,37,19,53,203,38,14,44,098,34*73
$GPGSV,3,2,12,32,36,296,35,22,29,147,33,16,28,342,,11,17,229,36*7F
$GPGSV,3,3,12,30,15,000,32,24,12,242,34,20,11,299,32,31,04,032,29*77
$GPRMC,213404.998,A,1717.8442,S,06950.5486,W,4.10,221.59,280411,,,A*60
$GPGGA,213406.002,1717.8449,S,06950.5494,W,1,11,0.9,4469.2,M,34.4,M,,0000*63
$GPGSA,M,3,03,06,19,14,32,22,16,11,30,24,20,,1.6,0.9,1.3*3B
$GPRMC,213406.002,A,1717.8449,S,06950.5494,W,3.32,226.40,280411,,,A*68
$GPGGA,213406.997,1717.8452,S,06950.5500,W,1,08,1.3,4468.6,M,34.4,M,,0000*66
$GPGSA,M,3,03,06,19,14,32,11,24,20,,,,,2.2,1.3,1.8*38
$GPRMC,213406.997,A,1717.8452,S,06950.5500,W,2.04,209.28,280411,,,A*6C
$GPGGA,213408.002,1717.8458,S,06950.5505,W,1,11,0.9,4469.5,M,34.4,M,,0000*63
$GPGSA,M,3,03,06,19,14,32,22,16,11,30,24,20,,1.6,0.9,1.3*3B
$GPRMC,213408.002,A,1717.8458,S,06950.5505,W,3.22,220.10,280411,,,A*6D
$GPGGA,213408.999,1717.8466,S,06950.5512,W,1,11,0.9,4468.8,M,34.4,M,,0000*6F
$GPGSA,M,3,03,06,19,14,32,22,16,11,30,24,20,,1.6,0.9,1.3*3B
$GPRMC,213408.999,A,1717.8466,S,06950.5512,W,3.85,222.64,280411,,,A*61
$GPGGA,213409.999,1717.8473,S,06950.5514,W,1,11,0.9,4467.0,M,34.4,M,,0000*6B
$GPGSA,M,3,03,06,19,14,32,22,16,11,30,24,20,,1.6,0.9,1.3*3B
$GPGSV,3,1,12,03,87,223,39,06,73,054,35,19,53,203,39,14,44,098,35*7F
$GPGSV,3,2,12,32,36,296,37,22,29,147,37,16,28,342,30,11,17,229,33*7F
$GPGSV,3,3,12,30,15,000,33,24,12,242,34,20,11,299,31,31,04,032,*7E
$GPRMC,213409.999,A,1717.8473,S,06950.5514,W,4.61,221.40,280411,,,A*6A
$GPGGA,213410.999,1717.8482,S,06950.5522,W,1,11,0.9,4467.1,M,34.4,M,,0000*69
$GPGSA,M,3,03,06,19,14,32,22,16,11,30,24,20,,1.6,0.9,1.3*3B
$GPRMC,213410.999,A,1717.8482,S,06950.5522,W,4.18,225.07,280411,,,A*60
$GPGGA,213412.001,1717.8489,S,06950.5531,W,1,10,0.9,4466.7,M,34.4,M,,0000*6C
$GPGSA,M,3,03,06,19,14,32,22,11,30,24,20,,,1.6,0.9,1.3*3C
$GPRMC,213412.001,A,1717.8489,S,06950.5531,W,3.90,230.72,280411,,,A*62
$GPGGA,213412.996,1717.8498,S,06950.5542,W,1,11,0.9,4466.5,M,34.4,M,,0000*6C
$GPGSA,M,3,03,06,19,14,32,22,16,11,30,24,20,,1.6,0.9,1.3*3B
$GPRMC,213412.996,A,1717.8498,S,06950.5542,W,4.65,221.65,280411,,,A*6A
$GPGGA,213414.000,1717.8510,S,06950.5553,W,1,11,0.9,4467.0,M,34.4,M,,0000*69
$GPGSA,M,3,03,06,19,14,32,22,16,11,30,24,20,,1.6,0.9,1.3*3B
$GPRMC,213414.000,A,1717.8510,S,06950.5553,W,4.99,219.12,280411,,,A*63
$GPGGA,213415.004,1717.8523,S,06950.5563,W,1,10,0.9,4466.6,M,34.4,M,,0000*69
$GPGSA,M,3,03,06,19,14,32,22,11,30,24,20,,,1.6,0.9,1.3*3C
$GPGSV,3,1,12,03,87,223,40,06,73,054,36,19,53,203,37,14,44,098,29*71
$GPGSV,3,2,12,32,36,296,33,22,29,147,34,16,28,342,,11,17,229,36*7E
$GPGSV,3,3,12,30,15,000,29,24,12,242,37,20,11,299,35,31,04,032,*72
$GPRMC,213415.004,A,1717.8523,S,06950.5563,W,5.61,223.95,280411,,,A*65
$GPGGA,213415.998,1717.8531,S,06950.5573,W,1,10,0.9,4466.4,M,34.4,M,,0000*65
$GPGSA,M,3,03,06,19,14,32,22,11,30,24,20,,,1.6,0.9,1.3*3C
$GPRMC,213415.998,A,1717.8531,S,06950.5573,W,5.17,227.88,280411,,,A*62
$GPGGA,213417.000,1717.8540,S,06950.5582,W,1,11,0.9,4466.1,M,34.4,M,,0000*63
$GPGSA,M,3,03,06,19,14,32,22,16,11,30,24,20,,1.6,0.9,1.3*3B
$GPRMC,213417.000,A,1717.8540,S,06950.5582,W,4.16,215.51,280411,,,A*65
$GPGGA,213418.001,1717.8546,S,06950.5586,W,1,11,0.9,4466.2,M,34.4,M,,0000*6C
$GPGSA,M,3,03,06,19,14,32,22,16,11,30,24,20,,1.6,0.9,1.3*3B
$GPRMC,213418.001,A,1717.8546,S,06950.5586,W,2.56,213.02,280411,,,A*6B
$GPGGA,213419.001,1717.8553,S,06950.5590,W,1,11,0.9,4467.0,M,34.4,M,,0000*6D
$GPGSA,M,3,03,06,19,14,32,22,16,11,30,24,20,,1.6,0.9,1.3*3B
$GPRMC,213419.001,A,1717.8553,S,06950.5590,W,2.19,231.34,280411,,,A*67
$GPGGA,213420.000,1717.8553,S,06950.5596,W,1,11,0.9,4466.8,M,34.4,M,,0000*69
$GPGSA,M,3,03,06,19,14,32,22,16,11,30,24,20,,1.6,0.9,1.3*3B
$GPGSV,3,1,12,03,87,223,41,06,73,054,36,19,53,203,37,14,44,098,31*79
$GPGSV,3,2,12,32,36,296,38,22,29,147,35,16,28,342,31,11,17,229,33*73
$GPGSV,3,3,12,30,15,000,29,24,12,242,39,20,11,299,35,31,04,032,*7C
$GPRMC,213420.000,A,1717.8553,S,06950.5596,W,2.25,241.95,280411,,,A*69
$GPGGA,213421.000,1717.8557,S,06950.5599,W,1,11,0.9,4466.7,M,34.4,M,,0000*6C
$GPGSA,M,3,03,06,19,14,32,22,16,11,30,24,20,,1.6,0.9,1.3*3B
$GPRMC,213421.000,A,1717.8557,S,06950.5599,W,1.89,211.99,280411,,,A*6F
$GPGGA,213422.002,1717.8557,S,06950.5601,W,1,10,0.9,4466.4,M,34.4,M,,0000*6D
$GPGSA,M,3,03,06,19,14,32,22,11,30,24,20,,,1.6,0.9,1.3*3C
$GPRMC,213422.002,A,1717.8557,S,06950.5601,W,0.63,218.87,280411,,,A*6F
$GPGGA,213422.998,1717.8558,S,06950.5602,W,1,10,0.9,4466.2,M,34.4,M,,0000*6D
$GPGSA,M,3,03,06,19,14,32,22,11,30,24,20,,,1.6,0.9,1.3*3C
$GPRMC,213422.998,A,1717.8558,S,06950.5602,W,0.68,170.89,280411,,,A*61
$GPGGA,213424.001,1717.8560,S,06950.5606,W,1,11,0.9,4467.0,M,34.4,M,,0000*6F
$GPGSA,M,3,03,06,19,14,32,22,16,11,30,24,20,,1.6,0.9,1.3*3B
$GPRMC,213424.001,A,1717.8560,S,06950.5606,W,0.99,198.01,280411,,,A*69
$GPGGA,213425.000,1717.8561,S,06950.5610,W,1,10,1.0,4467.5,M,34.4,M,,0000*65
$GPGSA,M,3,03,06,19,14,32,22,16,11,24,20,,,1.8,1.0,1.5*38
$GPGSV,3,1,12,03,87,223,40,06,73,054,34,19,53,203,39,14,44,098,33*76
$GPGSV,3,2,12,32,36,296,34,22,29,147,35,16,28,342,29,11,17,229,35*70
$GPGSV,3,3,12,30,15,000,,24,12,242,38,20,11,299,32,31,04,032,28*7B
$GPRMC,213425.000,A,1717.8561,S,06950.5610,W,2.39,227.98,280411,,,A*60
$GPGGA,213426.001,1717.8566,S,06950.5616,W,1,11,0.9,4467.6,M,34.4,M,,0000*6C
$GPGSA,M,3,03,06,19,14,32,22,16,11,30,24,20,,1.6,0.9,1.3*3B
$GPRMC,213426.001,A,1717.8566,S,06950.5616,W,3.60,216.33,280411,,,A*6D
$GPGGA,213427.001,1717.8573,S,06950.5626,W,1,11,0.9,4468.9,M,34.4,M,,0000*6A
$GPGSA,M,3,03,06,19,14,32,22,16,11,30,24,20,,1.6,0.9,1.3*3B
$GPRMC,213427.001,A,1717.8573,S,06950.5626,W,3.74,227.79,280411,,,A*62
$GPGGA,213428.001,1717.8581,S,06950.5633,W,1,11,0.9,4468.4,M,34.4,M,,0000*61
$GPGSA,M,3,03,06,19,14,32,22,16,11,30,24,20,,1.6,0.9,1.3*3B
$GPRMC,213428.001,A,1717.8581,S,06950.5633,W,4.74,226.50,280411,,,A*69
$GPGGA,213429.001,1717.8587,S,06950.5646,W,1,11,0.9,4470.1,M,34.4,M,,0000*68
$GPGSA,M,3,03,06,19,14,32,22,16,11,30,24,20,,1.6,0.9,1.3*3B
$GPRMC,213429.001,A,1717.8587,S,06950.5646,W,4.69,226.88,280411,,,A*65
$GPGGA,213430.001,1717.8597,S,06950.5653,W,1,11,0.9,4469.1,M,34.4,M,,0000*6D
$GPGSA,M,3,03,06,19,14,32,22,16,11,30,24,20,,1.6,0.9,1.3*3B
$GPGSV,3,1,12,03,87,223,40,06,73,054,35,19,53,203,39,14,44,098,30*74
$GPGSV,3,2,12,32,36,296,39,22,29,147,35,16,28,342,25,11,17,229,30*74
$GPGSV,3,3,12,30,15,000,30,24,12,242,37,20,11,299,33,31,04,032,28*76
$GPRMC,213430.001,A,1717.8597,S,06950.5653,W,4.62,231.67,280411,,,A*64
$GPGGA,213430.998,1717.8600,S,06950.5661,W,1,10,1.0,4468.8,M,34.4,M,,0000*69
$GPGSA,M,3,03,06,19,32,22,16,11,30,24,20,,,1.6,1.0,1.3*36
$GPRMC,213430.998,A,1717.8600,S,06950.5661,W,4.43,230.05,280411,,,A*67
$GPGGA,213432.001,1717.8610,S,06950.5667,W,1,10,1.0,4468.6,M,34.4,M,,0000*6B
$GPGSA,M,3,03,06,19,14,32,22,16,11,24,20,,,1.8,1.0,1.5*38
$GPRMC,213432.001,A,1717.8610,S,06950.5667,W,4.48,231.34,280411,,,A*63
$GPGGA,213432.999,1717.8614,S,06950.5677,W,1,10,1.0,4469.3,M,34.4,M,,0000*62
$GPGSA,M,3,03,06,19,32,22,16,11,30,24,20,,,1.6,1.0,1.3*36
$GPRMC,213432.999,A,1717.8614,S,06950.5677,W,2.44,233.07,280411,,,A*66
$GPGGA,213434.001,1717.8617,S,06950.5679,W,1,09,1.2,4469.9,M,34.4,M,,0000*61
$GPGSA,M,3,03,06,19,32,22,16,11,24,20,,,,2.0,1.2,1.6*37
$GPRMC,213434.001,A,1717.8617,S,06950.5679,W,1.87,209.96,280411,,,A*68
$GPGGA,213435.001,1717.8620,S,06950.5679,W,1,11,0.9,4469.9,M,34.4,M,,0000*67
$GPGSA,M,3,03,06,19,14,32,22,16,11,30,24,20,,1.6,0.9,1.3*3B
$GPGSV,3,1,12,03,87,223,40,06,73,054,33,19,53,203,39,14,44,098,25*76
$GPGSV,3,2,12,32,36,296,35,22,29,147,27,16,28,342,34,11,17,229,34*7F
$GPGSV,3,3,12,30,15,000,26,24,12,242,36,20,11,299,28,31,04,032,25*77
$GPRMC,213435.001,A,1717.8620,S,06950.5679,W,1.92,210.49,280411,,,A*63
$GPGGA,213436.000,1717.8622,S,06950.5681,W,1,11,0.9,4469.6,M,34.4,M,,0000*6F
$GPGSA,M,3,03,06,19,14,32,22,16,11,30,24,20,,1.6,0.9,1.3*3B
$GPRMC,213436.000,A,1717.8622,S,06950.5681,W,2.20,211.84,280411,,,A*6E
$GPGGA,213437.000,1717.8624,S,06950.5681,W,1,09,1.1,4469.7,M,34.4,M,,0000*69
$GPGSA,M,3,03,06,19,14,32,16,11,30,24,,,,1.8,1.1,1.5*38
$GPRMC,213437.000,A,1717.8624,S,06950.5681,W,1.06,186.78,280411,,,A*60
$GPGGA,213438.000,1717.8626,S,06950.5680,W,1,07,2.3,4470.1,M,34.4,M,,0000*64
$GPGSA,M,3,03,06,19,32,16,11,24,,,,,,3.5,2.3,2.7*31
$GPRMC,213438.000,A,1717.8626,S,06950.5680,W,0.76,185.60,280411,,,A*60
$GPGGA,213438.999,1717.8625,S,06950.5681,W,1,08,1.2,4470.1,M,34.4,M,,0000*62
$GPGSA,M,3,03,06,19,14,32,16,11,24,,,,,2.2,1.2,1.8*3C
$GPRMC,213438.999,A,1717.8625,S,06950.5681,W,0.31,242.99,280411,,,A*66
$GPGGA,213439.998,1717.8624,S,06950.5686,W,1,10,0.9,4471.2,M,34.4,M,,0000*65
$GPGSA,M,3,03,06,19,14,32,22,16,11,30,24,,,1.6,0.9,1.3*39
$GPGSV,3,1,12,03,87,223,41,06,73,054,34,19,53,203,39,14,44,098,29*7C
$GPGSV,3,2,12,32,36,296,36,22,29,147,28,16,28,342,34,11,17,229,35*72
$GPGSV,3,3,12,30,15,000,29,24,12,242,36,20,11,299,,31,04,032,30*76
$GPRMC,213439.998,A,1717.8624,S,06950.5686,W,0.85,266.71,280411,,,A*6F
$GPGGA,213441.000,1717.8625,S,06950.5687,W,1,10,0.9,4470.8,M,34.4,M,,0000*69
$GPGSA,M,3,03,06,19,14,32,22,16,11,30,24,,,1.6,0.9,1.3*39
$GPRMC,213441.000,A,1717.8625,S,06950.5687,W,1.62,246.93,280411,,,A*6E
$GPGGA,213442.001,1717.8625,S,06950.5686,W,1,08,1.2,4471.4,M,34.4,M,,0000*64
$GPGSA,M,3,03,06,19,32,22,16,11,24,,,,,2.1,1.2,1.7*35
$GPRMC,213442.001,A,1717.8625,S,06950.5686,W,0.17,119.55,280411,,,A*6D
$GPGGA,213443.000,1717.8625,S,06950.5684,W,1,08,1.2,4471.1,M,34.4,M,,0000*63
$GPGSA,M,3,03,06,19,32,22,16,11,24,,,,,2.1,1.2,1.7*35
$GPRMC,213443.000,A,1717.8625,S,06950.5684,W,0.12,108.66,280411,,,A*6A
$GPGGA,213443.999,1717.8626,S,06950.5684,W,1,10,0.9,4470.9,M,34.4,M,,0000*63
$GPGSA,M,3,03,06,19,14,32,22,16,11,30,24,,,1.6,0.9,1.3*39
$GPRMC,213443.999,A,1717.8626,S,06950.5684,W,0.73,186.74,280411,,,A*62
$GPGGA,213445.001,1717.8626,S,06950.5686,W,1,11,0.9,4470.7,M,34.4,M,,0000*60
$GPGSA,M,3,03,06,19,14,32,22,16,11,30,24,20,,1.6,0.9,1.3*3B
$GPGSV,3,1,12,03,87,223,41,06,73,054,36,19,53,203,39,14,44,098,26*71
$GPGSV,3,2,12,32,36,296,36,22,29,147,34,16,28,342,30,11,17,229,35*7B
$GPGSV,3,3,12,30,15,000,28,24,12,242,35,20,11,299,27,31,04,032,30*71
$GPRMC,213445.001,A,1717.8626,S,06950.5686,W,0.61,255.49,280411,,,A*6E
$GPGGA,213445.997,1717.8626,S,06950.5687,W,1,09,1.0,4471.4,M,34.4,M,,0000*64
$GPGSA,M,3,03,06,19,32,22,16,11,30,24,,,,1.7,1.0,1.3*35
$GPRMC,213445.997,A,1717.8626,S,06950.5687,W,0.50,321.04,280411,,,A*60
$GPGGA,213447.001,1717.8628,S,06950.5686,W,1,10,0.9,4471.0,M,34.4,M,,0000*6B
$GPGSA,M,3,03,06,19,14,32,22,16,11,30,24,,,1.6,0.9,1.3*39
$GPRMC,213447.001,A,1717.8628,S,06950.5686,W,0.76,219.22,280411,,,A*61
$GPGGA,213447.998,1717.8627,S,06950.5685,W,1,11,0.9,4471.0,M,34.4,M,,0000*6F
$GPGSA,M,3,03,06,19,14,32,22,16,11,30,24,20,,1.6,0.9,1.3*3B
$GPRMC,213447.998,A,1717.8627,S,06950.5685,W,1.41,294.37,280411,,,A*60
$GPGGA,213449.001,1717.8626,S,06950.5688,W,1,09,1.0,4470.4,M,34.4,M,,0000*60
$GPGSA,M,3,03,06,19,32,22,16,11,30,24,,,,1.7,1.0,1.3*35
$GPRMC,213449.001,A,1717.8626,S,06950.5688,W,0.79,211.02,280411,,,A*6A
$GPGGA,213450.001,1717.8630,S,06950.5685,W,1,10,0.9,4470.0,M,34.4,M,,0000*66
$GPGSA,M,3,03,06,19,14,32,22,16,11,30,24,,,1.6,0.9,1.3*39
$GPGSV,3,1,12,03,87,223,41,06,73,054,35,19,53,203,39,14,44,098,26*72
$GPGSV,3,2,12,32,36,296,35,22,29,147,33,16,28,342,33,11,17,229,36*7F
$GPGSV,3,3,12,30,15,000,29,24,12,242,35,20,11,299,,31,04,032,31*74
$GPRMC,213450.001,A,1717.8630,S,06950.5685,W,1.93,167.13,280411,,,A*6F
$GPGGA,213450.998,1717.8633,S,06950.5685,W,1,11,0.9,4469.8,M,34.4,M,,0000*6D
$GPGSA,M,3,03,06,19,14,32,22,16,11,30,24,20,,1.6,0.9,1.3*3B
$GPRMC,213450.998,A,1717.8633,S,06950.5685,W,0.21,213.85,280411,,,A*62
$GPGGA,213452.002,1717.8630,S,06950.5684,W,1,10,1.0,4469.3,M,34.4,M,,0000*65
$GPGSA,M,3,03,06,19,32,22,16,11,30,24,20,,,1.6,1.0,1.3*36
$GPRMC,213452.002,A,1717.8630,S,06950.5684,W,1.55,12.69,280411,,,A*5B
$GPGGA,213453.000,1717.8629,S,06950.5684,W,1,10,1.0,4469.4,M,34.4,M,,0000*69
$GPGSA,M,3,03,06,19,32,22,16,11,30,24,20,,,1.6,1.0,1.3*36
$GPRMC,213453.000,A,1717.8629,S,06950.5684,W,0.57,307.49,280411,,,A*66
$GPGGA,213454.000,1717.8629,S,06950.5683,W,1,10,0.9,4468.5,M,34.4,M,,0000*61
$GPGSA,M,3,03,06,19,14,32,22,16,11,30,24,,,1.6,0.9,1.3*39
$GPRMC,213454.000,A,1717.8629,S,06950.5683,W,0.93,252.62,280411,,,A*66
$GPGGA,213455.001,1717.8628,S,06950.5684,W,1,11,0.9,4467.4,M,34.4,M,,0000*68
$GPGSA,M,3,03,06,19,14,32,22,16,11,30,24,20,,1.6,0.9,1.3*3B
$GPGSV,3,1,12,03,87,223,40,06,73,054,35,19,53,203,39,14,44,098,27*72
$GPGSV,3,2,12,32,36,296,36,22,29,147,32,16,28,342,32,11,17,229,36*7C
$GPGSV,3,3,12,30,15,000,28,24,12,242,36,20,11,299,29,31,04,032,31*7D
$GPRMC,213455.001,A,1717.8628,S,06950.5684,W,1.25,253.72,280411,,,A*6C
$GPGGA,213456.001,1717.8632,S,06950.5688,W,1,11,0.9,4468.6,M,34.4,M,,0000*61
$GPGSA,M,3,03,06,19,14,32,22,16,11,30,24,20,,1.6,0.9,1.3*3B
$GPRMC,213456.001,A,1717.8632,S,06950.5688,W,1.25,232.88,280411,,,A*6A
$GPGGA,213457.002,1717.8631,S,06950.5689,W,1,09,1.1,4468.2,M,34.4,M,,0000*65
$GPGSA,M,3,03,06,19,14,32,22,16,11,24,,,,1.9,1.1,1.6*39
$GPRMC,213457.002,A,1717.8631,S,06950.5689,W,1.01,311.18,280411,,,A*65
$GPGGA,213457.998,1717.8629,S,06950.5691,W,1,11,0.9,4469.3,M,34.4,M,,0000*6F
$GPGSA,M,3,03,06,19,14,32,22,16,11,30,24,20,,1.6,0.9,1.3*3B
$GPRMC,213457.998,A,1717.8629,S,06950.5691,W,0.35,359.93,280411,,,A*66
$GPGGA,213458.998,1717.8627,S,06950.5691,W,1,10,0.9,4468.8,M,34.4,M,,0000*65
$GPGSA,M,3,03,06,19,14,32,22,16,11,30,24,,,1.6,0.9,1.3*39
$GPRMC,213458.998,A,1717.8627,S,06950.5691,W,0.47,151.91,280411,,,A*6A
$GPGGA,213500.002,1717.8625,S,06950.5700,W,1,11,0.9,4470.6,M,34.4,M,,0000*6E
$GPGSA,M,3,03,06,19,14,32,22,16,11,30,24,20,,1.6,0.9,1.3*3B
$GPGSV,3,1,12,03,87,223,40,06,73,054,35,19,53,203,39,14,44,098,31*75
$GPGSV,3,2,12,32,36,296,38,22,29,147,35,16,28,342,30,11,17,229,35*74
$GPGSV,3,3,12,30,15,000,26,24,12,242,36,20,11,299,27,31,04,032,*7F
$GPRMC,213500.002,A,1717.8625,S,06950.5700,W,0.80,47.15,280411,,,A*56
$GPGGA,213501.000,1717.8623,S,06950.5698,W,1,11,0.9,4469.7,M,34.4,M,,0000*62
$GPGSA,M,3,03,06,19,14,32,22,16,11,30,24,20,,1.6,0.9,1.3*3B
$GPRMC,213501.000,A,1717.8623,S,06950.5698,W,0.28,22.81,280411,,,A*5F
$GPGGA,213501.998,1717.8618,S,06950.5697,W,1,10,0.9,4469.5,M,34.4,M,,0000*6E
$GPGSA,M,3,03,06,19,14,32,22,16,11,30,24,,,1.6,0.9,1.3*39
$GPRMC,213501.998,A,1717.8618,S,06950.5697,W,0.75,201.84,280411,,,A*6E
$GPGGA,213503.000,1717.8620,S,06950.5699,W,1,10,0.9,4468.9,M,34.4,M,,0000*6C
$GPGSA,M,3,03,06,19,14,32,22,16,11,30,24,,,1.6,0.9,1.3*39
$GPRMC,213503.000,A,1717.8620,S,06950.5699,W,0.16,221.14,280411,,,A*6F
$GPGGA,213504.002,1717.8618,S,06950.5702,W,1,11,0.9,4470.2,M,34.4,M,,0000*62
$GPGSA,M,3,03,06,19,14,32,22,16,11,30,24,20,,1.6,0.9,1.3*3B
$GPRMC,213504.002,A,1717.8618,S,06950.5702,W,0.42,148.94,280411,,,A*67
$GPGGA,213504.999,1717.8619,S,06950.5702,W,1,11,0.9,4469.4,M,34.4,M,,0000*66
$GPGSA,M,3,03,06,19,14,32,22,16,11,30,24,20,,1.6,0.9,1.3*3B
$GPGSV,3,1,12,03,87,223,40,06,73,054,35,19,53,203,38,14,44,098,34*71
$GPGSV,3,2,12,32,36,296,39,22,29,147,35,16,28,342,33,11,17,229,35*76
$GPGSV,3,3,12,30,15,000,28,24,12,242,36,20,11,299,29,31,04,032,*7F
$GPRMC,213504.999,A,1717.8619,S,06950.5702,W,0.34,155.12,280411,,,A*6E
$GPGGA,213505.999,1717.8618,S,06950.5707,W,1,11,0.9,4470.6,M,34.4,M,,0000*69
$GPGSA,M,3,03,06,19,14,32,22,16,11,30,24,20,,1.6,0.9,1.3*3B
$GPRMC,213505.999,A,1717.8618,S,06950.5707,W,0.68,243.36,280411,,,A*60
$GPGGA,213506.998,1717.8619,S,06950.5708,W,1,10,1.0,4470.0,M,34.4,M,,0000*6A
$GPGSA,M,3,03,06,19,14,32,22,16,11,24,20,,,1.8,1.0,1.5*38
$GPRMC,213506.998,A,1717.8619,S,06950.5708,W,0.38,252.18,280411,,,A*65
$GPGGA,213508.001,1717.8619,S,06950.5712,W,1,10,0.9,4471.2,M,34.4,M,,0000*6D
$GPGSA,M,3,03,06,19,14,32,22,16,11,30,24,,,1.6,0.9,1.3*39
$GPRMC,213508.001,A,1717.8619,S,06950.5712,W,0.03,311.17,280411,,,A*68
$GPGGA,213509.001,1717.8618,S,06950.5712,W,1,09,1.1,4471.0,M,34.4,M,,0000*6E
$GPGSA,M,3,03,06,19,14,32,22,16,11,24,,,,1.9,1.1,1.6*39
$GPRMC,213509.001,A,1717.8618,S,06950.5712,W,0.53,39.89,280411,,,A*53
$GPGGA,213510.001,1717.8617,S,06950.5714,W,1,11,0.9,4472.5,M,34.4,M,,0000*69
$GPGSA,M,3,03,06,19,14,32,22,16,11,30,24,20,,1.6,0.9,1.3*3B
$GPGSV,3,1,12,03,87,223,39,06,73,054,33,19,53,203,39,14,44,098,33*7F
$GPGSV,3,2,12,32,36,296,37,22,29,147,36,16,28,342,29,11,17,229,35*70
$GPGSV,3,3,12,30,15,000,28,24,12,242,36,20,11,299,28,31,04,032,27*7B
$GPRMC,213510.001,A,1717.8617,S,06950.5714,W,0.34,224.19,280411,,,A*64
$GPGGA,213511.000,1717.8618,S,06950.5711,W,1,11,0.9,4472.3,M,34.4,M,,0000*65
$GPGSA,M,3,03,06,19,14,32,22,16,11,30,24,20,,1.6,0.9,1.3*3B
$GPRMC,213511.000,A,1717.8618,S,06950.5711,W,0.18,185.53,280411,,,A*66
$GPGGA,213511.996,1717.8618,S,06950.5712,W,1,11,0.9,4472.7,M,34.4,M,,0000*64
$GPGSA,M,3,03,06,19,14,32,22,16,11,30,24,20,,1.6,0.9,1.3*3B
$GPRMC,213511.996,A,1717.8618,S,06950.5712,W,0.46,221.82,280411,,,A*69
$GPGGA,213513.001,1717.8618,S,06950.5717,W,1,10,0.9,4474.8,M,34.4,M,,0000*6C
$GPGSA,M,3,03,06,19,14,32,22,16,11,30,24,,,1.6,0.9,1.3*39
$GPRMC,213513.001,A,1717.8618,S,06950.5717,W,0.58,225.51,280411,,,A*6C
$GPGGA,213514.000,1717.8619,S,06950.5715,W,1,10,0.9,4473.8,M,34.4,M,,0000*6E
$GPGSA,M,3,03,06,19,14,32,22,16,11,30,24,,,1.6,0.9,1.3*39
$GPRMC,213514.000,A,1717.8619,S,06950.5715,W,0.57,119.53,280411,,,A*68
$GPGGA,213515.001,1717.8619,S,06950.5720,W,1,11,0.9,4475.1,M,34.4,M,,0000*66
$GPGSA,M,3,03,06,19,14,32,22,16,11,30,24,20,,1.6,0.9,1.3*3B
$GPGSV,3,1,12,03,87,223,40,06,73,054,35,19,53,203,39,14,44,098,31*75
$GPGSV,3,2,12,32,36,296,39,22,29,147,36,16,28,342,33,11,17,229,36*76
$GPGSV,3,3,12,30,15,000,27,24,12,242,36,20,11,299,26,31,04,032,*7F
$GPRMC,213515.001,A,1717.8619,S,06950.5720,W,0.48,213.96,280411,,,A*60
$GPGGA,213516.002,1717.8619,S,06950.5720,W,1,10,1.0,4474.5,M,34.4,M,,0000*6A
$GPGSA,M,3,03,06,19,14,32,22,16,11,24,20,,,1.8,1.0,1.5*38
$GPRMC,213516.002,A,1717.8619,S,06950.5720,W,0.48,116.62,280411,,,A*6D
$GPGGA,213516.997,1717.8617,S,06950.5722,W,1,10,0.9,4475.3,M,34.4,M,,0000*6C
$GPGSA,M,3,03,06,19,14,32,22,16,11,30,24,,,1.6,0.9,1.3*39
$GPRMC,213516.997,A,1717.8617,S,06950.5722,W,0.54,65.65,280411,,,A*5B
$GPGGA,213518.003,1717.8618,S,06950.5723,W,1,10,1.0,4476.0,M,34.4,M,,0000*60
$GPGSA,M,3,03,06,19,14,32,22,16,11,24,20,,,1.8,1.0,1.5*38
$GPRMC,213518.003,A,1717.8618,S,06950.5723,W,0.52,244.20,280411,,,A*69
$GPGGA,213518.997,1717.8618,S,06950.5725,W,1,10,1.0,4475.9,M,34.4,M,,0000*68
$GPGSA,M,3,03,06,19,14,32,22,16,11,24,20,,,1.8,1.0,1.5*38
$GPRMC,213518.997,A,1717.8618,S,06950.5725,W,0.47,179.50,280411,,,A*65
$GPGGA,213520.002,1717.8620,S,06950.5720,W,1,09,1.0,4474.1,M,34.4,M,,0000*69
$GPGSA,M,3,03,06,19,14,32,22,11,30,24,,,,1.6,1.0,1.3*36
$GPGSV,3,1,12,03,87,223,39,06,73,054,33,19,53,203,39,14,44,098,34*78
$GPGSV,3,2,12,32,36,296,39,22,29,147,36,16,28,342,,11,17,229,32*72
$GPGSV,3,3,12,30,15,000,26,24,12,242,37,20,11,299,,31,04,032,*7B
$GPRMC,213520.002,A,1717.8620,S,06950.5720,W,1.67,219.06,280411,,,A*60
$GPGGA,213520.999,1717.8625,S,06950.5722,W,1,10,0.9,4474.3,M,34.4,M,,0000*67
$GPGSA,M,3,03,06,19,14,32,22,11,30,24,20,,,1.6,0.9,1.3*3C
$GPRMC,213520.999,A,1717.8625,S,06950.5722,W,2.52,225.99,280411,,,A*60
$GPGGA,213522.001,1717.8631,S,06950.5730,W,1,10,0.9,4474.7,M,34.4,M,,0000*6F
$GPGSA,M,3,03,06,19,14,32,22,11,30,24,20,,,1.6,0.9,1.3*3C
$GPRMC,213522.001,A,1717.8631,S,06950.5730,W,2.41,221.37,280411,,,A*6E
$GPGGA,213523.000,1717.8637,S,06950.5735,W,1,11,0.9,4474.5,M,34.4,M,,0000*6F
$GPGSA,M,3,03,06,19,14,32,22,16,11,30,24,20,,1.6,0.9,1.3*3B
$GPRMC,213523.000,A,1717.8637,S,06950.5735,W,3.86,222.25,280411,,,A*67
$GPGGA,213524.000,1717.8644,S,06950.5744,W,1,10,0.9,4474.9,M,34.4,M,,0000*67
$GPGSA,M,3,03,06,19,14,32,22,11,30,24,20,,,1.6,0.9,1.3*3C
$GPRMC,213524.000,A,1717.8644,S,06950.5744,W,3.58,229.34,280411,,,A*6A
$GPGGA,213524.999,1717.8652,S,06950.5752,W,1,11,0.9,4475.2,M,34.4,M,,0000*65
$GPGSA,M,3,03,06,19,14,32,22,16,11,30,24,20,,1.6,0.9,1.3*3B
$GPGSV,3,1,12,03,88,270,40,06,72,050,35,19,55,203,38,14,44,100,33*7C
$GPGSV,3,2,12,32,37,294,39,22,28,147,33,16,27,343,30,11,18,228,29*7C
$GPGSV,3,3,12,30,14,001,30,24,12,240,39,20,12,298,37,31,04,033,33*77
$GPRMC,213524.999,A,1717.8652,S,06950.5752,W,4.05,237.26,280411,,,A*60
$GPGGA,213526.000,1717.8659,S,06950.5761,W,1,11,0.9,4475.7,M,34.4,M,,0000*60
$GPGSA,M,3,03,06,19,14,32,22,16,11,30,24,20,,1.6,0.9,1.3*3B
$GPRMC,213526.000,A,1717.8659,S,06950.5761,W,4.11,222.03,280411,,,A*66
$GPGGA,213527.000,1717.8666,S,06950.5770,W,1,11,0.9,4477.2,M,34.4,M,,0000*6A
$GPGSA,M,3,03,06,19,14,32,22,16,11,30,24,20,,1.6,0.9,1.3*3B
$GPRMC,213527.000,A,1717.8666,S,06950.5770,W,4.64,229.35,280411,,,A*67
$GPGGA,213528.000,1717.8674,S,06950.5779,W,1,11,0.9,4476.9,M,34.4,M,,0000*65
$GPGSA,M,3,03,06,19,14,32,22,16,11,30,24,20,,1.6,0.9,1.3*3B
$GPRMC,213528.000,A,1717.8674,S,06950.5779,W,4.81,226.48,280411,,,A*6C
$GPGGA,213529.000,1717.8682,S,06950.5788,W,1,11,0.9,4477.5,M,34.4,M,,0000*6E
$GPGSA,M,3,03,06,19,14,32,22,16,11,30,24,20,,1.6,0.9,1.3*3B
$GPRMC,213529.000,A,1717.8682,S,06950.5788,W,4.83,230.32,280411,,,A*62
$GPGGA,213529.997,1717.8690,S,06950.5799,W,1,09,1.1,4477.6,M,34.4,M,,0000*69
$GPGSA,M,3,03,06,19,14,32,11,30,24,20,,,,1.8,1.1,1.5*3D
$GPGSV,3,1,12,03,88,270,39,06,72,050,37,19,55,203,36,14,44,100,35*78
$GPGSV,3,2,12,32,37,294,38,22,28,147,,16,27,343,,11,18,228,35*73
$GPGSV,3,3,12,30,14,001,34,24,12,240,39,20,12,298,36,31,04,033,24*74
$GPRMC,213529.997,A,1717.8690,S,06950.5799,W,4.59,229.37,280411,,,A*6C
$GPGGA,213531.002,1717.8699,S,06950.5810,W,1,10,0.9,4478.5,M,34.4,M,,0000*6F
$GPGSA,M,3,03,06,19,14,32,22,11,30,24,20,,,1.6,0.9,1.3*3C
$GPRMC,213531.002,A,1717.8699,S,06950.5810,W,5.17,225.40,280411,,,A*60
$GPGGA,213531.998,1717.8708,S,06950.5822,W,1,10,1.1,4478.6,M,34.4,M,,0000*67
$GPGSA,M,3,03,06,19,14,32,16,11,30,24,20,,,1.8,1.1,1.5*3A
$GPRMC,213531.998,A,1717.8708,S,06950.5822,W,4.86,231.03,280411,,,A*69
$GPGGA,213533.002,1717.8712,S,06950.5831,W,1,11,0.9,4478.3,M,34.4,M,,0000*6B
$GPGSA,M,3,03,06,19,14,32,22,16,11,30,24,20,,1.6,0.9,1.3*3B
$GPRMC,213533.002,A,1717.8712,S,06950.5831,W,4.92,228.13,280411,,,A*64
$GPGGA,213534.000,1717.8720,S,06950.5839,W,1,11,0.9,4479.0,M,34.4,M,,0000*65
$GPGSA,M,3,03,06,19,14,32,22,16,11,30,24,20,,1.6,0.9,1.3*3B
$GPRMC,213534.000,A,1717.8720,S,06950.5839,W,4.94,228.88,280411,,,A*6C
$GPGGA,213534.999,1717.8729,S,06950.5849,W,1,11,0.9,4478.6,M,34.4,M,,0000*65
$GPGSA,M,3,03,06,19,14,32,22,16,11,30,24,20,,1.6,0.9,1.3*3B
$GPGSV,3,1,12,03,88,270,41,06,72,050,40,19,55,203,37,14,44,100,34*77
$GPGSV,3,2,12,32,37,294,38,22,28,147,29,16,27,343,28,11,18,228,35*72
$GPGSV,3,3,12,30,14,001,28,24,12,240,39,20,12,298,35,31,04,033,*7C
$GPRMC,213534.999,A,1717.8729,S,06950.5849,W,4.97,238.40,280411,,,A*6D
$GPGGA,213535.998,1717.8733,S,06950.5859,W,1,10,0.9,4479.1,M,34.4,M,,0000*68
$GPGSA,M,3,03,06,19,14,32,22,11,30,24,20,,,1.6,0.9,1.3*3C
$GPRMC,213535.998,A,1717.8733,S,06950.5859,W,4.43,229.83,280411,,,A*61
$GPGGA,213537.001,1717.8741,S,06950.5869,W,1,10,0.9,4479.0,M,34.4,M,,0000*64
$GPGSA,M,3,03,06,19,14,32,22,11,30,24,20,,,1.6,0.9,1.3*3C
$GPRMC,213537.001,A,1717.8741,S,06950.5869,W,4.40,233.49,280411,,,A*62
$GPGGA,213538.000,1717.8747,S,06950.5878,W,1,11,0.9,4479.4,M,34.4,M,,0000*69
$GPGSA,M,3,03,06,19,14,32,22,16,11,30,24,20,,1.6,0.9,1.3*3B
$GPRMC,213538.000,A,1717.8747,S,06950.5878,W,3.36,229.32,280411,,,A*6B
$GPGGA,213539.002,1717.8753,S,06950.5882,W,1,11,0.9,4478.3,M,34.4,M,,0000*6C
$GPGSA,M,3,03,06,19,14,32,22,16,11,30,24,20,,1.6,0.9,1.3*3B
$GPRMC,213539.002,A,1717.8753,S,06950.5882,W,2.63,244.11,280411,,,A*63
$GPGGA,213539.997,1717.8753,S,06950.5887,W,1,10,0.9,4478.9,M,34.4,M,,0000*67
$GPGSA,M,3,03,06,19,14,22,16,11,30,24,20,,,1.6,0.9,1.3*3A
$GPGSV,3,1,12,03,88,270,39,06,72,050,36,19,55,203,40,14,44,100,29*75
$GPGSV,3,2,12,32,37,294,,22,28,147,35,16,27,343,30,11,18,228,34*7C
$GPGSV,3,3,12,30,14,001,32,24,12,240,39,20,12,298,30,31,04,033,*72
$GPRMC,213539.997,A,1717.8753,S,06950.5887,W,1.78,236.43,280411,,,A*68
$GPGGA,213541.001,1717.8756,S,06950.5891,W,1,11,0.9,4479.0,M,34.4,M,,0000*65
$GPGSA,M,3,03,06,19,14,32,22,16,11,30,24,20,,1.6,0.9,1.3*3B
$GPRMC,213541.001,A,1717.8756,S,06950.5891,W,2.64,222.81,280411,,,A*66
$GPGGA,213542.000,1717.8764,S,06950.5899,W,1,11,0.9,4480.7,M,34.4,M,,0000*6F
$GPGSA,M,3,03,06,19,14,32,22,16,11,30,24,20,,1.6,0.9,1.3*3B
$GPRMC,213542.000,A,1717.8764,S,06950.5899,W,2.61,225.65,280411,,,A*65
$GPGGA,213543.000,1717.8769,S,06950.5904,W,1,11,0.9,4480.1,M,34.4,M,,0000*60
$GPGSA,M,3,03,06,19,14,32,22,16,11,30,24,20,,1.6,0.9,1.3*3B
$GPRMC,213543.000,A,1717.8769,S,06950.5904,W,3.00,225.97,280411,,,A*67
$GPGGA,213543.999,1717.8771,S,06950.5906,W,1,10,0.9,4479.6,M,34.4,M,,0000*62
$GPGSA,M,3,03,06,19,14,32,22,11,30,24,20,,,1.6,0.9,1.3*3C
$GPRMC,213543.999,A,1717.8771,S,06950.5906,W,3.29,223.80,280411,,,A*6E
$GPGGA,213545.000,1717.8779,S,06950.5913,W,1,10,0.9,4480.3,M,34.4,M,,0000*62
$GPGSA,M,3,03,06,19,14,32,22,11,30,24,20,,,1.6,0.9,1.3*3C
$GPGSV,3,1,12,03,88,270,40,06,72,050,31,19,55,203,39,14,44,100,30*7A
$GPGSV,3,2,12,32,37,294,39,22,28,147,35,16,27,343,,11,18,228,33*72
$GPGSV,3,3,12,30,14,001,31,24,12,240,37,20,12,298,31,31,04,033,24*78
$GPRMC,213545.000,A,1717.8779,S,06950.5913,W,3.86,226.20,280411,,,A*67
$GPGGA,213546.000,1717.8786,S,06950.5918,W,1,11,0.9,4480.8,M,34.4,M,,0000*60
$GPGSA,M,3,03,06,19,14,32,22,16,11,30,24,20,,1.6,0.9,1.3*3B
$GPRMC,213546.000,A,1717.8786,S,06950.5918,W,3.12,221.69,280411,,,A*68
$GPGGA,213547.002,1717.8790,S,06950.5923,W,1,10,1.0,4479.8,M,34.4,M,,0000*63
$GPGSA,M,3,03,06,19,14,32,22,16,11,24,20,,,1.8,1.0,1.5*38
$GPRMC,213547.002,A,1717.8790,S,06950.5923,W,3.49,228.36,280411,,,A*69
$GPGGA,213548.000,1717.8795,S,06950.5931,W,1,10,1.0,4480.9,M,34.4,M,,0000*6F
$GPGSA,M,3,03,06,19,14,32,22,16,11,24,20,,,1.8,1.0,1.5*38
$GPRMC,213548.000,A,1717.8795,S,06950.5931,W,2.05,232.53,280411,,,A*63
$GPGGA,213548.998,1717.8798,S,06950.5936,W,1,11,0.9,4480.8,M,34.4,M,,0000*65
$GPGSA,M,3,03,06,19,14,32,22,16,11,30,24,20,,1.5,0.9,1.3*38
$GPRMC,213548.998,A,1717.8798,S,06950.5936,W,2.06,221.29,280411,,,A*6D
$GPGGA,213550.000,1717.8801,S,06950.5937,W,1,11,0.9,4480.4,M,34.4,M,,0000*66
$GPGSA,M,3,03,06,19,14,32,22,16,11,30,24,20,,1.5,0.9,1.3*38
$GPGSV,3,1,12,03,88,270,40,06,72,050,34,19,55,203,39,14,44,100,29*77
$GPGSV,3,2,12,32,37,294,37,22,28,147,32,16,27,343,34,11,18,228,35*7A
$GPGSV,3,3,12,30,14,001,26,24,12,240,38,20,12,298,33,31,04,033,*75
$GPRMC,213550.000,A,1717.8801,S,06950.5937,W,2.45,222.09,280411,,,A*64
$GPGGA,213551.000,1717.8804,S,06950.5940,W,1,11,0.9,4480.0,M,34.4,M,,0000*66
$GPGSA,M,3,03,06,19,14,32,22,16,11,30,24,20,,1.5,0.9,1.3*38
$GPRMC,213551.000,A,1717.8804,S,06950.5940,W,0.99,244.52,280411,,,A*6D
$GPGGA,213552.000,1717.8804,S,06950.5943,W,1,10,0.9,4479.4,M,34.4,M,,0000*65
$GPGSA,M,3,03,06,19,14,32,22,11,30,24,20,,,1.6,0.9,1.3*3C
$GPRMC,213552.000,A,1717.8804,S,06950.5943,W,1.16,222.70,280411,,,A*6B
$GPGGA,213553.000,1717.8805,S,06950.5949,W,1,10,1.0,4480.5,M,34.4,M,,0000*60
$GPGSA,M,3,03,06,19,14,32,22,16,11,24,20,,,1.8,1.0,1.5*38
$GPRMC,213553.000,A,1717.8805,S,06950.5949,W,1.26,217.41,280411,,,A*66
$GPGGA,213553.999,1717.8807,S,06950.5950,W,1,10,1.0,4480.1,M,34.4,M,,0000*67
$GPGSA,M,3,03,06,19,14,32,22,16,11,24,20,,,1.8,1.0,1.5*38
$GPRMC,213553.999,A,1717.8807,S,06950.5950,W,1.03,224.58,280411,,,A*6A
$GPGGA,213554.998,1717.8809,S,06950.5954,W,1,10,1.0,4481.1,M,34.4,M,,0000*6A
$GPGSA,M,3,03,06,19,14,32,22,16,11,24,20,,,1.8,1.0,1.5*38
$GPGSV,3,1,12,03,88,270,40,06,72,050,31,19,55,203,39,14,44,100,30*7A
$GPGSV,3,2,12,32,37,294,31,22,28,147,35,16,27,343,29,11,18,228,34*76
$GPGSV,3,3,12,30,14,001,,24,12,240,36,20,12,298,32,31,04,033,*7E
$GPRMC,213554.998,A,1717.8809,S,06950.5954,W,2.10,193.29,280411,,,A*6E
$GPGGA,213556.000,1717.8814,S,06950.5955,W,1,10,1.0,4481.3,M,34.4,M,,0000*6F
$GPGSA,M,3,03,06,19,14,32,22,16,11,24,20,,,1.8,1.0,1.5*38
$GPRMC,213556.000,A,1717.8814,S,06950.5955,W,1.29,203.83,280411,,,A*6A
$GPGGA,213556.999,1717.8818,S,06950.5955,W,1,09,1.0,4481.0,M,34.4,M,,0000*61
$GPGSA,M,3,03,06,19,14,32,22,11,30,20,,,,1.6,1.0,1.3*32
$GPRMC,213556.999,A,1717.8818,S,06950.5955,W,1.65,236.65,280411,,,A*69
$GPGGA,213558.000,1717.8821,S,06950.5963,W,1,10,0.9,4481.9,M,34.4,M,,0000*60
$GPGSA,M,3,03,06,19,14,32,22,16,11,30,20,,,1.6,0.9,1.3*3D
$GPRMC,213558.000,A,1717.8821,S,06950.5963,W,1.72,227.30,280411,,,A*67
$GPGGA,213559.002,1717.8824,S,06950.5965,W,1,10,0.9,4481.2,M,34.4,M,,0000*6B
$GPGSA,M,3,03,06,19,14,32,22,16,11,30,24,,,1.6,0.9,1.3*39
$GPRMC,213559.002,A,1717.8824,S,06950.5965,W,1.88,247.62,280411,,,A*63
$GPGGA,213600.001,1717.8827,S,06950.5968,W,1,11,0.9,4480.6,M,34.4,M,,0000*6D
$GPGSA,M,3,03,06,19,14,32,22,16,11,30,24,20,,1.5,0.9,1.3*38
$GPGSV,3,1,12,03,88,270,40,06,72,050,33,19,55,203,40,14,44,100,34*72
$GPGSV,3,2,12,32,37,294,35,22,28,147,35,16,27,343,30,11,18,228,33*7D
$GPGSV,3,3,12,30,14,001,32,24,12,240,39,20,12,298,35,31,04,033,30*74
$GPRMC,213600.001,A,1717.8827,S,06950.5968,W,2.41,226.02,280411,,,A*66
$GPGGA,213601.001,1717.8833,S,06950.5970,W,1,11,0.9,4479.6,M,34.4,M,,0000*66
$GPGSA,M,3,03,06,19,14,32,22,16,11,30,24,20,,1.5,0.9,1.3*38
