$GPGGA,181308.038,,,,,0,00,,,M,0.0,M,,0000*5E
$GPGSA,M,1,,,,,,,,,,,,,,,*12
$GPRMC,181308.038,V,,,,,,,130511,,,N*42
$GPGGA,181309.038,,,,,0,00,,,M,0.0,M,,0000*5F
$GPGSA,M,1,,,,,,,,,,,,,,,*12
$GPRMC,181309.038,V,,,,,,,130511,,,N*43
$GPGGA,181310.038,,,,,0,00,,,M,0.0,M,,0000*57
$GPGSA,M,1,,,,,,,,,,,,,,,*12
$GPRMC,181310.038,V,,,,,,,130511,,,N*4B
$GPGGA,181311.038,,,,,0,00,,,M,0.0,M,,0000*56
$GPGSA,M,1,,,,,,,,,,,,,,,*12
$GPGSV,3,1,12,18,61,082,45,22,52,010,41,06,62,223,,16,60,294,*71
$GPGSV,3,2,12,03,48,230,27,30,48,334,43,21,38,122,33,19,19,239,*7D
$GPGSV,3,3,12,15,10,119,,29,02,066,,07,01,217,,26,00,151,*7C
$GPRMC,181311.038,V,,,,,,,130511,,,N*4A
$GPGGA,181312.038,,,,,0,00,,,M,0.0,M,,0000*55
$GPGSA,M,1,,,,,,,,,,,,,,,*12
$GPRMC,181312.038,V,,,,,,,130511,,,N*49
$GPGGA,181313.038,,,,,0,00,,,M,0.0,M,,0000*54
$GPGSA,M,1,,,,,,,,,,,,,,,*12
$GPRMC,181313.038,V,,,,,,,130511,,,N*48
$GPGGA,181314.038,,,,,0,00,,,M,0.0,M,,0000*53
$GPGSA,M,1,,,,,,,,,,,,,,,*12
$GPRMC,181314.038,V,,,,,,,130511,,,N*4F
$GPGGA,181315.038,,,,,0,00,,,M,0.0,M,,0000*52
$GPGSA,M,1,,,,,,,,,,,,,,,*12
$GPRMC,181315.038,V,,,,,,,130511,,,N*4E
$GPGGA,181316.038,,,,,0,00,,,M,0.0,M,,0000*51
$GPGSA,M,1,,,,,,,,,,,,,,,*12
$GPGSV,3,1,12,18,61,082,46,22,52,010,42,06,62,223,,16,60,294,*71
$GPGSV,3,2,12,03,48,230,26,30,48,334,43,21,38,122,34,19,19,239,*7B
$GPGSV,3,3,12,15,10,119,,29,02,066,,07,01,217,,26,00,151,*7C
$GPRMC,181316.038,V,,,,,,,130511,,,N*4D
$GPGGA,181317.038,,,,,0,00,,,M,0.0,M,,0000*50
$GPGSA,M,1,,,,,,,,,,,,,,,*12
$GPRMC,181317.038,V,,,,,,,130511,,,N*4C
$GPGGA,181318.038,,,,,0,00,,,M,0.0,M,,0000*5F
$GPGSA,M,1,,,,,,,,,,,,,,,*12
$GPRMC,181318.038,V,,,,,,,130511,,,N*43
$GPGGA,181319.038,,,,,0,00,,,M,0.0,M,,0000*5E
$GPGSA,M,1,,,,,,,,,,,,,,,*12
$GPRMC,181319.038,V,,,,,,,130511,,,N*42
$GPGGA,181320.038,,,,,0,00,,,M,0.0,M,,0000*54
$GPGSA,M,1,,,,,,,,,,,,,,,*12
$GPRMC,181320.038,V,,,,,,,130511,,,N*48
$GPGGA,181321.038,,,,,0,00,,,M,0.0,M,,0000*55
$GPGSA,M,1,,,,,,,,,,,,,,,*12
$GPGSV,3,1,12,18,61,082,46,22,52,010,42,06,62,223,,16,60,295,*70
$GPGSV,3,2,12,03,48,230,25,30,48,334,43,21,38,122,35,19,19,239,*79
$GPGSV,3,3,12,15,10,119,,29,02,066,,07,01,217,,26,00,151,*7C
$GPRMC,181321.038,V,,,,,,,130511,,,N*49
$GPGGA,181322.038,,,,,0,00,,,M,0.0,M,,0000*56
$GPGSA,M,1,,,,,,,,,,,,,,,*12
$GPRMC,181322.038,V,,,,,,,130511,,,N*4A
$GPGGA,181323.038,,,,,0,00,,,M,0.0,M,,0000*57
$GPGSA,M,1,,,,,,,,,,,,,,,*12
$GPRMC,181323.038,V,,,,,,,130511,,,N*4B
$GPGGA,181324.038,,,,,0,00,,,M,0.0,M,,0000*50
$GPGSA,M,1,,,,,,,,,,,,,,,*12
$GPRMC,181324.038,V,,,,,,,130511,,,N*4C
$GPGGA,181325.038,,,,,0,00,,,M,0.0,M,,0000*51
$GPGSA,M,1,,,,,,,,,,,,,,,*12
$GPRMC,181325.038,V,,,,,,,130511,,,N*4D
$GPGGA,181326.038,,,,,0,00,,,M,0.0,M,,0000*52
$GPGSA,M,1,,,,,,,,,,,,,,,*12
$GPGSV,3,1,12,18,61,082,46,22,52,010,42,06,62,223,,16,60,295,*70
$GPGSV,3,2,12,03,48,230,26,30,48,334,43,21,38,122,34,19,19,239,*7B
$GPGSV,3,3,12,15,10,119,,29,02,066,,07,01,217,,26,00,151,*7C
$GPRMC,181326.038,V,,,,,,,130511,,,N*4E
$GPGGA,181327.038,,,,,0,00,,,M,0.0,M,,0000*53
$GPGSA,M,1,,,,,,,,,,,,,,,*12
$GPRMC,181327.038,V,,,,,,,130511,,,N*4F
$GPGGA,181328.038,,,,,0,00,,,M,0.0,M,,0000*5C
$GPGSA,M,1,,,,,,,,,,,,,,,*12
$GPRMC,181328.038,V,,,,,,,130511,,,N*40
$GPGGA,181329.038,,,,,0,00,,,M,0.0,M,,0000*5D
$GPGSA,M,1,,,,,,,,,,,,,,,*12
$GPRMC,181329.038,V,,,,,,,130511,,,N*41
$GPGGA,181330.038,,,,,0,00,,,M,0.0,M,,0000*55
$GPGSA,M,1,,,,,,,,,,,,,,,*12
$GPRMC,181330.038,V,,,,,,,130511,,,N*49
$GPGGA,181331.038,,,,,0,00,,,M,0.0,M,,0000*54
$GPGSA,M,1,,,,,,,,,,,,,,,*12
$GPGSV,3,1,12,18,61,083,46,22,52,010,41,06,63,223,,16,60,295,*73
$GPGSV,3,2,12,03,48,230,27,30,48,334,43,21,38,122,34,19,19,239,*7A
$GPGSV,3,3,12,15,10,119,32,29,02,066,,07,01,217,,26,00,151,*7D
$GPRMC,181331.038,V,,,,,,,130511,,,N*48
$GPGGA,181332.038,,,,,0,00,,,M,0.0,M,,0000*57
$GPGSA,M,1,,,,,,,,,,,,,,,*12
$GPRMC,181332.038,V,,,,,,,130511,,,N*4B
$GPGGA,181333.038,,,,,0,00,,,M,0.0,M,,0000*56
$GPGSA,M,1,,,,,,,,,,,,,,,*12
$GPRMC,181333.038,V,,,,,,,130511,,,N*4A
$GPGGA,181334.038,,,,,0,00,,,M,0.0,M,,0000*51
$GPGSA,M,1,,,,,,,,,,,,,,,*12
$GPRMC,181334.038,V,,,,,,,130511,,,N*4D
$GPGGA,181335.038,,,,,0,00,,,M,0.0,M,,0000*50
$GPGSA,M,1,,,,,,,,,,,,,,,*12
$GPRMC,181335.038,V,,,,,,,130511,,,N*4C
$GPGGA,181336.038,,,,,0,00,,,M,0.0,M,,0000*53
$GPGSA,M,1,,,,,,,,,,,,,,,*12
$GPGSV,3,1,12,18,61,083,46,22,52,010,41,30,48,334,43,06,63,223,*70
$GPGSV,3,2,12,16,60,295,,03,48,230,26,21,38,122,35,19,19,239,*79
$GPGSV,3,3,12,15,10,119,34,29,02,066,,07,01,217,,26,00,151,*7B
$GPRMC,181336.038,V,,,,,,,130511,,,N*4F
$GPGGA,181337.038,,,,,0,00,,,M,0.0,M,,0000*52
$GPGSA,M,1,,,,,,,,,,,,,,,*12
$GPRMC,181337.038,V,,,,,,,130511,,,N*4E
$GPGGA,181338.038,,,,,0,00,,,M,0.0,M,,0000*5D
$GPGSA,M,1,,,,,,,,,,,,,,,*12
$GPRMC,181338.038,V,,,,,,,130511,,,N*41
$GPGGA,181339.038,,,,,0,00,,,M,0.0,M,,0000*5C
$GPGSA,M,1,,,,,,,,,,,,,,,*12
$GPRMC,181339.038,V,,,,,,,130511,,,N*40
$GPGGA,181340.038,,,,,0,00,,,M,0.0,M,,0000*52
$GPGSA,M,1,,,,,,,,,,,,,,,*12
$GPRMC,181340.038,V,,,,,,,130511,,,N*4E
$GPGGA,181341.038,,,,,0,00,,,M,0.0,M,,0000*53
$GPGSA,M,1,,,,,,,,,,,,,,,*12
$GPGSV,3,1,12,18,61,083,46,22,52,010,41,30,48,334,43,06,63,223,*70
$GPGSV,3,2,12,16,60,295,,03,48,230,25,21,38,122,35,19,19,239,*7A
$GPGSV,3,3,12,15,10,119,34,29,02,066,,07,01,217,,26,00,151,*7B
$GPRMC,181341.038,V,,,,,,,130511,,,N*4F
$GPGGA,181342.038,,,,,0,00,,,M,0.0,M,,0000*50
$GPGSA,M,1,,,,,,,,,,,,,,,*12
$GPRMC,181342.038,V,,,,,,,130511,,,N*4C
$GPGGA,181343.038,,,,,0,00,,,M,0.0,M,,0000*51
$GPGSA,M,1,,,,,,,,,,,,,,,*12
$GPRMC,181343.038,V,,,,,,,130511,,,N*4D
$GPGGA,181344.038,,,,,0,00,,,M,0.0,M,,0000*56
$GPGSA,M,1,,,,,,,,,,,,,,,*12
$GPRMC,181344.038,V,,,,,,,130511,,,N*4A
$GPGGA,181345.038,,,,,0,00,,,M,0.0,M,,0000*57
$GPGSA,M,1,,,,,,,,,,,,,,,*12
$GPRMC,181345.038,V,,,,,,,130511,,,N*4B
$GPGGA,181346.038,,,,,0,00,,,M,0.0,M,,0000*54
$GPGSA,M,1,,,,,,,,,,,,,,,*12
$GPGSV,3,1,12,18,61,083,46,22,52,010,41,30,48,334,43,06,63,223,*70
$GPGSV,3,2,12,16,60,295,,03,48,230,27,21,38,122,34,19,19,239,*79
$GPGSV,3,3,12,15,10,119,34,29,02,066,,07,01,217,,26,00,151,*7B
$GPRMC,181346.038,V,,,,,,,130511,,,N*48
$GPGGA,181347.038,,,,,0,00,,,M,0.0,M,,0000*55
$GPGSA,M,1,,,,,,,,,,,,,,,*12
$GPRMC,181347.038,V,,,,,,,130511,,,N*49
$GPGGA,181348.038,,,,,0,00,,,M,0.0,M,,0000*5A
$GPGSA,M,1,,,,,,,,,,,,,,,*12
$GPRMC,181348.038,V,,,,,,,130511,,,N*46
$GPGGA,181349.038,,,,,0,00,,,M,0.0,M,,0000*5B
$GPGSA,M,1,,,,,,,,,,,,,,,*12
$GPRMC,181349.038,V,,,,,,,130511,,,N*47
$GPGGA,181350.038,,,,,0,00,,,M,0.0,M,,0000*53
$GPGSA,M,1,,,,,,,,,,,,,,,*12
$GPRMC,181350.038,V,,,,,,,130511,,,N*4F
$GPGGA,181351.038,,,,,0,00,,,M,0.0,M,,0000*52
$GPGSA,M,1,,,,,,,,,,,,,,,*12
$GPGSV,3,1,12,18,61,083,46,22,52,010,41,30,48,334,43,06,63,223,*70
$GPGSV,3,2,12,16,60,295,,03,49,230,27,21,38,122,33,19,19,239,*7F
$GPGSV,3,3,12,15,10,119,35,29,02,066,,07,01,217,,26,00,151,*7A
$GPRMC,181351.038,V,,,,,,,130511,,,N*4E
$GPGGA,181352.038,,,,,0,00,,,M,0.0,M,,0000*51
$GPGSA,M,1,,,,,,,,,,,,,,,*12
$GPRMC,181352.038,V,,,,,,,130511,,,N*4D
$GPGGA,181353.038,,,,,0,00,,,M,0.0,M,,0000*50
$GPGSA,M,1,,,,,,,,,,,,,,,*12
$GPRMC,181353.038,V,,,,,,,130511,,,N*4C
$GPGGA,181354.038,,,,,0,00,,,M,0.0,M,,0000*57
$GPGSA,M,1,,,,,,,,,,,,,,,*12
$GPRMC,181354.038,V,,,,,,,130511,,,N*4B
$GPGGA,181355.038,,,,,0,00,,,M,0.0,M,,0000*56
$GPGSA,M,1,,,,,,,,,,,,,,,*12
$GPRMC,181355.038,V,,,,,,,130511,,,N*4A
$GPGGA,181356.038,,,,,0,00,,,M,0.0,M,,0000*55
$GPGSA,M,1,,,,,,,,,,,,,,,*12
$GPGSV,3,1,12,18,61,083,46,22,52,010,41,30,48,334,43,06,63,223,*70
$GPGSV,3,2,12,16,60,295,,03,49,230,25,21,38,122,34,19,19,239,*7A
$GPGSV,3,3,12,15,10,119,34,29,02,066,,07,01,217,,26,00,151,*7B
$GPRMC,181356.038,V,,,,,,,130511,,,N*49
$GPGGA,181357.038,,,,,0,00,,,M,0.0,M,,0000*54
$GPGSA,M,1,,,,,,,,,,,,,,,*12
$GPRMC,181357.038,V,,,,,,,130511,,,N*48
$GPGGA,181358.038,,,,,0,00,,,M,0.0,M,,0000*5B
$GPGSA,M,1,,,,,,,,,,,,,,,*12
$GPRMC,181358.038,V,,,,,,,130511,,,N*47
$GPGGA,181359.038,3956.1708,S,07104.2325,W,1,04,4.1,793.7,M,22.5,M,,0000*52
$GPGSA,M,3,18,21,30,22,,,,,,,,,4.3,4.1,1.0*34
$GPRMC,181359.038,A,3956.1708,S,07104.2325,W,36.65,15.31,130511,,,A*69
$GPGGA,181400.038,3956.1597,S,07104.2273,W,1,04,5.5,785.5,M,22.5,M,,0000*5F
$GPGSA,M,3,18,21,30,22,,,,,,,,,9.6,5.5,7.9*36
$GPRMC,181400.038,A,3956.1597,S,07104.2273,W,36.09,15.51,130511,,,A*68
$GPGGA,181401.000,3956.1500,S,07104.2235,W,1,04,5.5,785.1,M,22.5,M,,0000*5D
$GPGSA,M,3,18,21,30,22,,,,,,,,,9.6,5.5,7.9*36
$GPRMC,181401.000,A,3956.1500,S,07104.2235,W,36.98,16.21,130511,,,A*62
$GPGGA,181402.000,3956.1399,S,07104.2196,W,1,04,5.5,785.0,M,22.5,M,,0000*53
$GPGSA,M,3,18,21,30,22,,,,,,,,,9.6,5.5,7.9*36
$GPRMC,181402.000,A,3956.1399,S,07104.2196,W,37.61,16.44,130511,,,A*69
$GPGGA,181403.000,3956.1296,S,07104.2156,W,1,04,5.5,785.0,M,22.5,M,,0000*50
$GPGSA,M,3,18,21,30,22,,,,,,,,,9.6,5.5,7.9*36
$GPRMC,181403.000,A,3956.1296,S,07104.2156,W,38.45,15.86,130511,,,A*6E
$GPGGA,181404.000,3956.1190,S,07104.2117,W,1,04,5.5,785.0,M,22.5,M,,0000*57
$GPGSA,M,3,18,21,30,22,,,,,,,,,9.6,5.5,7.9*36
$GPRMC,181404.000,A,3956.1190,S,07104.2117,W,39.39,15.78,130511,,,A*62
$GPGGA,181405.000,3956.1082,S,07104.2077,W,1,04,5.5,785.1,M,22.5,M,,0000*52
$GPGSA,M,3,18,21,30,22,,,,,,,,,9.6,5.5,7.9*36
$GPGSV,3,1,12,18,60,083,39,22,52,011,40,30,48,335,42,21,37,122,40*7B
$GPGSV,3,2,12,06,63,222,31,16,60,296,28,03,49,230,36,19,20,239,31*74
$GPGSV,3,3,12,15,10,120,32,07,01,217,,29,01,066,,26,00,152,*77
$GPRMC,181405.000,A,3956.1082,S,07104.2077,W,40.30,15.38,130511,,,A*65
$GPGGA,181406.000,3956.0969,S,07104.2031,W,1,04,5.5,784.8,M,22.5,M,,0000*56
$GPGSA,M,3,18,21,30,22,,,,,,,,,9.6,5.5,7.9*36
$GPRMC,181406.000,A,3956.0969,S,07104.2031,W,41.35,15.26,130511,,,A*62
$GPGGA,181407.000,3956.0853,S,07104.1986,W,1,04,5.5,784.7,M,22.5,M,,0000*56
$GPGSA,M,3,18,21,30,22,,,,,,,,,9.6,5.5,7.9*36
$GPRMC,181407.000,A,3956.0853,S,07104.1986,W,42.25,15.46,130511,,,A*69
$GPGGA,181408.000,3956.0736,S,07104.1940,W,1,04,5.5,784.6,M,22.5,M,,0000*5E
$GPGSA,M,3,18,21,30,22,,,,,,,,,9.6,5.5,7.9*36
$GPRMC,181408.000,A,3956.0736,S,07104.1940,W,43.07,15.73,130511,,,A*67
$GPGGA,181409.000,3956.0618,S,07104.1894,W,1,04,5.5,784.5,M,22.5,M,,0000*59
$GPGSA,M,3,18,21,30,22,,,,,,,,,9.6,5.5,7.9*36
$GPRMC,181409.000,A,3956.0618,S,07104.1894,W,43.67,15.76,130511,,,A*60
$GPGGA,181410.000,3956.0498,S,07104.1848,W,1,04,5.5,784.5,M,22.5,M,,0000*5A
$GPGSA,M,3,18,21,30,22,,,,,,,,,9.7,5.5,7.9*37
$GPGSV,3,1,12,18,60,083,39,22,52,011,39,30,48,335,41,21,37,122,40*76
$GPGSV,3,2,12,06,63,222,30,16,60,296,27,03,49,230,36,19,20,239,30*7B
$GPGSV,3,3,12,15,10,120,34,07,01,217,,29,01,066,,26,00,152,*71
$GPRMC,181410.000,A,3956.0498,S,07104.1848,W,44.13,15.80,130511,,,A*6E
$GPGGA,181411.113,3956.0368,S,07104.1801,W,1,04,5.5,785.0,M,22.5,M,,0000*59
$GPGSA,M,3,18,22,30,21,,,,,,,,,9.7,5.5,7.9*37
$GPGSV,3,1,12,06,63,222,28,18,60,083,37,16,60,296,,22,52,011,35*7E
$GPGSV,3,2,12,03,49,230,32,30,48,335,37,21,37,122,38,19,20,239,28*7E
$GPGSV,3,3,12,15,10,120,30,07,01,217,,29,01,066,,26,00,152,*75
$GPRMC,181411.113,A,3956.0368,S,07104.1801,W,44.92,16.25,130511,,,A*6C
$GPGGA,181412.001,3956.0267,S,07104.1768,W,1,04,5.5,785.5,M,22.5,M,,0000*53
$GPGSA,M,3,18,22,30,21,,,,,,,,,9.7,5.5,7.9*37
$GPRMC,181412.001,A,3956.0267,S,07104.1768,W,43.97,15.39,130511,,,A*6F
$GPGGA,181413.004,3956.0147,S,07104.1726,W,1,04,5.5,783.9,M,22.5,M,,0000*56
$GPGSA,M,3,18,22,30,21,,,,,,,,,9.7,5.5,7.9*37
$GPRMC,181413.004,A,3956.0147,S,07104.1726,W,43.56,14.73,130511,,,A*62
$GPGGA,181413.994,3956.0031,S,07104.1688,W,1,04,5.5,784.1,M,22.5,M,,0000*5C
$GPGSA,M,3,18,22,30,21,,,,,,,,,9.7,5.5,7.9*37
$GPRMC,181413.994,A,3956.0031,S,07104.1688,W,43.78,14.65,130511,,,A*6C
$GPGGA,181415.001,3955.9916,S,07104.1653,W,1,04,5.5,786.3,M,22.5,M,,0000*5F
$GPGSA,M,3,18,22,30,21,,,,,,,,,9.7,5.5,7.9*37
$GPRMC,181415.001,A,3955.9916,S,07104.1653,W,44.70,14.64,130511,,,A*61
$GPGGA,181416.000,3955.9796,S,07104.1610,W,1,04,5.6,786.9,M,22.5,M,,0000*55
$GPGSA,M,3,18,22,30,21,,,,,,,,,9.7,5.6,7.9*34
$GPGSV,3,1,12,06,63,222,30,18,60,083,37,16,60,296,22,22,52,011,34*76
$GPGSV,3,2,12,03,49,230,33,30,48,335,36,21,37,122,36,19,20,239,27*7F
$GPGSV,3,3,12,15,10,120,29,07,01,217,,29,01,066,,26,00,152,*7D
$GPRMC,181416.000,A,3955.9796,S,07104.1610,W,45.40,15.51,130511,,,A*67
$GPGGA,181417.000,3955.9675,S,07104.1564,W,1,04,5.6,787.3,M,22.5,M,,0000*53
$GPGSA,M,3,18,22,30,21,,,,,,,,,9.7,5.6,7.9*34
$GPRMC,181417.000,A,3955.9675,S,07104.1564,W,45.66,16.91,130511,,,A*61
$GPGGA,181418.005,3955.9553,S,07104.1519,W,1,04,5.6,786.6,M,22.5,M,,0000*50
$GPGSA,M,3,18,22,30,21,,,,,,,,,9.7,5.6,7.9*34
$GPRMC,181418.005,A,3955.9553,S,07104.1519,W,45.53,15.78,130511,,,A*64
$GPGGA,181418.994,3955.9427,S,07104.1468,W,1,04,5.6,783.6,M,22.5,M,,0000*51
$GPGSA,M,3,18,22,30,21,,,,,,,,,9.7,5.6,7.9*34
$GPRMC,181418.994,A,3955.9427,S,07104.1468,W,45.88,16.59,130511,,,A*66
$GPGGA,181420.000,3955.9302,S,07104.1418,W,1,04,5.6,783.7,M,22.5,M,,0000*58
$GPGSA,M,3,18,22,30,21,,,,,,,,,9.7,5.6,7.9*34
$GPRMC,181420.000,A,3955.9302,S,07104.1418,W,46.30,16.95,130511,,,A*6E
$GPGGA,181421.002,3955.9178,S,07104.1365,W,1,04,5.6,784.8,M,22.5,M,,0000*51
$GPGSA,M,3,18,22,30,21,,,,,,,,,9.7,5.6,7.9*34
$GPGSV,3,1,12,06,63,222,39,18,60,083,40,16,60,296,41,22,52,011,39*77
$GPGSV,3,2,12,03,49,230,39,30,48,335,41,21,37,122,39,19,20,239,*7F
$GPGSV,3,3,12,15,10,120,,07,01,217,,29,01,066,,26,00,152,*76
$GPRMC,181421.002,A,3955.9178,S,07104.1365,W,46.10,18.08,130511,,,A*67
$GPGGA,181422.006,3955.9057,S,07104.1315,W,1,04,5.6,783.4,M,22.5,M,,0000*56
$GPGSA,M,3,18,22,30,21,,,,,,,,,9.7,5.6,7.9*34
$GPRMC,181422.006,A,3955.9057,S,07104.1315,W,45.39,18.97,130511,,,A*65
$GPGGA,181422.992,3955.8937,S,07104.1261,W,1,04,5.6,784.5,M,22.5,M,,0000*58
$GPGSA,M,3,18,22,30,21,,,,,,,,,9.7,5.6,7.9*34
$GPRMC,181422.992,A,3955.8937,S,07104.1261,W,45.43,19.02,130511,,,A*6D
$GPGGA,181424.002,3955.8832,S,07104.1225,W,1,04,5.6,786.6,M,22.5,M,,0000*5B
$GPGSA,M,3,18,22,30,21,,,,,,,,,9.7,5.6,7.9*34
$GPRMC,181424.002,A,3955.8832,S,07104.1225,W,44.01,17.56,130511,,,A*67
$GPGGA,181425.001,3955.8734,S,07104.1196,W,1,04,5.6,787.4,M,22.5,M,,0000*58
$GPGSA,M,3,18,22,30,21,,,,,,,,,9.7,5.6,7.9*34
$GPRMC,181425.001,A,3955.8734,S,07104.1196,W,40.48,15.96,130511,,,A*60
$GPGGA,181425.998,3955.8627,S,07104.1159,W,1,04,5.6,786.4,M,22.5,M,,0000*50
$GPGSA,M,3,18,22,30,21,,,,,,,,,9.7,5.6,7.9*34
$GPGSV,3,1,12,06,63,222,39,18,60,083,41,16,60,296,41,22,52,011,40*78
$GPGSV,3,2,12,03,49,230,39,30,48,335,38,21,37,122,38,19,20,239,28*7A
$GPGSV,3,3,12,15,10,120,30,07,01,217,,29,01,066,,26,00,152,*75
$GPRMC,181425.998,A,3955.8627,S,07104.1159,W,41.06,15.07,130511,,,A*6A
$GPGGA,181427.002,3955.8521,S,07104.1124,W,1,04,5.6,785.4,M,22.5,M,,0000*54
$GPGSA,M,3,18,22,30,21,,,,,,,,,9.7,5.6,7.9*34
$GPRMC,181427.002,A,3955.8521,S,07104.1124,W,41.84,16.31,130511,,,A*61
$GPGGA,181428.000,3955.8416,S,07104.1089,W,1,04,5.6,784.2,M,22.5,M,,0000*5D
$GPGSA,M,3,18,22,30,21,,,,,,,,,9.7,5.6,7.9*34
$GPRMC,181428.000,A,3955.8416,S,07104.1089,W,42.46,16.58,130511,,,A*6D
$GPGGA,181428.998,3955.8309,S,07104.1055,W,1,04,5.6,782.8,M,22.5,M,,0000*51
$GPGSA,M,3,18,22,30,21,,,,,,,,,9.7,5.6,7.9*34
$GPRMC,181428.998,A,3955.8309,S,07104.1055,W,43.24,15.70,130511,,,A*61
$GPGGA,181430.002,3955.8186,S,07104.1003,W,1,04,5.6,781.2,M,22.5,M,,0000*5D
$GPGSA,M,3,18,22,30,21,,,,,,,,,9.7,5.6,7.9*34
$GPRMC,181430.002,A,3955.8186,S,07104.1003,W,43.67,16.39,130511,,,A*6D
$GPGGA,181430.998,3955.8064,S,07104.0953,W,1,04,5.6,780.3,M,22.5,M,,0000*57
$GPGSA,M,3,18,22,30,21,,,,,,,,,9.7,5.6,7.9*34
$GPGSV,3,1,12,06,63,222,40,18,60,083,40,16,60,296,41,22,52,011,40*77
$GPGSV,3,2,12,03,49,230,38,30,48,335,40,21,37,122,38,19,20,239,25*79
$GPGSV,3,3,12,15,10,120,28,07,01,217,,29,01,066,,26,00,152,*7C
$GPRMC,181430.998,A,3955.8064,S,07104.0953,W,44.83,15.73,130511,,,A*67
$GPGGA,181432.000,3955.7941,S,07104.0908,W,1,04,5.6,779.8,M,22.5,M,,0000*5F
$GPGSA,M,3,18,22,30,21,,,,,,,,,9.7,5.6,7.9*34
$GPRMC,181432.000,A,3955.7941,S,07104.0908,W,44.20,15.23,130511,,,A*6E
$GPGGA,181433.000,3955.7816,S,07104.0862,W,1,04,5.7,776.9,M,22.5,M,,0000*5F
$GPGSA,M,3,18,22,30,21,,,,,,,,,9.7,5.7,7.9*35
$GPRMC,181433.000,A,3955.7816,S,07104.0862,W,43.93,15.21,130511,,,A*6C
$GPGGA,181434.000,3955.7700,S,07104.0828,W,1,04,5.7,777.2,M,22.5,M,,0000*54
$GPGSA,M,3,18,22,30,21,,,,,,,,,9.7,5.7,7.9*35
$GPRMC,181434.000,A,3955.7700,S,07104.0828,W,42.57,15.24,130511,,,A*61
$GPGGA,181435.000,3955.7589,S,07104.0797,W,1,04,5.7,776.7,M,22.5,M,,0000*59
$GPGSA,M,3,18,22,30,21,,,,,,,,,9.7,5.7,7.9*35
$GPRMC,181435.000,A,3955.7589,S,07104.0797,W,42.60,14.89,130511,,,A*6A
$GPGGA,181436.000,3955.7474,S,07104.0759,W,1,04,5.7,773.2,M,22.5,M,,0000*5B
$GPGSA,M,3,18,22,30,21,,,,,,,,,9.7,5.7,7.9*35
$GPGSV,3,1,12,06,63,222,39,18,60,083,40,16,60,296,41,22,52,011,40*79
$GPGSV,3,2,12,03,49,230,37,30,48,335,40,21,37,122,37,19,20,239,31*7C
$GPGSV,3,3,12,15,10,120,30,07,01,217,,29,01,066,,26,00,152,*75
$GPRMC,181436.000,A,3955.7474,S,07104.0759,W,42.81,13.89,130511,,,A*60
$GPGGA,181437.000,3955.7363,S,07104.0733,W,1,04,5.7,772.1,M,22.5,M,,0000*55
$GPGSA,M,3,18,22,30,21,,,,,,,,,9.7,5.7,7.9*35
$GPRMC,181437.000,A,3955.7363,S,07104.0733,W,43.58,12.08,130511,,,A*61
$GPGGA,181438.000,3955.7246,S,07104.0708,W,1,04,5.7,773.0,M,22.5,M,,0000*54
$GPGSA,M,3,18,22,30,21,,,,,,,,,9.7,5.7,7.9*35
$GPRMC,181438.000,A,3955.7246,S,07104.0708,W,43.95,8.64,130511,,,A*50
$GPGGA,181439.000,3955.7130,S,07104.0696,W,1,04,5.7,772.7,M,22.5,M,,0000*57
$GPGSA,M,3,18,22,30,21,,,,,,,,,9.7,5.7,7.9*35
$GPRMC,181439.000,A,3955.7130,S,07104.0696,W,44.83,6.65,130511,,,A*5A
$GPGGA,181440.000,3955.7012,S,07104.0689,W,1,04,5.7,772.4,M,22.5,M,,0000*55
$GPGSA,M,3,18,22,30,21,,,,,,,,,9.7,5.7,7.9*35
$GPRMC,181440.000,A,3955.7012,S,07104.0689,W,44.43,4.16,130511,,,A*51
$GPGGA,181441.001,3955.6889,S,07104.0679,W,1,04,5.7,772.0,M,22.5,M,,0000*55
$GPGSA,M,3,18,22,30,21,,,,,,,,,9.7,5.7,7.9*35
$GPGSV,3,1,12,06,63,222,40,18,60,083,38,16,60,296,41,22,52,011,40*78
$GPGSV,3,2,12,03,49,230,40,30,48,335,40,21,37,122,38,19,20,239,34*76
$GPGSV,3,3,12,15,10,120,,07,01,217,,29,01,066,,26,00,152,*76
$GPRMC,181441.001,A,3955.6889,S,07104.0679,W,44.59,3.45,130511,,,A*5F
$GPGGA,181441.998,3955.6758,S,07104.0668,W,1,04,5.7,770.8,M,22.5,M,,0000*55
$GPGSA,M,3,18,22,30,21,,,,,,,,,9.8,5.7,7.9*3A
$GPRMC,181441.998,A,3955.6758,S,07104.0668,W,46.87,1.98,130511,,,A*56
$GPGGA,181443.001,3955.6630,S,07104.0669,W,1,04,5.7,769.1,M,22.5,M,,0000*51
$GPGSA,M,3,18,22,30,21,,,,,,,,,9.8,5.7,7.9*3A
$GPRMC,181443.001,A,3955.6630,S,07104.0669,W,46.96,0.20,130511,,,A*51
$GPGGA,181444.000,3955.6498,S,07104.0665,W,1,04,5.7,767.9,M,22.5,M,,0000*5D
$GPGSA,M,3,18,22,30,21,,,,,,,,,9.8,5.7,7.9*3A
$GPRMC,181444.000,A,3955.6498,S,07104.0665,W,47.58,359.99,130511,,,A*55
$GPGGA,181444.999,3955.6371,S,07104.0695,W,1,04,5.7,766.4,M,22.5,M,,0000*57
$GPGSA,M,3,18,22,30,21,,,,,,,,,9.8,5.7,7.9*3A
$GPRMC,181444.999,A,3955.6371,S,07104.0695,W,46.97,356.76,130511,,,A*5F
$GPGGA,181445.998,3955.6251,S,07104.0721,W,1,04,5.7,766.1,M,22.5,M,,0000*5F
$GPGSA,M,3,18,22,30,21,,,,,,,,,9.8,5.7,7.9*3A
$GPGSV,3,1,12,06,63,222,40,18,60,083,40,16,60,296,41,22,52,011,38*78
$GPGSV,3,2,12,03,49,230,39,30,48,335,38,21,37,122,38,19,20,239,33*70
$GPGSV,3,3,12,15,10,120,,07,01,217,,29,01,066,,26,00,152,*76
$GPRMC,181445.998,A,3955.6251,S,07104.0721,W,46.44,355.78,130511,,,A*51
$GPGGA,181447.001,3955.6145,S,07104.0798,W,1,04,5.7,767.4,M,22.5,M,,0000*54
$GPGSA,M,3,18,22,30,21,,,,,,,,,9.8,5.7,7.9*3A
$GPRMC,181447.001,A,3955.6145,S,07104.0798,W,45.52,350.95,130511,,,A*5C
$GPGGA,181448.001,3955.6036,S,07104.0868,W,1,04,5.7,768.8,M,22.5,M,,0000*5D
$GPGSA,M,3,18,22,30,21,,,,,,,,,9.8,5.7,7.9*3A
$GPRMC,181448.001,A,3955.6036,S,07104.0868,W,44.30,347.58,130511,,,A*54
$GPGGA,181448.998,3955.5939,S,07104.0981,W,1,04,5.7,768.4,M,22.5,M,,0000*5B
$GPGSA,M,3,18,22,30,21,,,,,,,,,9.8,5.7,7.9*3A
$GPRMC,181448.998,A,3955.5939,S,07104.0981,W,44.25,341.46,130511,,,A*53
$GPGGA,181450.001,3955.5831,S,07104.1062,W,1,04,5.7,769.2,M,22.5,M,,0000*50
$GPGSA,M,3,18,22,30,21,,,,,,,,,9.8,5.7,7.9*3A
$GPRMC,181450.001,A,3955.5831,S,07104.1062,W,43.59,338.66,130511,,,A*5F
$GPGGA,181451.001,3955.5716,S,07104.1107,W,1,04,5.8,769.2,M,22.5,M,,0000*56
$GPGSA,M,3,18,22,30,21,,,,,,,,,9.8,5.8,7.9*35
$GPGSV,3,1,12,06,63,222,41,18,60,083,40,16,60,296,41,22,52,011,41*77
$GPGSV,3,2,12,03,49,230,40,30,48,335,40,21,37,122,37,19,20,239,37*7A
$GPGSV,3,3,12,15,10,120,35,07,01,217,,29,01,066,,26,00,152,*70
$GPRMC,181451.001,A,3955.5716,S,07104.1107,W,44.96,339.17,130511,,,A*55
$GPGGA,181451.999,3955.5657,S,07104.1295,W,1,04,5.8,769.0,M,22.5,M,,0000*50
$GPGSA,M,3,18,22,30,21,,,,,,,,,9.8,5.8,7.9*35
$GPRMC,181451.999,A,3955.5657,S,07104.1295,W,43.96,331.39,130511,,,A*52
$GPGGA,181452.999,3955.5581,S,07104.1463,W,1,04,5.8,771.0,M,22.5,M,,0000*5D
$GPGSA,M,3,18,22,30,21,,,,,,,,,9.8,5.8,7.9*35
$GPRMC,181452.999,A,3955.5581,S,07104.1463,W,46.13,326.32,130511,,,A*53
$GPGGA,181453.999,3955.5497,S,07104.1607,W,1,04,5.8,774.1,M,22.5,M,,0000*5E
$GPGSA,M,3,18,22,30,21,,,,,,,,,9.8,5.8,7.9*35
$GPRMC,181453.999,A,3955.5497,S,07104.1607,W,47.00,323.23,130511,,,A*52
$GPGGA,181454.999,3955.5427,S,07104.1802,W,1,04,5.8,775.9,M,22.5,M,,0000*50
$GPGSA,M,3,18,22,30,21,,,,,,,,,9.8,5.8,7.9*35
$GPRMC,181454.999,A,3955.5427,S,07104.1802,W,48.59,318.35,130511,,,A*59
$GPGGA,181455.999,3955.5357,S,07104.1973,W,1,04,5.8,778.5,M,22.5,M,,0000*57
$GPGSA,M,3,18,22,30,21,,,,,,,,,9.8,5.8,7.9*35
$GPGSV,3,1,12,06,63,222,40,18,60,083,40,16,60,296,40,22,52,011,38*79
$GPGSV,3,2,12,03,49,230,41,30,48,335,39,21,37,122,37,19,20,239,29*7A
$GPGSV,3,3,12,15,10,120,36,07,01,217,,29,01,066,,26,00,152,*73
$GPRMC,181455.999,A,3955.5357,S,07104.1973,W,50.03,314.23,130511,,,A*52
$GPGGA,181456.999,3955.5307,S,07104.2188,W,1,04,5.8,786.1,M,22.5,M,,0000*5B
$GPGSA,M,3,18,22,30,21,,,,,,,,,9.8,5.8,7.9*35
$GPRMC,181456.999,A,3955.5307,S,07104.2188,W,50.67,313.06,130511,,,A*59
$GPGGA,181457.999,3955.5219,S,07104.2341,W,1,04,5.8,787.0,M,22.5,M,,0000*53
$GPGSA,M,3,18,22,30,21,,,,,,,,,9.8,5.8,7.9*35
$GPRMC,181457.999,A,3955.5219,S,07104.2341,W,51.03,313.21,130511,,,A*57
$GPGGA,181458.999,3955.5114,S,07104.2472,W,1,04,5.8,787.5,M,22.5,M,,0000*50
$GPGSA,M,3,18,22,30,21,,,,,,,,,9.8,5.8,7.9*35
$GPRMC,181458.999,A,3955.5114,S,07104.2472,W,51.31,314.11,130511,,,A*54
$GPGGA,181459.999,3955.5018,S,07104.2604,W,1,04,5.8,789.1,M,22.5,M,,0000*55
$GPGSA,M,3,18,22,30,21,,,,,,,,,9.8,5.8,7.9*35
$GPRMC,181459.999,A,3955.5018,S,07104.2604,W,51.18,313.72,130511,,,A*52
$GPGGA,181500.999,3955.4915,S,07104.2742,W,1,04,5.8,789.4,M,22.5,M,,0000*5B
$GPGSA,M,3,18,22,30,21,,,,,,,,,9.8,5.8,7.9*35
$GPGSV,3,1,12,06,63,222,41,18,60,083,40,16,60,296,40,22,52,011,37*77
$GPGSV,3,2,12,03,49,230,39,30,48,335,39,21,37,122,38,19,20,239,36*74
$GPGSV,3,3,12,15,10,120,37,07,01,217,,29,01,066,,26,00,152,*72
$GPRMC,181500.999,A,3955.4915,S,07104.2742,W,51.73,314.06,130511,,,A*50
$GPGGA,181501.999,3955.4801,S,07104.2871,W,1,04,5.8,790.8,M,22.5,M,,0000*55
$GPGSA,M,3,18,22,30,21,,,,,,,,,9.8,5.8,7.9*35
$GPRMC,181501.999,A,3955.4801,S,07104.2871,W,52.15,314.05,130511,,,A*5A
$GPGGA,181502.999,3955.4706,S,07104.3006,W,1,04,5.8,788.8,M,22.5,M,,0000*5E
$GPGSA,M,3,18,22,30,21,,,,,,,,,9.8,5.8,7.9*35
$GPRMC,181502.999,A,3955.4706,S,07104.3006,W,52.98,314.50,130511,,,A*5D
$GPGGA,181503.999,3955.4600,S,07104.3135,W,1,04,5.8,786.1,M,22.5,M,,0000*5E
$GPGSA,M,3,18,22,30,21,,,,,,,,,9.8,5.8,7.9*35
$GPRMC,181503.999,A,3955.4600,S,07104.3135,W,52.73,314.18,130511,,,A*53
$GPGGA,181504.999,3955.4509,S,07104.3291,W,1,04,5.8,788.1,M,22.5,M,,0000*50
$GPGSA,M,3,18,22,30,21,,,,,,,,,9.8,5.8,7.9*35
$GPRMC,181504.999,A,3955.4509,S,07104.3291,W,52.68,314.25,130511,,,A*57
$GPGGA,181505.999,3955.4412,S,07104.3432,W,1,04,5.8,789.8,M,22.5,M,,0000*5D
$GPGSA,M,3,18,22,30,21,,,,,,,,,9.8,5.8,7.9*35
$GPGSV,3,1,12,06,63,222,40,18,60,083,40,16,60,296,39,22,52,011,38*77
$GPGSV,3,2,12,03,49,230,39,30,48,335,39,21,37,122,38,19,20,239,36*74
$GPGSV,3,3,12,15,10,120,35,07,01,217,,29,01,066,,26,00,152,*70
$GPRMC,181505.999,A,3955.4412,S,07104.3432,W,52.37,313.34,130511,,,A*5F
$GPGGA,181506.999,3955.4314,S,07104.3577,W,1,04,5.8,790.0,M,22.5,M,,0000*5F
$GPGSA,M,3,18,22,30,21,,,,,,,,,9.8,5.8,7.9*35
$GPRMC,181506.999,A,3955.4314,S,07104.3577,W,51.80,313.77,130511,,,A*55
$GPGGA,181507.999,3955.4215,S,07104.3710,W,1,04,5.9,790.1,M,22.5,M,,0000*5D
$GPGSA,M,3,18,22,30,21,,,,,,,,,9.8,5.9,7.9*34
$GPRMC,181507.999,A,3955.4215,S,07104.3710,W,51.51,313.67,130511,,,A*5A
$GPGGA,181508.999,3955.4122,S,07104.3848,W,1,04,5.9,790.7,M,22.5,M,,0000*51
$GPGSA,M,3,18,22,30,21,,,,,,,,,9.8,5.9,7.9*34
$GPRMC,181508.999,A,3955.4122,S,07104.3848,W,50.38,313.13,130511,,,A*5D
$GPGGA,181509.999,3955.4034,S,07104.3984,W,1,04,5.9,792.1,M,22.5,M,,0000*53
$GPGSA,M,3,18,22,30,21,,,,,,,,,9.8,5.9,7.9*34
$GPRMC,181509.999,A,3955.4034,S,07104.3984,W,48.39,312.83,130511,,,A*5B
$GPGGA,181510.999,3955.3942,S,07104.4108,W,1,04,5.9,792.1,M,22.5,M,,0000*5F
$GPGSA,M,3,18,22,30,21,,,,,,,,,9.8,5.9,7.9*34
$GPGSV,3,1,12,06,63,222,41,18,60,083,41,16,60,296,40,22,52,011,38*79
$GPGSV,3,2,12,03,49,230,40,30,48,335,38,21,37,122,37,19,20,239,30*72
$GPGSV,3,3,12,15,10,120,35,07,01,217,,29,01,066,,26,00,152,*70
$GPRMC,181510.999,A,3955.3942,S,07104.4108,W,47.68,313.22,130511,,,A*56
$GPGGA,181511.999,3955.3848,S,07104.4224,W,1,04,5.9,791.9,M,22.5,M,,0000*53
$GPGSA,M,3,18,22,30,21,,,,,,,,,9.8,5.9,7.9*34
$GPRMC,181511.999,A,3955.3848,S,07104.4224,W,46.74,313.71,130511,,,A*5B
$GPGGA,181512.997,3955.3766,S,07104.4364,W,1,04,5.9,790.6,M,22.5,M,,0000*56
$GPGSA,M,3,18,22,30,21,,,,,,,,,9.9,5.9,7.9*35
$GPRMC,181512.997,A,3955.3766,S,07104.4364,W,45.10,313.43,130511,,,A*50
$GPGGA,181514.002,3955.3687,S,07104.4483,W,1,04,5.9,790.3,M,22.5,M,,0000*50
$GPGSA,M,3,18,22,30,21,,,,,,,,,9.9,5.9,7.9*35
$GPRMC,181514.002,A,3955.3687,S,07104.4483,W,43.12,312.61,130511,,,A*56
$GPGGA,181515.000,3955.3600,S,07104.4603,W,1,04,5.9,789.9,M,22.5,M,,0000*54
$GPGSA,M,3,18,22,30,21,,,,,,,,,9.9,5.9,7.9*35
$GPRMC,181515.000,A,3955.3600,S,07104.4603,W,41.61,313.26,130511,,,A*54
$GPGGA,181516.000,3955.3528,S,07104.4720,W,1,04,5.9,791.1,M,22.5,M,,0000*5F
$GPGSA,M,3,18,22,30,21,,,,,,,,,9.9,5.9,7.9*35
$GPGSV,3,1,12,06,63,222,41,18,60,083,40,16,60,296,39,22,52,011,38*76
$GPGSV,3,2,12,03,49,230,40,30,48,335,39,21,37,122,38,19,20,239,25*78
$GPGSV,3,3,12,15,10,120,33,07,01,217,,29,01,066,,26,00,152,*76
$GPRMC,181516.000,A,3955.3528,S,07104.4720,W,39.98,314.26,130511,,,A*50
$GPGGA,181517.001,3955.3438,S,07104.4794,W,1,04,5.9,789.9,M,22.5,M,,0000*51
$GPGSA,M,3,18,22,30,21,,,,,,,,,9.9,5.9,7.9*35
$GPRMC,181517.001,A,3955.3438,S,07104.4794,W,38.68,318.71,130511,,,A*5F
$GPGGA,181517.998,3955.3356,S,07104.4881,W,1,04,5.9,789.9,M,22.5,M,,0000*5C
$GPGSA,M,3,18,22,30,21,,,,,,,,,9.9,5.9,7.9*35
$GPRMC,181517.998,A,3955.3356,S,07104.4881,W,37.96,320.27,130511,,,A*54
$GPGGA,181519.000,3955.3277,S,07104.4966,W,1,04,5.9,787.2,M,22.5,M,,0000*55
$GPGSA,M,3,18,22,30,21,,,,,,,,,9.9,5.9,7.9*35
$GPRMC,181519.000,A,3955.3277,S,07104.4966,W,37.31,320.97,130511,,,A*5E
$GPGGA,181520.001,3955.3192,S,07104.5041,W,1,04,5.9,786.2,M,22.5,M,,0000*5A
$GPGSA,M,3,18,22,30,21,,,,,,,,,9.9,5.9,7.9*35
$GPRMC,181520.001,A,3955.3192,S,07104.5041,W,37.52,321.38,130511,,,A*51
$GPGGA,181521.000,3955.3109,S,07104.5118,W,1,04,5.9,787.2,M,22.5,M,,0000*54
$GPGSA,M,3,18,22,30,21,,,,,,,,,9.9,5.9,7.9*35
$GPGSV,3,1,12,06,63,222,41,18,60,083,39,16,60,296,40,22,52,011,40*79
$GPGSV,3,2,12,03,49,230,40,30,48,335,38,21,37,122,38,19,20,239,*7E
$GPGSV,3,3,12,15,10,120,,07,01,217,,29,01,066,,26,00,152,*76
$GPRMC,181521.000,A,3955.3109,S,07104.5118,W,36.34,323.12,130511,,,A*55
$GPGGA,181522.000,3955.3023,S,07104.5186,W,1,04,5.9,784.7,M,22.5,M,,0000*5F
$GPGSA,M,3,18,22,30,21,,,,,,,,,9.9,5.9,7.9*35
$GPRMC,181522.000,A,3955.3023,S,07104.5186,W,35.27,323.36,130511,,,A*5F
$GPGGA,181523.000,3955.2932,S,07104.5238,W,1,04,5.9,783.6,M,22.5,M,,0000*56
$GPGSA,M,3,18,22,30,21,,,,,,,,,9.9,5.9,7.9*35
$GPRMC,181523.000,A,3955.2932,S,07104.5238,W,34.98,324.98,130511,,,A*56
$GPGGA,181524.000,3955.2842,S,07104.5292,W,1,04,6.0,781.8,M,22.5,M,,0000*51
$GPGSA,M,3,18,22,30,21,,,,,,,,,9.9,6.0,7.9*3F
$GPRMC,181524.000,A,3955.2842,S,07104.5292,W,33.18,325.53,130511,,,A*5E
$GPGGA,181525.000,3955.2733,S,07104.5298,W,1,04,6.0,778.9,M,22.5,M,,0000*54
$GPGSA,M,3,18,22,30,21,,,,,,,,,9.9,6.0,7.9*3F
$GPRMC,181525.000,A,3955.2733,S,07104.5298,W,33.95,331.63,130511,,,A*5F
$GPGGA,181525.999,3955.2629,S,07104.5296,W,1,04,6.0,778.0,M,22.5,M,,0000*50
$GPGSA,M,3,18,22,30,21,,,,,,,,,9.9,6.0,7.9*3F
$GPGSV,3,1,12,06,63,222,39,18,60,083,40,16,60,296,40,22,52,011,39*76
$GPGSV,3,2,12,03,49,230,39,30,48,335,39,21,37,122,40,19,20,239,23*7F
$GPGSV,3,3,12,15,10,120,25,07,01,217,,29,01,066,,26,00,152,*71
$GPRMC,181525.999,A,3955.2629,S,07104.5296,W,32.66,337.23,130511,,,A*5D
$GPGGA,181526.999,3955.2541,S,07104.5317,W,1,04,6.0,779.9,M,22.5,M,,0000*5E
$GPGSA,M,3,18,22,30,21,,,,,,,,,9.9,6.0,7.9*3F
$GPRMC,181526.999,A,3955.2541,S,07104.5317,W,31.74,340.14,130511,,,A*5F
$GPGGA,181527.998,3955.2378,S,07104.5145,W,1,04,6.0,776.2,M,22.5,M,,0000*53
$GPGSA,M,3,18,22,30,21,,,,,,,,,9.9,6.0,7.9*3F
$GPRMC,181527.998,A,3955.2378,S,07104.5145,W,33.38,358.99,130511,,,A*50
$GPGGA,181529.000,3955.2245,S,07104.5023,W,1,04,6.0,772.9,M,22.5,M,,0000*54
$GPGSA,M,3,18,22,30,21,,,,,,,,,9.9,6.0,7.9*3F
$GPRMC,181529.000,A,3955.2245,S,07104.5023,W,35.32,9.49,130511,,,A*5E
$GPGGA,181530.003,3955.2160,S,07104.5004,W,1,04,6.0,772.7,M,22.5,M,,0000*50
$GPGSA,M,3,18,22,30,21,,,,,,,,,9.9,6.0,7.9*3F
$GPRMC,181530.003,A,3955.2160,S,07104.5004,W,33.42,11.93,130511,,,A*6B
$GPGGA,181530.998,3955.2065,S,07104.4943,W,1,04,6.0,775.1,M,22.5,M,,0000*55
$GPGSA,M,3,18,22,30,21,,,,,,,,,9.9,6.0,7.9*3F
$GPGSV,3,1,12,06,63,222,38,18,60,083,38,16,60,296,40,22,52,011,39*78
$GPGSV,3,2,12,03,49,230,34,30,48,335,40,21,37,122,38,19,20,239,*72
$GPGSV,3,3,12,15,10,120,,07,01,217,,29,01,066,,26,00,152,*76
$GPRMC,181530.998,A,3955.2065,S,07104.4943,W,33.84,17.62,130511,,,A*6D
$GPGGA,181532.000,3955.1963,S,07104.4838,W,1,04,6.0,781.3,M,22.5,M,,0000*57
$GPGSA,M,3,18,22,30,21,,,,,,,,,9.9,6.0,7.9*3F
$GPRMC,181532.000,A,3955.1963,S,07104.4838,W,36.29,23.29,130511,,,A*6C
$GPGGA,181533.006,3955.1854,S,07104.4766,W,1,04,6.0,780.9,M,22.5,M,,0000*5A
$GPGSA,M,3,18,22,30,21,,,,,,,,,9.9,6.0,7.9*3F
$GPRMC,181533.006,A,3955.1854,S,07104.4766,W,39.93,22.80,130511,,,A*66
$GPGGA,181533.993,3955.1718,S,07104.4641,W,1,04,6.0,778.2,M,22.5,M,,0000*50
$GPGSA,M,3,18,22,30,21,,,,,,,,,9.9,6.0,7.9*3F
$GPRMC,181533.993,A,3955.1718,S,07104.4641,W,43.58,25.35,130511,,,A*63
$GPGGA,181535.001,3955.1606,S,07104.4573,W,1,04,6.0,777.8,M,22.5,M,,0000*5D
$GPGSA,M,3,18,22,30,21,,,,,,,,,9.9,6.0,7.9*3F
$GPRMC,181535.001,A,3955.1606,S,07104.4573,W,44.46,27.22,130511,,,A*67
$GPGGA,181536.000,3955.1499,S,07104.4513,W,1,04,6.0,776.3,M,22.5,M,,0000*57
$GPGSA,M,3,18,22,30,21,,,,,,,,,9.9,6.0,7.9*3F
$GPGSV,3,1,12,06,63,222,38,18,60,083,39,16,60,296,41,22,52,011,39*78
$GPGSV,3,2,12,03,49,230,33,30,48,335,41,21,37,122,37,19,20,239,*7B
$GPGSV,3,3,12,15,10,120,,07,01,217,,29,01,066,,26,00,152,*76
$GPRMC,181536.000,A,3955.1499,S,07104.4513,W,45.06,26.39,130511,,,A*69
$GPGGA,181537.000,3955.1385,S,07104.4436,W,1,04,6.0,781.3,M,22.5,M,,0000*52
$GPGSA,M,3,18,22,30,21,,,,,,,,,9.9,6.0,7.9*3F
$GPRMC,181537.000,A,3955.1385,S,07104.4436,W,45.07,26.51,130511,,,A*6B
$GPGGA,181538.000,3955.1278,S,07104.4367,W,1,04,6.0,780.2,M,22.5,M,,0000*5D
$GPGSA,M,3,18,22,30,21,,,,,,,,,9.9,6.0,7.9*3F
$GPRMC,181538.000,A,3955.1278,S,07104.4367,W,45.87,27.54,130511,,,A*68
$GPGGA,181539.000,3955.1179,S,07104.4302,W,1,04,6.0,783.1,M,22.5,M,,0000*5D
$GPGSA,M,3,18,22,30,21,,,,,,,,,9.9,6.0,7.9*3F
$GPRMC,181539.000,A,3955.1179,S,07104.4302,W,44.50,28.96,130511,,,A*62
$GPGGA,181540.002,3955.1073,S,07104.4241,W,1,04,6.0,780.5,M,22.5,M,,0000*5B
$GPGSA,M,3,18,22,30,21,,,,,,,,,9.9,6.0,7.9*3F
$GPRMC,181540.002,A,3955.1073,S,07104.4241,W,43.31,27.45,130511,,,A*62
$GPGGA,181540.998,3955.0974,S,07104.4172,W,1,04,6.1,778.9,M,22.5,M,,0000*57
$GPGSA,M,3,18,22,30,21,,,,,,,,,9.9,6.1,7.9*3E
$GPGSV,3,1,12,06,63,222,38,18,60,083,39,16,60,296,41,22,52,011,41*77
$GPGSV,3,2,12,03,49,230,33,30,48,335,40,21,37,122,38,19,20,239,30*76
$GPGSV,3,3,12,15,10,120,29,07,01,217,,29,01,066,,26,00,152,*7D
$GPRMC,181540.998,A,3955.0974,S,07104.4172,W,41.15,28.83,130511,,,A*65
$GPGGA,181542.000,3955.0892,S,07104.4131,W,1,04,6.1,780.8,M,22.5,M,,0000*55
$GPGSA,M,3,18,22,30,21,,,,,,,,,9.9,6.1,7.9*3E
$GPRMC,181542.000,A,3955.0892,S,07104.4131,W,39.86,29.31,130511,,,A*6C
$GPGGA,181543.000,3955.0810,S,07104.4085,W,1,04,6.1,779.7,M,22.5,M,,0000*59
$GPGSA,M,3,18,22,30,21,,,,,,,,,10.0,6.1,7.9*0F
$GPRMC,181543.000,A,3955.0810,S,07104.4085,W,37.15,26.03,130511,,,A*63
$GPGGA,181544.000,3955.0727,S,07104.4028,W,1,04,6.1,782.4,M,22.5,M,,0000*55
$GPGSA,M,3,18,22,30,21,,,,,,,,,10.0,6.1,7.9*0F
$GPRMC,181544.000,A,3955.0727,S,07104.4028,W,34.91,25.58,130511,,,A*6A
$GPGGA,181545.001,3955.0651,S,07104.3998,W,1,04,6.1,783.3,M,22.5,M,,0000*56
$GPGSA,M,3,18,22,30,21,,,,,,,,,10.0,6.1,7.9*0F
$GPRMC,181545.001,A,3955.0651,S,07104.3998,W,34.04,25.01,130511,,,A*6F
$GPGGA,181546.000,3955.0575,S,07104.3955,W,1,04,6.1,781.9,M,22.5,M,,0000*58
$GPGSA,M,3,18,22,30,21,,,,,,,,,10.0,6.1,7.9*0F
$GPGSV,3,1,12,06,63,222,37,18,60,083,39,16,60,296,41,22,52,011,39*77
$GPGSV,3,2,12,03,49,230,37,30,48,335,41,21,37,122,37,19,20,239,33*7F
$GPGSV,3,3,12,15,10,120,,07,01,217,,29,01,066,,26,00,152,*76
$GPRMC,181546.000,A,3955.0575,S,07104.3955,W,33.85,26.02,130511,,,A*67
$GPGGA,181546.999,3955.0494,S,07104.3915,W,1,04,6.1,778.1,M,22.5,M,,0000*55
$GPGSA,M,3,18,22,30,21,,,,,,,,,10.0,6.1,7.9*0F
$GPRMC,181546.999,A,3955.0494,S,07104.3915,W,33.03,25.75,130511,,,A*69
$GPGGA,181547.999,3955.0416,S,07104.3873,W,1,04,6.1,775.6,M,22.5,M,,0000*55
$GPGSA,M,3,18,22,30,21,,,,,,,,,10.0,6.1,7.9*0F
$GPRMC,181547.999,A,3955.0416,S,07104.3873,W,33.71,25.45,130511,,,A*65
$GPGGA,181548.999,3955.0336,S,07104.3828,W,1,04,6.1,775.9,M,22.5,M,,0000*5E
$GPGSA,M,3,18,22,30,21,,,,,,,,,10.0,6.1,7.9*0F
$GPRMC,181548.999,A,3955.0336,S,07104.3828,W,34.26,24.97,130511,,,A*6A
$GPGGA,181550.000,3955.0251,S,07104.3769,W,1,04,6.1,778.9,M,22.5,M,,0000*59
$GPGSA,M,3,18,22,30,21,,,,,,,,,10.0,6.1,7.9*0F
$GPRMC,181550.000,A,3955.0251,S,07104.3769,W,35.61,25.92,130511,,,A*66
$GPGGA,181550.999,3955.0162,S,07104.3712,W,1,04,6.1,777.1,M,22.5,M,,0000*58
$GPGSA,M,3,18,22,30,21,,,,,,,,,10.0,6.1,7.9*0F
$GPGSV,3,1,12,06,63,222,38,18,60,083,39,16,60,296,40,22,52,011,39*79
$GPGSV,3,2,12,03,49,230,30,30,48,335,40,21,37,122,37,19,20,239,17*7F
$GPGSV,3,3,12,15,10,120,29,07,01,217,,29,01,066,,26,00,152,*7D
$GPRMC,181550.999,A,3955.0162,S,07104.3712,W,34.35,25.20,130511,,,A*69
$GPGGA,181551.999,3955.0076,S,07104.3661,W,1,04,6.1,776.9,M,22.5,M,,0000*51
$GPGSA,M,3,18,22,30,21,,,,,,,,,10.0,6.1,7.9*0F
$GPRMC,181551.999,A,3955.0076,S,07104.3661,W,34.02,24.60,130511,,,A*68
$GPGGA,181552.998,3955.0000,S,07104.3622,W,1,04,6.1,777.0,M,22.5,M,,0000*5D
$GPGSA,M,3,18,22,30,21,,,,,,,,,10.0,6.1,7.9*0F
$GPRMC,181552.998,A,3955.0000,S,07104.3622,W,33.80,24.89,130511,,,A*66
$GPGGA,181554.001,3954.9913,S,07104.3570,W,1,04,6.1,775.1,M,22.5,M,,0000*56
$GPGSA,M,3,18,22,30,21,,,,,,,,,10.0,6.1,7.9*0F
$GPRMC,181554.001,A,3954.9913,S,07104.3570,W,33.79,25.70,130511,,,A*6F
$GPGGA,181555.000,3954.9824,S,07104.3511,W,1,04,6.1,773.3,M,22.5,M,,0000*50
$GPGSA,M,3,18,22,30,21,,,,,,,,,10.0,6.1,7.9*0F
$GPRMC,181555.000,A,3954.9824,S,07104.3511,W,33.76,26.13,130511,,,A*64
$GPGGA,181556.001,3954.9740,S,07104.3448,W,1,04,6.1,774.4,M,22.5,M,,0000*52
$GPGSA,M,3,18,22,30,21,,,,,,,,,10.0,6.1,7.9*0F
$GPGSV,3,1,12,06,63,222,38,18,60,083,40,16,60,296,41,22,52,011,39*76
$GPGSV,3,2,12,03,49,230,34,30,48,335,39,21,37,122,38,19,20,239,*7C
$GPGSV,3,3,12,15,10,120,,07,01,217,,29,01,066,,26,00,152,23*77
$GPRMC,181556.001,A,3954.9740,S,07104.3448,W,33.96,27.79,130511,,,A*65
$GPGGA,181556.997,3954.9663,S,07104.3403,W,1,04,6.2,773.4,M,22.5,M,,0000*5F
$GPGSA,M,3,18,22,30,21,,,,,,,,,10.0,6.2,7.9*0C
$GPRMC,181556.997,A,3954.9663,S,07104.3403,W,33.23,28.04,130511,,,A*67
$GPGGA,181558.002,3954.9594,S,07104.3355,W,1,04,4.4,776.9,M,22.5,M,,0000*57
$GPGSA,M,3,18,22,30,21,,,,,,,,,4.5,4.4,1.0*37
$GPRMC,181558.002,A,3954.9594,S,07104.3355,W,32.46,28.76,130511,,,A*64
$GPGGA,181559.000,3954.9529,S,07104.3322,W,1,04,4.4,777.2,M,22.5,M,,0000*58
$GPGSA,M,3,18,22,30,21,,,,,,,,,4.5,4.4,1.0*37
$GPRMC,181559.000,A,3954.9529,S,07104.3322,W,29.47,25.46,130511,,,A*64
$GPGGA,181600.000,3954.9470,S,07104.3294,W,1,04,4.4,778.6,M,22.5,M,,0000*5D
$GPGSA,M,3,18,22,30,21,,,,,,,,,4.5,4.4,1.0*37
$GPRMC,181600.000,A,3954.9470,S,07104.3294,W,28.68,27.35,130511,,,A*60
$GPGGA,181600.998,3954.9413,S,07104.3266,W,1,04,4.4,779.3,M,22.5,M,,0000*59
$GPGSA,M,3,18,22,30,21,,,,,,,,,4.5,4.4,1.0*37
$GPGSV,3,1,12,06,63,222,38,18,60,083,40,16,60,296,40,22,52,011,39*77
$GPGSV,3,2,12,03,49,230,33,30,48,335,40,21,37,122,37,19,20,239,*7A
$GPGSV,3,3,12,15,10,120,29,07,01,217,,29,01,066,,26,00,152,*7D
$GPRMC,181600.998,A,3954.9413,S,07104.3266,W,26.78,25.83,130511,,,A*60
$GPGGA,181602.002,3954.9354,S,07104.3232,W,1,04,4.4,778.9,M,22.5,M,,0000*5F
$GPGSA,M,3,18,22,30,21,,,,,,,,,4.5,4.4,1.0*37
$GPRMC,181602.002,A,3954.9354,S,07104.3232,W,26.07,25.47,130511,,,A*6D
$GPGGA,181603.000,3954.9295,S,07104.3197,W,1,04,4.4,778.0,M,22.5,M,,0000*55
$GPGSA,M,3,18,22,30,21,,,,,,,,,4.5,4.4,1.0*37
$GPRMC,181603.000,A,3954.9295,S,07104.3197,W,25.74,25.68,130511,,,A*64
$GPGGA,181604.000,3954.9215,S,07104.3095,W,1,04,4.4,765.6,M,22.5,M,,0000*53
$GPGSA,M,3,18,22,30,21,,,,,,,,,4.5,4.4,1.0*37
$GPRMC,181604.000,A,3954.9215,S,07104.3095,W,25.57,25.85,130511,,,A*6A
$GPGGA,181605.000,3954.9127,S,07104.3017,W,1,04,4.4,768.7,M,22.5,M,,0000*56
$GPGSA,M,3,18,22,30,21,,,,,,,,,4.5,4.4,1.0*37
$GPGSV,3,1,12,18,60,085,45,22,53,012,45,30,47,336,46,21,36,122,41*79
$GPGSV,3,2,12,06,64,222,42,16,60,298,45,03,50,230,36,19,20,238,23*78
$GPGSV,3,3,12,15,10,120,,07,01,218,,29,01,066,,26,00,152,*79
$GPRMC,181605.000,A,3954.9127,S,07104.3017,W,24.36,26.00,130511,,,A*6B
$GPGGA,181606.000,3954.9052,S,07104.2959,W,1,04,4.4,773.9,M,22.5,M,,0000*50
$GPGSA,M,3,18,22,30,21,,,,,,,,,4.6,4.4,1.0*34
$GPRMC,181606.000,A,3954.9052,S,07104.2959,W,22.53,26.15,130511,,,A*68
$GPGGA,181607.000,3954.8986,S,07104.2908,W,1,04,4.4,777.6,M,22.5,M,,0000*5F
$GPGSA,M,3,18,22,30,21,,,,,,,,,4.6,4.4,1.0*34
$GPRMC,181607.000,A,3954.8986,S,07104.2908,W,20.51,26.24,130511,,,A*6E
$GPGGA,181608.000,3954.8931,S,07104.2868,W,1,04,4.4,780.9,M,22.5,M,,0000*5C
$GPGSA,M,3,18,22,30,21,,,,,,,,,4.6,4.4,1.0*34
$GPRMC,181608.000,A,3954.8931,S,07104.2868,W,19.26,26.35,130511,,,A*60
$GPGGA,181609.000,3954.8876,S,07104.2828,W,1,04,4.4,783.1,M,22.5,M,,0000*50
$GPGSA,M,3,18,22,30,21,,,,,,,,,4.6,4.4,1.0*34
$GPRMC,181609.000,A,3954.8876,S,07104.2828,W,18.46,26.22,130511,,,A*66
$GPGGA,181609.000,3954.8825,S,07104.2790,W,1,04,4.5,785.2,M,22.5,M,,0000*5E
$GPGSA,M,3,18,22,30,21,,,,,,,,,4.6,4.5,1.0*35
$GPGSV,3,1,12,18,60,085,45,22,53,012,44,30,47,336,45,21,36,122,41*7B
$GPGSV,3,2,12,06,64,222,42,16,60,298,45,03,50,230,36,19,20,238,23*78
$GPGSV,3,3,12,15,10,120,20,07,01,218,,29,01,066,,26,00,152,*7B
$GPRMC,181609.000,A,3954.8825,S,07104.2790,W,17.78,25.93,130511,,,A*67
$GPGGA,181610.000,3954.8773,S,07104.2754,W,1,04,4.5,787.3,M,22.5,M,,0000*51
$GPGSA,M,3,18,22,30,21,,,,,,,,,4.6,4.5,1.0*35
$GPRMC,181610.000,A,3954.8773,S,07104.2754,W,17.66,25.46,130511,,,A*6C
$GPGGA,181611.001,3954.8730,S,07104.2727,W,1,04,4.5,787.1,M,22.5,M,,0000*50
$GPGSA,M,3,18,22,30,21,,,,,,,,,4.6,4.5,1.0*35
$GPRMC,181611.001,A,3954.8730,S,07104.2727,W,17.66,26.66,130511,,,A*6E
$GPGGA,181612.001,3954.8689,S,07104.2701,W,1,04,4.5,786.9,M,22.5,M,,0000*5D
$GPGSA,M,3,18,22,30,21,,,,,,,,,4.6,4.5,1.0*35
$GPRMC,181612.001,A,3954.8689,S,07104.2701,W,16.23,26.83,130511,,,A*61
$GPGGA,181613.001,3954.8649,S,07104.2674,W,1,04,4.5,787.6,M,22.5,M,,0000*5D
$GPGSA,M,3,18,22,30,21,,,,,,,,,4.6,4.5,1.0*35
$GPRMC,181613.001,A,3954.8649,S,07104.2674,W,16.93,26.88,130511,,,A*6F
$GPGGA,181614.001,3954.8612,S,07104.2653,W,1,04,4.5,788.0,M,22.5,M,,0000*58
$GPGSA,M,3,18,22,30,21,,,,,,,,,4.6,4.5,1.0*35
$GPRMC,181614.001,A,3954.8612,S,07104.2653,W,16.06,24.98,130511,,,A*6C
$GPGGA,181615.002,3954.8576,S,07104.2635,W,1,04,4.5,788.6,M,22.5,M,,0000*5D
$GPGSA,M,3,18,22,30,21,,,,,,,,,4.6,4.5,1.0*35
$GPGSV,3,1,12,06,64,222,37,18,60,085,40,16,60,298,40,22,53,012,39*75
$GPGSV,3,2,12,03,50,230,32,30,47,336,38,21,36,122,38,19,20,238,*7F
$GPGSV,3,3,12,15,10,120,27,07,01,218,,29,01,066,,26,00,152,*7C
$GPRMC,181615.002,A,3954.8576,S,07104.2635,W,14.97,25.32,130511,,,A*64
$GPGGA,181615.999,3954.8542,S,07104.2617,W,1,04,4.5,789.7,M,22.5,M,,0000*51
$GPGSA,M,3,18,22,30,21,,,,,,,,,4.6,4.5,1.0*35
$GPRMC,181615.999,A,3954.8542,S,07104.2617,W,14.44,24.39,130511,,,A*6C
$GPGGA,181617.001,3954.8508,S,07104.2599,W,1,04,4.5,790.2,M,22.5,M,,0000*5D
$GPGSA,M,3,18,22,30,21,,,,,,,,,4.6,4.5,1.0*35
$GPRMC,181617.001,A,3954.8508,S,07104.2599,W,14.71,23.98,130511,,,A*67
$GPGGA,181617.999,3954.8470,S,07104.2572,W,1,04,4.5,790.2,M,22.5,M,,0000*5E
$GPGSA,M,3,18,22,30,21,,,,,,,,,4.6,4.5,1.0*35
$GPRMC,181617.999,A,3954.8470,S,07104.2572,W,15.48,29.00,130511,,,A*64
$GPGGA,181619.002,3954.8432,S,07104.2543,W,1,04,4.5,791.7,M,22.5,M,,0000*5B
$GPGSA,M,3,18,22,30,21,,,,,,,,,4.6,4.5,1.0*35
$GPRMC,181619.002,A,3954.8432,S,07104.2543,W,17.33,30.18,130511,,,A*6A
$GPGGA,181619.999,3954.8392,S,07104.2510,W,1,04,4.5,792.3,M,22.5,M,,0000*5C
$GPGSA,M,3,18,22,30,21,,,,,,,,,4.6,4.5,1.0*35
$GPGSV,3,1,12,06,64,222,38,18,60,085,41,16,60,298,40,22,53,012,38*7A
$GPGSV,3,2,12,03,50,230,34,30,47,336,38,21,36,122,33,19,20,238,28*78
$GPGSV,3,3,12,15,10,120,28,07,01,218,,29,01,066,,26,00,152,*73
$GPRMC,181619.999,A,3954.8392,S,07104.2510,W,17.92,35.20,130511,,,A*6F
$GPGGA,181621.001,3954.8353,S,07104.2471,W,1,04,4.5,792.2,M,22.5,M,,0000*55
$GPGSA,M,3,18,22,30,21,,,,,,,,,4.6,4.5,1.0*35
$GPRMC,181621.001,A,3954.8353,S,07104.2471,W,17.80,43.02,130511,,,A*65
$GPGGA,181622.000,3954.8320,S,07104.2429,W,1,04,4.5,791.8,M,22.5,M,,0000*57
$GPGSA,M,3,18,22,30,21,,,,,,,,,4.6,4.5,1.0*35
$GPRMC,181622.000,A,3954.8320,S,07104.2429,W,18.35,45.10,130511,,,A*6A
$GPGGA,181622.998,3954.8292,S,07104.2390,W,1,04,4.5,792.8,M,22.5,M,,0000*51
$GPGSA,M,3,18,22,30,21,,,,,,,,,4.6,4.5,1.0*35
$GPRMC,181622.998,A,3954.8292,S,07104.2390,W,18.08,49.49,130511,,,A*61
$GPGGA,181624.001,3954.8264,S,07104.2343,W,1,04,4.5,793.3,M,22.5,M,,0000*53
$GPGSA,M,3,18,22,30,21,,,,,,,,,4.6,4.5,1.0*35
$GPRMC,181624.001,A,3954.8264,S,07104.2343,W,18.31,52.95,130511,,,A*68
$GPGGA,181625.000,3954.8235,S,07104.2290,W,1,04,4.5,794.2,M,22.5,M,,0000*5E
$GPGSA,M,3,18,22,30,21,,,,,,,,,4.6,4.5,1.0*35
$GPGSV,3,1,12,06,64,222,39,18,60,085,40,16,60,298,41,22,53,012,41*75
$GPGSV,3,2,12,03,50,230,38,30,47,336,41,21,36,122,39,19,20,238,*7A
$GPGSV,3,3,12,15,10,120,30,07,01,218,,29,01,066,,26,00,152,*7A
$GPRMC,181625.000,A,3954.8235,S,07104.2290,W,18.61,54.64,130511,,,A*6E
$GPGGA,181626.000,3954.8213,S,07104.2237,W,1,04,4.5,794.5,M,22.5,M,,0000*53
$GPGSA,M,3,18,22,30,21,,,,,,,,,4.6,4.5,1.0*35
$GPRMC,181626.000,A,3954.8213,S,07104.2237,W,18.36,58.32,130511,,,A*69
$GPGGA,181627.001,3954.8211,S,07104.2175,W,1,04,4.5,793.6,M,22.5,M,,0000*50
$GPGSA,M,3,18,22,30,21,,,,,,,,,4.6,4.5,1.0*35
$GPRMC,181627.001,A,3954.8211,S,07104.2175,W,18.22,70.05,130511,,,A*65
$GPGGA,181628.001,3954.8204,S,07104.2106,W,1,04,4.5,794.7,M,22.5,M,,0000*59
$GPGSA,M,3,18,22,30,21,,,,,,,,,4.6,4.5,1.0*35
$GPRMC,181628.001,A,3954.8204,S,07104.2106,W,18.95,75.18,130511,,,A*6F
$GPGGA,181629.001,3954.8184,S,07104.2011,W,1,04,4.5,795.4,M,22.5,M,,0000*56
$GPGSA,M,3,18,22,30,21,,,,,,,,,4.6,4.5,1.0*35
$GPRMC,181629.001,A,3954.8184,S,07104.2011,W,20.94,76.27,130511,,,A*67
$GPGGA,181630.001,3954.8218,S,07104.1954,W,1,04,4.5,795.8,M,22.5,M,,0000*5F
$GPGSA,M,3,18,22,30,21,,,,,,,,,4.6,4.5,1.0*35
$GPGSV,3,1,12,06,64,222,40,18,60,085,39,16,60,298,37,22,53,012,40*75
$GPGSV,3,2,12,03,50,230,42,30,47,336,39,21,36,122,38,19,20,238,30*7A
$GPGSV,3,3,12,15,10,120,31,07,01,218,,29,01,066,,26,00,152,*7B
$GPRMC,181630.001,A,3954.8218,S,07104.1954,W,20.35,87.56,130511,,,A*61
$GPGGA,181631.000,3954.8223,S,07104.1851,W,1,04,4.5,796.6,M,22.5,M,,0000*5E
$GPGSA,M,3,18,22,30,21,,,,,,,,,4.6,4.5,1.0*35
$GPRMC,181631.000,A,3954.8223,S,07104.1851,W,22.40,90.39,130511,,,A*62
$GPGGA,181632.001,3954.8273,S,07104.1772,W,1,04,4.5,797.4,M,22.5,M,,0000*54
$GPGSA,M,3,18,22,30,21,,,,,,,,,4.6,4.5,1.0*35
$GPRMC,181632.001,A,3954.8273,S,07104.1772,W,23.69,99.79,130511,,,A*6C
$GPGGA,181633.000,3954.8280,S,07104.1666,W,1,04,4.5,798.7,M,22.5,M,,0000*50
$GPGSA,M,3,18,22,30,21,,,,,,,,,4.6,4.5,1.0*35
$GPRMC,181633.000,A,3954.8280,S,07104.1666,W,25.09,99.21,130511,,,A*69
$GPGGA,181634.001,3954.8372,S,07104.1591,W,1,04,4.5,799.4,M,22.5,M,,0000*53
$GPGSA,M,3,18,22,30,21,,,,,,,,,4.6,4.5,1.0*35
$GPRMC,181634.001,A,3954.8372,S,07104.1591,W,27.66,111.28,130511,,,A*5B
$GPGGA,181635.001,3954.8421,S,07104.1514,W,1,04,4.5,799.4,M,22.5,M,,0000*5E
$GPGSA,M,3,18,22,30,21,,,,,,,,,4.6,4.5,1.0*35
$GPGSV,3,1,12,06,64,222,38,18,60,085,41,16,60,298,38,22,53,012,39*74
$GPGSV,3,2,12,03,50,230,34,30,47,336,32,21,36,122,38,19,20,238,34*74
$GPGSV,3,3,12,15,10,120,27,07,01,218,,29,01,066,,26,00,152,*7C
$GPRMC,181635.001,A,3954.8421,S,07104.1514,W,27.98,114.25,130511,,,A*5F
$GPGGA,181636.003,3954.8532,S,07104.1485,W,1,04,4.5,800.9,M,22.5,M,,0000*57
$GPGSA,M,3,18,22,30,21,,,,,,,,,4.6,4.5,1.0*35
$GPRMC,181636.003,A,3954.8532,S,07104.1485,W,29.04,123.82,130511,,,A*56
$GPGGA,181636.998,3954.8655,S,07104.1391,W,1,04,4.5,801.9,M,22.5,M,,0000*5D
$GPGSA,M,3,18,22,30,21,,,,,,,,,4.6,4.5,1.0*35
$GPRMC,181636.998,A,3954.8655,S,07104.1391,W,34.08,129.85,130511,,,A*50
$GPGGA,181638.002,3954.8713,S,07104.1263,W,1,04,4.5,802.9,M,22.5,M,,0000*55
$GPGSA,M,3,18,22,30,21,,,,,,,,,4.6,4.5,1.0*35
$GPRMC,181638.002,A,3954.8713,S,07104.1263,W,36.23,128.86,130511,,,A*52
$GPGGA,181639.006,3954.8760,S,07104.1131,W,1,04,4.5,802.5,M,22.5,M,,0000*5C
$GPGSA,M,3,18,22,30,21,,,,,,,,,4.6,4.5,1.0*35
$GPRMC,181639.006,A,3954.8760,S,07104.1131,W,37.98,126.67,130511,,,A*57
$GPGGA,181639.992,3954.8822,S,07104.1069,W,1,04,4.5,803.4,M,22.5,M,,0000*5D
$GPGSA,M,3,18,22,30,21,,,,,,,,,4.6,4.5,1.0*35
$GPGSV,3,1,12,06,64,222,39,18,60,085,40,16,60,298,40,22,53,012,40*75
$GPGSV,3,2,12,03,50,230,38,30,47,336,29,21,36,122,37,19,20,238,32*7B
$GPGSV,3,3,12,15,10,120,31,07,01,218,,29,01,066,,26,00,152,*7B
$GPRMC,181639.992,A,3954.8822,S,07104.1069,W,38.33,127.29,130511,,,A*53
$GPGGA,181641.000,3954.8895,S,07104.0926,W,1,04,4.5,804.5,M,22.5,M,,0000*59
$GPGSA,M,3,18,22,30,21,,,,,,,,,4.6,4.5,1.0*35
$GPRMC,181641.000,A,3954.8895,S,07104.0926,W,39.87,127.93,130511,,,A*5E
$GPGGA,181642.000,3954.8986,S,07104.0803,W,1,04,4.5,804.2,M,22.5,M,,0000*58
$GPGSA,M,3,18,22,30,21,,,,,,,,,4.6,4.5,1.0*35
$GPRMC,181642.000,A,3954.8986,S,07104.0803,W,41.99,129.54,130511,,,A*5D
$GPGGA,181643.000,3954.9073,S,07104.0655,W,1,04,4.5,805.0,M,22.5,M,,0000*55
$GPGSA,M,3,18,22,30,21,,,,,,,,,4.7,4.5,1.0*34
$GPRMC,181643.000,A,3954.9073,S,07104.0655,W,45.05,129.95,130511,,,A*5F
$GPGGA,181644.000,3954.9199,S,07104.0563,W,1,04,4.5,805.0,M,22.5,M,,0000*51
$GPGSA,M,3,18,22,30,21,,,,,,,,,4.7,4.5,1.0*34
$GPRMC,181644.000,A,3954.9199,S,07104.0563,W,46.91,132.37,130511,,,A*57
$GPGGA,181645.000,3954.9318,S,07104.0471,W,1,04,4.5,805.3,M,22.5,M,,0000*5A
$GPGSA,M,3,18,22,30,21,,,,,,,,,4.7,4.5,1.0*34
$GPGSV,3,1,12,06,64,222,38,18,60,085,39,16,60,298,41,22,53,012,39*75
$GPGSV,3,2,12,03,50,230,37,30,47,336,30,21,36,122,37,19,20,238,30*7E
$GPGSV,3,3,12,15,10,120,33,07,01,218,,29,01,066,,26,00,152,*79
$GPRMC,181645.000,A,3954.9318,S,07104.0471,W,48.37,133.28,130511,,,A*52
$GPGGA,181646.002,3954.9429,S,07104.0354,W,1,04,4.6,807.5,M,22.5,M,,0000*59
$GPGSA,M,3,18,22,30,21,,,,,,,,,4.7,4.6,1.0*37
$GPRMC,181646.002,A,3954.9429,S,07104.0354,W,48.53,133.42,130511,,,A*58
$GPGGA,181646.997,3954.9513,S,07104.0222,W,1,04,4.6,809.0,M,22.5,M,,0000*5F
$GPGSA,M,3,18,22,30,21,,,,,,,,,4.7,4.6,1.0*37
$GPRMC,181646.997,A,3954.9513,S,07104.0222,W,49.61,132.13,130511,,,A*50
$GPGGA,181648.001,3954.9602,S,07104.0081,W,1,04,4.6,808.7,M,22.5,M,,0000*59
$GPGSA,M,3,18,22,30,21,,,,,,,,,4.7,4.6,1.0*37
$GPRMC,181648.001,A,3954.9602,S,07104.0081,W,51.33,132.05,130511,,,A*59
$GPGGA,181649.002,3954.9723,S,07103.9959,W,1,04,4.6,808.2,M,22.5,M,,0000*5E
$GPGSA,M,3,18,22,30,21,,,,,,,,,4.7,4.6,1.0*37
$GPRMC,181649.002,A,3954.9723,S,07103.9959,W,51.48,131.62,130511,,,A*55
$GPGGA,181650.005,3954.9841,S,07103.9850,W,1,04,4.6,807.8,M,22.5,M,,0000*57
$GPGSA,M,3,18,22,30,21,,,,,,,,,4.7,4.6,1.0*37
$GPGSV,3,1,12,06,64,222,37,18,60,086,39,16,60,299,41,22,53,012,39*78
$GPGSV,3,2,12,03,50,230,37,30,46,336,30,21,36,121,37,19,21,238,31*7C
$GPGSV,3,3,12,15,10,121,32,07,01,218,,29,00,066,,26,00,153,*79
$GPRMC,181650.005,A,3954.9841,S,07103.9850,W,52.86,132.45,130511,,,A*5E
$GPGGA,181650.994,3954.9925,S,07103.9682,W,1,04,4.6,808.8,M,22.5,M,,0000*5B
$GPGSA,M,3,18,22,30,21,,,,,,,,,4.7,4.6,1.0*37
$GPRMC,181650.994,A,3954.9925,S,07103.9682,W,52.92,130.87,130511,,,A*54
$GPGGA,181652.000,3955.0046,S,07103.9579,W,1,04,4.6,807.8,M,22.5,M,,0000*51
$GPGSA,M,3,18,22,30,21,,,,,,,,,4.7,4.6,1.0*37
$GPRMC,181652.000,A,3955.0046,S,07103.9579,W,54.15,131.80,130511,,,A*5E
$GPGGA,181652.998,3955.0144,S,07103.9436,W,1,04,4.6,808.5,M,22.5,M,,0000*52
$GPGSA,M,3,18,22,30,21,,,,,,,,,4.7,4.6,1.0*37
$GPRMC,181652.998,A,3955.0144,S,07103.9436,W,53.58,131.02,130511,,,A*5B
$GPGGA,181654.000,3955.0272,S,07103.9330,W,1,04,4.6,808.8,M,22.5,M,,0000*56
$GPGSA,M,3,18,22,30,21,,,,,,,,,4.7,4.6,1.0*37
$GPRMC,181654.000,A,3955.0272,S,07103.9330,W,52.67,130.88,130511,,,A*5C
$GPGGA,181655.002,3955.0369,S,07103.9199,W,1,04,4.6,808.4,M,22.5,M,,0000*53
$GPGSA,M,3,18,22,30,21,,,,,,,,,4.7,4.6,1.0*37
$GPGSV,3,1,12,06,64,222,38,18,60,086,39,16,60,299,41,22,53,012,40*79
$GPGSV,3,2,12,03,50,230,37,30,46,336,28,21,36,121,36,19,21,238,31*74
$GPGSV,3,3,12,15,10,121,30,07,01,218,,29,00,066,,26,00,153,*7B
$GPRMC,181655.002,A,3955.0369,S,07103.9199,W,51.60,130.94,130511,,,A*5C
$GPGGA,181655.999,3955.0446,S,07103.9018,W,1,04,4.6,807.5,M,22.5,M,,0000*54
$GPGSA,M,3,18,22,30,21,,,,,,,,,4.7,4.6,1.0*37
$GPRMC,181655.999,A,3955.0446,S,07103.9018,W,52.40,130.67,130511,,,A*58
$GPGGA,181657.001,3955.0534,S,07103.8881,W,1,04,4.6,808.3,M,22.5,M,,0000*5A
$GPGSA,M,3,18,22,30,21,,,,,,,,,4.7,4.6,1.0*37
$GPRMC,181657.001,A,3955.0534,S,07103.8881,W,52.28,132.39,130511,,,A*58
$GPGGA,181658.001,3955.0630,S,07103.8731,W,1,04,4.6,808.7,M,22.5,M,,0000*52
$GPGSA,M,3,18,22,30,21,,,,,,,,,4.7,4.6,1.0*37
$GPRMC,181658.001,A,3955.0630,S,07103.8731,W,53.03,130.82,130511,,,A*5E
$GPGGA,181659.001,3955.0726,S,07103.8589,W,1,04,4.6,809.6,M,22.5,M,,0000*54
$GPGSA,M,3,18,22,30,21,,,,,,,,,4.7,4.6,1.0*37
$GPRMC,181659.001,A,3955.0726,S,07103.8589,W,52.69,130.92,130511,,,A*54
$GPGGA,181700.001,3955.0810,S,07103.8412,W,1,04,4.6,809.7,M,22.5,M,,0000*51
$GPGSA,M,3,18,22,30,21,,,,,,,,,4.7,4.6,1.0*37
$GPGSV,3,1,12,06,64,222,37,18,60,086,41,16,60,299,37,22,53,012,38*77
$GPGSV,3,2,12,03,50,230,37,30,46,336,29,21,36,121,37,19,21,238,33*76
$GPGSV,3,3,12,15,10,121,28,07,01,218,,29,00,066,,26,00,153,*72
$GPRMC,181700.001,A,3955.0810,S,07103.8412,W,52.21,130.01,130511,,,A*56
$GPGGA,181701.000,3955.0893,S,07103.8253,W,1,04,4.6,809.3,M,22.5,M,,0000*5D
$GPGSA,M,3,18,22,30,21,,,,,,,,,4.7,4.6,1.0*37
$GPRMC,181701.000,A,3955.0893,S,07103.8253,W,51.68,128.05,130511,,,A*5D
$GPGGA,181702.000,3955.0975,S,07103.8100,W,1,04,4.6,809.1,M,22.5,M,,0000*50
$GPGSA,M,3,18,22,30,21,,,,,,,,,4.7,4.6,1.0*37
$GPRMC,181702.000,A,3955.0975,S,07103.8100,W,52.08,125.36,130511,,,A*5A
$GPGGA,181703.000,3955.1063,S,07103.7952,W,1,04,4.6,810.4,M,22.5,M,,0000*53
$GPGSA,M,3,18,22,30,21,,,,,,,,,4.7,4.6,1.0*37
$GPRMC,181703.000,A,3955.1063,S,07103.7952,W,51.69,123.86,130511,,,A*5D
$GPGGA,181704.001,3955.1126,S,07103.7768,W,1,04,4.6,811.9,M,22.5,M,,0000*5E
$GPGSA,M,3,18,22,30,21,,,,,,,,,4.7,4.6,1.0*37
$GPRMC,181704.001,A,3955.1126,S,07103.7768,W,51.30,122.09,130511,,,A*56
$GPGGA,181704.999,3955.1189,S,07103.7589,W,1,04,4.6,813.6,M,22.5,M,,0000*53
$GPGSA,M,3,18,22,30,21,,,,,,,,,4.7,4.6,1.0*37
$GPGSV,3,1,12,06,64,222,39,18,60,086,41,16,60,299,38,22,53,012,40*79
$GPGSV,3,2,12,03,50,230,37,30,46,336,37,21,36,121,38,19,21,238,29*7D
$GPGSV,3,3,12,15,10,121,,07,01,218,,29,00,066,,26,00,153,*78
$GPRMC,181704.999,A,3955.1189,S,07103.7589,W,52.61,119.99,130511,,,A*50
$GPGGA,181706.001,3955.1278,S,07103.7447,W,1,04,4.6,813.4,M,22.5,M,,0000*55
$GPGSA,M,3,18,22,30,21,,,,,,,,,4.7,4.6,1.0*37
$GPRMC,181706.001,A,3955.1278,S,07103.7447,W,52.81,119.12,130511,,,A*59
$GPGGA,181707.001,3955.1325,S,07103.7244,W,1,04,4.6,814.8,M,22.5,M,,0000*53
$GPGSA,M,3,18,22,30,21,,,,,,,,,4.7,4.6,1.0*37
$GPRMC,181707.001,A,3955.1325,S,07103.7244,W,54.39,117.31,130511,,,A*5E
$GPGGA,181708.001,3955.1369,S,07103.7034,W,1,04,4.6,814.8,M,22.5,M,,0000*51
$GPGSA,M,3,18,22,30,21,,,,,,,,,4.7,4.6,1.0*37
$GPRMC,181708.001,A,3955.1369,S,07103.7034,W,55.46,115.70,130511,,,A*52
$GPGGA,181709.001,3955.1439,S,07103.6850,W,1,04,4.6,816.1,M,22.5,M,,0000*52
$GPGSA,M,3,18,22,30,21,,,,,,,,,4.7,4.6,1.0*37
$GPRMC,181709.001,A,3955.1439,S,07103.6850,W,55.95,115.27,130511,,,A*56
$GPGGA,181710.001,3955.1499,S,07103.6646,W,1,04,4.6,815.9,M,22.5,M,,0000*52
$GPGSA,M,3,18,22,30,21,,,,,,,,,4.7,4.6,1.0*37
$GPGSV,3,1,12,06,64,222,39,18,60,086,41,16,60,299,37,22,53,012,40*76
$GPGSV,3,2,12,03,50,230,38,30,46,336,37,21,36,121,37,19,21,238,26*72
$GPGSV,3,3,12,15,10,121,31,07,01,218,,29,00,066,,26,00,153,*7A
$GPRMC,181710.001,A,3955.1499,S,07103.6646,W,56.49,115.30,130511,,,A*59
$GPGGA,181711.001,3955.1565,S,07103.6468,W,1,04,4.6,816.5,M,22.5,M,,0000*50
$GPGSA,M,3,18,22,30,21,,,,,,,,,4.7,4.6,1.0*37
$GPRMC,181711.001,A,3955.1565,S,07103.6468,W,55.71,115.61,130511,,,A*58
$GPGGA,181712.001,3955.1637,S,07103.6291,W,1,04,4.6,817.3,M,22.5,M,,0000*50
$GPGSA,M,3,18,22,30,21,,,,,,,,,4.7,4.6,1.0*37
$GPRMC,181712.001,A,3955.1637,S,07103.6291,W,54.65,117.07,130511,,,A*59
$GPGGA,181713.001,3955.1706,S,07103.6115,W,1,04,4.6,817.3,M,22.5,M,,0000*5D
$GPGSA,M,3,18,22,30,21,,,,,,,,,4.7,4.6,1.0*37
$GPRMC,181713.001,A,3955.1706,S,07103.6115,W,54.24,117.34,130511,,,A*51
$GPGGA,181714.001,3955.1779,S,07103.5942,W,1,04,4.6,818.2,M,22.5,M,,0000*55
$GPGSA,M,3,18,22,30,21,,,,,,,,,4.7,4.6,1.0*37
$GPRMC,181714.001,A,3955.1779,S,07103.5942,W,53.93,116.98,130511,,,A*5B
$GPGGA,181715.001,3955.1841,S,07103.5754,W,1,04,4.6,818.4,M,22.5,M,,0000*5F
$GPGSA,M,3,18,22,30,21,,,,,,,,,4.7,4.6,1.0*37
$GPGSV,3,1,12,06,64,222,39,18,60,086,41,16,60,299,38,22,53,012,40*79
$GPGSV,3,2,12,03,50,230,38,30,46,336,38,21,36,121,38,19,21,238,32*77
$GPGSV,3,3,12,15,10,121,35,07,01,218,,29,00,066,,26,00,153,*7E
$GPRMC,181715.001,A,3955.1841,S,07103.5754,W,53.16,116.92,130511,,,A*50
$GPGGA,181716.001,3955.1920,S,07103.5593,W,1,04,4.6,817.3,M,22.5,M,,0000*5B
$GPGSA,M,3,18,22,30,21,,,,,,,,,4.7,4.6,1.0*37
$GPRMC,181716.001,A,3955.1920,S,07103.5593,W,52.87,115.64,130511,,,A*5F
$GPGGA,181716.999,3955.1985,S,07103.5422,W,1,04,4.6,817.0,M,22.5,M,,0000*54
$GPGSA,M,3,18,22,30,21,,,,,,,,,4.7,4.6,1.0*37
$GPRMC,181716.999,A,3955.1985,S,07103.5422,W,51.58,114.66,130511,,,A*51
$GPGGA,181718.003,3955.2043,S,07103.5250,W,1,04,4.6,817.7,M,22.5,M,,0000*54
$GPGSA,M,3,18,22,30,21,,,,,,,,,4.7,4.6,1.0*37
$GPRMC,181718.003,A,3955.2043,S,07103.5250,W,50.12,114.34,130511,,,A*5E
$GPGGA,181718.999,3955.2097,S,07103.5086,W,1,04,4.6,817.9,M,22.5,M,,0000*50
$GPGSA,M,3,18,22,30,21,,,,,,,,,4.7,4.6,1.0*37
$GPRMC,181718.999,A,3955.2097,S,07103.5086,W,49.08,111.62,130511,,,A*51
$GPGGA,181720.000,3955.2153,S,07103.4927,W,1,04,4.6,817.8,M,22.5,M,,0000*59
$GPGSA,M,3,18,22,30,21,,,,,,,,,4.8,4.6,1.0*38
$GPGSV,3,1,12,06,64,222,38,18,60,086,39,16,60,299,37,22,53,012,40*78
$GPGSV,3,2,12,03,50,230,38,30,46,336,37,21,36,121,35,19,21,238,25*73
$GPGSV,3,3,12,15,10,121,38,07,01,218,,29,00,066,,26,00,153,*73
$GPRMC,181720.000,A,3955.2153,S,07103.4927,W,48.06,111.28,130511,,,A*58
$GPGGA,181721.005,3955.2197,S,07103.4759,W,1,04,4.6,818.8,M,22.5,M,,0000*5D
$GPGSA,M,3,18,22,30,21,,,,,,,,,4.8,4.6,1.0*38
$GPRMC,181721.005,A,3955.2197,S,07103.4759,W,48.77,109.83,130511,,,A*5D
$GPGGA,181721.995,3955.2237,S,07103.4592,W,1,04,4.7,818.2,M,22.5,M,,0000*5A
$GPGSA,M,3,18,22,30,21,,,,,,,,,4.8,4.7,1.0*39
$GPRMC,181721.995,A,3955.2237,S,07103.4592,W,48.69,107.94,130511,,,A*56
$GPGGA,181722.998,3955.2265,S,07103.4408,W,1,04,4.7,817.5,M,22.5,M,,0000*59
$GPGSA,M,3,18,22,30,21,,,,,,,,,4.8,4.7,1.0*39
$GPRMC,181722.998,A,3955.2265,S,07103.4408,W,49.02,106.50,130511,,,A*58
$GPGGA,181724.002,3955.2293,S,07103.4224,W,1,04,4.7,817.8,M,22.5,M,,0000*59
$GPGSA,M,3,18,22,30,21,,,,,,,,,4.8,4.7,1.0*39
$GPRMC,181724.002,A,3955.2293,S,07103.4224,W,49.37,105.62,130511,,,A*51
$GPGGA,181725.000,3955.2295,S,07103.4002,W,1,04,4.7,816.5,M,22.5,M,,0000*56
$GPGSA,M,3,18,22,30,21,,,,,,,,,4.8,4.7,1.0*39
$GPGSV,3,1,12,06,64,222,40,18,60,086,39,16,60,299,37,22,53,012,41*76
$GPGSV,3,2,12,03,50,230,41,30,46,336,38,21,36,121,37,19,21,238,26*73
$GPGSV,3,3,12,15,10,121,36,07,01,218,,29,00,066,,26,00,153,*7D
$GPRMC,181725.000,A,3955.2295,S,07103.4002,W,49.91,104.21,130511,,,A*58
$GPGGA,181726.000,3955.2318,S,07103.3820,W,1,04,4.7,816.1,M,22.5,M,,0000*5A
$GPGSA,M,3,18,22,30,21,,,,,,,,,4.8,4.7,1.0*39
$GPRMC,181726.000,A,3955.2318,S,07103.3820,W,49.34,103.29,130511,,,A*50
$GPGGA,181727.000,3955.2334,S,07103.3630,W,1,04,4.7,815.9,M,22.5,M,,0000*51
$GPGSA,M,3,18,22,30,21,,,,,,,,,4.8,4.7,1.0*39
$GPRMC,181727.000,A,3955.2334,S,07103.3630,W,49.06,102.33,130511,,,A*5B
$GPGGA,181728.000,3955.2325,S,07103.3432,W,1,04,4.7,815.1,M,22.5,M,,0000*56
$GPGSA,M,3,18,22,30,21,,,,,,,,,4.8,4.7,1.0*39
$GPRMC,181728.000,A,3955.2325,S,07103.3432,W,48.89,99.34,130511,,,A*66
$GPGGA,181729.000,3955.2331,S,07103.3266,W,1,04,4.7,817.0,M,22.5,M,,0000*56
$GPGSA,M,3,18,22,30,21,,,,,,,,,4.8,4.7,1.0*39
$GPRMC,181729.000,A,3955.2331,S,07103.3266,W,48.77,96.70,130511,,,A*6B
$GPGGA,181729.999,3955.2279,S,07103.3076,W,1,04,4.7,816.4,M,22.5,M,,0000*54
$GPGSA,M,3,18,22,30,21,,,,,,,,,4.8,4.7,1.0*39
$GPGSV,3,1,12,06,64,222,40,18,60,086,37,16,60,299,38,22,53,012,40*76
$GPGSV,3,2,12,03,50,230,41,30,46,336,41,21,36,121,37,19,21,238,35*7F
$GPGSV,3,3,12,15,10,121,32,07,01,218,,29,00,066,,26,00,153,*79
$GPRMC,181729.999,A,3955.2279,S,07103.3076,W,47.62,90.35,130511,,,A*60
$GPGGA,181731.000,3955.2266,S,07103.2919,W,1,04,4.7,818.2,M,22.5,M,,0000*53
$GPGSA,M,3,18,22,30,21,,,,,,,,,4.8,4.7,1.0*39
$GPRMC,181731.000,A,3955.2266,S,07103.2919,W,47.88,87.44,130511,,,A*6B
$GPGGA,181732.001,3955.2240,S,07103.2743,W,1,04,4.7,820.8,M,22.5,M,,0000*55
$GPGSA,M,3,18,22,30,21,,,,,,,,,4.8,4.7,1.0*39
$GPRMC,181732.001,A,3955.2240,S,07103.2743,W,47.74,87.51,130511,,,A*6B
$GPGGA,181733.000,3955.2239,S,07103.2574,W,1,04,4.7,820.4,M,22.5,M,,0000*51
$GPGSA,M,3,18,22,30,21,,,,,,,,,4.8,4.7,1.0*39
$GPRMC,181733.000,A,3955.2239,S,07103.2574,W,47.61,86.81,130511,,,A*6B
$GPGGA,181733.999,3955.2230,S,07103.2403,W,1,04,4.7,820.8,M,22.5,M,,0000*5C
$GPGSA,M,3,18,22,30,21,,,,,,,,,4.8,4.7,1.0*39
$GPRMC,181733.999,A,3955.2230,S,07103.2403,W,48.00,87.16,130511,,,A*6D
$GPGGA,181735.001,3955.2195,S,07103.2207,W,1,04,4.7,821.6,M,22.5,M,,0000*53
$GPGSA,M,3,18,22,30,21,,,,,,,,,4.8,4.7,1.0*39
$GPGSV,3,1,12,06,64,222,40,18,60,086,39,16,60,299,38,22,53,012,41*79
$GPGSV,3,2,12,03,50,230,41,30,46,336,40,21,36,121,38,19,21,238,36*72
$GPGSV,3,3,12,15,10,121,30,07,01,218,,29,00,066,,26,00,153,*7B
$GPRMC,181735.001,A,3955.2195,S,07103.2207,W,48.14,87.94,130511,,,A*62
$GPGGA,181736.001,3955.2186,S,07103.2033,W,1,04,4.7,822.7,M,22.5,M,,0000*55
$GPGSA,M,3,18,22,30,21,,,,,,,,,4.8,4.7,1.0*39
$GPRMC,181736.001,A,3955.2186,S,07103.2033,W,48.74,87.61,130511,,,A*6A
$GPGGA,181737.001,3955.2184,S,07103.1850,W,1,04,4.7,824.0,M,22.5,M,,0000*59
$GPGSA,M,3,18,22,30,21,,,,,,,,,4.8,4.7,1.0*39
$GPRMC,181737.001,A,3955.2184,S,07103.1850,W,49.31,87.99,130511,,,A*60
$GPGGA,181738.001,3955.2175,S,07103.1667,W,1,04,4.7,824.4,M,22.5,M,,0000*56
$GPGSA,M,3,18,22,30,21,,,,,,,,,4.8,4.7,1.0*39
$GPRMC,181738.001,A,3955.2175,S,07103.1667,W,48.94,88.34,130511,,,A*6D
$GPGGA,181739.000,3955.2141,S,07103.1466,W,1,04,4.7,824.3,M,22.5,M,,0000*55
$GPGSA,M,3,18,22,30,21,,,,,,,,,4.8,4.7,1.0*39
$GPRMC,181739.000,A,3955.2141,S,07103.1466,W,50.32,86.28,130511,,,A*6F
$GPGGA,181739.999,3955.2135,S,07103.1293,W,1,04,4.7,824.3,M,22.5,M,,0000*53
$GPGSA,M,3,18,22,30,21,,,,,,,,,4.8,4.7,1.0*39
$GPGSV,3,1,12,06,64,222,39,18,60,086,37,16,60,299,37,22,53,012,40*77
$GPGSV,3,2,12,03,50,230,40,30,46,336,41,21,36,121,38,19,21,238,35*71
$GPGSV,3,3,12,15,10,121,,07,01,218,,29,00,066,,26,00,153,*78
$GPRMC,181739.999,A,3955.2135,S,07103.1293,W,49.33,86.80,130511,,,A*62
