$GPGGA,200912.000,1453.5761,S,07459.4041,W,1,08,1.2,498.4,M,19.1,M,,0000*50
$GPGSA,M,3,22,30,16,18,06,03,21,31,,,,,1.7,1.2,1.3*30
$GPRMC,200912.000,A,1453.5761,S,07459.4041,W,25.66,133.86,170411,,,A*5B
$GPGGA,200913.000,1453.5812,S,07459.3989,W,1,08,1.2,498.7,M,19.1,M,,0000*53
$GPGSA,M,3,22,30,16,18,06,03,21,31,,,,,1.7,1.2,1.3*30
$GPGSV,3,1,11,22,76,088,38,30,74,312,36,16,66,238,38,18,44,132,28*72
$GPGSV,3,2,11,06,40,195,34,03,30,208,38,14,17,033,,21,13,135,32*75
$GPGSV,3,3,11,31,13,348,27,19,08,227,36,29,04,073,*4A
$GPRMC,200913.000,A,1453.5812,S,07459.3989,W,26.29,133.16,170411,,,A*5A
$GPGGA,200914.001,1453.5862,S,07459.3934,W,1,08,1.2,499.2,M,19.1,M,,0000*50
$GPGSA,M,3,22,30,16,18,06,03,21,31,,,,,1.7,1.2,1.3*30
$GPRMC,200914.001,A,1453.5862,S,07459.3934,W,25.90,133.40,170411,,,A*5F
$GPGGA,200915.003,1453.5912,S,07459.3879,W,1,08,1.2,499.7,M,19.1,M,,0000*58
$GPGSA,M,3,22,30,16,18,06,03,21,31,,,,,1.7,1.2,1.3*30
$GPRMC,200915.003,A,1453.5912,S,07459.3879,W,26.43,131.56,170411,,,A*5A
$GPGGA,200915.995,1453.5958,S,07459.3825,W,1,08,1.2,500.0,M,19.1,M,,0000*5F
$GPGSA,M,3,22,30,16,18,06,03,21,31,,,,,1.7,1.2,1.3*30
$GPRMC,200915.995,A,1453.5958,S,07459.3825,W,26.30,131.59,170411,,,A*50
$GPGGA,200917.000,1453.6010,S,07459.3765,W,1,07,2.5,500.4,M,19.1,M,,0000*5A
$GPGSA,M,3,22,30,16,18,06,03,21,,,,,,4.2,2.5,3.4*33
$GPRMC,200917.000,A,1453.6010,S,07459.3765,W,25.50,133.69,170411,,,A*5E
$GPGGA,200918.002,1453.6059,S,07459.3713,W,1,08,1.2,501.1,M,19.1,M,,0000*54
$GPGSA,M,3,22,30,16,18,06,03,21,31,,,,,1.7,1.2,1.3*30
$GPGSV,3,1,11,22,76,088,38,30,74,312,36,16,66,238,38,18,44,132,27*7D
$GPGSV,3,2,11,06,40,195,34,03,30,208,39,14,17,033,,21,13,135,33*75
$GPGSV,3,3,11,31,13,348,28,19,08,227,35,29,04,073,*46
$GPRMC,200918.002,A,1453.6059,S,07459.3713,W,25.39,133.18,170411,,,A*56
$GPGGA,200919.004,1453.6111,S,07459.3656,W,1,07,2.5,501.3,M,19.1,M,,0000*57
$GPGSA,M,3,22,30,16,18,06,03,21,,,,,,4.2,2.5,3.4*33
$GPRMC,200919.004,A,1453.6111,S,07459.3656,W,26.43,132.55,170411,,,A*5A
$GPGGA,200919.994,1453.6161,S,07459.3602,W,1,07,2.5,501.8,M,19.1,M,,0000*5A
$GPGSA,M,3,22,30,16,18,06,03,21,,,,,,4.2,2.5,3.4*33
$GPRMC,200919.994,A,1453.6161,S,07459.3602,W,25.51,133.39,170411,,,A*57
$GPGGA,200921.002,1453.6209,S,07459.3546,W,1,08,1.2,500.9,M,19.1,M,,0000*52
$GPGSA,M,3,22,30,16,18,06,03,21,31,,,,,1.7,1.2,1.3*30
$GPRMC,200921.002,A,1453.6209,S,07459.3546,W,25.65,133.53,170411,,,A*5F
$GPGGA,200921.999,1453.6259,S,07459.3493,W,1,07,2.5,501.0,M,19.1,M,,0000*56
$GPGSA,M,3,22,30,16,18,06,03,21,,,,,,4.2,2.5,3.4*33
$GPRMC,200921.999,A,1453.6259,S,07459.3493,W,25.10,133.50,170411,,,A*59
$GPGGA,200923.005,1453.6309,S,07459.3439,W,1,08,1.2,501.2,M,19.1,M,,0000*55
$GPGSA,M,3,22,30,16,18,06,03,21,31,,,,,1.7,1.2,1.3*30
$GPGSV,3,1,11,22,76,088,38,30,74,312,34,16,66,238,38,18,44,132,26*7E
$GPGSV,3,2,11,06,40,195,33,03,30,208,38,14,17,033,,21,13,135,30*70
$GPGSV,3,3,11,31,13,348,25,19,08,227,34,29,04,073,*4A
$GPRMC,200923.005,A,1453.6309,S,07459.3439,W,25.76,133.53,170411,,,A*50
$GPGGA,200923.991,1453.6363,S,07459.3388,W,1,07,2.5,501.9,M,19.1,M,,0000*50
$GPGSA,M,3,22,30,16,18,06,03,21,,,,,,4.2,2.5,3.4*33
$GPRMC,200923.991,A,1453.6363,S,07459.3388,W,25.29,134.45,170411,,,A*5F
$GPGGA,200925.005,1453.6413,S,07459.3338,W,1,07,2.5,502.2,M,19.1,M,,0000*51
$GPGSA,M,3,22,30,16,18,06,03,21,,,,,,4.2,2.5,3.4*33
$GPRMC,200925.005,A,1453.6413,S,07459.3338,W,25.30,134.13,170411,,,A*5D
$GPGGA,200925.998,1453.6465,S,07459.3284,W,1,08,1.2,503.2,M,19.1,M,,0000*51
$GPGSA,M,3,22,30,16,18,06,03,21,31,,,,,1.7,1.2,1.3*30
$GPRMC,200925.998,A,1453.6465,S,07459.3284,W,26.35,134.06,170411,,,A*55
$GPGGA,200927.000,1453.6519,S,07459.3229,W,1,08,1.2,503.9,M,19.1,M,,0000*5D
$GPGSA,M,3,22,30,16,18,06,03,21,31,,,,,1.7,1.2,1.3*30
$GPRMC,200927.000,A,1453.6519,S,07459.3229,W,26.38,134.23,170411,,,A*58
$GPGGA,200928.001,1453.6572,S,07459.3174,W,1,08,1.2,504.5,M,19.1,M,,0000*5E
$GPGSA,M,3,22,30,16,18,06,03,21,31,,,,,1.7,1.2,1.3*30
$GPGSV,3,1,11,22,76,088,39,30,74,312,36,16,66,238,39,18,44,132,28*72
$GPGSV,3,2,11,06,40,195,34,03,30,208,38,14,17,033,22,21,13,135,33*74
$GPGSV,3,3,11,31,13,348,29,19,08,227,35,29,04,073,*47
$GPRMC,200928.001,A,1453.6572,S,07459.3174,W,26.30,133.52,170411,,,A*59
$GPGGA,200928.999,1453.6625,S,07459.3117,W,1,08,1.2,504.4,M,19.1,M,,0000*53
$GPGSA,M,3,22,30,16,18,06,03,21,31,,,,,1.7,1.2,1.3*30
$GPRMC,200928.999,A,1453.6625,S,07459.3117,W,26.30,132.35,170411,,,A*55
$GPGGA,200930.002,1453.6673,S,07459.3059,W,1,08,1.2,505.5,M,19.1,M,,0000*59
$GPGSA,M,3,22,30,16,18,06,03,21,31,,,,,1.7,1.2,1.3*30
$GPRMC,200930.002,A,1453.6673,S,07459.3059,W,26.75,132.92,170411,,,A*53
$GPGGA,200930.996,1453.6724,S,07459.3007,W,1,07,2.5,505.6,M,19.1,M,,0000*5D
$GPGSA,M,3,22,30,16,18,06,03,21,,,,,,4.2,2.5,3.3*34
$GPRMC,200930.996,A,1453.6724,S,07459.3007,W,25.67,132.97,170411,,,A*5A
$GPGGA,200932.003,1453.6776,S,07459.2949,W,1,07,2.5,507.5,M,19.1,M,,0000*5E
$GPGSA,M,3,22,30,16,18,06,03,21,,,,,,4.1,2.5,3.3*37
$GPRMC,200932.003,A,1453.6776,S,07459.2949,W,25.64,133.73,170411,,,A*50
$GPGGA,200932.999,1453.6829,S,07459.2897,W,1,07,2.5,508.0,M,19.1,M,,0000*59
$GPGSA,M,3,22,30,16,18,06,03,21,,,,,,4.1,2.5,3.3*37
$GPGSV,3,1,11,22,76,088,38,30,74,312,36,16,66,238,38,18,44,132,28*72
$GPGSV,3,2,11,06,40,195,34,03,30,208,38,14,17,033,,21,13,135,33*74
$GPGSV,3,3,11,31,13,348,,19,08,227,36,29,04,073,*4F
$GPRMC,200932.999,A,1453.6829,S,07459.2897,W,26.10,134.88,170411,,,A*5E
$GPGGA,200934.000,1453.6881,S,07459.2843,W,1,07,2.5,508.4,M,19.1,M,,0000*59
$GPGSA,M,3,22,30,16,18,06,03,21,,,,,,4.1,2.5,3.3*37
$GPRMC,200934.000,A,1453.6881,S,07459.2843,W,25.54,133.92,170411,,,A*55
$GPGGA,200934.997,1453.6931,S,07459.2790,W,1,07,2.5,508.4,M,19.1,M,,0000*55
$GPGSA,M,3,22,30,16,18,06,03,21,,,,,,4.1,2.5,3.3*37
$GPRMC,200934.997,A,1453.6931,S,07459.2790,W,26.20,133.31,170411,,,A*50
$GPGGA,200936.000,1453.6981,S,07459.2736,W,1,08,1.2,508.1,M,19.1,M,,0000*59
$GPGSA,M,3,22,30,16,18,06,03,21,31,,,,,1.7,1.2,1.3*30
$GPRMC,200936.000,A,1453.6981,S,07459.2736,W,26.54,132.39,170411,,,A*58
$GPGGA,200937.000,1453.7032,S,07459.2682,W,1,08,1.2,507.9,M,19.1,M,,0000*51
$GPGSA,M,3,22,30,16,18,06,03,21,31,,,,,1.7,1.2,1.3*30
$GPRMC,200937.000,A,1453.7032,S,07459.2682,W,26.21,134.01,170411,,,A*58
$GPGGA,200938.002,1453.7083,S,07459.2630,W,1,07,2.5,507.9,M,19.1,M,,0000*54
$GPGSA,M,3,22,30,16,18,06,03,21,,,,,,4.1,2.5,3.3*37
$GPGSV,3,1,11,22,76,088,39,30,74,312,36,16,66,238,37,18,44,132,27*73
$GPGSV,3,2,11,06,40,195,35,03,30,208,36,14,17,033,27,21,13,135,33*7E
$GPGSV,3,3,11,31,13,348,,19,08,227,36,29,04,073,*4F
$GPRMC,200938.002,A,1453.7083,S,07459.2630,W,25.95,134.97,170411,,,A*55
$GPGGA,200939.001,1453.7136,S,07459.2575,W,1,08,1.2,508.0,M,19.1,M,,0000*56
$GPGSA,M,3,22,30,16,18,06,03,21,31,,,,,1.7,1.2,1.3*30
$GPRMC,200939.001,A,1453.7136,S,07459.2575,W,26.17,135.72,170411,,,A*59
$GPGGA,200939.998,1453.7184,S,07459.2527,W,1,08,1.2,508.3,M,19.1,M,,0000*52
$GPGSA,M,3,22,30,16,18,06,03,21,31,,,,,1.7,1.2,1.3*30
$GPRMC,200939.998,A,1453.7184,S,07459.2527,W,25.13,136.21,170411,,,A*5C
$GPGGA,200940.999,1453.7237,S,07459.2477,W,1,07,2.5,509.3,M,19.1,M,,0000*58
$GPGSA,M,3,22,30,16,18,06,03,21,,,,,,4.1,2.5,3.3*37
$GPRMC,200940.999,A,1453.7237,S,07459.2477,W,25.72,135.10,170411,,,A*5A
$GPGGA,200942.001,1453.7290,S,07459.2425,W,1,07,2.5,509.1,M,19.1,M,,0000*5A
$GPGSA,M,3,22,30,16,18,06,03,21,,,,,,4.1,2.5,3.3*37
$GPRMC,200942.001,A,1453.7290,S,07459.2425,W,25.80,136.83,170411,,,A*5E
$GPGGA,200943.000,1453.7346,S,07459.2370,W,1,07,2.4,509.7,M,19.1,M,,0000*50
$GPGSA,M,3,22,30,16,18,06,03,21,,,,,,4.1,2.4,3.3*36
$GPGSV,3,1,11,22,76,088,39,30,74,312,36,16,66,238,38,18,44,132,31*7B
$GPGSV,3,2,11,06,40,195,30,03,30,208,38,14,17,033,29,21,13,135,30*78
$GPGSV,3,3,11,31,13,348,,19,08,227,37,29,04,073,*4E
$GPRMC,200943.000,A,1453.7346,S,07459.2370,W,25.26,136.96,170411,,,A*5B
$GPGGA,200944.003,1453.7403,S,07459.2321,W,1,07,2.4,511.3,M,19.1,M,,0000*5B
$GPGSA,M,3,22,30,16,18,06,03,21,,,,,,4.1,2.4,3.3*36
$GPRMC,200944.003,A,1453.7403,S,07459.2321,W,25.05,138.23,170411,,,A*5C
$GPGGA,200944.996,1453.7458,S,07459.2272,W,1,07,2.4,511.8,M,19.1,M,,0000*5C
$GPGSA,M,3,22,30,16,18,06,03,21,,,,,,4.1,2.4,3.3*36
$GPRMC,200944.996,A,1453.7458,S,07459.2272,W,25.82,136.83,170411,,,A*5B
$GPGGA,200945.999,1453.7519,S,07459.2215,W,1,07,2.4,513.6,M,19.1,M,,0000*5B
$GPGSA,M,3,22,30,16,18,06,03,21,,,,,,4.1,2.4,3.3*36
$GPRMC,200945.999,A,1453.7519,S,07459.2215,W,26.29,138.39,170411,,,A*5D
$GPGGA,200947.001,1453.7568,S,07459.2166,W,1,07,2.4,512.6,M,19.1,M,,0000*51
$GPGSA,M,3,22,30,16,18,06,03,21,,,,,,4.1,2.4,3.3*36
$GPRMC,200947.001,A,1453.7568,S,07459.2166,W,25.97,137.24,170411,,,A*53
$GPGGA,200947.997,1453.7625,S,07459.2116,W,1,07,2.4,513.6,M,19.1,M,,0000*5B
$GPGSA,M,3,22,30,16,18,06,03,21,,,,,,4.1,2.4,3.3*36
$GPGSV,3,1,11,22,76,088,38,30,74,312,36,16,66,238,38,18,44,132,28*72
$GPGSV,3,2,11,06,40,195,29,03,30,208,38,14,17,033,29,21,13,135,31*71
$GPGSV,3,3,11,31,13,348,,19,08,227,36,29,04,073,*4F
$GPRMC,200947.997,A,1453.7625,S,07459.2116,W,25.42,138.15,170411,,,A*5D
$GPGGA,200949.001,1453.7681,S,07459.2062,W,1,07,2.4,513.6,M,19.1,M,,0000*5F
$GPGSA,M,3,22,30,16,18,06,03,21,,,,,,4.1,2.4,3.3*36
$GPRMC,200949.001,A,1453.7681,S,07459.2062,W,25.98,138.24,170411,,,A*5C
$GPGGA,200949.999,1453.7732,S,07459.2012,W,1,07,2.4,512.5,M,19.1,M,,0000*5B
$GPGSA,M,3,22,30,16,18,06,03,21,,,,,,4.1,2.4,3.3*36
$GPRMC,200949.999,A,1453.7732,S,07459.2012,W,25.48,137.44,170411,,,A*5E
$GPGGA,200951.000,1453.7782,S,07459.1961,W,1,07,2.4,511.8,M,19.1,M,,0000*50
$GPGSA,M,3,22,30,16,18,06,03,21,,,,,,4.1,2.4,3.3*36
$GPRMC,200951.000,A,1453.7782,S,07459.1961,W,25.76,136.45,170411,,,A*56
$GPGGA,200951.999,1453.7841,S,07459.1907,W,1,07,2.4,513.0,M,19.1,M,,0000*53
$GPGSA,M,3,22,30,16,18,06,03,21,,,,,,4.1,2.4,3.3*36
$GPRMC,200951.999,A,1453.7841,S,07459.1907,W,26.15,138.21,170411,,,A*55
$GPGGA,200953.000,1453.7898,S,07459.1858,W,1,07,2.4,513.9,M,19.1,M,,0000*5E
$GPGSA,M,3,22,30,16,18,06,03,21,,,,,,4.1,2.4,3.3*36
$GPGSV,3,1,11,22,76,088,37,30,74,312,35,16,66,238,37,18,44,132,29*70
$GPGSV,3,2,11,06,40,195,26,03,30,208,37,14,17,033,30,21,13,135,29*70
$GPGSV,3,3,11,31,13,348,,19,08,227,36,29,04,073,*4F
$GPRMC,200953.000,A,1453.7898,S,07459.1858,W,25.18,139.55,170411,,,A*5D
$GPGGA,200953.999,1453.7952,S,07459.1804,W,1,07,2.4,513.6,M,19.1,M,,0000*56
$GPGSA,M,3,22,30,16,18,06,03,21,,,,,,4.1,2.4,3.3*36
$GPRMC,200953.999,A,1453.7952,S,07459.1804,W,25.63,139.03,170411,,,A*55
$GPGGA,200955.000,1453.8016,S,07459.1749,W,1,07,2.4,516.4,M,19.1,M,,0000*5E
$GPGSA,M,3,22,30,16,18,06,03,21,,,,,,4.1,2.4,3.3*36
$GPRMC,200955.000,A,1453.8016,S,07459.1749,W,25.77,139.46,170411,,,A*5E
$GPGGA,200955.999,1453.8070,S,07459.1701,W,1,07,2.4,516.9,M,19.1,M,,0000*56
$GPGSA,M,3,22,30,16,18,06,03,21,,,,,,4.1,2.4,3.3*36
$GPRMC,200955.999,A,1453.8070,S,07459.1701,W,25.69,137.76,170411,,,A*59
$GPGGA,200957.001,1453.8127,S,07459.1651,W,1,07,2.4,517.6,M,19.1,M,,0000*55
$GPGSA,M,3,22,30,16,18,06,03,21,,,,,,4.1,2.4,3.3*36
$GPRMC,200957.001,A,1453.8127,S,07459.1651,W,25.99,138.02,170411,,,A*57
$GPGGA,200958.001,1453.8188,S,07459.1597,W,1,07,2.4,519.3,M,19.1,M,,0000*5D
$GPGSA,M,3,22,30,16,18,06,03,21,,,,,,4.1,2.4,3.3*36
$GPGSV,3,1,11,22,76,088,38,30,74,312,35,16,66,238,38,18,44,132,29*70
$GPGSV,3,2,11,06,40,195,27,03,30,208,37,14,17,033,28,21,13,135,31*71
$GPGSV,3,3,11,31,13,348,,19,08,227,35,29,04,073,*4C
$GPRMC,200958.001,A,1453.8188,S,07459.1597,W,25.31,137.10,170411,,,A*5A
$GPGGA,200958.997,1453.8238,S,07459.1542,W,1,07,2.4,520.6,M,19.1,M,,0000*54
$GPGSA,M,3,22,30,16,18,06,03,21,,,,,,4.1,2.4,3.3*36
$GPRMC,200958.997,A,1453.8238,S,07459.1542,W,25.41,136.68,170411,,,A*55
$GPGGA,201000.002,1453.8294,S,07459.1487,W,1,07,2.4,521.1,M,19.1,M,,0000*5C
$GPGSA,M,3,22,30,16,18,06,03,21,,,,,,4.1,2.4,3.3*36
$GPRMC,201000.002,A,1453.8294,S,07459.1487,W,25.83,138.63,170411,,,A*50
$GPGGA,201001.001,1453.8353,S,07459.1433,W,1,07,2.4,523.1,M,19.1,M,,0000*59
$GPGSA,M,3,22,30,16,18,06,03,21,,,,,,4.1,2.4,3.3*36
$GPRMC,201001.001,A,1453.8353,S,07459.1433,W,25.89,138.26,170411,,,A*5C
$GPGGA,201001.998,1453.8402,S,07459.1384,W,1,07,2.4,522.8,M,19.1,M,,0000*50
$GPGSA,M,3,22,30,16,18,06,03,21,,,,,,4.1,2.4,3.3*36
$GPRMC,201001.998,A,1453.8402,S,07459.1384,W,25.27,138.11,170411,,,A*5D
$GPGGA,201003.000,1453.8459,S,07459.1332,W,1,07,2.4,523.9,M,19.1,M,,0000*59
$GPGSA,M,3,22,30,16,18,06,03,21,,,,,,4.1,2.4,3.3*36
$GPGSV,3,1,11,22,76,088,38,30,74,312,35,16,66,238,37,18,44,132,29*7F
$GPGSV,3,2,11,06,40,195,25,03,30,208,38,14,17,033,27,21,13,135,29*7A
$GPGSV,3,3,11,31,13,348,,19,08,227,35,29,04,073,*4C
$GPRMC,201003.000,A,1453.8459,S,07459.1332,W,24.95,138.85,170411,,,A*51
$GPGGA,201004.000,1453.8508,S,07459.1283,W,1,07,2.4,524.0,M,19.1,M,,0000*5E
$GPGSA,M,3,22,30,16,18,06,03,21,,,,,,4.1,2.4,3.3*36
$GPRMC,201004.000,A,1453.8508,S,07459.1283,W,25.78,137.89,170411,,,A*59
$GPGGA,201004.998,1453.8563,S,07459.1234,W,1,06,2.8,525.0,M,19.1,M,,0000*5B
$GPGSA,M,3,22,30,16,18,03,21,,,,,,,4.5,2.8,3.6*3D
$GPRMC,201004.998,A,1453.8563,S,07459.1234,W,25.19,138.69,170411,,,A*56
$GPGGA,201006.002,1453.8618,S,07459.1187,W,1,07,2.4,526.9,M,19.1,M,,0000*50
$GPGSA,M,3,22,30,16,18,06,03,21,,,,,,4.1,2.4,3.3*36
$GPRMC,201006.002,A,1453.8618,S,07459.1187,W,25.64,137.50,170411,,,A*55
$GPGGA,201006.998,1453.8676,S,07459.1135,W,1,07,2.4,528.9,M,19.1,M,,0000*55
$GPGSA,M,3,22,30,16,18,06,03,21,,,,,,4.1,2.4,3.3*36
$GPRMC,201006.998,A,1453.8676,S,07459.1135,W,25.99,138.61,170411,,,A*51
$GPGGA,201008.003,1453.8730,S,07459.1085,W,1,06,2.8,529.5,M,19.1,M,,0000*59
$GPGSA,M,3,22,30,16,18,03,21,,,,,,,4.5,2.8,3.6*3D
$GPGSV,3,1,11,22,76,088,38,30,74,312,35,16,66,238,38,18,44,132,29*70
$GPGSV,3,2,11,06,40,195,,03,30,208,38,14,17,033,29,21,13,135,31*7A
$GPGSV,3,3,11,31,13,348,,19,08,227,36,29,04,073,*4F
$GPRMC,201008.003,A,1453.8730,S,07459.1085,W,25.58,138.25,170411,,,A*50
$GPGGA,201009.001,1453.8776,S,07459.1039,W,1,06,2.8,528.8,M,19.1,M,,0000*53
$GPGSA,M,3,22,30,16,18,03,21,,,,,,,4.5,2.8,3.6*3D
$GPRMC,201009.001,A,1453.8776,S,07459.1039,W,24.68,137.77,170411,,,A*5C
$GPGGA,201009.998,1453.8828,S,07459.0988,W,1,07,2.4,530.2,M,19.1,M,,0000*52
$GPGSA,M,3,22,30,16,18,06,03,21,,,,,,4.1,2.4,3.3*36
$GPRMC,201009.998,A,1453.8828,S,07459.0988,W,25.03,137.29,170411,,,A*54
$GPGGA,201010.999,1453.8884,S,07459.0938,W,1,07,2.4,531.3,M,19.1,M,,0000*56
$GPGSA,M,3,22,30,16,18,06,03,21,,,,,,4.1,2.4,3.3*36
$GPRMC,201010.999,A,1453.8884,S,07459.0938,W,24.46,137.69,170411,,,A*54
$GPGGA,201012.000,1453.8927,S,07459.0891,W,1,07,2.4,530.5,M,19.1,M,,0000*50
$GPGSA,M,3,22,30,16,18,06,03,21,,,,,,4.1,2.4,3.3*36
$GPRMC,201012.000,A,1453.8927,S,07459.0891,W,24.48,135.94,170411,,,A*5B
$GPGGA,201013.001,1453.8980,S,07459.0842,W,1,07,2.4,531.6,M,19.1,M,,0000*51
$GPGSA,M,3,22,30,16,18,06,03,21,,,,,,4.1,2.4,3.3*36
$GPGSV,3,1,11,22,76,094,39,30,73,317,36,16,67,241,39,18,43,133,30*7D
$GPGSV,3,2,11,06,41,194,30,03,31,207,38,14,18,034,27,21,12,134,32*72
$GPGSV,3,3,11,31,12,349,,19,09,226,37,29,03,072,*48
$GPRMC,201013.001,A,1453.8980,S,07459.0842,W,24.44,135.60,170411,,,A*5F
$GPGGA,201014.000,1453.9036,S,07459.0791,W,1,07,2.4,532.2,M,19.1,M,,0000*54
$GPGSA,M,3,22,30,16,18,06,03,21,,,,,,4.1,2.4,3.3*36
$GPRMC,201014.000,A,1453.9036,S,07459.0791,W,25.33,137.09,170411,,,A*51
$GPGGA,201015.000,1453.9091,S,07459.0742,W,1,07,2.4,532.5,M,19.1,M,,0000*51
$GPGSA,M,3,22,30,16,18,06,03,21,,,,,,4.1,2.4,3.3*36
$GPRMC,201015.000,A,1453.9091,S,07459.0742,W,24.97,136.81,170411,,,A*5D
$GPGGA,201016.003,1453.9136,S,07459.0698,W,1,07,2.4,531.7,M,19.1,M,,0000*5A
$GPGSA,M,3,22,30,16,18,06,03,21,,,,,,4.1,2.4,3.3*36
$GPRMC,201016.003,A,1453.9136,S,07459.0698,W,24.60,136.49,170411,,,A*5B
$GPGGA,201016.995,1453.9197,S,07459.0643,W,1,06,2.8,533.3,M,19.1,M,,0000*5A
$GPGSA,M,3,22,30,16,18,03,21,,,,,,,4.5,2.8,3.6*3D
$GPRMC,201016.995,A,1453.9197,S,07459.0643,W,25.65,139.32,170411,,,A*57
$GPGGA,201018.002,1453.9242,S,07459.0600,W,1,07,2.4,531.7,M,19.1,M,,0000*54
$GPGSA,M,3,22,30,16,18,06,03,21,,,,,,4.1,2.4,3.3*36
$GPGSV,3,1,11,22,76,094,37,30,73,317,35,16,67,241,37,18,43,133,29*76
$GPGSV,3,2,11,06,41,194,28,03,31,207,38,14,18,034,28,21,12,134,29*7E
$GPGSV,3,3,11,31,12,349,,19,09,226,36,29,03,072,*49
$GPRMC,201018.002,A,1453.9242,S,07459.0600,W,24.92,138.66,170411,,,A*5B
$GPGGA,201018.998,1453.9289,S,07459.0551,W,1,06,2.8,530.5,M,19.1,M,,0000*50
$GPGSA,M,3,22,30,16,18,03,21,,,,,,,4.5,2.8,3.6*3D
$GPRMC,201018.998,A,1453.9289,S,07459.0551,W,25.03,138.97,170411,,,A*56
$GPGGA,201020.003,1453.9353,S,07459.0503,W,1,06,3.7,532.8,M,19.1,M,,0000*50
$GPGSA,M,3,22,30,16,18,06,03,,,,,,,8.2,3.7,7.3*3C
$GPRMC,201020.003,A,1453.9353,S,07459.0503,W,25.40,138.52,170411,,,A*59
$GPGGA,201020.999,1453.9411,S,07459.0455,W,1,07,2.4,534.4,M,19.1,M,,0000*50
$GPGSA,M,3,22,30,16,18,06,03,21,,,,,,4.1,2.4,3.3*36
$GPRMC,201020.999,A,1453.9411,S,07459.0455,W,25.67,138.18,170411,,,A*5B
$GPGGA,201021.997,1453.9470,S,07459.0406,W,1,07,2.4,535.7,M,19.1,M,,0000*5C
$GPGSA,M,3,22,30,16,18,06,03,21,,,,,,4.1,2.4,3.3*36
$GPRMC,201021.997,A,1453.9470,S,07459.0406,W,24.89,136.73,170411,,,A*57
$GPGGA,201022.999,1453.9510,S,07459.0358,W,1,06,2.8,534.2,M,19.1,M,,0000*53
$GPGSA,M,3,22,30,16,18,03,21,,,,,,,4.5,2.8,3.6*3D
$GPGSV,3,1,11,22,76,094,37,30,73,317,35,16,67,241,38,18,43,133,29*79
$GPGSV,3,2,11,06,41,194,,03,31,207,36,14,18,034,28,21,12,134,30*72
$GPGSV,3,3,11,31,12,349,,19,09,226,37,29,03,072,*48
$GPRMC,201022.999,A,1453.9510,S,07459.0358,W,24.82,137.07,170411,,,A*58
$GPGGA,201024.000,1453.9568,S,07459.0310,W,1,07,1.4,535.7,M,19.1,M,,0000*55
$GPGSA,M,3,22,30,16,18,06,03,31,,,,,,2.1,1.4,1.6*35
$GPRMC,201024.000,A,1453.9568,S,07459.0310,W,24.21,140.30,170411,,,A*59
$GPGGA,201025.001,1453.9592,S,07459.0272,W,1,08,1.2,527.9,M,19.1,M,,0000*51
$GPGSA,M,3,22,30,16,18,06,03,21,31,,,,,1.7,1.2,1.3*30
$GPRMC,201025.001,A,1453.9592,S,07459.0272,W,24.37,144.08,170411,,,A*51
$GPGGA,201025.997,1453.9654,S,07459.0232,W,1,08,1.2,529.3,M,19.1,M,,0000*5E
$GPGSA,M,3,22,30,16,18,06,03,21,31,,,,,1.7,1.2,1.3*30
$GPRMC,201025.997,A,1453.9654,S,07459.0232,W,24.35,147.55,170411,,,A*53
$GPGGA,201027.000,1453.9708,S,07459.0200,W,1,08,1.2,528.3,M,19.1,M,,0000*53
$GPGSA,M,3,22,30,16,18,06,03,21,31,,,,,1.7,1.2,1.3*30
$GPRMC,201027.000,A,1453.9708,S,07459.0200,W,24.21,150.71,170411,,,A*5A
$GPGGA,201027.999,1453.9769,S,07459.0170,W,1,08,1.2,527.9,M,19.1,M,,0000*5C
$GPGSA,M,3,22,30,16,18,06,03,21,31,,,,,1.7,1.2,1.3*30
$GPGSV,3,1,11,22,76,094,39,30,73,317,35,16,67,241,38,18,43,133,35*7A
$GPGSV,3,2,11,06,41,194,35,03,31,207,35,14,18,034,35,21,12,134,29*73
$GPGSV,3,3,11,31,12,349,35,19,09,226,36,29,03,072,*4F
$GPRMC,201027.999,A,1453.9769,S,07459.0170,W,24.53,154.94,170411,,,A*5A
$GPGGA,201029.002,1453.9832,S,07459.0150,W,1,08,1.2,526.9,M,19.1,M,,0000*5B
$GPGSA,M,3,22,30,16,18,06,03,21,31,,,,,1.7,1.2,1.3*30
$GPRMC,201029.002,A,1453.9832,S,07459.0150,W,24.21,160.83,170411,,,A*58
$GPGGA,201029.998,1453.9881,S,07459.0138,W,1,08,1.2,522.4,M,19.1,M,,0000*5E
$GPGSA,M,3,22,30,16,18,06,03,21,31,,,,,1.7,1.2,1.3*30
$GPRMC,201029.998,A,1453.9881,S,07459.0138,W,24.15,168.23,170411,,,A*51
$GPGGA,201031.000,1453.9945,S,07459.0131,W,1,08,1.2,520.8,M,19.1,M,,0000*51
$GPGSA,M,3,22,30,16,18,06,03,21,31,,,,,1.7,1.2,1.3*30
$GPRMC,201031.000,A,1453.9945,S,07459.0131,W,24.38,171.73,170411,,,A*52
$GPGGA,201031.999,1454.0010,S,07459.0122,W,1,08,1.2,521.0,M,19.1,M,,0000*54
$GPGSA,M,3,22,30,16,18,06,03,21,31,,,,,1.7,1.2,1.3*30
$GPRMC,201031.999,A,1454.0010,S,07459.0122,W,24.33,174.28,170411,,,A*5E
$GPGGA,201033.004,1454.0076,S,07459.0120,W,1,08,1.2,519.9,M,19.1,M,,0000*5B
$GPGSA,M,3,22,30,16,18,06,03,21,31,,,,,1.7,1.2,1.3*30
$GPGSV,3,1,11,22,76,094,39,30,73,317,36,16,67,241,39,18,43,133,32*7F
$GPGSV,3,2,11,06,41,194,29,03,31,207,36,14,18,034,,21,12,134,31*72
$GPGSV,3,3,11,31,12,349,33,19,09,226,35,29,03,072,*4A
$GPRMC,201033.004,A,1454.0076,S,07459.0120,W,24.67,180.29,170411,,,A*58
$GPGGA,201034.002,1454.0143,S,07459.0119,W,1,08,1.2,520.6,M,19.1,M,,0000*52
$GPGSA,M,3,22,30,16,18,06,03,21,31,,,,,1.7,1.2,1.3*30
$GPRMC,201034.002,A,1454.0143,S,07459.0119,W,24.28,183.41,170411,,,A*52
$GPGGA,201034.995,1454.0212,S,07459.0132,W,1,08,1.2,521.0,M,19.1,M,,0000*5C
$GPGSA,M,3,22,30,16,18,06,03,21,31,,,,,1.7,1.2,1.3*30
$GPRMC,201034.995,A,1454.0212,S,07459.0132,W,23.95,187.57,170411,,,A*59
$GPGGA,201036.000,1454.0284,S,07459.0145,W,1,08,1.2,521.1,M,19.1,M,,0000*55
$GPGSA,M,3,22,30,16,18,06,03,21,31,,,,,1.7,1.2,1.3*30
$GPRMC,201036.000,A,1454.0284,S,07459.0145,W,25.16,189.41,170411,,,A*55
$GPGGA,201037.000,1454.0355,S,07459.0160,W,1,08,1.2,522.2,M,19.1,M,,0000*5E
$GPGSA,M,3,22,30,16,18,06,03,21,31,,,,,1.7,1.2,1.3*30
$GPRMC,201037.000,A,1454.0355,S,07459.0160,W,25.66,190.89,170411,,,A*55
$GPGGA,201038.000,1454.0426,S,07459.0180,W,1,08,1.2,523.1,M,19.1,M,,0000*5E
$GPGSA,M,3,22,30,16,18,06,03,21,31,,,,,1.7,1.2,1.3*30
$GPGSV,3,1,11,22,76,094,39,30,73,317,37,16,67,241,38,18,43,133,37*7A
$GPGSV,3,2,11,06,41,194,26,03,31,207,35,14,18,034,34,21,12,134,35*7D
$GPGSV,3,3,11,31,12,349,34,19,09,226,29,29,03,072,*40
$GPRMC,201038.000,A,1454.0426,S,07459.0180,W,25.52,189.46,170411,,,A*5B
$GPGGA,201039.004,1454.0494,S,07459.0196,W,1,08,1.2,522.9,M,19.1,M,,0000*5C
$GPGSA,M,3,22,30,16,18,06,03,21,31,,,,,1.7,1.2,1.3*30
$GPRMC,201039.004,A,1454.0494,S,07459.0196,W,25.32,189.83,170411,,,A*5F
$GPGGA,201040.001,1454.0567,S,07459.0209,W,1,08,1.2,523.8,M,19.1,M,,0000*5F
$GPGSA,M,3,22,30,16,18,06,03,21,31,,,,,1.7,1.2,1.3*30
$GPRMC,201040.001,A,1454.0567,S,07459.0209,W,25.31,189.03,170411,,,A*57
$GPGGA,201041.000,1454.0634,S,07459.0226,W,1,08,1.2,521.4,M,19.1,M,,0000*59
$GPGSA,M,3,22,30,16,18,06,03,21,31,,,,,1.7,1.2,1.3*30
$GPRMC,201041.000,A,1454.0634,S,07459.0226,W,25.13,189.37,170411,,,A*58
$GPGGA,201042.000,1454.0689,S,07459.0263,W,1,08,1.2,513.0,M,19.1,M,,0000*58
$GPGSA,M,3,22,30,16,18,06,03,21,31,,,,,1.7,1.2,1.3*30
$GPGSV,3,1,11,22,76,095,44,30,73,317,41,16,67,242,44,18,43,133,41*79
$GPGSV,3,2,11,06,41,193,29,03,32,207,36,21,12,134,37,31,12,349,36*71
$GPGSV,3,3,11,29,03,072,,14,18,034,37,19,09,226,35*4A
$GPRMC,201042.000,A,1454.0689,S,07459.0263,W,25.38,189.85,170411,,,A*5C
$GPGGA,201043.000,1454.0745,S,07459.0286,W,1,08,1.2,512.5,M,19.1,M,,0000*57
$GPGSA,M,3,22,30,16,18,06,03,21,31,,,,,1.7,1.2,1.3*30
$GPRMC,201043.000,A,1454.0745,S,07459.0286,W,25.24,189.40,170411,,,A*53
$GPGGA,201044.000,1454.0806,S,07459.0302,W,1,08,1.2,513.4,M,19.1,M,,0000*55
$GPGSA,M,3,22,30,16,18,06,03,21,31,,,,,1.7,1.2,1.3*30
$GPRMC,201044.000,A,1454.0806,S,07459.0302,W,25.14,189.27,170411,,,A*53
$GPGGA,201045.000,1454.0870,S,07459.0317,W,1,08,1.2,514.6,M,19.1,M,,0000*54
$GPGSA,M,3,22,30,16,18,06,03,21,31,,,,,1.7,1.2,1.3*30
$GPRMC,201045.000,A,1454.0870,S,07459.0317,W,24.93,189.04,170411,,,A*58
$GPGGA,201046.000,1454.0934,S,07459.0331,W,1,08,1.2,515.3,M,19.1,M,,0000*56
$GPGSA,M,3,22,30,16,18,06,03,21,31,,,,,1.7,1.2,1.3*30
$GPRMC,201046.000,A,1454.0934,S,07459.0331,W,24.67,189.38,170411,,,A*5A
$GPGGA,201047.000,1454.0999,S,07459.0346,W,1,08,1.2,515.9,M,19.1,M,,0000*5A
$GPGSA,M,3,22,30,16,18,06,03,21,31,,,,,1.7,1.2,1.3*30
$GPGSV,3,1,11,22,76,095,43,30,73,317,40,16,67,242,43,18,43,133,40*79
$GPGSV,3,2,11,06,41,193,29,03,32,207,36,21,12,134,38,31,12,349,36*7E
$GPGSV,3,3,11,29,03,072,,14,18,034,37,19,09,226,34*4B
$GPRMC,201047.000,A,1454.0999,S,07459.0346,W,24.34,189.30,170411,,,A*52
$GPGGA,201048.000,1454.1063,S,07459.0360,W,1,08,1.2,516.4,M,19.1,M,,0000*52
$GPGSA,M,3,22,30,16,18,06,03,21,31,,,,,1.7,1.2,1.3*30
$GPRMC,201048.000,A,1454.1063,S,07459.0360,W,23.70,188.94,170411,,,A*5C
$GPGGA,201049.000,1454.1125,S,07459.0371,W,1,08,1.2,516.8,M,19.1,M,,0000*5C
$GPGSA,M,3,22,30,16,18,06,03,21,31,,,,,1.7,1.2,1.3*30
$GPRMC,201049.000,A,1454.1125,S,07459.0371,W,22.98,188.40,170411,,,A*50
$GPGGA,201050.000,1454.1185,S,07459.0382,W,1,08,1.2,517.3,M,19.1,M,,0000*58
$GPGSA,M,3,22,30,16,18,06,03,21,31,,,,,1.8,1.2,1.3*3F
$GPRMC,201050.000,A,1454.1185,S,07459.0382,W,22.25,188.33,170411,,,A*5C
$GPGGA,201051.000,1454.1243,S,07459.0393,W,1,08,1.2,517.4,M,19.1,M,,0000*57
$GPGSA,M,3,22,30,16,18,06,03,21,31,,,,,1.8,1.2,1.3*3F
$GPRMC,201051.000,A,1454.1243,S,07459.0393,W,21.39,189.00,170411,,,A*5B
$GPGGA,201052.000,1454.1299,S,07459.0403,W,1,08,1.2,517.8,M,19.1,M,,0000*51
$GPGSA,M,3,22,30,16,18,06,03,21,31,,,,,1.8,1.2,1.3*3F
$GPGSV,3,1,11,22,76,095,43,30,73,317,39,16,67,242,43,18,43,133,40*77
$GPGSV,3,2,11,06,41,193,29,03,32,207,36,21,12,134,38,31,12,349,36*7E
$GPGSV,3,3,11,29,03,072,,14,18,034,37,19,09,226,34*4B
$GPRMC,201052.000,A,1454.1299,S,07459.0403,W,20.23,189.30,170411,,,A*58
$GPGGA,201053.000,1454.1352,S,07459.0413,W,1,08,1.2,518.1,M,19.1,M,,0000*51
$GPGSA,M,3,22,30,16,18,06,03,21,31,,,,,1.8,1.2,1.3*3F
$GPRMC,201053.000,A,1454.1352,S,07459.0413,W,19.17,189.62,170411,,,A*54
$GPGGA,201054.000,1454.1402,S,07459.0423,W,1,08,1.2,518.4,M,19.1,M,,0000*52
$GPGSA,M,3,22,30,16,18,06,03,21,31,,,,,1.8,1.2,1.3*3F
$GPRMC,201054.000,A,1454.1402,S,07459.0423,W,18.53,190.07,170411,,,A*58
$GPGGA,201055.000,1454.1450,S,07459.0433,W,1,08,1.2,518.7,M,19.1,M,,0000*56
$GPGSA,M,3,22,30,16,18,06,03,21,31,,,,,1.8,1.2,1.3*3F
$GPRMC,201055.000,A,1454.1450,S,07459.0433,W,17.53,189.80,170411,,,A*57
$GPGGA,201056.000,1454.1496,S,07459.0442,W,1,08,1.2,519.0,M,19.1,M,,0000*5F
$GPGSA,M,3,22,30,16,18,06,03,21,31,,,,,1.8,1.2,1.3*3F
$GPRMC,201056.000,A,1454.1496,S,07459.0442,W,16.65,189.65,170411,,,A*57
$GPGGA,201057.000,1454.1540,S,07459.0450,W,1,08,1.2,519.2,M,19.1,M,,0000*55
$GPGSA,M,3,22,30,16,18,06,03,21,31,,,,,1.8,1.2,1.3*3F
$GPGSV,3,1,11,22,76,095,43,30,73,317,39,16,67,242,42,18,43,133,40*76
$GPGSV,3,2,11,06,41,193,29,03,32,207,36,21,12,134,38,31,12,349,36*7E
$GPGSV,3,3,11,29,03,072,,14,18,034,37,19,09,226,33*4C
$GPRMC,201057.000,A,1454.1540,S,07459.0450,W,15.94,189.56,170411,,,A*52
$GPGGA,201058.000,1454.1581,S,07459.0458,W,1,08,1.2,519.5,M,19.1,M,,0000*58
$GPGSA,M,3,22,30,16,18,06,03,21,31,,,,,1.8,1.2,1.3*3F
$GPRMC,201058.000,A,1454.1581,S,07459.0458,W,15.01,189.75,170411,,,A*55
$GPGGA,201059.000,1454.1618,S,07459.0465,W,1,08,1.2,519.7,M,19.1,M,,0000*56
$GPGSA,M,3,22,30,16,18,06,03,21,31,,,,,1.8,1.2,1.3*3F
$GPRMC,201059.000,A,1454.1618,S,07459.0465,W,13.17,188.33,170411,,,A*5B
$GPGGA,201100.000,1454.1651,S,07459.0468,W,1,08,1.2,519.9,M,19.1,M,,0000*55
$GPGSA,M,3,22,30,16,18,06,03,21,31,,,,,1.8,1.2,1.3*3F
$GPRMC,201100.000,A,1454.1651,S,07459.0468,W,11.02,182.92,170411,,,A*51
$GPGGA,201101.000,1454.1678,S,07459.0467,W,1,08,1.2,520.0,M,19.1,M,,0000*53
$GPGSA,M,3,22,30,16,18,06,03,21,31,,,,,1.8,1.2,1.3*3F
$GPRMC,201101.000,A,1454.1678,S,07459.0467,W,9.81,171.60,170411,,,A*67
$GPGGA,201102.004,1454.1702,S,07459.0460,W,1,08,1.2,520.0,M,19.1,M,,0000*5F
$GPGSA,M,3,22,30,16,18,06,03,21,31,,,,,1.8,1.2,1.3*3F
$GPRMC,201102.004,A,1454.1702,S,07459.0460,W,8.06,158.33,170411,,,A*68
$GPGGA,201102.993,1454.1721,S,07459.0451,W,1,07,1.4,520.2,M,19.1,M,,0000*50
$GPGSA,M,3,22,30,16,18,06,03,31,,,,,,2.1,1.4,1.6*35
$GPGSV,3,1,11,22,76,095,39,30,73,317,35,16,67,242,38,18,43,133,33*7E
$GPGSV,3,2,11,06,41,193,34,03,32,207,35,14,18,034,36,21,12,134,*7E
$GPGSV,3,3,11,31,12,349,35,19,09,226,37,29,03,072,*4E
$GPRMC,201102.993,A,1454.1721,S,07459.0451,W,7.11,151.94,170411,,,A*61
$GPGGA,201104.000,1454.1738,S,07459.0444,W,1,07,1.4,520.5,M,19.1,M,,0000*5E
$GPGSA,M,3,22,30,16,18,06,03,31,,,,,,2.1,1.4,1.6*35
$GPRMC,201104.000,A,1454.1738,S,07459.0444,W,6.00,157.34,170411,,,A*65
$GPGGA,201105.002,1454.1752,S,07459.0438,W,1,08,1.2,520.4,M,19.1,M,,0000*52
$GPGSA,M,3,22,30,16,18,06,03,21,31,,,,,1.8,1.2,1.3*3F
$GPRMC,201105.002,A,1454.1752,S,07459.0438,W,4.95,159.34,170411,,,A*61
$GPGGA,201105.999,1454.1765,S,07459.0435,W,1,07,1.4,520.4,M,19.1,M,,0000*59
$GPGSA,M,3,22,30,16,18,06,03,31,,,,,,2.1,1.4,1.6*35
$GPRMC,201105.999,A,1454.1765,S,07459.0435,W,3.99,169.80,170411,,,A*64
$GPGGA,201106.995,1454.1774,S,07459.0434,W,1,08,1.2,520.7,M,19.1,M,,0000*5D
$GPGSA,M,3,22,30,16,18,06,03,21,31,,,,,1.8,1.2,1.3*3F
$GPRMC,201106.995,A,1454.1774,S,07459.0434,W,3.04,173.39,170411,,,A*67
$GPGGA,201108.002,1454.1781,S,07459.0432,W,1,07,1.4,521.2,M,19.1,M,,0000*55
$GPGSA,M,3,22,30,16,18,06,03,31,,,,,,2.1,1.4,1.6*35
$GPGSV,3,1,11,22,76,095,38,30,73,317,37,16,67,242,38,18,43,133,39*77
$GPGSV,3,2,11,06,41,193,30,03,32,207,37,14,18,034,28,21,12,134,*77
$GPGSV,3,3,11,31,12,349,35,19,09,226,36,29,03,072,*4F
$GPRMC,201108.002,A,1454.1781,S,07459.0432,W,2.05,174.31,170411,,,A*6D
$GPGGA,201109.003,1454.1786,S,07459.0430,W,1,08,1.2,521.5,M,19.1,M,,0000*5E
$GPGSA,M,3,22,30,16,18,06,03,21,31,,,,,1.8,1.2,1.3*3F
$GPRMC,201109.003,A,1454.1786,S,07459.0430,W,1.51,170.51,170411,,,A*68
$GPGGA,201109.997,1454.1787,S,07459.0429,W,1,08,1.2,521.6,M,19.1,M,,0000*50
$GPGSA,M,3,22,30,16,18,06,03,21,31,,,,,1.8,1.2,1.3*3F
$GPRMC,201109.997,A,1454.1787,S,07459.0429,W,0.16,78.16,170411,,,A*5D
$GPGGA,201111.002,1454.1787,S,07459.0427,W,1,08,1.2,521.7,M,19.1,M,,0000*53
$GPGSA,M,3,22,30,16,18,06,03,21,31,,,,,1.8,1.2,1.3*3F
$GPRMC,201111.002,A,1454.1787,S,07459.0427,W,0.42,149.32,170411,,,A*6B
$GPGGA,201111.999,1454.1788,S,07459.0427,W,1,08,1.2,521.9,M,19.1,M,,0000*59
$GPGSA,M,3,22,30,16,18,06,03,21,31,,,,,1.8,1.2,1.3*3F
$GPRMC,201111.999,A,1454.1788,S,07459.0427,W,0.22,123.19,170411,,,A*6C
$GPGGA,201113.003,1454.1788,S,07459.0428,W,1,08,1.2,522.1,M,19.1,M,,0000*55
$GPGSA,M,3,22,30,16,18,06,03,21,31,,,,,1.8,1.2,1.3*3F
$GPGSV,3,1,11,22,76,095,40,30,73,317,36,16,67,242,38,18,43,133,37*77
$GPGSV,3,2,11,06,41,193,34,03,32,207,35,14,18,034,24,21,12,134,23*7C
$GPGSV,3,3,11,31,12,349,35,19,09,226,32,29,03,072,*4B
$GPRMC,201113.003,A,1454.1788,S,07459.0428,W,1.16,275.29,170411,,,A*6E
$GPGGA,201113.999,1454.1788,S,07459.0427,W,1,07,1.4,521.8,M,19.1,M,,0000*53
$GPGSA,M,3,22,30,16,18,06,03,31,,,,,,2.1,1.4,1.6*35
$GPRMC,201113.999,A,1454.1788,S,07459.0427,W,0.06,337.79,170411,,,A*69
$GPGGA,201115.000,1454.1789,S,07459.0425,W,1,07,1.4,522.0,M,19.1,M,,0000*54
$GPGSA,M,3,22,30,16,18,06,03,31,,,,,,2.1,1.4,1.6*35
$GPRMC,201115.000,A,1454.1789,S,07459.0425,W,0.62,122.89,170411,,,A*6E
$GPGGA,201115.998,1454.1789,S,07459.0424,W,1,07,1.4,522.0,M,19.1,M,,0000*5D
$GPGSA,M,3,22,30,16,18,06,03,31,,,,,,2.1,1.4,1.6*35
$GPRMC,201115.998,A,1454.1789,S,07459.0424,W,0.21,61.39,170411,,,A*5D
$GPGGA,201116.999,1454.1788,S,07459.0423,W,1,08,1.2,522.5,M,19.1,M,,0000*55
$GPGSA,M,3,22,30,16,18,06,03,21,31,,,,,1.8,1.2,1.3*3F
$GPRMC,201116.999,A,1454.1788,S,07459.0423,W,0.28,27.31,170411,,,A*5A
$GPGGA,201117.997,1454.1786,S,07459.0423,W,1,08,1.2,522.8,M,19.1,M,,0000*59
$GPGSA,M,3,22,30,16,18,06,03,21,31,,,,,1.8,1.2,1.3*3F
$GPGSV,3,1,11,22,76,095,39,30,73,317,37,16,67,242,39,18,43,133,37*79
$GPGSV,3,2,11,06,41,193,32,03,32,207,37,14,18,034,,21,12,134,30*7C
$GPGSV,3,3,11,31,12,349,35,19,09,226,36,29,03,072,*4F
$GPRMC,201117.997,A,1454.1786,S,07459.0423,W,0.40,86.39,170411,,,A*56
$GPGGA,201119.002,1454.1785,S,07459.0423,W,1,08,1.2,523.4,M,19.1,M,,0000*5C
$GPGSA,M,3,22,30,16,18,06,03,21,31,,,,,1.8,1.2,1.3*3F
$GPRMC,201119.002,A,1454.1785,S,07459.0423,W,0.07,187.02,170411,,,A*65
$GPGGA,201120.000,1454.1784,S,07459.0422,W,1,08,1.2,523.4,M,19.1,M,,0000*54
$GPGSA,M,3,22,30,16,18,06,03,21,31,,,,,1.8,1.2,1.3*3F
$GPRMC,201120.000,A,1454.1784,S,07459.0422,W,0.18,32.27,170411,,,A*5B
$GPGGA,201120.998,1454.1783,S,07459.0423,W,1,07,1.4,524.0,M,19.1,M,,0000*50
$GPGSA,M,3,22,30,16,18,06,03,31,,,,,,2.1,1.4,1.6*35
$GPRMC,201120.998,A,1454.1783,S,07459.0423,W,0.29,122.53,170411,,,A*64
$GPGGA,201122.002,1454.1783,S,07459.0423,W,1,08,1.2,523.9,M,19.1,M,,0000*5F
$GPGSA,M,3,22,30,16,18,06,03,21,31,,,,,1.8,1.2,1.3*3F
$GPRMC,201122.002,A,1454.1783,S,07459.0423,W,0.26,83.81,170411,,,A*56
$GPGGA,201122.999,1454.1783,S,07459.0423,W,1,07,1.4,524.7,M,19.1,M,,0000*54
$GPGSA,M,3,22,30,16,18,06,03,31,,,,,,2.1,1.4,1.6*35
$GPGSV,3,1,11,22,76,095,38,30,73,317,38,16,67,242,38,18,43,133,38*79
$GPGSV,3,2,11,06,41,193,32,03,32,207,35,14,18,034,,21,12,134,*7D
$GPGSV,3,3,11,31,12,349,34,19,09,226,34,29,03,072,*4C
$GPRMC,201122.999,A,1454.1783,S,07459.0423,W,0.19,227.40,170411,,,A*60
$GPGGA,201123.999,1454.1783,S,07459.0423,W,1,07,1.4,525.1,M,19.1,M,,0000*52
$GPGSA,M,3,22,30,16,18,06,03,31,,,,,,2.1,1.4,1.6*35
$GPRMC,201123.999,A,1454.1783,S,07459.0423,W,0.17,93.92,170411,,,A*5D
$GPGGA,201124.999,1454.1783,S,07459.0424,W,1,07,1.4,525.5,M,19.1,M,,0000*56
$GPGSA,M,3,22,30,16,18,06,03,31,,,,,,2.1,1.4,1.6*35
$GPRMC,201124.999,A,1454.1783,S,07459.0424,W,0.49,61.59,170411,,,A*5C
$GPGGA,201126.001,1454.1783,S,07459.0422,W,1,07,1.4,525.6,M,19.1,M,,0000*59
$GPGSA,M,3,22,30,16,18,06,03,31,,,,,,2.1,1.4,1.6*35
$GPRMC,201126.001,A,1454.1783,S,07459.0422,W,0.08,256.01,170411,,,A*6E
$GPGGA,201126.999,1454.1783,S,07459.0424,W,1,08,1.2,526.0,M,19.1,M,,0000*5B
$GPGSA,M,3,22,30,16,18,06,03,21,31,,,,,1.8,1.2,1.3*3F
$GPRMC,201126.999,A,1454.1783,S,07459.0424,W,0.49,155.31,170411,,,A*66
$GPGGA,201128.001,1454.1784,S,07459.0426,W,1,08,1.2,525.9,M,19.1,M,,0000*52
$GPGSA,M,3,22,30,16,18,06,03,21,31,,,,,1.8,1.2,1.3*3F
$GPGSV,3,1,11,22,76,095,38,30,73,317,36,16,67,242,38,18,43,133,37*78
$GPGSV,3,2,11,06,41,193,32,03,32,207,35,14,18,034,27,21,12,134,24*7E
$GPGSV,3,3,11,31,12,349,35,19,09,226,35,29,03,072,*4C
$GPRMC,201128.001,A,1454.1784,S,07459.0426,W,0.28,251.89,170411,,,A*66
$GPGGA,201128.999,1454.1784,S,07459.0426,W,1,08,1.2,526.2,M,19.1,M,,0000*52
$GPGSA,M,3,22,30,16,18,06,03,21,31,,,,,1.8,1.2,1.3*3F
$GPRMC,201128.999,A,1454.1784,S,07459.0426,W,0.26,333.13,170411,,,A*66
$GPGGA,201129.994,1454.1783,S,07459.0426,W,1,08,1.2,526.6,M,19.1,M,,0000*5D
$GPGSA,M,3,22,30,16,18,06,03,21,31,,,,,1.8,1.2,1.3*3F
$GPRMC,201129.994,A,1454.1783,S,07459.0426,W,0.28,163.41,170411,,,A*63
$GPGGA,201131.002,1454.1784,S,07459.0424,W,1,08,1.2,526.4,M,19.1,M,,0000*55
$GPGSA,M,3,22,30,16,18,06,03,21,31,,,,,1.8,1.2,1.3*3F
$GPRMC,201131.002,A,1454.1784,S,07459.0424,W,0.16,114.71,170411,,,A*67
$GPGGA,201132.001,1454.1784,S,07459.0425,W,1,07,1.4,526.5,M,19.1,M,,0000*5C
$GPGSA,M,3,22,30,16,18,06,03,31,,,,,,2.1,1.4,1.6*35
$GPRMC,201132.001,A,1454.1784,S,07459.0425,W,0.21,241.64,170411,,,A*65
$GPGGA,201133.000,1454.1784,S,07459.0424,W,1,08,1.2,526.1,M,19.1,M,,0000*50
$GPGSA,M,3,22,30,16,18,06,03,21,31,,,,,1.8,1.2,1.3*3F
$GPGSV,3,1,11,22,76,095,39,30,73,317,38,16,67,242,39,18,43,133,37*76
$GPGSV,3,2,11,06,41,193,35,03,32,207,36,14,18,034,26,21,12,134,26*79
$GPGSV,3,3,11,31,12,349,35,19,09,226,35,29,03,072,*4C
$GPRMC,201133.000,A,1454.1784,S,07459.0424,W,0.48,312.41,170411,,,A*6B
$GPGGA,201134.000,1454.1786,S,07459.0424,W,1,08,1.2,525.4,M,19.1,M,,0000*53
$GPGSA,M,3,22,30,16,18,06,03,21,31,,,,,1.8,1.2,1.3*3F
$GPRMC,201134.000,A,1454.1786,S,07459.0424,W,0.22,135.83,170411,,,A*6B
$GPGGA,201135.002,1454.1785,S,07459.0423,W,1,08,1.2,526.2,M,19.1,M,,0000*51
$GPGSA,M,3,22,30,16,18,06,03,21,31,,,,,1.8,1.2,1.3*3F
$GPRMC,201135.002,A,1454.1785,S,07459.0423,W,0.44,250.07,170411,,,A*60
$GPGGA,201135.998,1454.1784,S,07459.0425,W,1,07,1.4,526.5,M,19.1,M,,0000*52
$GPGSA,M,3,22,30,16,18,06,03,31,,,,,,2.1,1.4,1.6*35
$GPRMC,201135.998,A,1454.1784,S,07459.0425,W,0.54,233.50,170411,,,A*6B
$GPGGA,201137.000,1454.1784,S,07459.0424,W,1,08,1.2,526.7,M,19.1,M,,0000*52
$GPGSA,M,3,22,30,16,18,06,03,21,31,,,,,1.8,1.2,1.3*3F
$GPRMC,201137.000,A,1454.1784,S,07459.0424,W,0.44,118.91,170411,,,A*66
$GPGGA,201138.000,1454.1783,S,07459.0421,W,1,08,1.2,526.7,M,19.1,M,,0000*5F
$GPGSA,M,3,22,30,16,18,06,03,21,31,,,,,1.8,1.2,1.3*3F
$GPGSV,3,1,11,22,76,095,39,30,73,317,37,16,67,242,39,18,43,133,38*76
$GPGSV,3,2,11,06,41,193,35,03,32,207,36,14,18,034,,21,12,134,27*7C
$GPGSV,3,3,11,31,12,349,35,19,09,226,35,29,03,072,*4C
$GPRMC,201138.000,A,1454.1783,S,07459.0421,W,0.42,318.59,170411,,,A*6B
$GPGGA,201139.000,1454.1781,S,07459.0423,W,1,08,1.2,526.8,M,19.1,M,,0000*51
$GPGSA,M,3,22,30,16,18,06,03,21,31,,,,,1.8,1.2,1.3*3F
$GPRMC,201139.000,A,1454.1781,S,07459.0423,W,0.45,69.14,170411,,,A*51
$GPGGA,201140.000,1454.1782,S,07459.0419,W,1,08,1.2,527.0,M,19.1,M,,0000*5C
$GPGSA,M,3,22,30,16,18,06,03,21,31,,,,,1.8,1.2,1.3*3F
$GPRMC,201140.000,A,1454.1782,S,07459.0419,W,0.30,125.72,170411,,,A*6E
$GPGGA,201141.000,1454.1784,S,07459.0419,W,1,08,1.2,526.5,M,19.1,M,,0000*5F
$GPGSA,M,3,22,30,16,18,06,03,21,31,,,,,1.8,1.2,1.3*3F
$GPRMC,201141.000,A,1454.1784,S,07459.0419,W,0.44,74.38,170411,,,A*51
$GPGGA,201141.999,1454.1784,S,07459.0416,W,1,08,1.2,526.6,M,19.1,M,,0000*5A
$GPGSA,M,3,22,30,16,18,06,03,21,31,,,,,1.8,1.2,1.3*3F
$GPRMC,201141.999,A,1454.1784,S,07459.0416,W,0.16,157.04,170411,,,A*6F
$GPGGA,201143.001,1454.1784,S,07459.0416,W,1,08,1.2,526.4,M,19.1,M,,0000*52
$GPGSA,M,3,22,30,16,18,06,03,21,31,,,,,1.8,1.2,1.3*3F
$GPGSV,3,1,11,22,76,095,38,30,73,317,35,16,67,242,38,18,43,133,36*7A
$GPGSV,3,2,11,06,41,193,33,03,32,207,34,14,18,034,,21,12,134,28*77
$GPGSV,3,3,11,31,12,349,34,19,09,226,27,29,03,072,*4E
$GPRMC,201143.001,A,1454.1784,S,07459.0416,W,0.73,104.79,170411,,,A*6A
$GPGGA,201143.998,1454.1785,S,07459.0412,W,1,08,1.2,526.3,M,19.1,M,,0000*59
$GPGSA,M,3,22,30,16,18,06,03,21,31,,,,,1.8,1.2,1.3*3F
$GPRMC,201143.998,A,1454.1785,S,07459.0412,W,0.41,108.98,170411,,,A*64
$GPGGA,201145.003,1454.1785,S,07459.0410,W,1,08,1.2,526.7,M,19.1,M,,0000*52
$GPGSA,M,3,22,30,16,18,06,03,21,31,,,,,1.8,1.2,1.3*3F
$GPRMC,201145.003,A,1454.1785,S,07459.0410,W,0.77,228.11,170411,,,A*6E
$GPGGA,201146.000,1454.1787,S,07459.0410,W,1,07,1.4,526.4,M,19.1,M,,0000*5A
$GPGSA,M,3,22,30,16,18,06,03,31,,,,,,2.1,1.4,1.6*35
$GPRMC,201146.000,A,1454.1787,S,07459.0410,W,0.16,260.25,170411,,,A*60
$GPGGA,201146.998,1454.1789,S,07459.0410,W,1,07,1.4,526.4,M,19.1,M,,0000*5C
$GPGSA,M,3,22,30,16,18,06,03,31,,,,,,2.1,1.4,1.6*35
$GPRMC,201146.998,A,1454.1789,S,07459.0410,W,0.49,129.21,170411,,,A*66
$GPGGA,201148.003,1454.1791,S,07459.0409,W,1,07,1.4,526.5,M,19.1,M,,0000*59
$GPGSA,M,3,22,30,16,18,06,03,31,,,,,,2.1,1.4,1.6*35
$GPGSV,3,1,11,22,76,095,39,30,73,317,37,16,67,242,38,18,43,133,38*77
$GPGSV,3,2,11,06,41,193,34,03,32,207,35,14,18,034,,21,12,134,*7B
$GPGSV,3,3,11,31,12,349,35,19,09,226,36,29,03,072,*4F
$GPRMC,201148.003,A,1454.1791,S,07459.0409,W,1.41,171.45,170411,,,A*64
$GPGGA,201149.000,1454.1793,S,07459.0409,W,1,07,1.4,526.4,M,19.1,M,,0000*58
$GPGSA,M,3,22,30,16,18,06,03,31,,,,,,2.1,1.4,1.6*35
$GPRMC,201149.000,A,1454.1793,S,07459.0409,W,0.17,180.84,170411,,,A*65
$GPGGA,201149.999,1454.1792,S,07459.0408,W,1,08,1.2,526.9,M,19.1,M,,0000*55
$GPGSA,M,3,22,30,16,18,06,03,21,31,,,,,1.8,1.2,1.3*3F
$GPRMC,201149.999,A,1454.1792,S,07459.0408,W,0.19,238.34,170411,,,A*69
$GPGGA,201150.999,1454.1792,S,07459.0407,W,1,07,1.4,526.9,M,19.1,M,,0000*5B
$GPGSA,M,3,22,30,16,18,06,03,31,,,,,,2.1,1.4,1.6*35
$GPRMC,201150.999,A,1454.1792,S,07459.0407,W,0.39,42.41,170411,,,A*51
$GPGGA,201152.002,1454.1791,S,07459.0404,W,1,08,1.2,526.2,M,19.1,M,,0000*50
$GPGSA,M,3,22,30,16,18,06,03,21,31,,,,,1.8,1.2,1.3*3F
$GPRMC,201152.002,A,1454.1791,S,07459.0404,W,0.56,88.19,170411,,,A*5A
$GPGGA,201152.995,1454.1792,S,07459.0404,W,1,07,1.4,525.6,M,19.1,M,,0000*5A
$GPGSA,M,3,22,30,16,18,06,03,31,,,,,,2.1,1.4,1.6*35
$GPGSV,3,1,11,22,76,095,39,30,73,317,37,16,67,242,39,18,43,133,37*79
$GPGSV,3,2,11,06,41,193,33,03,32,207,36,14,18,034,,21,12,134,*7F
$GPGSV,3,3,11,31,12,349,35,19,09,226,35,29,03,072,*4C
$GPRMC,201152.995,A,1454.1792,S,07459.0404,W,0.23,231.07,170411,,,A*63
$GPGGA,201154.000,1454.1793,S,07459.0403,W,1,07,1.4,526.0,M,19.1,M,,0000*5A
$GPGSA,M,3,22,30,16,18,06,03,31,,,,,,2.1,1.4,1.6*35
$GPRMC,201154.000,A,1454.1793,S,07459.0403,W,0.22,93.30,170411,,,A*59
$GPGGA,201154.998,1454.1793,S,07459.0406,W,1,07,1.4,526.9,M,19.1,M,,0000*5E
$GPGSA,M,3,22,30,16,18,06,03,31,,,,,,2.1,1.4,1.6*35
$GPRMC,201154.998,A,1454.1793,S,07459.0406,W,0.38,133.54,170411,,,A*66
$GPGGA,201156.003,1454.1796,S,07459.0406,W,1,08,1.2,526.7,M,19.1,M,,0000*55
$GPGSA,M,3,22,30,16,18,06,03,21,31,,,,,1.8,1.2,1.3*3F
$GPRMC,201156.003,A,1454.1796,S,07459.0406,W,0.98,263.80,170411,,,A*6F
$GPGGA,201157.002,1454.1796,S,07459.0408,W,1,08,1.2,527.0,M,19.1,M,,0000*5D
$GPGSA,M,3,22,30,16,18,06,03,21,31,,,,,1.8,1.2,1.3*3F
$GPRMC,201157.002,A,1454.1796,S,07459.0408,W,0.69,86.50,170411,,,A*5B
$GPGGA,201157.997,1454.1796,S,07459.0411,W,1,08,1.2,527.4,M,19.1,M,,0000*54
$GPGSA,M,3,22,30,16,18,06,03,21,31,,,,,1.8,1.2,1.3*3F
$GPGSV,3,1,11,22,76,095,38,30,73,317,37,16,67,242,39,18,43,133,35*7A
$GPGSV,3,2,11,06,41,193,33,03,32,207,36,14,18,034,,21,12,134,32*7E
$GPGSV,3,3,11,31,12,349,35,19,09,226,36,29,03,072,*4F
$GPRMC,201157.997,A,1454.1796,S,07459.0411,W,0.37,233.22,170411,,,A*64
$GPGGA,201159.001,1454.1795,S,07459.0412,W,1,08,1.2,527.8,M,19.1,M,,0000*50
$GPGSA,M,3,22,30,16,18,06,03,21,31,,,,,1.8,1.2,1.3*3F
$GPRMC,201159.001,A,1454.1795,S,07459.0412,W,0.71,212.12,170411,,,A*6E
$GPGGA,201159.999,1454.1799,S,07459.0413,W,1,07,1.5,528.0,M,19.1,M,,0000*5A
$GPGSA,M,3,22,30,16,18,06,21,31,,,,,,2.1,1.5,1.4*36
$GPRMC,201159.999,A,1454.1799,S,07459.0413,W,1.41,197.25,170411,,,A*63
$GPGGA,201200.999,1454.1802,S,07459.0415,W,1,05,2.0,528.2,M,19.1,M,,0000*58
$GPGSA,M,3,22,30,16,18,06,,,,,,,,2.2,2.0,1.0*36
$GPRMC,201200.999,A,1454.1802,S,07459.0415,W,1.61,237.62,170411,,,A*6F
$GPGGA,201201.998,1454.1805,S,07459.0417,W,1,08,1.2,527.9,M,19.1,M,,0000*55
$GPGSA,M,3,22,30,16,18,06,03,21,31,,,,,1.8,1.2,1.3*3F
$GPRMC,201201.998,A,1454.1805,S,07459.0417,W,0.60,261.96,170411,,,A*62
$GPGGA,201203.000,1454.1804,S,07459.0419,W,1,07,1.4,528.1,M,19.1,M,,0000*5E
$GPGSA,M,3,22,30,16,18,06,03,31,,,,,,2.1,1.4,1.6*35
$GPGSV,3,1,11,22,76,095,36,30,73,317,38,16,67,242,36,18,43,133,36*77
$GPGSV,3,2,11,06,41,193,35,03,32,207,35,14,18,034,32,21,12,134,*7B
$GPGSV,3,3,11,31,12,349,37,19,09,226,35,29,03,072,*4E
$GPRMC,201203.000,A,1454.1804,S,07459.0419,W,0.48,335.49,170411,,,A*6F
$GPGGA,201204.001,1454.1806,S,07459.0420,W,1,08,1.2,527.7,M,19.1,M,,0000*50
$GPGSA,M,3,22,30,16,18,06,03,21,31,,,,,1.8,1.2,1.3*3F
$GPRMC,201204.001,A,1454.1806,S,07459.0420,W,0.29,296.47,170411,,,A*60
$GPGGA,201204.999,1454.1805,S,07459.0420,W,1,08,1.2,527.5,M,19.1,M,,0000*59
$GPGSA,M,3,22,30,16,18,06,03,21,31,,,,,1.8,1.2,1.3*3F
$GPRMC,201204.999,A,1454.1805,S,07459.0420,W,0.29,36.46,170411,,,A*52
$GPGGA,201205.998,1454.1805,S,07459.0423,W,1,08,1.2,527.2,M,19.1,M,,0000*5D
$GPGSA,M,3,22,30,16,18,06,03,21,31,,,,,1.8,1.2,1.3*3F
$GPRMC,201205.998,A,1454.1805,S,07459.0423,W,1.15,277.84,170411,,,A*66
$GPGGA,201207.004,1454.1803,S,07459.0426,W,1,08,1.2,526.8,M,19.1,M,,0000*5B
$GPGSA,M,3,22,30,16,18,06,03,21,31,,,,,1.8,1.2,1.3*3F
$GPRMC,201207.004,A,1454.1803,S,07459.0426,W,2.75,314.21,170411,,,A*65
$GPGGA,201207.996,1454.1795,S,07459.0435,W,1,08,1.2,526.6,M,19.1,M,,0000*55
$GPGSA,M,3,22,30,16,18,06,03,21,31,,,,,1.8,1.2,1.3*3F
$GPGSV,3,1,11,22,76,095,38,30,73,317,36,16,67,242,36,18,43,133,38*79
$GPGSV,3,2,11,06,41,193,30,03,32,207,36,14,18,034,35,21,12,134,34*7D
$GPGSV,3,3,11,31,12,349,36,19,09,226,25,29,03,072,*4E
$GPRMC,201207.996,A,1454.1795,S,07459.0435,W,5.13,338.70,170411,,,A*68
$GPGGA,201209.005,1454.1782,S,07459.0439,W,1,06,2.7,526.7,M,19.1,M,,0000*5B
$GPGSA,M,3,22,30,16,18,03,21,,,,,,,4.3,2.7,3.4*36
$GPRMC,201209.005,A,1454.1782,S,07459.0439,W,5.81,342.74,170411,,,A*6D
$GPGGA,201209.999,1454.1762,S,07459.0441,W,1,06,2.7,527.3,M,19.1,M,,0000*53
$GPGSA,M,3,22,30,16,18,03,21,,,,,,,4.3,2.7,3.4*36
$GPRMC,201209.999,A,1454.1762,S,07459.0441,W,7.17,358.40,170411,,,A*61
$GPGGA,201210.998,1454.1743,S,07459.0447,W,1,08,1.2,526.3,M,19.1,M,,0000*56
$GPGSA,M,3,22,30,16,18,06,03,21,31,,,,,1.8,1.2,1.3*3F
$GPRMC,201210.998,A,1454.1743,S,07459.0447,W,8.34,356.42,170411,,,A*6F
$GPGGA,201211.998,1454.1718,S,07459.0446,W,1,07,2.3,526.2,M,19.1,M,,0000*54
$GPGSA,M,3,22,30,16,18,06,03,21,,,,,,3.9,2.3,3.2*3F
$GPRMC,201211.998,A,1454.1718,S,07459.0446,W,9.64,1.36,170411,,,A*67
$GPGGA,201213.002,1454.1690,S,07459.0446,W,1,08,1.2,525.4,M,19.1,M,,0000*55
$GPGSA,M,3,22,30,16,18,06,03,21,31,,,,,1.8,1.2,1.3*3F
$GPGSV,3,1,11,22,76,095,39,30,73,317,38,16,67,242,35,18,43,133,38*75
$GPGSV,3,2,11,06,41,193,32,03,32,207,32,14,18,034,36,21,12,134,29*74
$GPGSV,3,3,11,31,12,349,25,19,09,226,,29,03,072,*4B
$GPRMC,201213.002,A,1454.1690,S,07459.0446,W,11.52,2.14,170411,,,A*51
$GPGGA,201213.999,1454.1652,S,07459.0440,W,1,07,1.4,525.4,M,19.1,M,,0000*5F
$GPGSA,M,3,22,30,16,18,06,03,31,,,,,,2.1,1.4,1.6*35
$GPRMC,201213.999,A,1454.1652,S,07459.0440,W,13.60,7.15,170411,,,A*55
$GPGGA,201215.001,1454.1610,S,07459.0432,W,1,07,2.3,525.2,M,19.1,M,,0000*50
$GPGSA,M,3,22,30,16,18,06,03,21,,,,,,3.9,2.3,3.2*3F
$GPRMC,201215.001,A,1454.1610,S,07459.0432,W,17.06,11.54,170411,,,A*6E
$GPGGA,201215.998,1454.1562,S,07459.0422,W,1,07,2.3,525.0,M,19.1,M,,0000*5C
$GPGSA,M,3,22,30,16,18,06,03,21,,,,,,3.9,2.3,3.2*3F
$GPRMC,201215.998,A,1454.1562,S,07459.0422,W,18.56,9.63,170411,,,A*57
$GPGGA,201217.001,1454.1509,S,07459.0411,W,1,08,1.2,525.9,M,19.1,M,,0000*5E
$GPGSA,M,3,22,30,16,18,06,03,21,31,,,,,1.8,1.2,1.3*3F
$GPRMC,201217.001,A,1454.1509,S,07459.0411,W,19.41,9.83,170411,,,A*58
$GPGGA,201217.999,1454.1453,S,07459.0397,W,1,08,1.2,526.2,M,19.1,M,,0000*59
$GPGSA,M,3,22,30,16,18,06,03,21,31,,,,,1.8,1.2,1.3*3F
$GPGSV,3,1,11,22,76,095,38,30,73,317,38,16,67,242,37,18,43,133,36*78
$GPGSV,3,2,11,06,41,193,31,03,32,207,35,14,18,034,36,21,12,134,28*71
$GPGSV,3,3,11,31,12,349,27,19,09,226,29,29,03,072,*42
$GPRMC,201217.999,A,1454.1453,S,07459.0397,W,19.52,9.90,170411,,,A*57
$GPGGA,201219.001,1454.1400,S,07459.0384,W,1,06,3.5,525.9,M,19.1,M,,0000*58
$GPGSA,M,3,22,30,16,18,06,03,,,,,,,7.8,3.5,7.0*38
$GPRMC,201219.001,A,1454.1400,S,07459.0384,W,21.29,10.79,170411,,,A*6D
$GPGGA,201219.999,1454.1337,S,07459.0374,W,1,08,1.2,526.6,M,19.1,M,,0000*5B
$GPGSA,M,3,22,30,16,18,06,03,21,31,,,,,1.8,1.2,1.3*3F
$GPRMC,201219.999,A,1454.1337,S,07459.0374,W,22.76,10.33,170411,,,A*6E
$GPGGA,201221.000,1454.1273,S,07459.0360,W,1,08,1.2,526.4,M,19.1,M,,0000*5F
$GPGSA,M,3,22,30,16,18,06,03,21,31,,,,,1.8,1.2,1.3*3F
$GPRMC,201221.000,A,1454.1273,S,07459.0360,W,23.57,11.89,170411,,,A*6A
$GPGGA,201221.998,1454.1207,S,07459.0338,W,1,07,1.4,526.2,M,19.1,M,,0000*56
$GPGSA,M,3,22,30,16,18,06,03,31,,,,,,2.1,1.4,1.6*35
$GPRMC,201221.998,A,1454.1207,S,07459.0338,W,24.92,11.66,170411,,,A*63
$GPGGA,201222.999,1454.1140,S,07459.0327,W,1,06,1.5,525.9,M,19.1,M,,0000*52
$GPGSA,M,3,22,30,16,18,03,31,,,,,,,2.2,1.5,1.6*31
$GPGSV,3,1,11,22,76,095,39,30,73,317,38,16,67,242,36,18,43,133,36*78
$GPGSV,3,2,11,06,41,193,,03,32,207,34,14,18,034,35,21,12,134,*7B
$GPGSV,3,3,11,31,12,349,27,19,09,226,28,29,03,072,*43
$GPRMC,201222.999,A,1454.1140,S,07459.0327,W,26.04,10.09,170411,,,A*6A
$GPGGA,201224.001,1454.1064,S,07459.0316,W,1,07,1.4,526.4,M,19.1,M,,0000*57
$GPGSA,M,3,22,30,16,18,06,03,31,,,,,,2.1,1.4,1.6*35
$GPRMC,201224.001,A,1454.1064,S,07459.0316,W,27.45,8.96,170411,,,A*5A
$GPGGA,201224.999,1454.0989,S,07459.0306,W,1,06,2.6,526.0,M,19.1,M,,0000*51
$GPGSA,M,3,22,30,16,18,03,21,,,,,,,4.3,2.6,3.4*37
$GPRMC,201224.999,A,1454.0989,S,07459.0306,W,27.91,9.61,170411,,,A*58
$GPGGA,201226.001,1454.0917,S,07459.0296,W,1,08,1.2,525.6,M,19.1,M,,0000*58
$GPGSA,M,3,22,30,16,18,06,03,21,31,,,,,1.8,1.2,1.3*3F
$GPRMC,201226.001,A,1454.0917,S,07459.0296,W,28.87,11.39,170411,,,A*61
$GPGGA,201227.001,1454.0838,S,07459.0278,W,1,06,3.5,525.9,M,19.1,M,,0000*51
$GPGSA,M,3,22,30,16,18,06,03,,,,,,,7.8,3.5,7.0*38
$GPRMC,201227.001,A,1454.0838,S,07459.0278,W,28.47,10.90,170411,,,A*62
$GPGGA,201228.001,1454.0758,S,07459.0266,W,1,08,1.2,525.2,M,19.1,M,,0000*58
$GPGSA,M,3,22,30,16,18,06,03,21,31,,,,,1.8,1.2,1.3*3F
$GPGSV,3,1,11,22,76,095,38,30,73,317,38,16,67,242,35,18,43,133,37*7B
$GPGSV,3,2,11,06,41,193,28,03,32,207,33,14,18,034,35,21,12,134,27*73
$GPGSV,3,3,11,31,12,349,29,19,09,226,28,29,03,072,*4D
$GPRMC,201228.001,A,1454.0758,S,07459.0266,W,28.61,10.19,170411,,,A*6E
$GPGGA,201228.995,1454.0682,S,07459.0254,W,1,07,1.4,524.1,M,19.1,M,,0000*50
$GPGSA,M,3,22,30,16,18,06,03,31,,,,,,2.1,1.4,1.6*35
$GPRMC,201228.995,A,1454.0682,S,07459.0254,W,27.95,10.43,170411,,,A*66
$GPGGA,201230.001,1454.0603,S,07459.0242,W,1,07,1.3,523.7,M,19.1,M,,0000*55
$GPGSA,M,3,22,30,16,18,03,21,31,,,,,,1.8,1.3,1.3*38
$GPRMC,201230.001,A,1454.0603,S,07459.0242,W,27.60,9.35,170411,,,A*56
$GPGGA,201231.002,1454.0526,S,07459.0233,W,1,07,2.3,524.4,M,19.1,M,,0000*52
$GPGSA,M,3,22,30,16,18,06,03,21,,,,,,3.9,2.3,3.1*3C
$GPRMC,201231.002,A,1454.0526,S,07459.0233,W,27.08,9.62,170411,,,A*5A
$GPGGA,201232.001,1454.0456,S,07459.0222,W,1,07,1.4,523.3,M,19.1,M,,0000*50
$GPGSA,M,3,22,30,16,18,06,03,31,,,,,,2.1,1.4,1.6*35
$GPRMC,201232.001,A,1454.0456,S,07459.0222,W,26.88,11.43,170411,,,A*6F
$GPGGA,201232.996,1454.0384,S,07459.0210,W,1,07,1.3,523.8,M,19.1,M,,0000*52
$GPGSA,M,3,22,30,16,18,03,21,31,,,,,,1.8,1.3,1.3*38
$GPGSV,3,1,11,22,76,095,38,30,73,317,38,16,67,242,36,18,43,133,36*79
$GPGSV,3,2,11,06,41,193,,03,32,207,33,14,18,034,36,21,12,134,33*7F
$GPGSV,3,3,11,31,12,349,18,19,09,226,31,29,03,072,*47
$GPRMC,201232.996,A,1454.0384,S,07459.0210,W,26.72,8.39,170411,,,A*51
$GPGGA,201234.003,1454.0312,S,07459.0200,W,1,06,2.6,523.9,M,19.1,M,,0000*59
$GPGSA,M,3,22,30,16,18,03,21,,,,,,,4.3,2.6,3.4*37
$GPRMC,201234.003,A,1454.0312,S,07459.0200,W,25.54,8.53,170411,,,A*57
$GPGGA,201234.999,1454.0241,S,07459.0189,W,1,08,1.2,523.5,M,19.1,M,,0000*53
$GPGSA,M,3,22,30,16,18,06,03,21,31,,,,,1.8,1.2,1.3*3F
$GPRMC,201234.999,A,1454.0241,S,07459.0189,W,26.57,7.22,170411,,,A*51
$GPGGA,201235.998,1454.0171,S,07459.0183,W,1,07,2.3,523.4,M,19.1,M,,0000*55
$GPGSA,M,3,22,30,16,18,06,03,21,,,,,,3.9,2.3,3.1*3C
$GPRMC,201235.998,A,1454.0171,S,07459.0183,W,25.96,5.37,170411,,,A*53
$GPGGA,201236.999,1454.0095,S,07459.0176,W,1,07,1.3,523.7,M,19.1,M,,0000*56
$GPGSA,M,3,22,30,16,18,03,21,31,,,,,,1.8,1.3,1.3*38
$GPRMC,201236.999,A,1454.0095,S,07459.0176,W,25.97,4.11,170411,,,A*54
$GPGGA,201237.998,1454.0017,S,07459.0169,W,1,06,1.5,523.2,M,19.1,M,,0000*50
$GPGSA,M,3,22,30,16,18,03,31,,,,,,,2.2,1.5,1.6*31
$GPGSV,3,1,11,22,76,095,34,30,73,317,36,16,67,242,31,18,43,133,29*72
$GPGSV,3,2,11,06,41,193,,03,32,207,33,14,18,034,29,21,12,134,*71
$GPGSV,3,3,11,31,12,349,25,19,09,226,30,29,03,072,*48
$GPRMC,201237.998,A,1454.0017,S,07459.0169,W,26.70,2.63,170411,,,A*59
$GPGGA,201239.023,1453.9941,S,07459.0166,W,0,00,,523.3,M,19.1,M,,0000*70
$GPGSA,M,1,,,,,,,,,,,,,,,*12
$GPRMC,201239.023,V,1453.9941,S,07459.0166,W,,,170411,,,N*79
$GPGGA,201239.728,1453.9889,S,07459.0163,W,0,00,,523.3,M,19.1,M,,0000*7C
$GPGSA,M,1,,,,,,,,,,,,,,,*12
$GPRMC,201239.728,V,1453.9889,S,07459.0163,W,,,170411,,,N*75
$GPGGA,201240.000,1453.9868,S,07459.0162,W,0,00,,523.3,M,19.1,M,,0000*71
$GPGSA,M,1,,,,,,,,,,,,,,,*12
$GPRMC,201240.000,V,1453.9868,S,07459.0162,W,,,170411,,,N*78
$GPGGA,201241.000,1453.9794,S,07459.0159,W,0,00,,523.4,M,19.1,M,,0000*73
$GPGSA,M,1,,,,,,,,,,,,,,,*12
$GPRMC,201241.000,V,1453.9794,S,07459.0159,W,,,170411,,,N*7D
$GPGGA,201242.000,1453.9718,S,07459.0198,W,1,07,1.4,523.0,M,19.1,M,,0000*50
$GPGSA,M,3,16,06,22,30,18,03,31,,,,,,2.1,1.4,1.6*35
$GPGSV,3,1,11,22,76,100,39,30,72,320,39,16,67,244,41,18,42,134,36*71
$GPGSV,3,2,11,06,41,193,34,03,32,206,22,21,12,133,,31,12,350,35*71
$GPGSV,3,3,11,29,03,071,,14,18,035,,19,09,225,31*4B
$GPRMC,201242.000,A,1453.9718,S,07459.0198,W,25.61,348.00,170411,,,A*50
$GPGGA,201243.000,1453.9636,S,07459.0260,W,1,07,1.4,522.1,M,19.1,M,,0000*58
$GPGSA,M,3,16,06,22,30,18,03,31,,,,,,2.1,1.4,1.6*35
$GPRMC,201243.000,A,1453.9636,S,07459.0260,W,27.20,335.91,170411,,,A*5D
$GPGGA,201244.000,1453.9568,S,07459.0299,W,1,08,1.2,522.1,M,19.1,M,,0000*58
$GPGSA,M,3,16,06,22,30,18,03,31,21,,,,,1.8,1.2,1.3*3F
$GPRMC,201244.000,A,1453.9568,S,07459.0299,W,27.09,329.61,170411,,,A*5D
$GPGGA,201245.000,1453.9497,S,07459.0344,W,1,08,1.2,522.3,M,19.1,M,,0000*5B
$GPGSA,M,3,16,06,22,30,18,03,31,21,,,,,1.8,1.2,1.3*3F
$GPRMC,201245.000,A,1453.9497,S,07459.0344,W,27.52,325.64,170411,,,A*5B
$GPGGA,201246.000,1453.9434,S,07459.0397,W,1,08,1.2,522.2,M,19.1,M,,0000*5E
$GPGSA,M,3,16,06,22,30,18,03,31,21,,,,,1.8,1.2,1.3*3F
$GPRMC,201246.000,A,1453.9434,S,07459.0397,W,27.96,321.39,170411,,,A*5B
$GPGGA,201247.000,1453.9372,S,07459.0456,W,1,08,1.2,522.1,M,19.1,M,,0000*53
$GPGSA,M,3,16,06,22,30,18,03,31,21,,,,,1.8,1.2,1.3*3F
$GPGSV,3,1,11,22,76,100,41,30,72,320,38,16,67,244,41,18,42,134,37*7E
$GPGSV,3,2,11,06,41,193,38,03,32,206,34,21,12,133,39,31,12,350,27*73
$GPGSV,3,3,11,29,03,071,,14,18,035,41,19,09,225,26*48
$GPRMC,201247.000,A,1453.9372,S,07459.0456,W,28.02,318.34,170411,,,A*50
$GPGGA,201248.000,1453.9314,S,07459.0512,W,1,08,1.2,522.0,M,19.1,M,,0000*5C
$GPGSA,M,3,16,06,22,30,18,03,31,21,,,,,1.8,1.2,1.3*3F
$GPGSV,3,1,11,22,76,100,41,30,72,320,38,16,67,244,41,18,42,134,37*7E
$GPGSV,3,2,11,06,41,193,37,03,32,206,35,21,12,133,40,31,12,350,28*7C
$GPGSV,3,3,11,29,03,071,,14,18,035,42,19,09,225,27*4A
$GPRMC,201248.000,A,1453.9314,S,07459.0512,W,28.03,317.72,170411,,,A*52
$GPGGA,201249.000,1453.9257,S,07459.0568,W,1,08,1.2,521.8,M,19.1,M,,0000*5D
$GPGSA,M,3,16,06,22,30,18,03,31,21,,,,,1.8,1.2,1.3*3F
$GPRMC,201249.000,A,1453.9257,S,07459.0568,W,27.96,317.90,170411,,,A*57
$GPGGA,201250.000,1453.9200,S,07459.0622,W,1,08,1.2,521.6,M,19.1,M,,0000*54
$GPGSA,M,3,16,06,22,30,18,03,31,21,,,,,1.8,1.2,1.3*3F
$GPRMC,201250.000,A,1453.9200,S,07459.0622,W,27.92,317.68,170411,,,A*53
$GPGGA,201251.000,1453.9142,S,07459.0678,W,1,08,1.2,521.4,M,19.1,M,,0000*5D
$GPGSA,M,3,16,06,22,30,18,03,31,21,,,,,1.8,1.2,1.3*3F
$GPRMC,201251.000,A,1453.9142,S,07459.0678,W,27.92,317.55,170411,,,A*56
$GPGGA,201252.015,1453.9084,S,07459.0733,W,1,08,1.2,521.2,M,19.1,M,,0000*59
$GPGSA,M,3,22,30,16,18,06,03,21,31,,,,,1.8,1.2,1.3*3F
$GPRMC,201252.015,A,1453.9084,S,07459.0733,W,27.76,317.59,170411,,,A*52
$GPGGA,201252.984,1453.9028,S,07459.0784,W,1,07,2.3,521.2,M,19.1,M,,0000*5F
$GPGSA,M,3,22,30,16,18,06,03,21,,,,,,3.9,2.3,3.1*3C
$GPGSV,3,1,11,22,76,100,38,30,72,320,34,16,67,244,38,18,42,134,36*73
$GPGSV,3,2,11,06,41,193,34,03,32,206,35,14,18,035,37,21,12,133,37*7C
$GPGSV,3,3,11,31,12,350,,19,09,225,,29,03,071,*44
$GPRMC,201252.984,A,1453.9028,S,07459.0784,W,27.61,318.90,170411,,,A*55
$GPGGA,201254.003,1453.8970,S,07459.0839,W,1,08,1.2,521.0,M,19.1,M,,0000*5C
$GPGSA,M,3,22,30,16,18,06,03,21,31,,,,,1.8,1.2,1.3*3F
$GPRMC,201254.003,A,1453.8970,S,07459.0839,W,27.69,317.24,170411,,,A*51
$GPGGA,201255.000,1453.8915,S,07459.0894,W,1,08,1.2,521.3,M,19.1,M,,0000*59
$GPGSA,M,3,22,30,16,18,06,03,21,31,,,,,1.8,1.2,1.3*3F
$GPRMC,201255.000,A,1453.8915,S,07459.0894,W,27.53,317.67,170411,,,A*59
$GPGGA,201255.998,1453.8859,S,07459.0946,W,1,07,2.3,521.3,M,19.1,M,,0000*5B
$GPGSA,M,3,22,30,16,18,06,03,21,,,,,,3.9,2.3,3.1*3C
$GPRMC,201255.998,A,1453.8859,S,07459.0946,W,27.52,317.27,170411,,,A*53
$GPGGA,201257.002,1453.8801,S,07459.1001,W,1,08,1.2,521.2,M,19.1,M,,0000*59
$GPGSA,M,3,22,30,16,18,06,03,21,31,,,,,1.8,1.2,1.3*3F
$GPRMC,201257.002,A,1453.8801,S,07459.1001,W,27.33,318.18,170411,,,A*59
$GPGGA,201258.000,1453.8747,S,07459.1055,W,1,08,1.2,520.9,M,19.1,M,,0000*52
$GPGSA,M,3,22,30,16,18,06,03,21,31,,,,,1.8,1.2,1.3*3F
$GPGSV,3,1,11,22,76,100,36,30,72,320,34,16,67,244,36,18,42,134,34*71
$GPGSV,3,2,11,06,41,193,33,03,32,206,33,14,18,035,36,21,12,133,36*7D
$GPGSV,3,3,11,31,12,350,22,19,09,225,,29,03,071,*44
$GPRMC,201258.000,A,1453.8747,S,07459.1055,W,27.09,318.04,170411,,,A*5C
$GPGGA,201259.000,1453.8688,S,07459.1110,W,1,08,1.2,520.8,M,19.1,M,,0000*50
$GPGSA,M,3,22,30,16,18,06,03,21,31,,,,,1.8,1.2,1.3*3F
$GPRMC,201259.000,A,1453.8688,S,07459.1110,W,27.61,317.44,170411,,,A*5A
$GPGGA,201259.999,1453.8632,S,07459.1165,W,1,07,2.3,520.6,M,19.1,M,,0000*59
$GPGSA,M,3,22,30,16,18,06,03,21,,,,,,3.9,2.3,3.1*3C
$GPRMC,201259.999,A,1453.8632,S,07459.1165,W,27.60,316.84,170411,,,A*5C
$GPGGA,201301.001,1453.8575,S,07459.1220,W,1,08,1.2,520.4,M,19.1,M,,0000*50
$GPGSA,M,3,22,30,16,18,06,03,21,31,,,,,1.8,1.2,1.3*3F
$GPRMC,201301.001,A,1453.8575,S,07459.1220,W,27.26,317.48,170411,,,A*59
$GPGGA,201301.999,1453.8521,S,07459.1275,W,1,07,2.3,520.0,M,19.1,M,,0000*50
$GPGSA,M,3,22,30,16,18,06,03,21,,,,,,3.9,2.3,3.1*3C
$GPRMC,201301.999,A,1453.8521,S,07459.1275,W,27.23,317.39,170411,,,A*53
$GPGGA,201303.001,1453.8466,S,07459.1329,W,1,08,1.2,520.0,M,19.1,M,,0000*5D
$GPGSA,M,3,22,30,16,18,06,03,21,31,,,,,1.8,1.2,1.3*3F
$GPGSV,3,1,11,22,76,100,38,30,72,320,35,16,67,244,38,18,42,134,36*72
$GPGSV,3,2,11,06,41,193,34,03,32,206,34,14,18,035,38,21,12,133,36*73
$GPGSV,3,3,11,31,12,350,26,19,09,225,,29,03,071,*40
$GPRMC,201303.001,A,1453.8466,S,07459.1329,W,27.91,318.45,170411,,,A*5E
$GPGGA,201303.999,1453.8409,S,07459.1382,W,1,08,1.2,519.7,M,19.1,M,,0000*50
$GPGSA,M,3,22,30,16,18,06,03,21,31,,,,,1.8,1.2,1.3*3F
$GPRMC,201303.999,A,1453.8409,S,07459.1382,W,27.55,317.02,170411,,,A*5A
$GPGGA,201304.999,1453.8348,S,07459.1436,W,1,08,1.2,519.1,M,19.1,M,,0000*5B
$GPGSA,M,3,22,30,16,18,06,03,21,31,,,,,1.8,1.2,1.3*3F
$GPRMC,201304.999,A,1453.8348,S,07459.1436,W,27.82,320.52,170411,,,A*5C
$GPGGA,201305.999,1453.8288,S,07459.1490,W,1,07,2.3,518.9,M,19.1,M,,0000*5F
$GPGSA,M,3,22,30,16,18,06,03,21,,,,,,3.9,2.3,3.1*3C
$GPRMC,201305.999,A,1453.8288,S,07459.1490,W,28.07,319.98,170411,,,A*52
$GPGGA,201306.999,1453.8229,S,07459.1542,W,1,08,1.2,519.2,M,19.1,M,,0000*5E
$GPGSA,M,3,22,30,16,18,06,03,21,31,,,,,1.8,1.2,1.3*3F
$GPRMC,201306.999,A,1453.8229,S,07459.1542,W,27.75,318.31,170411,,,A*5C
$GPGGA,201307.996,1453.8170,S,07459.1595,W,1,08,1.2,519.4,M,19.1,M,,0000*53
$GPGSA,M,3,22,30,16,18,06,03,21,31,,,,,1.8,1.2,1.3*3F
$GPGSV,3,1,11,22,76,100,38,30,72,320,36,16,67,244,38,18,42,134,36*71
$GPGSV,3,2,11,06,41,193,34,03,32,206,34,14,18,035,38,21,12,133,38*7D
$GPGSV,3,3,11,31,12,350,27,19,09,225,,29,03,071,*41
$GPRMC,201307.996,A,1453.8170,S,07459.1595,W,28.06,317.72,170411,,,A*54
$GPGGA,201309.001,1453.8111,S,07459.1651,W,1,07,2.3,519.1,M,19.1,M,,0000*5E
$GPGSA,M,3,22,30,16,18,06,03,21,,,,,,3.8,2.3,3.1*3D
$GPRMC,201309.001,A,1453.8111,S,07459.1651,W,28.28,318.08,170411,,,A*5F
$GPGGA,201310.003,1453.8053,S,07459.1704,W,1,08,1.2,519.5,M,19.1,M,,0000*5B
$GPGSA,M,3,22,30,16,18,06,03,21,31,,,,,1.8,1.2,1.3*3F
$GPRMC,201310.003,A,1453.8053,S,07459.1704,W,28.04,317.32,170411,,,A*5B
$GPGGA,201311.001,1453.7998,S,07459.1760,W,1,08,1.2,519.1,M,19.1,M,,0000*5F
$GPGSA,M,3,22,30,16,18,06,03,21,31,,,,,1.8,1.2,1.3*3F
$GPRMC,201311.001,A,1453.7998,S,07459.1760,W,28.28,316.79,170411,,,A*5B
$GPGGA,201311.996,1453.7942,S,07459.1814,W,1,08,1.2,519.0,M,19.1,M,,0000*52
$GPGSA,M,3,22,30,16,18,06,03,21,31,,,,,1.8,1.2,1.3*3F
$GPRMC,201311.996,A,1453.7942,S,07459.1814,W,28.10,317.48,170411,,,A*5F
$GPGGA,201312.999,1453.7885,S,07459.1868,W,1,07,2.3,519.2,M,19.1,M,,0000*50
$GPGSA,M,3,22,30,16,18,06,03,21,,,,,,3.8,2.3,3.1*3D
$GPGSV,3,1,11,22,76,101,36,30,72,320,34,16,67,245,35,18,42,134,35*73
$GPGSV,3,2,11,06,41,192,35,03,32,206,35,14,19,035,36,21,12,133,36*7D
$GPGSV,3,3,11,31,11,350,,19,10,225,,29,03,071,*4F
$GPRMC,201312.999,A,1453.7885,S,07459.1868,W,28.15,319.12,170411,,,A*56
$GPGGA,201313.998,1453.7828,S,07459.1923,W,1,07,2.3,519.2,M,19.1,M,,0000*59
$GPGSA,M,3,22,30,16,18,06,03,21,,,,,,3.8,2.3,3.1*3D
$GPRMC,201313.998,A,1453.7828,S,07459.1923,W,28.40,316.70,170411,,,A*54
$GPGGA,201315.001,1453.7769,S,07459.1977,W,1,07,2.3,519.6,M,19.1,M,,0000*59
$GPGSA,M,3,22,30,16,18,06,03,21,,,,,,3.8,2.3,3.1*3D
$GPRMC,201315.001,A,1453.7769,S,07459.1977,W,28.16,317.84,170411,,,A*59
$GPGGA,201315.999,1453.7707,S,07459.2031,W,1,07,2.3,519.6,M,19.1,M,,0000*51
$GPGSA,M,3,22,30,16,18,06,03,21,,,,,,3.8,2.3,3.1*3D
$GPRMC,201315.999,A,1453.7707,S,07459.2031,W,28.93,317.41,170411,,,A*55
$GPGGA,201317.000,1453.7648,S,07459.2087,W,1,07,2.3,519.1,M,19.1,M,,0000*5A
$GPGSA,M,3,22,30,16,18,06,03,21,,,,,,3.8,2.3,3.1*3D
$GPRMC,201317.000,A,1453.7648,S,07459.2087,W,28.57,317.98,170411,,,A*55
$GPGGA,201318.000,1453.7591,S,07459.2140,W,1,07,2.3,519.7,M,19.1,M,,0000*5E
$GPGSA,M,3,22,30,16,18,06,03,21,,,,,,3.8,2.3,3.1*3D
$GPGSV,3,1,11,22,76,101,38,30,72,320,35,16,67,245,38,18,42,134,35*71
$GPGSV,3,2,11,06,41,192,35,03,32,206,36,14,19,035,37,21,12,133,38*71
$GPGSV,3,3,11,31,11,350,,19,10,225,,29,03,071,*4F
$GPRMC,201318.000,A,1453.7591,S,07459.2140,W,28.41,317.44,170411,,,A*51
$GPGGA,201319.001,1453.7534,S,07459.2195,W,1,07,2.3,520.1,M,19.1,M,,0000*55
$GPGSA,M,3,22,30,16,18,06,03,21,,,,,,3.8,2.3,3.1*3D
$GPRMC,201319.001,A,1453.7534,S,07459.2195,W,27.96,317.10,170411,,,A*52
$GPGGA,201320.001,1453.7477,S,07459.2250,W,1,07,2.3,519.8,M,19.1,M,,0000*50
$GPGSA,M,3,22,30,16,18,06,03,21,,,,,,3.8,2.3,3.1*3D
$GPRMC,201320.001,A,1453.7477,S,07459.2250,W,27.99,317.84,170411,,,A*56
$GPGGA,201321.002,1453.7418,S,07459.2304,W,1,07,2.3,519.5,M,19.1,M,,0000*56
$GPGSA,M,3,22,30,16,18,06,03,21,,,,,,3.8,2.3,3.1*3D
$GPRMC,201321.002,A,1453.7418,S,07459.2304,W,28.41,319.03,170411,,,A*56
$GPGGA,201322.000,1453.7364,S,07459.2357,W,1,08,1.2,520.6,M,19.1,M,,0000*59
$GPGSA,M,3,22,30,16,18,06,03,21,31,,,,,1.8,1.2,1.3*3F
