$GPGGA,225854.000,1338.0979,S,07252.7992,W,1,05,1.8,2407.2,M,26.9,M,,0000*64
$GPGSA,M,3,06,14,24,19,11,,,,,,,,3.3,1.8,2.8*30
$GPRMC,225854.000,A,1338.0979,S,07252.7992,W,1.63,86.06,200411,,,A*5E
$GPGGA,225855.000,1338.0973,S,07252.7989,W,1,05,1.8,2405.6,M,26.9,M,,0000*63
$GPGSA,M,3,06,14,24,19,11,,,,,,,,3.3,1.8,2.8*30
$GPGSV,3,1,12,19,76,193,22,03,67,017,,06,51,032,16,32,50,258,*71
$GPGSV,3,2,12,11,29,211,18,14,29,131,23,20,28,277,,24,21,219,24*74
$GPGSV,3,3,12,23,16,337,,16,15,000,,31,11,055,,22,07,137,*78
$GPRMC,225855.000,A,1338.0973,S,07252.7989,W,1.17,48.85,200411,,,A*55
$GPGGA,225856.000,1338.0982,S,07252.7986,W,1,05,1.8,2404.9,M,26.9,M,,0000*6F
$GPGSA,M,3,06,14,24,19,11,,,,,,,,3.3,1.8,2.8*30
$GPRMC,225856.000,A,1338.0982,S,07252.7986,W,0.58,72.92,200411,,,A*52
$GPGGA,225857.000,1338.0982,S,07252.7989,W,1,04,3.0,2405.4,M,26.9,M,,0000*66
$GPGSA,M,3,14,24,19,11,,,,,,,,,3.2,3.0,1.0*36
$GPRMC,225857.000,A,1338.0982,S,07252.7989,W,0.69,136.53,200411,,,A*62
$GPGGA,225858.000,1338.0983,S,07252.7991,W,1,04,3.0,2406.3,M,26.9,M,,0000*65
$GPGSA,M,3,14,24,19,11,,,,,,,,,3.2,3.0,1.0*36
$GPRMC,225858.000,A,1338.0983,S,07252.7991,W,0.80,130.14,200411,,,A*67
$GPGGA,225859.000,1338.0984,S,07252.7988,W,1,05,3.9,2405.6,M,26.9,M,,0000*65
$GPGSA,M,3,32,14,24,19,11,,,,,,,,5.9,3.9,4.4*32
$GPRMC,225859.000,A,1338.0984,S,07252.7988,W,0.18,34.89,200411,,,A*59
$GPGGA,225900.000,1338.0992,S,07252.7993,W,1,06,1.6,2406.7,M,26.9,M,,0000*69
$GPGSA,M,3,32,06,14,24,19,11,,,,,,,3.2,1.6,2.7*31
$GPGSV,3,1,12,19,76,193,23,03,67,017,,06,51,032,16,32,50,258,19*78
$GPGSV,3,2,12,11,29,211,19,14,29,131,25,20,28,277,,24,21,219,24*73
$GPGSV,3,3,12,23,16,337,,16,15,000,,31,11,055,,22,07,137,*78
$GPRMC,225900.000,A,1338.0992,S,07252.7993,W,0.18,22.36,200411,,,A*5A
$GPGGA,225901.000,1338.1002,S,07252.7992,W,1,06,1.6,2408.3,M,26.9,M,,0000*62
$GPGSA,M,3,32,06,14,24,19,11,,,,,,,3.2,1.6,2.7*31
$GPRMC,225901.000,A,1338.1002,S,07252.7992,W,0.33,331.55,200411,,,A*66
$GPGGA,225902.000,1338.1009,S,07252.7989,W,1,05,3.9,2409.0,M,26.9,M,,0000*6C
$GPGSA,M,3,32,14,24,19,11,,,,,,,,5.9,3.9,4.4*32
$GPRMC,225902.000,A,1338.1009,S,07252.7989,W,0.50,247.92,200411,,,A*6A
$GPGGA,225903.000,1338.1004,S,07252.7996,W,1,04,5.2,2408.2,M,26.9,M,,0000*61
$GPGSA,M,3,32,14,24,19,,,,,,,,,7.3,5.2,5.2*30
$GPRMC,225903.000,A,1338.1004,S,07252.7996,W,0.59,342.04,200411,,,A*6A
$GPGGA,225904.000,1338.0999,S,07252.8001,W,1,05,3.9,2408.4,M,26.9,M,,0000*68
$GPGSA,M,3,32,14,24,19,11,,,,,,,,5.9,3.9,4.4*32
$GPRMC,225904.000,A,1338.0999,S,07252.8001,W,1.26,3.76,200411,,,A*63
$GPGGA,225905.000,1338.0993,S,07252.8003,W,1,05,3.9,2407.9,M,26.9,M,,0000*63
$GPGSA,M,3,32,14,24,19,11,,,,,,,,5.9,3.9,4.4*32
$GPGSV,3,1,12,19,76,193,23,03,67,017,,06,51,032,16,32,50,258,19*78
$GPGSV,3,2,12,11,29,211,19,14,29,131,25,20,28,277,,24,21,219,24*73
$GPGSV,3,3,12,23,16,337,,16,15,000,,31,11,055,,22,07,137,*78
$GPRMC,225905.000,A,1338.0993,S,07252.8003,W,0.81,9.10,200411,,,A*6C
$GPGGA,225906.000,1338.0987,S,07252.8008,W,1,05,3.9,2405.2,M,26.9,M,,0000*67
$GPGSA,M,3,32,14,24,19,11,,,,,,,,5.9,3.9,4.4*32
$GPRMC,225906.000,A,1338.0987,S,07252.8008,W,0.50,27.18,200411,,,A*59
$GPGGA,225907.000,1338.0990,S,07252.8011,W,1,05,3.9,2405.2,M,26.9,M,,0000*68
$GPGSA,M,3,32,14,24,19,11,,,,,,,,5.9,3.9,4.4*32
$GPRMC,225907.000,A,1338.0990,S,07252.8011,W,0.30,195.79,200411,,,A*6F
$GPGGA,225908.000,1338.0995,S,07252.8015,W,1,05,3.9,2403.5,M,26.9,M,,0000*67
$GPGSA,M,3,32,14,24,19,11,,,,,,,,5.9,3.9,4.4*32
$GPRMC,225908.000,A,1338.0995,S,07252.8015,W,1.09,208.22,200411,,,A*63
$GPGGA,225909.000,1338.0995,S,07252.8014,W,1,05,3.9,2404.8,M,26.9,M,,0000*6D
$GPGSA,M,3,32,14,24,19,11,,,,,,,,5.9,3.9,4.4*32
$GPRMC,225909.000,A,1338.0995,S,07252.8014,W,1.31,210.89,200411,,,A*60
$GPGGA,225910.000,1338.1011,S,07252.8013,W,1,06,1.6,2406.8,M,26.9,M,,0000*6A
$GPGSA,M,3,32,06,14,24,19,11,,,,,,,3.2,1.6,2.7*31
$GPGSV,3,1,12,19,76,193,23,03,67,017,,06,51,032,16,32,50,258,19*78
$GPGSV,3,2,12,11,29,211,19,14,29,131,21,20,28,277,,24,21,219,22*71
$GPGSV,3,3,12,23,16,337,,16,15,000,,31,11,055,,22,07,137,*78
$GPRMC,225910.000,A,1338.1011,S,07252.8013,W,1.21,151.82,200411,,,A*67
$GPGGA,225911.000,1338.1015,S,07252.8015,W,1,05,3.9,2407.5,M,26.9,M,,0000*6B
$GPGSA,M,3,32,14,24,19,11,,,,,,,,5.9,3.9,4.4*32
$GPRMC,225911.000,A,1338.1015,S,07252.8015,W,0.16,164.57,200411,,,A*6F
$GPGGA,225912.000,1338.1021,S,07252.8017,W,1,05,3.9,2407.7,M,26.9,M,,0000*6F
$GPGSA,M,3,32,14,24,19,11,,,,,,,,5.9,3.9,4.4*32
$GPRMC,225912.000,A,1338.1021,S,07252.8017,W,0.68,337.52,200411,,,A*61
$GPGGA,225913.000,1338.1033,S,07252.8017,W,1,05,1.7,2409.5,M,26.9,M,,0000*6D
$GPGSA,M,3,32,06,14,19,11,,,,,,,,3.7,1.7,3.3*36
$GPRMC,225913.000,A,1338.1033,S,07252.8017,W,0.82,352.25,200411,,,A*64
$GPGGA,225914.000,1338.1046,S,07252.8018,W,1,05,1.7,2411.1,M,26.9,M,,0000*6A
$GPGSA,M,3,32,06,14,19,11,,,,,,,,3.7,1.7,3.3*36
$GPRMC,225914.000,A,1338.1046,S,07252.8018,W,0.23,213.82,200411,,,A*6C
$GPGGA,225915.000,1338.1050,S,07252.8010,W,1,06,1.6,2410.1,M,26.9,M,,0000*67
$GPGSA,M,3,32,06,14,24,19,11,,,,,,,3.2,1.6,2.7*31
$GPGSV,3,1,12,19,76,193,15,03,67,017,,06,51,032,15,32,50,258,18*7F
$GPGSV,3,2,12,11,29,211,19,14,29,131,21,20,28,277,,24,21,219,11*71
$GPGSV,3,3,12,23,16,337,,16,15,000,,31,11,055,,22,07,137,*78
$GPRMC,225915.000,A,1338.1050,S,07252.8010,W,2.11,167.44,200411,,,A*6B
$GPGGA,225916.000,1338.1062,S,07252.8013,W,1,06,1.6,2409.8,M,26.9,M,,0000*67
$GPGSA,M,3,32,06,14,24,19,11,,,,,,,3.2,1.6,2.7*31
$GPRMC,225916.000,A,1338.1062,S,07252.8013,W,2.94,178.30,200411,,,A*6A
$GPGGA,225917.000,1338.1086,S,07252.8001,W,1,06,1.6,2409.5,M,26.9,M,,0000*62
$GPGSA,M,3,32,06,14,24,19,11,,,,,,,3.2,1.6,2.7*31
$GPRMC,225917.000,A,1338.1086,S,07252.8001,W,5.18,145.91,200411,,,A*64
$GPGGA,225918.000,1338.1101,S,07252.7985,W,1,06,1.6,2410.6,M,26.9,M,,0000*62
$GPGSA,M,3,32,06,14,24,19,11,,,,,,,3.2,1.6,2.7*31
$GPRMC,225918.000,A,1338.1101,S,07252.7985,W,4.81,139.80,200411,,,A*65
$GPGGA,225919.000,1338.1108,S,07252.7968,W,1,06,1.6,2410.9,M,26.9,M,,0000*66
$GPGSA,M,3,32,06,14,24,19,11,,,,,,,3.2,1.6,2.7*31
$GPRMC,225919.000,A,1338.1108,S,07252.7968,W,5.70,116.98,200411,,,A*65
$GPGGA,225920.000,1338.1113,S,07252.7956,W,1,05,1.8,2411.3,M,26.9,M,,0000*6D
$GPGSA,M,3,06,14,24,19,11,,,,,,,,3.3,1.8,2.8*30
$GPGSV,3,1,12,19,76,193,15,03,67,017,,06,51,032,15,32,50,258,14*73
$GPGSV,3,2,12,11,29,211,22,14,29,131,20,20,28,277,,24,21,219,14*7D
$GPGSV,3,3,12,23,16,337,,16,15,000,,31,11,055,,22,07,137,*78
$GPRMC,225920.000,A,1338.1113,S,07252.7956,W,5.77,118.89,200411,,,A*61
$GPGGA,225921.000,1338.1143,S,07252.7949,W,1,06,1.6,2415.4,M,26.9,M,,0000*69
$GPGSA,M,3,32,06,14,24,19,11,,,,,,,3.2,1.6,2.7*31
$GPRMC,225921.000,A,1338.1143,S,07252.7949,W,6.25,124.90,200411,,,A*68
$GPGGA,225922.000,1338.1156,S,07252.7946,W,1,06,1.6,2420.5,M,26.9,M,,0000*66
$GPGSA,M,3,32,06,14,24,19,11,,,,,,,3.2,1.6,2.7*31
$GPRMC,225922.000,A,1338.1156,S,07252.7946,W,3.81,126.65,200411,,,A*63
$GPGGA,225923.000,1338.1149,S,07252.7967,W,1,06,1.6,2422.9,M,26.9,M,,0000*64
$GPGSA,M,3,32,06,14,24,19,11,,,,,,,3.2,1.6,2.7*31
$GPRMC,225923.000,A,1338.1149,S,07252.7967,W,1.14,330.19,200411,,,A*6F
$GPGGA,225924.000,1338.1135,S,07252.7984,W,1,06,1.6,2424.7,M,26.9,M,,0000*6D
$GPGSA,M,3,32,06,14,24,19,11,,,,,,,3.2,1.6,2.7*31
$GPRMC,225924.000,A,1338.1135,S,07252.7984,W,1.28,332.04,200411,,,A*6F
$GPGGA,225925.000,1338.1137,S,07252.7991,W,1,06,1.6,2428.6,M,26.9,M,,0000*67
$GPGSA,M,3,32,06,14,24,19,11,,,,,,,3.2,1.6,2.7*31
$GPGSV,3,1,12,19,76,193,22,03,67,017,,06,51,032,15,32,50,258,23*73
$GPGSV,3,2,12,11,29,211,27,14,29,131,21,20,28,277,,24,21,219,22*7C
$GPGSV,3,3,12,23,16,337,,16,15,000,,31,11,055,,22,07,137,*78
$GPRMC,225925.000,A,1338.1137,S,07252.7991,W,0.65,4.10,200411,,,A*63
$GPGGA,225926.000,1338.1148,S,07252.7986,W,1,06,1.6,2430.3,M,26.9,M,,0000*66
$GPGSA,M,3,32,06,14,24,19,11,,,,,,,3.2,1.6,2.7*31
$GPRMC,225926.000,A,1338.1148,S,07252.7986,W,0.34,140.24,200411,,,A*6C
$GPGGA,225927.000,1338.1150,S,07252.7985,W,1,08,1.0,2429.2,M,26.9,M,,0000*6C
$GPGSA,M,3,32,06,20,14,24,16,19,11,,,,,1.9,1.0,1.6*39
$GPRMC,225927.000,A,1338.1150,S,07252.7985,W,0.29,330.39,200411,,,A*62
$GPGGA,225928.000,1338.1137,S,07252.7985,W,1,08,1.0,2426.1,M,26.9,M,,0000*6E
$GPGSA,M,3,32,06,20,14,24,16,19,11,,,,,1.9,1.0,1.6*39
$GPRMC,225928.000,A,1338.1137,S,07252.7985,W,0.84,341.47,200411,,,A*64
$GPGGA,225929.000,1338.1133,S,07252.7992,W,1,07,1.0,2425.9,M,26.9,M,,0000*69
$GPGSA,M,3,32,06,20,14,24,16,11,,,,,,2.3,1.0,2.1*3C
$GPRMC,225929.000,A,1338.1133,S,07252.7992,W,0.82,271.19,200411,,,A*68
$GPGGA,225930.000,1338.1121,S,07252.7999,W,1,09,1.0,2423.1,M,26.9,M,,0000*69
$GPGSA,M,3,32,06,20,14,24,03,16,19,11,,,,1.7,1.0,1.4*36
$GPGSV,3,1,12,19,76,193,14,03,67,017,16,06,51,032,12,32,50,258,13*75
$GPGSV,3,2,12,11,29,211,19,14,29,131,20,20,28,277,16,24,21,219,24*71
$GPGSV,3,3,12,23,16,337,,16,15,000,23,31,11,055,,22,07,137,*79
$GPRMC,225930.000,A,1338.1121,S,07252.7999,W,1.15,323.62,200411,,,A*6D
$GPGGA,225931.000,1338.1115,S,07252.7998,W,1,08,1.2,2424.9,M,26.9,M,,0000*62
$GPGSA,M,3,32,06,20,14,24,03,19,11,,,,,2.5,1.2,2.2*37
$GPRMC,225931.000,A,1338.1115,S,07252.7998,W,1.48,352.56,200411,,,A*63
$GPGGA,225932.000,1338.1118,S,07252.7995,W,1,08,1.2,2427.5,M,26.9,M,,0000*6E
$GPGSA,M,3,32,06,20,14,24,03,19,11,,,,,2.5,1.2,2.2*37
$GPRMC,225932.000,A,1338.1118,S,07252.7995,W,0.54,119.13,200411,,,A*60
$GPGGA,225933.000,1338.1118,S,07252.7989,W,1,07,1.5,2428.1,M,26.9,M,,0000*61
$GPGSA,M,3,32,06,20,24,16,19,11,,,,,,2.3,1.5,1.8*3E
$GPRMC,225933.000,A,1338.1118,S,07252.7989,W,1.69,144.51,200411,,,A*6D
$GPGGA,225934.000,1338.1123,S,07252.7985,W,1,07,1.7,2428.9,M,26.9,M,,0000*68
$GPGSA,M,3,32,06,20,24,03,16,19,,,,,,2.5,1.7,1.8*39
$GPRMC,225934.000,A,1338.1123,S,07252.7985,W,2.27,152.27,200411,,,A*61
$GPGGA,225935.000,1338.1125,S,07252.7985,W,1,05,2.0,2428.6,M,26.9,M,,0000*66
$GPGSA,M,3,20,24,03,16,19,,,,,,,,2.9,2.0,2.0*3D
$GPGSV,3,1,12,19,76,193,13,03,67,017,16,06,51,032,13,32,50,258,15*75
$GPGSV,3,2,12,11,29,211,12,14,29,131,10,20,28,277,16,24,21,219,17*79
$GPGSV,3,3,12,23,16,337,,16,15,000,14,31,11,055,,22,07,137,*7D
$GPRMC,225935.000,A,1338.1125,S,07252.7985,W,2.28,155.05,200411,,,A*6E
$GPGGA,225936.000,1338.1131,S,07252.7989,W,1,05,2.1,2432.7,M,26.9,M,,0000*67
$GPGSA,M,3,06,20,24,03,19,,,,,,,,3.8,2.1,3.1*3D
$GPRMC,225936.000,A,1338.1131,S,07252.7989,W,1.77,186.62,200411,,,A*62
$GPGGA,225937.000,1338.1139,S,07252.8001,W,1,05,2.1,2434.8,M,26.9,M,,0000*61
$GPGSA,M,3,06,20,24,03,19,,,,,,,,3.8,2.1,3.1*3D
$GPRMC,225937.000,A,1338.1139,S,07252.8001,W,2.97,231.29,200411,,,A*60
$GPGGA,225938.000,1338.1140,S,07252.8011,W,1,05,2.1,2435.7,M,26.9,M,,0000*6F
$GPGSA,M,3,06,20,24,03,19,,,,,,,,3.8,2.1,3.1*3D
$GPRMC,225938.000,A,1338.1140,S,07252.8011,W,3.58,237.49,200411,,,A*62
$GPGGA,225939.000,1338.1140,S,07252.8018,W,1,06,2.0,2437.5,M,26.9,M,,0000*65
$GPGSA,M,3,06,20,24,03,19,11,,,,,,,3.7,2.0,3.1*33
$GPRMC,225939.000,A,1338.1140,S,07252.8018,W,3.43,238.63,200411,,,A*67
$GPGGA,225940.000,1338.1137,S,07252.8012,W,1,04,8.6,2435.0,M,26.9,M,,0000*68
$GPGSA,M,3,06,24,03,19,,,,,,,,,9.4,8.6,3.6*33
$GPGSV,3,1,12,19,76,193,13,03,67,017,26,06,51,032,29,32,50,258,14*7E
$GPGSV,3,2,12,11,29,211,13,14,29,131,,20,28,277,14,24,21,219,14*78
$GPGSV,3,3,12,23,16,337,,16,15,000,,31,11,055,,22,07,137,*78
$GPRMC,225940.000,A,1338.1137,S,07252.8012,W,1.53,214.54,200411,,,A*6A
$GPGGA,225941.000,1338.1136,S,07252.8007,W,1,04,8.6,2433.0,M,26.9,M,,0000*6A
$GPGSA,M,3,06,24,03,19,,,,,,,,,9.4,8.6,3.6*33
$GPRMC,225941.000,A,1338.1136,S,07252.8007,W,1.09,163.54,200411,,,A*62
$GPGGA,225942.000,1338.1133,S,07252.8006,W,1,05,2.9,2433.6,M,26.9,M,,0000*6F
$GPGSA,M,3,32,06,24,03,19,,,,,,,,4.0,2.9,2.8*31
$GPRMC,225942.000,A,1338.1133,S,07252.8006,W,0.83,96.47,200411,,,A*5F
$GPGGA,225943.000,1338.1128,S,07252.8001,W,1,04,3.3,2435.1,M,26.9,M,,0000*68
$GPGSA,M,3,32,24,03,19,,,,,,,,,5.1,3.3,3.9*3C
$GPRMC,225943.000,A,1338.1128,S,07252.8001,W,1.84,66.04,200411,,,A*5D
$GPGGA,225944.000,1338.1132,S,07252.7987,W,1,04,3.3,2435.1,M,26.9,M,,0000*6C
$GPGSA,M,3,32,06,03,19,,,,,,,,,3.4,3.3,1.0*34
$GPRMC,225944.000,A,1338.1132,S,07252.7987,W,2.86,102.56,200411,,,A*6C
$GPGGA,225945.000,1338.1132,S,07252.7989,W,1,04,3.3,2436.1,M,26.9,M,,0000*60
$GPGSA,M,3,32,06,03,19,,,,,,,,,3.4,3.3,1.0*34
$GPGSV,3,1,12,19,76,193,13,03,67,017,14,06,51,032,18,32,50,258,13*7A
$GPGSV,3,2,12,11,29,211,12,14,29,131,,20,28,277,,24,21,219,*79
$GPGSV,3,3,12,23,16,337,,16,15,000,,31,11,055,,22,07,137,*78
$GPRMC,225945.000,A,1338.1132,S,07252.7989,W,2.70,92.94,200411,,,A*5C
$GPGGA,225946.000,1338.1123,S,07252.7978,W,1,04,3.3,2434.5,M,26.9,M,,0000*6B
$GPGSA,M,3,32,06,03,19,,,,,,,,,3.4,3.3,1.0*34
$GPRMC,225946.000,A,1338.1123,S,07252.7978,W,2.34,81.71,200411,,,A*58
$GPGGA,225947.000,1338.1104,S,07252.7973,W,1,04,3.3,2432.2,M,26.9,M,,0000*65
$GPGSA,M,3,32,06,03,19,,,,,,,,,3.4,3.3,1.0*34
$GPRMC,225947.000,A,1338.1104,S,07252.7973,W,1.41,52.70,200411,,,A*59
$GPGGA,225948.000,1338.1120,S,07252.7956,W,1,06,1.7,2431.1,M,26.9,M,,0000*6F
$GPGSA,M,3,32,06,14,03,19,11,,,,,,,3.6,1.7,3.2*35
$GPRMC,225948.000,A,1338.1120,S,07252.7956,W,1.50,120.91,200411,,,A*6C
$GPGGA,225949.000,1338.1130,S,07252.7947,W,1,05,1.8,2428.6,M,26.9,M,,0000*6C
$GPGSA,M,3,32,06,14,03,19,,,,,,,,4.1,1.8,3.7*3F
$GPRMC,225949.000,A,1338.1130,S,07252.7947,W,2.02,158.92,200411,,,A*64
$GPGGA,225950.000,1338.1135,S,07252.7955,W,1,06,1.8,2427.3,M,26.9,M,,0000*6B
$GPGSA,M,3,32,06,20,03,19,11,,,,,,,3.5,1.8,3.0*3C
$GPGSV,3,1,12,19,76,193,28,03,67,017,16,06,51,032,17,32,50,258,15*79
$GPGSV,3,2,12,11,29,211,12,14,29,131,16,20,28,277,20,24,21,219,*7C
$GPGSV,3,3,12,23,16,337,,16,15,000,,31,11,055,,22,07,137,*78
$GPRMC,225950.000,A,1338.1135,S,07252.7955,W,1.54,213.20,200411,,,A*6F
$GPGGA,225951.000,1338.1140,S,07252.7961,W,1,07,1.3,2422.4,M,26.9,M,,0000*67
$GPGSA,M,3,32,06,14,20,03,19,11,,,,,,2.6,1.3,2.3*32
$GPRMC,225951.000,A,1338.1140,S,07252.7961,W,1.50,235.91,200411,,,A*61
$GPGGA,225952.000,1338.1132,S,07252.7964,W,1,07,1.3,2422.8,M,26.9,M,,0000*68
$GPGSA,M,3,32,06,14,20,03,19,11,,,,,,2.6,1.3,2.3*32
$GPRMC,225952.000,A,1338.1132,S,07252.7964,W,0.42,286.60,200411,,,A*66
$GPGGA,225953.000,1338.1131,S,07252.7966,W,1,07,1.3,2424.7,M,26.9,M,,0000*61
$GPGSA,M,3,32,06,14,20,03,19,11,,,,,,2.6,1.3,2.3*32
$GPRMC,225953.000,A,1338.1131,S,07252.7966,W,1.20,352.90,200411,,,A*64
$GPGGA,225954.000,1338.1127,S,07252.7966,W,1,07,1.3,2425.5,M,26.9,M,,0000*62
$GPGSA,M,3,32,06,14,20,03,19,11,,,,,,2.6,1.3,2.3*32
$GPRMC,225954.000,A,1338.1127,S,07252.7966,W,1.42,29.98,200411,,,A*57
$GPGGA,225955.000,1338.1118,S,07252.7966,W,1,07,1.3,2425.7,M,26.9,M,,0000*6D
$GPGSA,M,3,32,06,14,20,03,19,11,,,,,,2.6,1.3,2.3*32
$GPGSV,3,1,12,19,76,193,21,03,67,017,20,06,51,032,16,32,50,258,29*7B
$GPGSV,3,2,12,11,29,211,14,14,29,131,15,20,28,277,39,24,21,219,*71
$GPGSV,3,3,12,23,16,337,,16,15,000,,31,11,055,,22,07,137,*78
$GPRMC,225955.000,A,1338.1118,S,07252.7966,W,1.46,15.42,200411,,,A*56
$GPGGA,225956.000,1338.1112,S,07252.7966,W,1,06,1.4,2426.5,M,26.9,M,,0000*63
$GPGSA,M,3,32,06,14,20,03,19,,,,,,,2.7,1.4,2.3*34
$GPRMC,225956.000,A,1338.1112,S,07252.7966,W,0.89,355.85,200411,,,A*61
$GPGGA,225957.000,1338.1100,S,07252.7970,W,1,05,2.1,2426.6,M,26.9,M,,0000*60
$GPGSA,M,3,32,14,20,03,19,,,,,,,,3.2,2.1,2.4*37
$GPRMC,225957.000,A,1338.1100,S,07252.7970,W,1.23,27.42,200411,,,A*58
$GPGGA,225958.000,1338.1088,S,07252.7969,W,1,06,1.6,2426.3,M,26.9,M,,0000*64
$GPGSA,M,3,32,14,20,03,19,11,,,,,,,2.9,1.6,2.4*39
$GPRMC,225958.000,A,1338.1088,S,07252.7969,W,1.42,33.28,200411,,,A*50
$GPGGA,225959.000,1338.1083,S,07252.7967,W,1,05,2.3,2427.0,M,26.9,M,,0000*67
$GPGSA,M,3,32,14,03,19,11,,,,,,,,4.6,2.3,4.0*36
$GPRMC,225959.000,A,1338.1083,S,07252.7967,W,1.18,61.53,200411,,,A*50
$GPGGA,230000.000,1338.1076,S,07252.7960,W,1,05,2.5,2426.4,M,26.9,M,,0000*68
$GPGSA,M,3,32,20,03,19,11,,,,,,,,4.8,2.5,4.1*38
$GPGSV,3,1,12,19,76,193,20,03,67,017,20,06,51,032,17,32,50,258,19*78
$GPGSV,3,2,12,11,29,211,14,14,29,131,24,20,28,277,16,24,21,219,*7E
$GPGSV,3,3,12,23,16,337,,16,15,000,,31,11,055,,22,07,137,*78
$GPRMC,230000.000,A,1338.1076,S,07252.7960,W,1.48,87.66,200411,,,A*57
$GPGGA,230001.000,1338.1063,S,07252.7954,W,1,07,1.3,2425.8,M,26.9,M,,0000*62
$GPGSA,M,3,32,06,14,20,03,19,11,,,,,,2.6,1.3,2.3*32
$GPRMC,230001.000,A,1338.1063,S,07252.7954,W,1.16,10.30,200411,,,A*53
$GPGGA,230002.000,1338.1049,S,07252.7952,W,1,08,1.2,2423.5,M,26.9,M,,0000*6A
$GPGSA,M,3,32,06,14,20,24,03,19,11,,,,,2.5,1.2,2.2*37
$GPRMC,230002.000,A,1338.1049,S,07252.7952,W,2.58,340.21,200411,,,A*61
$GPGGA,230003.000,1338.1044,S,07252.7952,W,1,07,1.3,2421.5,M,26.9,M,,0000*6A
$GPGSA,M,3,32,06,14,20,24,19,11,,,,,,2.6,1.3,2.3*37
$GPRMC,230003.000,A,1338.1044,S,07252.7952,W,0.60,353.96,200411,,,A*6A
$GPGGA,230004.000,1338.1035,S,07252.7949,W,1,08,1.2,2417.9,M,26.9,M,,0000*66
$GPGSA,M,3,32,06,14,20,24,03,19,11,,,,,2.5,1.2,2.2*37
$GPRMC,230004.000,A,1338.1035,S,07252.7949,W,0.54,53.40,200411,,,A*5E
$GPGGA,230005.000,1338.1032,S,07252.7943,W,1,07,1.3,2418.6,M,26.9,M,,0000*64
$GPGSA,M,3,32,06,14,20,24,19,11,,,,,,2.6,1.3,2.3*37
$GPGSV,3,1,12,19,76,193,19,03,67,017,18,06,51,032,20,32,50,258,19*7D
$GPGSV,3,2,12,11,29,211,12,14,29,131,28,20,28,277,18,24,21,219,16*7D
$GPGSV,3,3,12,23,16,337,,16,15,000,,31,11,055,16,22,07,137,*7F
$GPRMC,230005.000,A,1338.1032,S,07252.7943,W,0.56,89.75,200411,,,A*51
$GPGGA,230006.000,1338.1031,S,07252.7943,W,1,06,1.4,2417.0,M,26.9,M,,0000*6B
$GPGSA,M,3,32,06,14,20,03,19,,,,,,,2.7,1.4,2.3*34
$GPRMC,230006.000,A,1338.1031,S,07252.7943,W,0.46,95.06,200411,,,A*59
$GPGGA,230007.000,1338.1037,S,07252.7944,W,1,07,1.3,2418.9,M,26.9,M,,0000*6B
$GPGSA,M,3,32,06,14,20,24,03,19,,,,,,2.6,1.3,2.2*35
$GPRMC,230007.000,A,1338.1037,S,07252.7944,W,0.33,147.22,200411,,,A*63
$GPGGA,230008.000,1338.1040,S,07252.7945,W,1,07,1.3,2420.4,M,26.9,M,,0000*63
$GPGSA,M,3,32,06,14,20,24,03,19,,,,,,2.6,1.3,2.2*35
$GPRMC,230008.000,A,1338.1040,S,07252.7945,W,0.17,255.05,200411,,,A*6E
$GPGGA,230009.000,1338.1038,S,07252.7950,W,1,06,1.6,2420.1,M,26.9,M,,0000*68
$GPGSA,M,3,32,06,14,20,24,03,,,,,,,3.8,1.6,3.4*30
$GPRMC,230009.000,A,1338.1038,S,07252.7950,W,0.69,263.11,200411,,,A*6D
$GPGGA,230010.000,1338.1037,S,07252.7953,W,1,06,1.6,2421.9,M,26.9,M,,0000*65
$GPGSA,M,3,32,06,14,20,24,03,,,,,,,3.8,1.6,3.4*30
$GPGSV,3,1,12,19,76,193,18,03,67,017,17,06,51,032,22,32,50,258,20*7B
$GPGSV,3,2,12,11,29,211,,14,29,131,27,20,28,277,18,24,21,219,15*72
$GPGSV,3,3,12,23,16,337,,16,15,000,,31,11,055,15,22,07,137,*7C
$GPRMC,230010.000,A,1338.1037,S,07252.7953,W,1.39,216.85,200411,,,A*62
$GPGGA,230011.000,1338.1045,S,07252.7959,W,1,07,1.3,2423.3,M,26.9,M,,0000*67
$GPGSA,M,3,32,06,14,20,24,03,19,,,,,,2.6,1.3,2.2*35
$GPRMC,230011.000,A,1338.1045,S,07252.7959,W,1.85,208.99,200411,,,A*69
$GPGGA,230012.000,1338.1044,S,07252.7960,W,1,07,1.3,2422.0,M,26.9,M,,0000*6D
$GPGSA,M,3,32,06,14,20,24,03,19,,,,,,2.6,1.3,2.2*35
$GPRMC,230012.000,A,1338.1044,S,07252.7960,W,1.87,217.96,200411,,,A*62
$GPGGA,230013.000,1338.1045,S,07252.7959,W,1,07,1.3,2421.4,M,26.9,M,,0000*60
$GPGSA,M,3,32,06,14,20,24,03,19,,,,,,2.6,1.3,2.2*35
$GPRMC,230013.000,A,1338.1045,S,07252.7959,W,1.72,224.39,200411,,,A*67
$GPGGA,230014.000,1338.1043,S,07252.7959,W,1,07,1.3,2420.6,M,26.9,M,,0000*62
$GPGSA,M,3,32,06,14,20,24,03,19,,,,,,2.6,1.3,2.2*35
$GPRMC,230014.000,A,1338.1043,S,07252.7959,W,1.06,220.00,200411,,,A*6B
$GPGGA,230015.000,1338.1043,S,07252.7960,W,1,07,1.3,2419.3,M,26.9,M,,0000*66
$GPGSA,M,3,32,06,14,20,24,03,19,,,,,,2.6,1.3,2.2*35
$GPGSV,3,1,12,19,76,193,17,03,67,017,17,06,51,032,21,32,50,258,21*76
$GPGSV,3,2,12,11,29,211,,14,29,131,28,20,28,277,19,24,21,219,16*7F
$GPGSV,3,3,12,23,16,337,,16,15,000,,31,11,055,14,22,07,137,*7D
$GPRMC,230015.000,A,1338.1043,S,07252.7960,W,0.23,304.53,200411,,,A*67
$GPGGA,230016.000,1338.1040,S,07252.7959,W,1,07,1.3,2420.0,M,26.9,M,,0000*65
$GPGSA,M,3,32,06,14,20,24,03,19,,,,,,2.6,1.3,2.2*35
$GPRMC,230016.000,A,1338.1040,S,07252.7959,W,0.86,18.55,200411,,,A*5A
$GPGGA,230017.000,1338.1040,S,07252.7956,W,1,07,1.3,2420.6,M,26.9,M,,0000*6D
$GPGSA,M,3,32,06,14,20,24,03,19,,,,,,2.6,1.3,2.2*35
$GPRMC,230017.000,A,1338.1040,S,07252.7956,W,0.59,2.62,200411,,,A*69
$GPGGA,230018.000,1338.1034,S,07252.7952,W,1,07,1.3,2420.7,M,26.9,M,,0000*64
$GPGSA,M,3,32,06,14,20,24,03,19,,,,,,2.6,1.3,2.2*35
$GPRMC,230018.000,A,1338.1034,S,07252.7952,W,1.20,43.42,200411,,,A*59
$GPGGA,230019.000,1338.1032,S,07252.7954,W,1,07,1.3,2420.4,M,26.9,M,,0000*66
$GPGSA,M,3,32,06,14,20,24,03,19,,,,,,2.6,1.3,2.2*35
$GPRMC,230019.000,A,1338.1032,S,07252.7954,W,1.16,29.05,200411,,,A*52
$GPGGA,230020.000,1338.1036,S,07252.7955,W,1,07,1.3,2422.9,M,26.9,M,,0000*66
$GPGSA,M,3,32,06,14,20,24,03,19,,,,,,2.6,1.3,2.2*35
$GPGSV,3,1,12,19,76,193,17,03,67,017,16,06,51,032,20,32,50,258,22*75
$GPGSV,3,2,12,11,29,211,,14,29,131,28,20,28,277,19,24,21,219,16*7F
$GPGSV,3,3,12,23,16,337,,16,15,000,,31,11,055,14,22,07,137,*7D
$GPRMC,230020.000,A,1338.1036,S,07252.7955,W,1.07,35.62,200411,,,A*51
$GPGGA,230021.000,1338.1042,S,07252.7956,W,1,06,1.4,2427.1,M,26.9,M,,0000*6C
$GPGSA,M,3,32,06,14,20,03,19,,,,,,,2.7,1.4,2.3*34
$GPRMC,230021.000,A,1338.1042,S,07252.7956,W,0.61,41.35,200411,,,A*50
$GPGGA,230022.000,1338.1046,S,07252.7959,W,1,06,1.4,2428.7,M,26.9,M,,0000*6D
$GPGSA,M,3,32,06,14,20,03,19,,,,,,,2.7,1.4,2.3*34
$GPRMC,230022.000,A,1338.1046,S,07252.7959,W,0.72,10.92,200411,,,A*53
$GPGGA,230023.000,1338.1041,S,07252.7958,W,1,07,1.3,2429.0,M,26.9,M,,0000*6A
$GPGSA,M,3,32,06,14,20,24,03,19,,,,,,2.6,1.3,2.2*35
$GPRMC,230023.000,A,1338.1041,S,07252.7958,W,1.26,28.30,200411,,,A*57
$GPGGA,230024.000,1338.1034,S,07252.7952,W,1,07,1.3,2427.9,M,26.9,M,,0000*62
$GPGSA,M,3,32,06,14,20,24,03,19,,,,,,2.6,1.3,2.2*35
$GPRMC,230024.000,A,1338.1034,S,07252.7952,W,0.99,33.67,200411,,,A*55
$GPGGA,230025.000,1338.1026,S,07252.7950,W,1,07,1.3,2426.5,M,26.9,M,,0000*6F
$GPGSA,M,3,32,06,14,20,24,03,19,,,,,,2.6,1.3,2.2*35
$GPGSV,3,1,12,19,76,193,17,03,67,017,14,06,51,032,19,32,50,258,22*7D
$GPGSV,3,2,12,11,29,211,,14,29,131,27,20,28,277,20,24,21,219,15*79
$GPGSV,3,3,12,23,16,337,,16,15,000,,31,11,055,14,22,07,137,*7D
$GPRMC,230025.000,A,1338.1026,S,07252.7950,W,1.24,21.81,200411,,,A*59
$GPGGA,230026.000,1338.1018,S,07252.7947,W,1,07,1.3,2425.0,M,26.9,M,,0000*61
$GPGSA,M,3,32,06,14,20,24,03,19,,,,,,2.6,1.3,2.2*35
$GPRMC,230026.000,A,1338.1018,S,07252.7947,W,0.77,26.78,200411,,,A*57
$GPGGA,230027.000,1338.1014,S,07252.7943,W,1,07,1.3,2423.5,M,26.9,M,,0000*6B
$GPGSA,M,3,32,06,14,20,24,03,19,,,,,,2.6,1.3,2.2*35
$GPRMC,230027.000,A,1338.1014,S,07252.7943,W,0.48,74.10,200411,,,A*5B
$GPGGA,230028.000,1338.1019,S,07252.7946,W,1,06,1.6,2421.7,M,26.9,M,,0000*68
$GPGSA,M,3,32,06,14,20,24,03,,,,,,,3.8,1.6,3.4*30
$GPRMC,230028.000,A,1338.1019,S,07252.7946,W,1.13,208.51,200411,,,A*6F
$GPGGA,230029.000,1338.1029,S,07252.7954,W,1,06,1.6,2421.4,M,26.9,M,,0000*6A
$GPGSA,M,3,32,06,14,20,24,03,,,,,,,3.8,1.6,3.4*30
$GPRMC,230029.000,A,1338.1029,S,07252.7954,W,2.37,215.31,200411,,,A*61
$GPGGA,230030.000,1338.1026,S,07252.7954,W,1,06,1.6,2420.7,M,26.9,M,,0000*6F
$GPGSA,M,3,32,06,14,20,24,03,,,,,,,3.8,1.6,3.4*30
$GPGSV,3,1,12,19,76,193,,03,67,017,15,06,51,032,18,32,50,258,22*7B
$GPGSV,3,2,12,11,29,211,,14,29,131,27,20,28,277,20,24,21,219,14*78
$GPGSV,3,3,12,23,16,337,,16,15,000,,31,11,055,14,22,07,137,*7D
$GPRMC,230030.000,A,1338.1026,S,07252.7954,W,1.13,199.52,200411,,,A*61
$GPGGA,230031.000,1338.1023,S,07252.7956,W,1,06,1.6,2418.9,M,26.9,M,,0000*6C
$GPGSA,M,3,32,06,14,20,24,03,,,,,,,3.8,1.6,3.4*30
$GPRMC,230031.000,A,1338.1023,S,07252.7956,W,0.70,199.44,200411,,,A*64
$GPGGA,230032.000,1338.1021,S,07252.7959,W,1,05,1.7,2418.5,M,26.9,M,,0000*6C
$GPGSA,M,3,32,06,14,20,03,,,,,,,,3.8,1.7,3.4*37
$GPRMC,230032.000,A,1338.1021,S,07252.7959,W,0.63,206.43,200411,,,A*6A
$GPGGA,230033.000,1338.1022,S,07252.7961,W,1,05,1.7,2419.4,M,26.9,M,,0000*65
$GPGSA,M,3,32,06,14,20,03,,,,,,,,3.8,1.7,3.4*37
$GPRMC,230033.000,A,1338.1022,S,07252.7961,W,0.86,211.26,200411,,,A*6D
$GPGGA,230034.000,1338.1024,S,07252.7960,W,1,05,1.7,2420.7,M,26.9,M,,0000*6C
$GPGSA,M,3,32,06,14,20,03,,,,,,,,3.8,1.7,3.4*37
$GPRMC,230034.000,A,1338.1024,S,07252.7960,W,0.71,202.65,200411,,,A*60
$GPGGA,230035.000,1338.1026,S,07252.7957,W,1,05,1.7,2421.7,M,26.9,M,,0000*6A
$GPGSA,M,3,32,06,14,20,03,,,,,,,,3.8,1.7,3.4*37
$GPGSV,3,1,12,19,78,193,,03,66,016,15,06,50,032,18,32,50,256,22*7A
$GPGSV,3,2,12,11,30,210,,20,28,275,21,14,28,132,28,24,22,218,*78
$GPGSV,3,3,12,23,17,337,,16,14,001,,31,12,057,15,22,06,136,*7C
$GPRMC,230035.000,A,1338.1026,S,07252.7957,W,0.48,177.91,200411,,,A*67
$GPGGA,230036.000,1338.1032,S,07252.7957,W,1,05,1.7,2423.2,M,26.9,M,,0000*6B
$GPGSA,M,3,32,06,14,20,03,,,,,,,,3.8,1.7,3.4*37
$GPRMC,230036.000,A,1338.1032,S,07252.7957,W,0.64,191.56,200411,,,A*6C
$GPGGA,230037.000,1338.1037,S,07252.7957,W,1,05,1.7,2424.7,M,26.9,M,,0000*6D
$GPGSA,M,3,32,06,14,20,03,,,,,,,,3.8,1.7,3.4*37
$GPRMC,230037.000,A,1338.1037,S,07252.7957,W,0.59,155.97,200411,,,A*63
$GPGGA,230038.000,1338.1042,S,07252.7960,W,1,06,1.4,2426.3,M,26.9,M,,0000*62
$GPGSA,M,3,32,06,14,20,19,03,,,,,,,2.7,1.4,2.3*34
$GPRMC,230038.000,A,1338.1042,S,07252.7960,W,0.62,203.93,200411,,,A*66
$GPGGA,230039.000,1338.1046,S,07252.7962,W,1,06,1.4,2427.6,M,26.9,M,,0000*61
$GPGSA,M,3,32,06,14,20,19,03,,,,,,,2.7,1.4,2.3*34
$GPRMC,230039.000,A,1338.1046,S,07252.7962,W,0.63,229.94,200411,,,A*6F
$GPGGA,230040.000,1338.1038,S,07252.7962,W,1,06,1.4,2425.3,M,26.9,M,,0000*61
$GPGSA,M,3,32,06,14,20,19,03,,,,,,,2.7,1.4,2.3*34
$GPGSV,3,1,12,19,78,193,20,03,66,016,16,06,50,032,19,32,50,256,21*79
$GPGSV,3,2,12,11,30,210,,20,28,275,21,14,28,132,27,24,22,218,*77
$GPGSV,3,3,12,23,17,337,,16,14,001,,31,12,057,16,22,06,136,*7F
$GPRMC,230040.000,A,1338.1038,S,07252.7962,W,0.40,356.41,200411,,,A*68
$GPGGA,230041.000,1338.1046,S,07252.7964,W,1,06,1.4,2426.6,M,26.9,M,,0000*69
$GPGSA,M,3,32,06,14,20,19,03,,,,,,,2.7,1.4,2.3*34
$GPRMC,230041.000,A,1338.1046,S,07252.7964,W,0.36,74.99,200411,,,A*51
$GPGGA,230042.000,1338.1041,S,07252.7960,W,1,06,1.4,2425.3,M,26.9,M,,0000*6F
$GPGSA,M,3,32,06,14,20,19,03,,,,,,,2.7,1.4,2.3*34
$GPRMC,230042.000,A,1338.1041,S,07252.7960,W,0.41,56.14,200411,,,A*54
$GPGGA,230043.000,1338.1034,S,07252.7957,W,1,06,1.4,2424.1,M,26.9,M,,0000*6B
$GPGSA,M,3,32,06,14,20,19,03,,,,,,,2.7,1.4,2.3*34
$GPRMC,230043.000,A,1338.1034,S,07252.7957,W,0.59,22.36,200411,,,A*59
$GPGGA,230044.000,1338.1033,S,07252.7958,W,1,06,1.4,2425.3,M,26.9,M,,0000*67
$GPGSA,M,3,32,06,14,20,19,03,,,,,,,2.7,1.4,2.3*34
$GPRMC,230044.000,A,1338.1033,S,07252.7958,W,0.04,270.91,200411,,,A*66
$GPGGA,230045.000,1338.1029,S,07252.7954,W,1,06,1.4,2426.3,M,26.9,M,,0000*62
$GPGSA,M,3,32,06,14,20,19,03,,,,,,,2.7,1.4,2.3*34
$GPGSV,3,1,12,19,78,193,20,03,66,016,16,06,50,032,19,32,50,256,21*79
$GPGSV,3,2,12,11,30,210,,20,28,275,21,14,28,132,27,24,22,218,*77
$GPGSV,3,3,12,23,17,337,,16,14,001,,31,12,057,15,22,06,136,*7C
$GPRMC,230045.000,A,1338.1029,S,07252.7954,W,0.25,86.24,200411,,,A*56
$GPGGA,230046.000,1338.1032,S,07252.7955,W,1,06,1.4,2427.4,M,26.9,M,,0000*6C
$GPGSA,M,3,32,06,14,20,19,03,,,,,,,2.7,1.4,2.3*34
$GPRMC,230046.000,A,1338.1032,S,07252.7955,W,0.79,22.99,200411,,,A*5F
$GPGGA,230047.000,1338.1034,S,07252.7954,W,1,05,2.0,2428.6,M,26.9,M,,0000*63
$GPGSA,M,3,32,14,20,19,03,,,,,,,,3.2,2.0,2.4*36
$GPRMC,230047.000,A,1338.1034,S,07252.7954,W,1.03,30.68,200411,,,A*58
$GPGGA,230048.000,1338.1031,S,07252.7951,W,1,05,2.0,2428.3,M,26.9,M,,0000*69
$GPGSA,M,3,32,14,20,19,03,,,,,,,,3.2,2.0,2.4*36
$GPRMC,230048.000,A,1338.1031,S,07252.7951,W,1.53,34.47,200411,,,A*5B
$GPGGA,230049.000,1338.1027,S,07252.7949,W,1,04,2.5,2427.5,M,26.9,M,,0000*6B
$GPGSA,M,3,32,14,20,03,,,,,,,,,4.5,2.5,3.8*36
$GPRMC,230049.000,A,1338.1027,S,07252.7949,W,1.73,28.20,200411,,,A*5A
$GPGGA,230050.000,1338.1012,S,07252.7941,W,1,06,1.4,2426.2,M,26.9,M,,0000*6B
$GPGSA,M,3,32,06,14,20,19,03,,,,,,,2.7,1.4,2.3*34
$GPGSV,3,1,12,19,78,193,19,03,66,016,15,06,50,032,17,32,50,256,21*7E
$GPGSV,3,2,12,11,30,210,,20,28,275,21,14,28,132,27,24,22,218,*77
$GPGSV,3,3,12,23,17,337,,16,14,001,,31,12,057,16,22,06,136,*7F
$GPRMC,230050.000,A,1338.1012,S,07252.7941,W,2.61,31.56,200411,,,A*55
$GPGGA,230051.000,1338.1000,S,07252.7939,W,1,05,1.5,2424.1,M,26.9,M,,0000*65
$GPGSA,M,3,32,06,14,20,19,,,,,,,,2.8,1.5,2.4*3E
$GPRMC,230051.000,A,1338.1000,S,07252.7939,W,3.45,23.93,200411,,,A*55
$GPGGA,230052.000,1338.0994,S,07252.7936,W,1,05,1.5,2423.7,M,26.9,M,,0000*6D
$GPGSA,M,3,32,06,14,20,19,,,,,,,,2.8,1.5,2.4*3E
$GPRMC,230052.000,A,1338.0994,S,07252.7936,W,3.31,24.50,200411,,,A*57
$GPGGA,230053.000,1338.0989,S,07252.7934,W,1,05,1.5,2424.9,M,26.9,M,,0000*6B
$GPGSA,M,3,32,06,14,20,19,,,,,,,,2.8,1.5,2.4*3E
$GPRMC,230053.000,A,1338.0989,S,07252.7934,W,3.52,29.78,200411,,,A*5A
$GPGGA,230054.000,1338.0982,S,07252.7932,W,1,05,1.5,2424.4,M,26.9,M,,0000*6C
$GPGSA,M,3,32,06,14,20,19,,,,,,,,2.8,1.5,2.4*3E
$GPRMC,230054.000,A,1338.0982,S,07252.7932,W,3.57,26.03,200411,,,A*56
$GPGGA,230055.000,1338.0968,S,07252.7931,W,1,04,8.6,2422.1,M,26.9,M,,0000*62
$GPGSA,M,3,32,14,20,19,,,,,,,,,8.9,8.6,2.4*39
$GPGSV,3,1,12,19,78,193,18,03,66,016,,06,50,032,16,32,50,256,20*7B
$GPGSV,3,2,12,11,30,210,,20,28,275,22,14,28,132,27,24,22,218,*74
$GPGSV,3,3,12,23,17,337,,16,14,001,,31,12,057,17,22,06,136,*7E
$GPRMC,230055.000,A,1338.0968,S,07252.7931,W,4.06,27.19,200411,,,A*59
$GPGGA,230056.000,1338.0960,S,07252.7930,W,1,04,8.6,2421.7,M,26.9,M,,0000*6D
$GPGSA,M,3,32,14,20,19,,,,,,,,,8.9,8.6,2.4*39
$GPRMC,230056.000,A,1338.0960,S,07252.7930,W,3.28,24.64,200411,,,A*51
$GPGGA,230057.000,1338.0958,S,07252.7927,W,1,05,1.5,2422.0,M,26.9,M,,0000*6E
$GPGSA,M,3,32,06,14,20,19,,,,,,,,2.8,1.5,2.4*3E
$GPRMC,230057.000,A,1338.0958,S,07252.7927,W,2.23,30.41,200411,,,A*55
$GPGGA,230058.000,1338.0952,S,07252.7928,W,1,05,1.5,2420.6,M,26.9,M,,0000*60
$GPGSA,M,3,32,06,14,20,19,,,,,,,,2.8,1.5,2.4*3E
$GPRMC,230058.000,A,1338.0952,S,07252.7928,W,1.43,9.26,200411,,,A*61
$GPGGA,230059.000,1338.0949,S,07252.7928,W,1,04,8.6,2419.7,M,26.9,M,,0000*6B
$GPGSA,M,3,32,14,20,19,,,,,,,,,8.9,8.6,2.4*39
$GPRMC,230059.000,A,1338.0949,S,07252.7928,W,1.48,8.54,200411,,,A*65
$GPGGA,230100.000,1338.0949,S,07252.7930,W,1,04,8.6,2421.0,M,26.9,M,,0000*63
$GPGSA,M,3,32,14,20,19,,,,,,,,,8.9,8.6,2.4*39
$GPGSV,3,1,12,19,78,193,17,03,66,016,,06,50,032,,32,50,256,20*73
$GPGSV,3,2,12,11,30,210,,20,28,275,22,14,28,132,26,24,22,218,*75
$GPGSV,3,3,12,23,17,337,,16,14,001,,31,12,057,17,22,06,136,*7E
$GPRMC,230100.000,A,1338.0949,S,07252.7930,W,1.05,38.73,200411,,,A*5E
$GPGGA,230101.000,1338.0940,S,07252.7925,W,1,04,8.6,2421.3,M,26.9,M,,0000*6C
$GPGSA,M,3,32,14,20,19,,,,,,,,,8.9,8.6,2.4*39
$GPRMC,230101.000,A,1338.0940,S,07252.7925,W,2.15,36.70,200411,,,A*5D
$GPGGA,230102.000,1338.0934,S,07252.7918,W,1,04,8.5,2422.9,M,26.9,M,,0000*68
$GPGSA,M,3,32,14,20,19,,,,,,,,,8.9,8.5,2.4*3A
$GPRMC,230102.000,A,1338.0934,S,07252.7918,W,2.60,27.20,200411,,,A*54
$GPGGA,230103.000,1338.0927,S,07252.7914,W,0,00,,2422.9,M,26.9,M,,0000*41
$GPGSA,M,1,,,,,,,,,,,,,,,*12
$GPRMC,230103.000,V,1338.0927,S,07252.7914,W,,,200411,,,N*70
$GPGGA,230104.000,1338.0903,S,07252.7914,W,1,04,8.5,2422.6,M,26.9,M,,0000*69
$GPGSA,M,3,32,14,20,19,,,,,,,,,8.9,8.5,2.4*3A
$GPRMC,230104.000,A,1338.0903,S,07252.7914,W,4.03,352.44,200411,,,A*6A
$GPGGA,230105.000,1338.0871,S,07252.7908,W,1,04,8.5,2421.4,M,26.9,M,,0000*60
$GPGSA,M,3,32,14,20,19,,,,,,,,,8.9,8.5,2.4*3A
$GPGSV,3,1,12,19,78,193,18,03,66,016,,06,50,032,,32,50,256,20*7C
$GPGSV,3,2,12,11,30,210,,20,28,275,22,14,28,132,27,24,22,218,*74
$GPGSV,3,3,12,23,17,337,,16,14,001,,31,12,057,16,22,06,136,*7F
$GPRMC,230105.000,A,1338.0871,S,07252.7908,W,5.39,13.76,200411,,,A*5D
$GPGGA,230106.000,1338.0856,S,07252.7905,W,0,00,,2421.3,M,26.9,M,,0000*4A
$GPGSA,M,1,,,,,,,,,,,,,,,*12
$GPRMC,230106.000,V,1338.0856,S,07252.7905,W,,,200411,,,N*72
$GPGGA,230107.000,1338.0841,S,07252.7901,W,0,00,,2421.1,M,26.9,M,,0000*4B
$GPGSA,M,1,,,,,,,,,,,,,,,*12
$GPRMC,230107.000,V,1338.0841,S,07252.7901,W,,,200411,,,N*71
$GPGGA,230108.000,1338.0820,S,07252.7895,W,1,04,8.5,2421.5,M,26.9,M,,0000*6D
$GPGSA,M,3,32,14,20,19,,,,,,,,,8.8,8.5,2.4*3B
$GPRMC,230108.000,A,1338.0820,S,07252.7895,W,6.03,13.61,200411,,,A*5D
$GPGGA,230109.000,1338.0921,S,07252.7928,W,1,05,2.0,2422.3,M,26.9,M,,0000*60
$GPGSA,M,3,32,03,14,20,19,,,,,,,,3.2,2.0,2.4*36
$GPRMC,230109.000,A,1338.0921,S,07252.7928,W,1.14,198.41,200411,,,A*6A
$GPGGA,230110.000,1338.0959,S,07252.7944,W,1,05,2.0,2421.4,M,26.9,M,,0000*69
$GPGSA,M,3,32,03,14,20,19,,,,,,,,3.2,2.0,2.4*36
$GPGSV,3,1,12,19,78,193,18,03,66,016,15,06,50,032,,32,50,256,20*78
$GPGSV,3,2,12,11,30,210,,20,28,275,22,14,28,132,27,24,22,218,*74
$GPGSV,3,3,12,23,17,337,,16,14,001,,31,12,057,,22,06,136,*78
$GPRMC,230110.000,A,1338.0959,S,07252.7944,W,0.72,202.08,200411,,,A*6B
$GPGGA,230111.000,1338.0993,S,07252.7957,W,1,05,2.0,2422.9,M,26.9,M,,0000*62
$GPGSA,M,3,32,03,14,20,19,,,,,,,,3.2,2.0,2.4*36
$GPRMC,230111.000,A,1338.0993,S,07252.7957,W,0.33,243.20,200411,,,A*64
$GPGGA,230112.000,1338.0986,S,07252.7953,W,1,05,2.0,2423.6,M,26.9,M,,0000*6F
$GPGSA,M,3,32,03,14,20,19,,,,,,,,3.2,2.0,2.4*36
$GPRMC,230112.000,A,1338.0986,S,07252.7953,W,0.88,48.82,200411,,,A*56
$GPGGA,230113.000,1338.0985,S,07252.7951,W,0,00,,2423.7,M,26.9,M,,0000*46
$GPGSA,M,1,,,,,,,,,,,,,,,*12
$GPRMC,230113.000,V,1338.0985,S,07252.7951,W,,,200411,,,N*78
$GPGGA,230114.000,1338.0990,S,07252.7952,W,1,04,8.4,2424.1,M,26.9,M,,0000*60
$GPGSA,M,3,32,14,20,19,,,,,,,,,8.8,8.4,2.5*3B
$GPRMC,230114.000,A,1338.0990,S,07252.7952,W,0.79,216.43,200411,,,A*6C
$GPGGA,230115.000,1338.0999,S,07252.7952,W,1,05,2.0,2425.4,M,26.9,M,,0000*63
$GPGSA,M,3,32,03,14,20,19,,,,,,,,3.2,2.0,2.4*36
$GPGSV,3,1,12,19,78,193,17,03,66,016,15,06,50,032,,32,50,256,21*76
$GPGSV,3,2,12,11,30,210,,20,28,275,22,14,28,132,27,24,22,218,*74
$GPGSV,3,3,12,23,17,337,,16,14,001,,31,12,057,,22,06,136,*78
$GPRMC,230115.000,A,1338.0999,S,07252.7952,W,0.22,118.09,200411,,,A*69
$GPGGA,230116.000,1338.1001,S,07252.7953,W,1,05,2.0,2424.2,M,26.9,M,,0000*6F
$GPGSA,M,3,32,03,14,20,19,,,,,,,,3.2,2.0,2.4*36
$GPRMC,230116.000,A,1338.1001,S,07252.7953,W,0.47,48.35,200411,,,A*5A
$GPGGA,230117.000,1338.1008,S,07252.7951,W,1,05,2.0,2423.9,M,26.9,M,,0000*69
$GPGSA,M,3,32,03,14,20,19,,,,,,,,3.2,2.0,2.4*36
$GPRMC,230117.000,A,1338.1008,S,07252.7951,W,1.19,62.21,200411,,,A*57
$GPGGA,230118.000,1338.1005,S,07252.7950,W,1,05,2.0,2423.0,M,26.9,M,,0000*63
$GPGSA,M,3,32,03,14,20,19,,,,,,,,3.2,2.0,2.4*36
$GPRMC,230118.000,A,1338.1005,S,07252.7950,W,0.49,2.84,200411,,,A*69
$GPGGA,230119.000,1338.1013,S,07252.7957,W,1,05,2.0,2420.7,M,26.9,M,,0000*66
$GPGSA,M,3,32,03,14,20,19,,,,,,,,3.2,2.0,2.4*36
$GPRMC,230119.000,A,1338.1013,S,07252.7957,W,0.81,0.46,200411,,,A*60
$GPGGA,230120.000,1338.1008,S,07252.7960,W,1,04,8.4,2419.5,M,26.9,M,,0000*65
$GPGSA,M,3,32,14,20,19,,,,,,,,,8.8,8.4,2.5*3B
$GPGSV,3,1,12,19,78,193,18,03,66,016,14,06,50,032,,32,50,256,21*78
$GPGSV,3,2,12,11,30,210,,20,28,275,22,14,28,132,27,24,22,218,*74
$GPGSV,3,3,12,23,17,337,17,16,14,001,,31,12,057,,22,06,136,*7E
$GPRMC,230120.000,A,1338.1008,S,07252.7960,W,1.46,18.16,200411,,,A*52
$GPGGA,230121.000,1338.1009,S,07252.7959,W,1,04,8.4,2420.2,M,26.9,M,,0000*62
$GPGSA,M,3,32,14,20,19,,,,,,,,,8.7,8.4,2.5*34
$GPRMC,230121.000,A,1338.1009,S,07252.7959,W,1.72,24.52,200411,,,A*50
$GPGGA,230122.000,1338.1000,S,07252.7964,W,1,04,8.4,2420.1,M,26.9,M,,0000*65
$GPGSA,M,3,32,14,20,19,,,,,,,,,8.7,8.4,2.5*34
$GPRMC,230122.000,A,1338.1000,S,07252.7964,W,2.19,10.52,200411,,,A*5D
$GPGGA,230123.000,1338.0988,S,07252.7959,W,1,04,8.4,2419.8,M,26.9,M,,0000*61
$GPGSA,M,3,32,14,20,19,,,,,,,,,8.7,8.4,2.5*34
$GPRMC,230123.000,A,1338.0988,S,07252.7959,W,3.30,19.73,200411,,,A*5A
$GPGGA,230124.000,1338.0974,S,07252.7954,W,1,04,8.4,2419.1,M,26.9,M,,0000*61
$GPGSA,M,3,32,14,20,19,,,,,,,,,8.7,8.4,2.5*34
$GPRMC,230124.000,A,1338.0974,S,07252.7954,W,3.77,21.79,200411,,,A*51
$GPGGA,230125.000,1338.0962,S,07252.7949,W,1,04,8.4,2418.1,M,26.9,M,,0000*6A
$GPGSA,M,3,32,14,20,19,,,,,,,,,8.7,8.4,2.5*34
$GPGSV,3,1,12,19,78,193,19,03,66,016,13,06,50,032,,32,50,256,21*7E
$GPGSV,3,2,12,11,30,210,,20,28,275,22,14,28,132,26,24,22,218,*75
$GPGSV,3,3,12,23,17,337,17,16,14,001,,31,12,057,,22,06,136,*7E
$GPRMC,230125.000,A,1338.0962,S,07252.7949,W,4.16,17.71,200411,,,A*56
$GPGGA,230126.000,1338.0951,S,07252.7946,W,0,00,,2417.8,M,26.9,M,,0000*47
$GPGSA,M,1,,,,,,,,,,,,,,,*12
$GPRMC,230126.000,V,1338.0951,S,07252.7946,W,,,200411,,,N*71
$GPGGA,230127.000,1338.0943,S,07252.7946,W,1,04,8.3,2417.0,M,26.9,M,,0000*6D
$GPGSA,M,3,32,14,20,19,,,,,,,,,8.7,8.3,2.5*33
$GPRMC,230127.000,A,1338.0943,S,07252.7946,W,3.81,18.98,200411,,,A*59
$GPGGA,230128.000,1338.0935,S,07252.7943,W,1,04,8.3,2416.3,M,26.9,M,,0000*64
$GPGSA,M,3,32,14,20,19,,,,,,,,,8.7,8.3,2.5*33
$GPRMC,230128.000,A,1338.0935,S,07252.7943,W,3.43,15.90,200411,,,A*59
$GPGGA,230129.000,1338.0908,S,07252.7928,W,1,06,1.4,2417.8,M,26.9,M,,0000*60
$GPGSA,M,3,32,03,14,20,19,06,,,,,,,2.7,1.4,2.3*34
$GPRMC,230129.000,A,1338.0908,S,07252.7928,W,3.69,19.50,200411,,,A*53
$GPGGA,230130.000,1338.0914,S,07252.7933,W,1,07,1.3,2418.0,M,26.9,M,,0000*6E
$GPGSA,M,3,32,03,14,20,19,11,06,,,,,,2.6,1.3,2.3*32
$GPGSV,3,1,12,19,78,193,19,03,66,016,13,06,50,032,15,32,50,256,21*7A
$GPGSV,3,2,12,11,30,210,18,20,28,275,22,14,28,132,26,24,22,218,*7C
$GPGSV,3,3,12,23,17,337,17,16,14,001,,31,12,057,,22,06,136,*7E
$GPRMC,230130.000,A,1338.0914,S,07252.7933,W,2.72,15.61,200411,,,A*59
$GPGGA,230131.000,1338.0915,S,07252.7934,W,1,07,1.3,2418.3,M,26.9,M,,0000*6A
$GPGSA,M,3,32,03,14,20,19,11,06,,,,,,2.6,1.3,2.3*32
$GPRMC,230131.000,A,1338.0915,S,07252.7934,W,2.15,21.60,200411,,,A*59
$GPGGA,230132.000,1338.0914,S,07252.7931,W,1,04,8.3,2419.7,M,26.9,M,,0000*62
$GPGSA,M,3,32,14,20,19,,,,,,,,,8.7,8.3,2.5*33
$GPRMC,230132.000,A,1338.0914,S,07252.7931,W,1.19,45.71,200411,,,A*53
$GPGGA,230133.000,1338.0921,S,07252.7931,W,1,06,1.3,2420.3,M,26.9,M,,0000*60
$GPGSA,M,3,32,14,20,19,11,06,,,,,,,2.7,1.3,2.4*37
$GPRMC,230133.000,A,1338.0921,S,07252.7931,W,0.37,111.33,200411,,,A*6F
$GPGGA,230134.000,1338.0932,S,07252.7934,W,1,06,1.3,2420.0,M,26.9,M,,0000*63
$GPGSA,M,3,32,14,20,19,11,06,,,,,,,2.7,1.3,2.4*37
$GPRMC,230134.000,A,1338.0932,S,07252.7934,W,0.61,180.50,200411,,,A*61
$GPGGA,230135.000,1338.0931,S,07252.7938,W,1,06,1.3,2420.6,M,26.9,M,,0000*6B
$GPGSA,M,3,32,14,20,19,11,06,,,,,,,2.7,1.3,2.4*37
$GPGSV,3,1,12,19,78,193,20,03,66,016,,06,50,032,16,32,50,256,21*71
$GPGSV,3,2,12,11,30,210,18,20,28,275,22,14,28,132,26,24,22,218,*7C
$GPGSV,3,3,12,23,17,337,15,16,14,001,,31,12,057,,22,06,136,*7C
$GPRMC,230135.000,A,1338.0931,S,07252.7938,W,1.03,225.21,200411,,,A*60
$GPGGA,230136.000,1338.0930,S,07252.7942,W,1,06,1.3,2419.3,M,26.9,M,,0000*6B
$GPGSA,M,3,32,14,20,19,11,06,,,,,,,2.7,1.3,2.4*37
$GPRMC,230136.000,A,1338.0930,S,07252.7942,W,1.10,218.41,200411,,,A*65
$GPGGA,230137.000,1338.0932,S,07252.7946,W,1,06,1.3,2420.0,M,26.9,M,,0000*65
$GPGSA,M,3,32,14,20,19,11,06,,,,,,,2.7,1.3,2.4*37
$GPRMC,230137.000,A,1338.0932,S,07252.7946,W,0.91,214.80,200411,,,A*6B
$GPGGA,230138.000,1338.0934,S,07252.7947,W,1,05,2.2,2418.7,M,26.9,M,,0000*60
$GPGSA,M,3,32,14,20,19,11,,,,,,,,3.3,2.2,2.4*36
$GPRMC,230138.000,A,1338.0934,S,07252.7947,W,0.38,160.91,200411,,,A*60
$GPGGA,230139.000,1338.0931,S,07252.7944,W,1,06,1.3,2418.2,M,26.9,M,,0000*63
$GPGSA,M,3,32,14,20,19,11,06,,,,,,,2.7,1.3,2.4*37
$GPRMC,230139.000,A,1338.0931,S,07252.7944,W,0.84,39.91,200411,,,A*5D
$GPGGA,230140.000,1338.0940,S,07252.7949,W,1,06,1.3,2417.1,M,26.9,M,,0000*6A
$GPGSA,M,3,32,14,20,19,11,06,,,,,,,2.7,1.3,2.4*37
$GPGSV,3,1,12,19,78,193,20,03,66,016,,06,50,032,17,32,50,256,21*70
$GPGSV,3,2,12,11,30,210,17,20,28,275,22,14,28,132,25,24,22,218,*70
$GPGSV,3,3,12,23,17,337,14,16,14,001,,31,12,057,,22,06,136,*7D
$GPRMC,230140.000,A,1338.0940,S,07252.7949,W,0.26,226.95,200411,,,A*68
$GPGGA,230141.000,1338.0952,S,07252.7957,W,1,06,1.3,2417.7,M,26.9,M,,0000*61
$GPGSA,M,3,32,14,20,19,11,06,,,,,,,2.7,1.3,2.4*37
$GPRMC,230141.000,A,1338.0952,S,07252.7957,W,0.76,206.97,200411,,,A*60
$GPGGA,230142.000,1338.0958,S,07252.7958,W,1,04,8.2,2419.6,M,26.9,M,,0000*62
$GPGSA,M,3,32,14,20,19,,,,,,,,,8.6,8.2,2.5*33
$GPRMC,230142.000,A,1338.0958,S,07252.7958,W,0.94,185.86,200411,,,A*62
$GPGGA,230143.000,1338.0967,S,07252.7959,W,1,05,2.2,2419.7,M,26.9,M,,0000*64
$GPGSA,M,3,32,14,20,19,11,,,,,,,,3.3,2.2,2.4*36
$GPRMC,230143.000,A,1338.0967,S,07252.7959,W,1.49,187.35,200411,,,A*65
$GPGGA,230144.000,1338.0976,S,07252.7963,W,1,06,1.3,2418.7,M,26.9,M,,0000*6A
$GPGSA,M,3,32,14,20,19,11,06,,,,,,,2.7,1.3,2.4*37
$GPRMC,230144.000,A,1338.0976,S,07252.7963,W,0.87,195.07,200411,,,A*6A
$GPGGA,230145.000,1338.0975,S,07252.7959,W,1,06,1.3,2418.0,M,26.9,M,,0000*66
$GPGSA,M,3,32,14,20,19,11,06,,,,,,,2.7,1.3,2.4*37
$GPGSV,3,1,12,19,78,193,21,03,66,016,,06,50,032,18,32,50,256,21*7E
$GPGSV,3,2,12,11,30,210,16,20,28,275,22,14,28,132,25,24,22,218,*71
$GPGSV,3,3,12,23,17,337,,16,14,001,,31,12,057,,22,06,136,*78
$GPRMC,230145.000,A,1338.0975,S,07252.7959,W,0.64,117.43,200411,,,A*66
$GPGGA,230146.000,1338.0977,S,07252.7959,W,1,06,1.3,2418.0,M,26.9,M,,0000*67
$GPGSA,M,3,32,14,20,19,11,06,,,,,,,2.7,1.3,2.4*37
$GPRMC,230146.000,A,1338.0977,S,07252.7959,W,0.44,90.87,200411,,,A*53
$GPGGA,230147.000,1338.0977,S,07252.7956,W,1,06,1.3,2418.7,M,26.9,M,,0000*6E
$GPGSA,M,3,32,14,20,19,11,06,,,,,,,2.7,1.3,2.4*37
$GPRMC,230147.000,A,1338.0977,S,07252.7956,W,0.24,12.75,200411,,,A*5C
$GPGGA,230148.000,1338.0977,S,07252.7954,W,1,06,1.3,2419.6,M,26.9,M,,0000*63
$GPGSA,M,3,32,14,20,19,11,06,,,,,,,2.7,1.3,2.4*37
$GPRMC,230148.000,A,1338.0977,S,07252.7954,W,0.43,178.87,200411,,,A*60
$GPGGA,230149.000,1338.0984,S,07252.7955,W,1,06,1.3,2420.8,M,26.9,M,,0000*6B
$GPGSA,M,3,32,14,20,19,11,06,,,,,,,2.7,1.3,2.4*37
$GPRMC,230149.000,A,1338.0984,S,07252.7955,W,0.95,183.77,200411,,,A*6C
$GPGGA,230150.000,1338.0992,S,07252.7956,W,1,06,1.3,2421.6,M,26.9,M,,0000*68
$GPGSA,M,3,32,14,20,19,11,06,,,,,,,2.7,1.3,2.4*37
$GPGSV,3,1,12,19,78,193,22,03,66,016,,06,50,032,18,32,50,256,22*7E
$GPGSV,3,2,12,11,30,210,16,20,28,275,22,14,28,132,25,24,22,218,*71
$GPGSV,3,3,12,23,17,337,,16,14,001,,31,12,057,,22,06,136,*78
$GPRMC,230150.000,A,1338.0992,S,07252.7956,W,1.42,205.39,200411,,,A*6C
$GPGGA,230151.000,1338.0998,S,07252.7961,W,1,06,1.3,2420.8,M,26.9,M,,0000*68
$GPGSA,M,3,32,14,20,19,11,06,,,,,,,2.7,1.3,2.4*37
$GPRMC,230151.000,A,1338.0998,S,07252.7961,W,0.96,200.91,200411,,,A*6C
$GPGGA,230152.000,1338.0999,S,07252.7959,W,1,06,1.3,2420.3,M,26.9,M,,0000*6A
$GPGSA,M,3,32,14,20,19,11,06,,,,,,,2.7,1.3,2.4*37
$GPRMC,230152.000,A,1338.0999,S,07252.7959,W,0.59,134.32,200411,,,A*6B
$GPGGA,230153.000,1338.1000,S,07252.7960,W,1,06,1.3,2418.5,M,26.9,M,,0000*64
$GPGSA,M,3,32,14,20,19,11,06,,,,,,,2.7,1.3,2.4*37
$GPRMC,230153.000,A,1338.1000,S,07252.7960,W,0.47,44.34,200411,,,A*57
$GPGGA,230154.000,1338.0996,S,07252.7954,W,1,06,1.3,2419.2,M,26.9,M,,0000*65
$GPGSA,M,3,32,14,20,19,11,06,,,,,,,2.7,1.3,2.4*37
$GPRMC,230154.000,A,1338.0996,S,07252.7954,W,1.82,30.16,200411,,,A*5B
$GPGGA,230155.000,1338.0991,S,07252.7948,W,1,05,2.2,2420.1,M,26.9,M,,0000*66
$GPGSA,M,3,32,14,20,19,11,,,,,,,,3.3,2.2,2.4*36
$GPGSV,3,1,12,19,78,193,22,03,66,016,,06,50,032,17,32,50,256,22*71
$GPGSV,3,2,12,11,30,210,16,20,28,275,22,14,28,132,25,24,22,218,*71
$GPGSV,3,3,12,23,17,337,,16,14,001,,31,12,057,,22,06,136,*78
$GPRMC,230155.000,A,1338.0991,S,07252.7948,W,1.79,31.55,200411,,,A*52
$GPGGA,230156.000,1338.0983,S,07252.7945,W,1,06,1.3,2420.6,M,26.9,M,,0000*6D
$GPGSA,M,3,32,14,20,19,11,06,,,,,,,2.7,1.3,2.4*37
$GPRMC,230156.000,A,1338.0983,S,07252.7945,W,1.50,35.61,200411,,,A*57
$GPGGA,230157.000,1338.0973,S,07252.7940,W,1,06,1.3,2420.2,M,26.9,M,,0000*62
$GPGSA,M,3,32,14,20,19,11,06,,,,,,,2.7,1.3,2.4*37
$GPRMC,230157.000,A,1338.0973,S,07252.7940,W,1.42,44.55,200411,,,A*5E
$GPGGA,230158.000,1338.0971,S,07252.7937,W,1,06,1.3,2421.2,M,26.9,M,,0000*6E
$GPGSA,M,3,32,14,20,19,11,06,,,,,,,2.7,1.3,2.4*37
$GPRMC,230158.000,A,1338.0971,S,07252.7937,W,1.31,31.89,200411,,,A*54
$GPGGA,230159.000,1338.0967,S,07252.7935,W,1,06,1.3,2422.6,M,26.9,M,,0000*6D
$GPGSA,M,3,32,14,20,19,11,06,,,,,,,2.7,1.3,2.4*37
$GPRMC,230159.000,A,1338.0967,S,07252.7935,W,1.45,39.33,200411,,,A*5A
$GPGGA,230200.000,1338.0961,S,07252.7932,W,1,06,1.3,2422.7,M,26.9,M,,0000*62
$GPGSA,M,3,32,14,20,19,11,06,,,,,,,2.7,1.3,2.4*37
$GPGSV,3,1,12,19,78,193,22,03,66,016,,06,50,032,17,32,50,256,23*70
$GPGSV,3,2,12,11,30,210,16,20,28,275,22,14,28,132,25,24,22,218,*71
$GPGSV,3,3,12,23,17,337,,16,14,001,,31,12,057,,22,06,136,*78
$GPRMC,230200.000,A,1338.0961,S,07252.7932,W,0.53,31.49,200411,,,A*57
$GPGGA,230201.000,1338.0965,S,07252.7931,W,1,05,2.2,2424.0,M,26.9,M,,0000*64
$GPGSA,M,3,32,14,20,19,11,,,,,,,,3.3,2.2,2.4*36
$GPRMC,230201.000,A,1338.0965,S,07252.7931,W,0.67,185.74,200411,,,A*66
$GPGGA,230202.000,1338.0958,S,07252.7931,W,1,05,2.2,2422.9,M,26.9,M,,0000*66
$GPGSA,M,3,32,14,20,19,11,,,,,,,,3.3,2.2,2.4*36
$GPRMC,230202.000,A,1338.0958,S,07252.7931,W,0.31,177.48,200411,,,A*6A
$GPGGA,230203.000,1338.0950,S,07252.7930,W,1,06,1.3,2421.5,M,26.9,M,,0000*60
$GPGSA,M,3,32,14,20,19,11,06,,,,,,,2.7,1.3,2.4*37
$GPRMC,230203.000,A,1338.0950,S,07252.7930,W,0.27,145.43,200411,,,A*6F
$GPGGA,230204.000,1338.0952,S,07252.7932,W,1,06,1.3,2421.7,M,26.9,M,,0000*65
$GPGSA,M,3,32,14,20,19,11,06,,,,,,,2.7,1.3,2.4*37
$GPRMC,230204.000,A,1338.0952,S,07252.7932,W,0.30,96.70,200411,,,A*51
$GPGGA,230205.000,1338.0953,S,07252.7932,W,1,06,1.3,2422.0,M,26.9,M,,0000*61
$GPGSA,M,3,32,14,20,19,11,06,,,,,,,2.7,1.3,2.4*37
$GPGSV,3,1,12,19,78,193,22,03,66,016,,06,50,032,16,32,50,256,23*71
$GPGSV,3,2,12,11,30,210,16,20,28,275,22,14,28,132,25,24,22,218,*71
$GPGSV,3,3,12,23,17,337,,16,14,001,,31,12,057,,22,06,136,*78
$GPRMC,230205.000,A,1338.0953,S,07252.7932,W,0.21,13.51,200411,,,A*5F
$GPGGA,230206.000,1338.0957,S,07252.7931,W,1,06,1.3,2423.4,M,26.9,M,,0000*60
$GPGSA,M,3,32,14,20,19,11,06,,,,,,,2.7,1.3,2.4*37
$GPRMC,230206.000,A,1338.0957,S,07252.7931,W,0.85,201.43,200411,,,A*67
$GPGGA,230207.000,1338.0967,S,07252.7934,W,1,06,1.3,2424.5,M,26.9,M,,0000*61
$GPGSA,M,3,32,14,20,19,11,06,,,,,,,2.7,1.3,2.4*37
$GPRMC,230207.000,A,1338.0967,S,07252.7934,W,1.10,171.80,200411,,,A*66
$GPGGA,230208.000,1338.0968,S,07252.7933,W,1,05,2.2,2425.0,M,26.9,M,,0000*63
$GPGSA,M,3,32,14,20,19,11,,,,,,,,3.3,2.2,2.4*36
$GPRMC,230208.000,A,1338.0968,S,07252.7933,W,1.39,188.77,200411,,,A*64
$GPGGA,230209.000,1338.0973,S,07252.7931,W,1,05,2.0,2426.1,M,26.9,M,,0000*6A
$GPGSA,M,3,32,03,14,20,19,,,,,,,,3.2,2.0,2.4*36
$GPRMC,230209.000,A,1338.0973,S,07252.7931,W,1.64,187.13,200411,,,A*68
$GPGGA,230210.000,1338.0974,S,07252.7930,W,1,07,1.3,2427.8,M,26.9,M,,0000*6E
$GPGSA,M,3,32,03,14,20,19,11,06,,,,,,2.6,1.3,2.3*32
$GPGSV,3,1,12,19,78,193,22,03,66,016,18,06,50,032,17,32,50,256,23*79
$GPGSV,3,2,12,11,30,210,15,20,28,275,22,14,28,132,25,24,22,218,*72
$GPGSV,3,3,12,23,17,337,,16,14,001,,31,12,057,,22,06,136,*78
$GPRMC,230210.000,A,1338.0974,S,07252.7930,W,1.21,183.70,200411,,,A*66
$GPGGA,230211.000,1338.0979,S,07252.7933,W,1,07,1.3,2428.4,M,26.9,M,,0000*62
$GPGSA,M,3,32,03,14,20,19,11,06,,,,,,2.6,1.3,2.3*32
$GPRMC,230211.000,A,1338.0979,S,07252.7933,W,1.24,209.50,200411,,,A*6F
$GPGGA,230212.000,1338.0979,S,07252.7935,W,1,06,1.3,2428.8,M,26.9,M,,0000*6A
$GPGSA,M,3,32,14,20,19,11,06,,,,,,,2.7,1.3,2.4*37
$GPRMC,230212.000,A,1338.0979,S,07252.7935,W,0.24,171.24,200411,,,A*64
$GPGGA,230213.000,1338.0978,S,07252.7937,W,1,06,1.3,2429.0,M,26.9,M,,0000*61
$GPGSA,M,3,32,14,20,19,11,06,,,,,,,2.7,1.3,2.4*37
$GPRMC,230213.000,A,1338.0978,S,07252.7937,W,0.89,196.97,200411,,,A*60
$GPGGA,230214.000,1338.0987,S,07252.7941,W,1,07,1.3,2429.7,M,26.9,M,,0000*61
$GPGSA,M,3,32,03,14,20,19,11,06,,,,,,2.6,1.3,2.3*32
$GPRMC,230214.000,A,1338.0987,S,07252.7941,W,1.86,204.32,200411,,,A*6F
$GPGGA,230215.000,1338.0989,S,07252.7943,W,1,06,1.3,2429.1,M,26.9,M,,0000*6B
$GPGSA,M,3,32,14,20,19,11,06,,,,,,,2.7,1.3,2.4*37
$GPGSV,3,1,12,19,78,193,22,03,66,016,19,06,50,032,16,32,50,256,23*79
$GPGSV,3,2,12,11,30,210,16,20,28,275,22,14,28,132,25,24,22,218,*71
$GPGSV,3,3,12,23,17,337,,16,14,001,,31,12,057,,22,06,136,*78
$GPRMC,230215.000,A,1338.0989,S,07252.7943,W,1.50,198.00,200411,,,A*6E
$GPGGA,230216.000,1338.0994,S,07252.7946,W,1,07,1.3,2427.3,M,26.9,M,,0000*6C
$GPGSA,M,3,32,03,14,20,19,11,06,,,,,,2.6,1.3,2.3*32
$GPRMC,230216.000,A,1338.0994,S,07252.7946,W,1.06,206.66,200411,,,A*63
$GPGGA,230217.000,1338.0991,S,07252.7948,W,1,07,1.3,2427.6,M,26.9,M,,0000*63
$GPGSA,M,3,32,03,14,20,19,11,06,,,,,,2.6,1.3,2.3*32
$GPRMC,230217.000,A,1338.0991,S,07252.7948,W,0.38,44.94,200411,,,A*5C
$GPGGA,230218.000,1338.0988,S,07252.7948,W,1,07,1.3,2428.2,M,26.9,M,,0000*6F
$GPGSA,M,3,32,03,14,20,19,11,06,,,,,,2.6,1.3,2.3*32
$GPRMC,230218.000,A,1338.0988,S,07252.7948,W,0.78,6.96,200411,,,A*6B
$GPGGA,230219.000,1338.0986,S,07252.7950,W,1,07,1.3,2426.7,M,26.9,M,,0000*62
$GPGSA,M,3,32,03,14,20,19,11,06,,,,,,2.6,1.3,2.3*32
$GPRMC,230219.000,A,1338.0986,S,07252.7950,W,0.65,29.57,200411,,,A*51
$GPGGA,230220.000,1338.0989,S,07252.7948,W,1,07,1.3,2427.7,M,26.9,M,,0000*6F
$GPGSA,M,3,32,03,14,20,19,11,06,,,,,,2.6,1.3,2.3*32
$GPGSV,3,1,12,19,78,193,21,03,66,016,19,06,50,032,16,32,50,256,23*7A
$GPGSV,3,2,12,11,30,210,15,20,28,275,22,14,28,132,24,24,22,218,*73
$GPGSV,3,3,12,23,17,337,,16,14,001,,31,12,057,,22,06,136,*78
$GPRMC,230220.000,A,1338.0989,S,07252.7948,W,1.25,35.05,200411,,,A*52
$GPGGA,230221.000,1338.0984,S,07252.7947,W,1,07,1.3,2426.7,M,26.9,M,,0000*6D
$GPGSA,M,3,32,03,14,20,19,11,06,,,,,,2.6,1.3,2.3*32
$GPRMC,230221.000,A,1338.0984,S,07252.7947,W,0.44,97.87,200411,,,A*55
$GPGGA,230222.000,1338.0987,S,07252.7949,W,1,07,1.3,2427.6,M,26.9,M,,0000*63
$GPGSA,M,3,32,03,14,20,19,11,06,,,,,,2.6,1.3,2.3*32
$GPRMC,230222.000,A,1338.0987,S,07252.7949,W,0.87,177.55,200411,,,A*64
$GPGGA,230223.000,1338.0993,S,07252.7952,W,1,07,1.3,2427.9,M,26.9,M,,0000*62
$GPGSA,M,3,32,03,14,20,19,11,06,,,,,,2.6,1.3,2.3*32
$GPRMC,230223.000,A,1338.0993,S,07252.7952,W,0.87,202.78,200411,,,A*64
$GPGGA,230224.000,1338.0993,S,07252.7948,W,1,06,1.3,2428.0,M,26.9,M,,0000*69
$GPGSA,M,3,32,14,20,19,11,06,,,,,,,2.7,1.3,2.4*37
$GPRMC,230224.000,A,1338.0993,S,07252.7948,W,0.69,181.96,200411,,,A*60
$GPGGA,230225.000,1338.0999,S,07252.7950,W,1,07,1.3,2427.5,M,26.9,M,,0000*60
$GPGSA,M,3,32,03,14,20,19,11,06,,,,,,2.6,1.3,2.3*32
$GPGSV,3,1,12,19,78,193,22,03,66,016,19,06,50,032,16,32,50,256,22*78
$GPGSV,3,2,12,11,30,210,15,20,28,275,22,14,28,132,24,24,22,218,*73
$GPGSV,3,3,12,23,17,337,,16,14,001,,31,12,057,,22,06,136,*78
$GPRMC,230225.000,A,1338.0999,S,07252.7950,W,2.09,203.35,200411,,,A*66
$GPGGA,230226.000,1338.1009,S,07252.7958,W,1,07,1.3,2427.7,M,26.9,M,,0000*68
$GPGSA,M,3,32,03,14,20,19,11,06,,,,,,2.6,1.3,2.3*32
$GPRMC,230226.000,A,1338.1009,S,07252.7958,W,2.33,209.98,200411,,,A*68
$GPGGA,230227.000,1338.1016,S,07252.7964,W,1,07,1.3,2427.0,M,26.9,M,,0000*6F
$GPGSA,M,3,32,03,14,20,19,11,06,,,,,,2.6,1.3,2.3*32
$GPRMC,230227.000,A,1338.1016,S,07252.7964,W,2.77,212.20,200411,,,A*61
$GPGGA,230228.000,1338.1015,S,07252.7965,W,1,07,1.3,2425.1,M,26.9,M,,0000*61
$GPGSA,M,3,32,03,14,20,19,11,06,,,,,,2.6,1.3,2.3*32
$GPRMC,230228.000,A,1338.1015,S,07252.7965,W,1.66,214.43,200411,,,A*6C
$GPGGA,230229.000,1338.1024,S,07252.7965,W,1,07,1.3,2426.5,M,26.9,M,,0000*65
$GPGSA,M,3,32,03,14,20,19,11,06,,,,,,2.6,1.3,2.3*32
$GPRMC,230229.000,A,1338.1024,S,07252.7965,W,1.53,193.02,200411,,,A*60
$GPGGA,230230.000,1338.1029,S,07252.7964,W,1,07,1.3,2426.5,M,26.9,M,,0000*61
$GPGSA,M,3,32,03,14,20,19,11,06,,,,,,2.6,1.3,2.3*32
$GPGSV,3,1,12,19,78,193,22,03,66,016,20,06,50,032,15,32,50,256,22*71
$GPGSV,3,2,12,11,30,210,15,20,28,275,22,14,28,132,25,24,22,218,*72
$GPGSV,3,3,12,23,17,337,,16,14,001,,31,12,057,,22,06,136,*78
$GPRMC,230230.000,A,1338.1029,S,07252.7964,W,1.86,181.17,200411,,,A*6B
$GPGGA,230231.000,1338.1033,S,07252.7967,W,1,07,1.3,2426.1,M,26.9,M,,0000*6C
$GPGSA,M,3,32,03,14,20,19,11,06,,,,,,2.6,1.3,2.3*32
$GPRMC,230231.000,A,1338.1033,S,07252.7967,W,0.69,194.32,200411,,,A*61
$GPGGA,230232.000,1338.1037,S,07252.7968,W,1,07,1.3,2428.1,M,26.9,M,,0000*6A
$GPGSA,M,3,32,03,14,20,19,11,06,,,,,,2.6,1.3,2.3*32
$GPRMC,230232.000,A,1338.1037,S,07252.7968,W,0.18,350.55,200411,,,A*64
$GPGGA,230233.000,1338.1036,S,07252.7967,W,1,07,1.3,2428.6,M,26.9,M,,0000*62
$GPGSA,M,3,32,03,14,20,19,11,06,,,,,,2.6,1.3,2.3*32
$GPRMC,230233.000,A,1338.1036,S,07252.7967,W,0.85,41.95,200411,,,A*50
$GPGGA,230234.000,1338.1032,S,07252.7963,W,1,07,1.3,2431.0,M,26.9,M,,0000*6B
$GPGSA,M,3,32,03,14,20,19,11,06,,,,,,2.6,1.3,2.3*32
$GPRMC,230234.000,A,1338.1032,S,07252.7963,W,0.97,28.88,200411,,,A*57
$GPGGA,230235.000,1338.1032,S,07252.7964,W,1,07,1.3,2432.0,M,26.9,M,,0000*6E
$GPGSA,M,3,32,03,14,20,19,11,06,,,,,,2.6,1.3,2.3*32
$GPGSV,3,1,12,19,78,193,22,03,66,016,20,06,50,032,16,32,50,256,22*72
$GPGSV,3,2,12,11,30,210,15,20,28,275,22,14,28,132,25,24,22,218,*72
$GPGSV,3,3,12,23,17,337,,16,14,001,,31,12,057,,22,06,136,*78
$GPRMC,230235.000,A,1338.1032,S,07252.7964,W,0.74,46.70,200411,,,A*53
$GPGGA,230236.000,1338.1030,S,07252.7961,W,1,07,1.3,2433.5,M,26.9,M,,0000*6E
$GPGSA,M,3,32,03,14,20,19,11,06,,,,,,2.6,1.3,2.3*32
$GPRMC,230236.000,A,1338.1030,S,07252.7961,W,0.88,59.51,200411,,,A*59
$GPGGA,230237.000,1338.1024,S,07252.7959,W,1,07,1.3,2432.7,M,26.9,M,,0000*62
$GPGSA,M,3,32,03,14,20,19,11,06,,,,,,2.6,1.3,2.3*32
$GPRMC,230237.000,A,1338.1024,S,07252.7959,W,0.47,77.07,200411,,,A*5A
$GPGGA,230238.000,1338.1018,S,07252.7958,W,1,07,1.3,2431.6,M,26.9,M,,0000*61
$GPGSA,M,3,32,03,14,20,19,11,06,,,,,,2.6,1.3,2.3*32
$GPRMC,230238.000,A,1338.1018,S,07252.7958,W,0.18,65.20,200411,,,A*57
$GPGGA,230239.000,1338.1012,S,07252.7957,W,1,07,1.3,2431.5,M,26.9,M,,0000*66
$GPGSA,M,3,32,03,14,20,19,11,06,,,,,,2.6,1.3,2.3*32
$GPRMC,230239.000,A,1338.1012,S,07252.7957,W,0.47,206.61,200411,,,A*6B
$GPGGA,230240.000,1338.1016,S,07252.7958,W,1,07,1.3,2432.3,M,26.9,M,,0000*66
$GPGSA,M,3,32,03,14,20,19,11,06,,,,,,2.6,1.3,2.3*32
$GPGSV,3,1,12,19,78,193,22,03,66,016,19,06,50,032,17,32,50,256,22*79
$GPGSV,3,2,12,11,30,210,14,20,28,275,22,14,28,132,24,24,22,218,*72
$GPGSV,3,3,12,23,17,337,,16,14,001,,31,12,057,,22,06,136,*78
$GPRMC,230240.000,A,1338.1016,S,07252.7958,W,1.09,213.42,200411,,,A*60
$GPGGA,230241.000,1338.1015,S,07252.7956,W,1,07,1.3,2431.9,M,26.9,M,,0000*63
$GPGSA,M,3,32,03,14,20,19,11,06,,,,,,2.6,1.3,2.3*32
$GPRMC,230241.000,A,1338.1015,S,07252.7956,W,0.82,216.09,200411,,,A*64
$GPGGA,230242.000,1338.1012,S,07252.7955,W,1,07,1.3,2429.7,M,26.9,M,,0000*63
$GPGSA,M,3,32,03,14,20,19,11,06,,,,,,2.6,1.3,2.3*32
$GPRMC,230242.000,A,1338.1012,S,07252.7955,W,0.48,4.71,200411,,,A*6B
$GPGGA,230243.000,1338.1012,S,07252.7954,W,1,07,1.3,2429.4,M,26.9,M,,0000*60
$GPGSA,M,3,32,03,14,20,19,11,06,,,,,,2.6,1.3,2.3*32
$GPRMC,230243.000,A,1338.1012,S,07252.7954,W,0.60,19.07,200411,,,A*5C
$GPGGA,230244.000,1338.1011,S,07252.7951,W,1,07,1.3,2428.8,M,26.9,M,,0000*6C
$GPGSA,M,3,32,03,14,20,19,11,06,,,,,,2.6,1.3,2.3*32
$GPRMC,230244.000,A,1338.1011,S,07252.7951,W,0.69,25.71,200411,,,A*5A
$GPGGA,230245.000,1338.1006,S,07252.7950,W,1,07,1.3,2426.5,M,26.9,M,,0000*69
$GPGSA,M,3,32,03,14,20,19,11,06,,,,,,2.6,1.3,2.3*32
$GPGSV,3,1,12,19,78,193,22,03,66,016,19,06,50,032,17,32,50,256,22*79
$GPGSV,3,2,12,11,30,210,14,20,28,275,21,14,28,132,24,24,22,218,*71
$GPGSV,3,3,12,23,17,337,,16,14,001,,31,12,057,,22,06,136,*78
$GPRMC,230245.000,A,1338.1006,S,07252.7950,W,0.88,3.92,200411,,,A*6A
$GPGGA,230246.000,1338.1013,S,07252.7950,W,1,07,1.3,2428.4,M,26.9,M,,0000*61
$GPGSA,M,3,32,03,14,20,19,11,06,,,,,,2.6,1.3,2.3*32
$GPRMC,230246.000,A,1338.1013,S,07252.7950,W,0.63,47.63,200411,,,A*56
$GPGGA,230247.000,1338.1015,S,07252.7949,W,1,07,1.3,2429.8,M,26.9,M,,0000*63
$GPGSA,M,3,32,03,14,20,19,11,06,,,,,,2.6,1.3,2.3*32
$GPRMC,230247.000,A,1338.1015,S,07252.7949,W,0.91,61.29,200411,,,A*5E
$GPGGA,230248.000,1338.1014,S,07252.7949,W,1,07,1.3,2431.1,M,26.9,M,,0000*6D
$GPGSA,M,3,32,03,14,20,19,11,06,,,,,,2.6,1.3,2.3*32
$GPRMC,230248.000,A,1338.1014,S,07252.7949,W,0.97,67.60,200411,,,A*5D
$GPGGA,230249.000,1338.1011,S,07252.7947,W,1,07,1.3,2430.8,M,26.9,M,,0000*6F
$GPGSA,M,3,32,03,14,20,19,11,06,,,,,,2.6,1.3,2.3*32
$GPRMC,230249.000,A,1338.1011,S,07252.7947,W,0.83,11.70,200411,,,A*52
$GPGGA,230250.000,1338.1011,S,07252.7946,W,1,07,1.3,2432.1,M,26.9,M,,0000*6D
$GPGSA,M,3,32,03,14,20,19,11,06,,,,,,2.6,1.3,2.3*32
$GPGSV,3,1,12,19,78,193,22,03,66,016,20,06,50,032,19,32,50,256,22*7D
$GPGSV,3,2,12,11,30,210,13,20,28,275,21,14,28,132,25,24,22,218,*77
$GPGSV,3,3,12,23,17,337,,16,14,001,,31,12,057,17,22,06,136,*7E
$GPRMC,230250.000,A,1338.1011,S,07252.7946,W,0.13,136.32,200411,,,A*60
$GPGGA,230251.000,1338.1014,S,07252.7945,W,1,07,1.3,2434.1,M,26.9,M,,0000*6C
$GPGSA,M,3,32,03,14,20,19,11,06,,,,,,2.6,1.3,2.3*32
$GPRMC,230251.000,A,1338.1014,S,07252.7945,W,1.09,54.40,200411,,,A*5D
$GPGGA,230252.000,1338.1014,S,07252.7940,W,1,07,1.3,2436.1,M,26.9,M,,0000*68
$GPGSA,M,3,32,03,14,20,19,11,06,,,,,,2.6,1.3,2.3*32
$GPRMC,230252.000,A,1338.1014,S,07252.7940,W,0.55,80.08,200411,,,A*56
$GPGGA,230253.000,1338.1013,S,07252.7941,W,1,07,1.3,2435.5,M,26.9,M,,0000*68
$GPGSA,M,3,32,03,14,20,19,11,06,,,,,,2.6,1.3,2.3*32
$GPRMC,230253.000,A,1338.1013,S,07252.7941,W,0.38,97.06,200411,,,A*52
$GPGGA,230254.000,1338.1011,S,07252.7939,W,1,07,1.3,2436.3,M,26.9,M,,0000*67
$GPGSA,M,3,32,03,14,20,19,11,06,,,,,,2.6,1.3,2.3*32
$GPRMC,230254.000,A,1338.1011,S,07252.7939,W,0.30,146.01,200411,,,A*6A
$GPGGA,230255.000,1338.1006,S,07252.7936,W,1,07,1.3,2436.4,M,26.9,M,,0000*68
$GPGSA,M,3,32,03,14,20,19,11,06,,,,,,2.6,1.3,2.3*32
$GPGSV,3,1,12,19,78,193,21,03,66,016,20,06,50,032,19,32,50,256,22*7E
$GPGSV,3,2,12,11,30,210,13,20,28,275,22,14,28,132,25,24,22,218,*74
$GPGSV,3,3,12,23,17,337,,16,14,001,,31,12,057,17,22,06,136,*7E
$GPRMC,230255.000,A,1338.1006,S,07252.7936,W,0.16,84.56,200411,,,A*5B
$GPGGA,230256.000,1338.1006,S,07252.7934,W,1,07,1.3,2438.1,M,26.9,M,,0000*62
$GPGSA,M,3,32,03,14,20,19,11,06,,,,,,2.6,1.3,2.3*32
$GPRMC,230256.000,A,1338.1006,S,07252.7934,W,0.28,91.16,200411,,,A*57
$GPGGA,230257.000,1338.1009,S,07252.7933,W,1,07,1.3,2440.0,M,26.9,M,,0000*65
$GPGSA,M,3,32,03,14,20,19,11,06,,,,,,2.6,1.3,2.3*32
$GPRMC,230257.000,A,1338.1009,S,07252.7933,W,0.72,175.21,200411,,,A*6E
$GPGGA,230258.000,1338.1016,S,07252.7937,W,1,07,1.3,2440.9,M,26.9,M,,0000*69
$GPGSA,M,3,32,03,14,20,19,11,06,,,,,,2.6,1.3,2.3*32
$GPRMC,230258.000,A,1338.1016,S,07252.7937,W,1.40,187.45,200411,,,A*64
$GPGGA,230259.000,1338.1020,S,07252.7939,W,1,07,1.3,2441.5,M,26.9,M,,0000*6E
$GPGSA,M,3,32,03,14,20,19,11,06,,,,,,2.6,1.3,2.3*32
$GPRMC,230259.000,A,1338.1020,S,07252.7939,W,0.96,188.34,200411,,,A*6D
$GPGGA,230300.000,1338.1022,S,07252.7941,W,1,07,1.3,2441.0,M,26.9,M,,0000*6B
$GPGSA,M,3,32,03,14,20,19,11,06,,,,,,2.6,1.3,2.3*32
$GPGSV,3,1,12,19,78,193,21,03,66,016,21,06,50,032,19,32,50,256,22*7F
$GPGSV,3,2,12,11,30,210,13,20,28,275,22,14,28,132,26,24,22,218,*77
$GPGSV,3,3,12,23,17,337,,16,14,001,,31,12,057,17,22,06,136,*7E
$GPRMC,230300.000,A,1338.1022,S,07252.7941,W,0.62,190.32,200411,,,A*69
$GPGGA,230301.000,1338.1026,S,07252.7945,W,1,07,1.3,2441.8,M,26.9,M,,0000*62
$GPGSA,M,3,32,03,14,20,19,11,06,,,,,,2.6,1.3,2.3*32
$GPRMC,230301.000,A,1338.1026,S,07252.7945,W,0.74,203.39,200411,,,A*6D
$GPGGA,230302.000,1338.1033,S,07252.7948,W,1,07,1.3,2442.8,M,26.9,M,,0000*6B
$GPGSA,M,3,32,03,14,20,19,11,06,,,,,,2.6,1.3,2.3*32
$GPRMC,230302.000,A,1338.1033,S,07252.7948,W,0.82,184.27,200411,,,A*6D
$GPGGA,230303.000,1338.1033,S,07252.7945,W,1,06,1.6,2443.9,M,26.9,M,,0000*63
$GPGSA,M,3,32,03,14,20,19,11,,,,,,,2.9,1.6,2.4*39
$GPRMC,230303.000,A,1338.1033,S,07252.7945,W,0.32,184.07,200411,,,A*68
$GPGGA,230304.000,1338.1029,S,07252.7945,W,1,07,1.3,2443.9,M,26.9,M,,0000*6B
$GPGSA,M,3,32,03,14,20,19,11,06,,,,,,2.6,1.3,2.3*32
$GPRMC,230304.000,A,1338.1029,S,07252.7945,W,0.47,205.89,200411,,,A*6A
$GPGGA,230305.000,1338.1024,S,07252.7944,W,1,07,1.3,2442.7,M,26.9,M,,0000*69
$GPGSA,M,3,32,03,14,20,19,11,06,,,,,,2.6,1.3,2.3*32
$GPGSV,3,1,12,19,78,193,21,03,66,016,21,06,50,032,19,32,50,256,22*7F
$GPGSV,3,2,12,11,30,210,13,20,28,275,21,14,28,132,26,24,22,218,*74
$GPGSV,3,3,12,23,17,337,,16,14,001,,31,12,057,18,22,06,136,*71
$GPRMC,230305.000,A,1338.1024,S,07252.7944,W,0.42,173.03,200411,,,A*62
$GPGGA,230306.000,1338.1020,S,07252.7947,W,1,06,1.6,2442.3,M,26.9,M,,0000*6D
$GPGSA,M,3,32,03,14,20,19,11,,,,,,,2.9,1.6,2.4*39
$GPRMC,230306.000,A,1338.1020,S,07252.7947,W,0.42,170.64,200411,,,A*64
$GPGGA,230307.000,1338.1025,S,07252.7954,W,1,06,1.8,2441.2,M,26.9,M,,0000*67
$GPGSA,M,3,32,03,20,19,11,06,,,,,,,3.5,1.8,3.0*3C
$GPRMC,230307.000,A,1338.1025,S,07252.7954,W,0.87,258.37,200411,,,A*64
