$GPGGA,165126.998,2303.6154,S,07019.6046,W,1,09,0.9,94.2,M,34.3,M,,0000*68
$GPGSA,M,3,21,25,31,30,18,29,22,16,06,,,,1.8,0.9,1.5*3C
$GPRMC,165126.998,A,2303.6154,S,07019.6046,W,29.82,190.30,020511,,,A*5C
$GPGGA,165128.000,2303.6239,S,07019.6065,W,1,09,0.9,93.8,M,34.3,M,,0000*6A
$GPGSA,M,3,21,25,31,30,18,29,22,16,06,,,,1.8,0.9,1.5*3C
$GPRMC,165128.000,A,2303.6239,S,07019.6065,W,30.16,190.08,020511,,,A*5D
$GPGGA,165129.000,2303.6320,S,07019.6080,W,1,09,0.9,92.3,M,34.3,M,,0000*63
$GPGSA,M,3,21,25,31,30,18,29,22,16,06,,,,1.8,0.9,1.5*3C
$GPGSV,3,1,11,21,75,189,37,25,46,052,39,31,41,291,35,30,36,215,33*7D
$GPGSV,3,2,11,18,35,021,37,29,33,128,36,22,14,353,35,16,13,218,36*78
$GPGSV,3,3,11,06,09,250,37,12,07,046,,03,00,253,*44
$GPRMC,165129.000,A,2303.6320,S,07019.6080,W,30.29,190.34,020511,,,A*5D
$GPGGA,165130.001,2303.6401,S,07019.6098,W,1,09,0.9,91.6,M,34.3,M,,0000*61
$GPGSA,M,3,21,25,31,30,18,29,22,16,06,,,,1.8,0.9,1.5*3C
$GPGSV,3,1,11,21,75,189,37,25,46,052,39,31,41,291,36,30,36,215,32*7F
$GPGSV,3,2,11,18,35,021,36,29,33,128,35,22,14,353,34,16,13,218,35*78
$GPGSV,3,3,11,06,09,250,36,12,07,046,,03,00,253,*45
$GPRMC,165130.001,A,2303.6401,S,07019.6098,W,30.00,189.52,020511,,,A*5A
$GPGGA,165130.999,2303.6483,S,07019.6113,W,1,09,0.9,91.1,M,34.3,M,,0000*66
$GPGSA,M,3,21,25,31,30,18,29,22,16,06,,,,1.8,0.9,1.5*3C
$GPRMC,165130.999,A,2303.6483,S,07019.6113,W,30.03,189.54,020511,,,A*5F
$GPGGA,165132.000,2303.6567,S,07019.6126,W,1,09,0.9,90.4,M,34.3,M,,0000*64
$GPGSA,M,3,21,25,31,30,18,29,22,16,06,,,,1.8,0.9,1.5*3C
$GPRMC,165132.000,A,2303.6567,S,07019.6126,W,29.82,190.46,020511,,,A*53
$GPGGA,165132.999,2303.6648,S,07019.6143,W,1,09,0.9,90.0,M,34.3,M,,0000*64
$GPGSA,M,3,21,25,31,30,18,29,22,16,06,,,,1.8,0.9,1.5*3C
$GPRMC,165132.999,A,2303.6648,S,07019.6143,W,29.99,189.70,020511,,,A*50
$GPGGA,165133.999,2303.6732,S,07019.6160,W,1,08,1.0,90.4,M,34.3,M,,0000*65
$GPGSA,M,3,21,25,31,30,18,29,22,16,,,,,1.9,1.0,1.7*31
$GPRMC,165133.999,A,2303.6732,S,07019.6160,W,30.06,190.01,020511,,,A*5C
$GPGGA,165134.998,2303.6810,S,07019.6179,W,1,09,0.9,90.6,M,34.3,M,,0000*6F
$GPGSA,M,3,21,25,31,30,18,29,22,16,06,,,,1.8,0.9,1.5*3C
$GPGSV,3,1,11,21,75,189,37,25,46,052,39,31,41,291,35,30,36,215,32*7C
$GPGSV,3,2,11,18,35,021,37,29,33,128,36,22,14,353,35,16,13,218,31*7F
$GPGSV,3,3,11,06,09,250,37,12,07,046,,03,00,253,*44
$GPRMC,165134.998,A,2303.6810,S,07019.6179,W,29.83,190.91,020511,,,A*51
$GPGGA,165136.000,2303.6891,S,07019.6196,W,1,09,0.9,90.9,M,34.3,M,,0000*62
$GPGSA,M,3,21,25,31,30,18,29,22,16,06,,,,1.8,0.9,1.5*3C
$GPRMC,165136.000,A,2303.6891,S,07019.6196,W,29.62,190.37,020511,,,A*50
$GPGGA,165137.004,2303.6972,S,07019.6214,W,1,09,0.9,91.3,M,34.3,M,,0000*69
$GPGSA,M,3,21,25,31,30,18,29,22,16,06,,,,1.8,0.9,1.5*3C
$GPRMC,165137.004,A,2303.6972,S,07019.6214,W,30.07,190.01,020511,,,A*5E
$GPGGA,165138.005,2303.7057,S,07019.6230,W,1,09,0.9,91.3,M,34.3,M,,0000*6E
$GPGSA,M,3,21,25,31,30,18,29,22,16,06,,,,1.8,0.9,1.5*3C
$GPRMC,165138.005,A,2303.7057,S,07019.6230,W,29.84,190.20,020511,,,A*59
$GPGGA,165138.991,2303.7136,S,07019.6247,W,1,09,0.9,91.7,M,34.3,M,,0000*68
$GPGSA,M,3,21,25,31,30,18,29,22,16,06,,,,1.8,0.9,1.5*3C
$GPRMC,165138.991,A,2303.7136,S,07019.6247,W,29.92,190.08,020511,,,A*56
$GPGGA,165140.000,2303.7217,S,07019.6266,W,1,09,0.9,92.8,M,34.3,M,,0000*69
$GPGSA,M,3,21,25,31,30,18,29,22,16,06,,,,1.8,0.9,1.5*3C
$GPGSV,3,1,11,21,75,189,37,25,46,052,38,31,41,291,36,30,36,215,30*7C
$GPGSV,3,2,11,18,35,021,37,29,33,128,36,22,14,353,35,16,13,218,30*7E
$GPGSV,3,3,11,06,09,250,35,12,07,046,,03,00,253,*46
$GPRMC,165140.000,A,2303.7217,S,07019.6266,W,29.42,190.48,020511,,,A*52
$GPGGA,165141.004,2303.7297,S,07019.6282,W,1,09,0.9,92.8,M,34.3,M,,0000*6E
$GPGSA,M,3,21,25,31,30,18,29,22,16,06,,,,1.8,0.9,1.5*3C
$GPRMC,165141.004,A,2303.7297,S,07019.6282,W,29.81,190.76,020511,,,A*57
$GPGGA,165141.996,2303.7378,S,07019.6300,W,1,09,0.9,93.5,M,34.3,M,,0000*6B
$GPGSA,M,3,21,25,31,30,18,29,22,16,06,,,,1.8,0.9,1.5*3C
$GPRMC,165141.996,A,2303.7378,S,07019.6300,W,30.18,190.66,020511,,,A*57
$GPGGA,165143.000,2303.7462,S,07019.6318,W,1,09,0.9,93.6,M,34.3,M,,0000*69
$GPGSA,M,3,21,25,31,30,18,29,22,16,06,,,,1.8,0.9,1.5*3C
$GPRMC,165143.000,A,2303.7462,S,07019.6318,W,30.39,190.39,020511,,,A*5F
$GPGGA,165143.998,2303.7543,S,07019.6335,W,1,08,1.0,93.7,M,34.3,M,,0000*64
$GPGSA,M,3,21,25,31,30,18,29,22,16,,,,,1.9,1.0,1.7*31
$GPRMC,165143.998,A,2303.7543,S,07019.6335,W,30.48,190.99,020511,,,A*56
$GPGGA,165145.000,2303.7623,S,07019.6356,W,1,08,1.0,94.5,M,34.3,M,,0000*6F
$GPGSA,M,3,21,25,31,30,18,29,22,16,,,,,1.9,1.0,1.7*31
$GPGSV,3,1,11,21,75,189,37,25,46,052,39,31,41,291,35,30,36,215,31*7F
$GPGSV,3,2,11,18,35,021,37,29,33,128,36,22,14,353,35,16,13,218,35*7B
$GPGSV,3,3,11,06,09,250,,12,07,046,,03,00,253,*40
$GPRMC,165145.000,A,2303.7623,S,07019.6356,W,30.55,190.42,020511,,,A*52
$GPGGA,165146.002,2303.7706,S,07019.6373,W,1,09,0.9,94.7,M,34.3,M,,0000*64
$GPGSA,M,3,21,25,31,30,18,29,22,16,06,,,,1.8,0.9,1.5*3C
$GPRMC,165146.002,A,2303.7706,S,07019.6373,W,30.27,191.07,020511,,,A*57
$GPGGA,165147.000,2303.7791,S,07019.6391,W,1,09,0.9,95.0,M,34.3,M,,0000*63
$GPGSA,M,3,21,25,31,30,18,29,22,16,06,,,,1.8,0.9,1.5*3C
$GPRMC,165147.000,A,2303.7791,S,07019.6391,W,30.31,190.76,020511,,,A*56
$GPGGA,165148.000,2303.7875,S,07019.6409,W,1,09,0.9,94.5,M,34.3,M,,0000*6B
$GPGSA,M,3,21,25,31,30,18,29,22,16,06,,,,1.8,0.9,1.5*3C
$GPRMC,165148.000,A,2303.7875,S,07019.6409,W,30.26,192.04,020511,,,A*5B
$GPGGA,165149.000,2303.7960,S,07019.6425,W,1,09,0.9,94.5,M,34.3,M,,0000*61
$GPGSA,M,3,21,25,31,30,18,29,22,16,06,,,,1.8,0.9,1.5*3C
$GPRMC,165149.000,A,2303.7960,S,07019.6425,W,30.46,190.09,020511,,,A*58
$GPGGA,165150.000,2303.8042,S,07019.6444,W,1,09,0.9,95.4,M,34.3,M,,0000*68
$GPGSA,M,3,21,25,31,30,18,29,22,16,06,,,,1.8,0.9,1.5*3C
$GPGSV,3,1,11,21,75,189,37,25,46,052,37,31,41,291,35,30,36,215,33*73
$GPGSV,3,2,11,18,35,021,37,29,33,128,35,22,14,353,35,16,13,218,35*78
$GPGSV,3,3,11,06,09,250,31,12,07,046,,03,00,253,*42
$GPRMC,165150.000,A,2303.8042,S,07019.6444,W,30.23,190.20,020511,,,A*59
$GPGGA,165151.000,2303.8129,S,07019.6454,W,1,09,0.9,95.9,M,34.3,M,,0000*69
$GPGSA,M,3,21,25,31,30,18,29,22,16,06,,,,1.8,0.9,1.5*3C
$GPRMC,165151.000,A,2303.8129,S,07019.6454,W,29.81,190.30,020511,,,A*54
$GPGGA,165152.000,2303.8210,S,07019.6471,W,1,09,0.9,96.2,M,34.3,M,,0000*6C
$GPGSA,M,3,21,25,31,30,18,29,22,16,06,,,,1.8,0.9,1.5*3C
$GPRMC,165152.000,A,2303.8210,S,07019.6471,W,29.75,190.90,020511,,,A*58
$GPGGA,165153.000,2303.8291,S,07019.6487,W,1,09,0.9,96.1,M,34.3,M,,0000*6E
$GPGSA,M,3,21,25,31,30,18,29,22,16,06,,,,1.8,0.9,1.5*3C
$GPRMC,165153.000,A,2303.8291,S,07019.6487,W,29.51,191.43,020511,,,A*50
$GPGGA,165154.000,2303.8370,S,07019.6507,W,1,09,0.9,96.1,M,34.3,M,,0000*6E
$GPGSA,M,3,21,25,31,30,18,29,22,16,06,,,,1.8,0.9,1.5*3C
$GPRMC,165154.000,A,2303.8370,S,07019.6507,W,29.30,191.17,020511,,,A*56
$GPGGA,165155.000,2303.8451,S,07019.6524,W,1,09,0.9,96.9,M,34.3,M,,0000*62
$GPGSA,M,3,21,25,31,30,18,29,22,16,06,,,,1.8,0.9,1.5*3C
$GPGSV,3,1,11,21,75,189,37,25,46,052,39,31,41,291,34,30,36,215,32*7D
$GPGSV,3,2,11,18,35,021,37,29,33,128,36,22,14,353,35,16,13,218,34*7A
$GPGSV,3,3,11,06,09,250,32,12,07,046,,03,00,253,*41
$GPRMC,165155.000,A,2303.8451,S,07019.6524,W,29.57,190.22,020511,,,A*54
$GPGGA,165156.000,2303.8534,S,07019.6543,W,1,09,0.9,97.6,M,34.3,M,,0000*6C
$GPGSA,M,3,21,25,31,30,18,29,22,16,06,,,,1.8,0.9,1.5*3C
$GPRMC,165156.000,A,2303.8534,S,07019.6543,W,29.66,190.18,020511,,,A*5F
$GPGGA,165157.000,2303.8618,S,07019.6560,W,1,09,0.9,98.6,M,34.3,M,,0000*6E
$GPGSA,M,3,21,25,31,30,18,29,22,16,06,,,,1.8,0.9,1.5*3C
$GPRMC,165157.000,A,2303.8618,S,07019.6560,W,29.93,190.55,020511,,,A*51
$GPGGA,165158.000,2303.8699,S,07019.6579,W,1,09,0.9,99.8,M,34.3,M,,0000*6F
$GPGSA,M,3,21,25,31,30,18,29,22,16,06,,,,1.8,0.9,1.5*3C
$GPRMC,165158.000,A,2303.8699,S,07019.6579,W,29.27,191.57,020511,,,A*53
$GPGGA,165159.000,2303.8781,S,07019.6596,W,1,09,0.9,99.5,M,34.3,M,,0000*6A
$GPGSA,M,3,21,25,31,30,18,29,22,16,06,,,,1.8,0.9,1.5*3C
$GPRMC,165159.000,A,2303.8781,S,07019.6596,W,29.44,190.62,020511,,,A*59
$GPGGA,165200.000,2303.8863,S,07019.6613,W,1,09,0.9,99.3,M,34.3,M,,0000*6E
$GPGSA,M,3,21,25,31,30,18,29,22,16,06,,,,1.8,0.9,1.5*3C
$GPGSV,3,1,11,21,75,189,38,25,46,052,40,31,41,291,35,30,36,215,31*7E
$GPGSV,3,2,11,18,35,021,37,29,33,128,36,22,14,353,35,16,13,218,34*7A
$GPGSV,3,3,11,06,09,250,37,12,07,046,,03,00,253,*44
$GPRMC,165200.000,A,2303.8863,S,07019.6613,W,29.54,190.83,020511,,,A*55
$GPGGA,165201.000,2303.8945,S,07019.6628,W,1,09,0.9,99.2,M,34.3,M,,0000*63
$GPGSA,M,3,21,25,31,30,18,29,22,16,06,,,,1.8,0.9,1.5*3C
$GPRMC,165201.000,A,2303.8945,S,07019.6628,W,29.49,190.39,020511,,,A*54
$GPGGA,165202.000,2303.9026,S,07019.6646,W,1,09,0.9,99.9,M,34.3,M,,0000*6E
$GPGSA,M,3,21,25,31,30,18,29,22,16,06,,,,1.8,0.9,1.5*3C
$GPRMC,165202.000,A,2303.9026,S,07019.6646,W,30.07,190.39,020511,,,A*50
$GPGGA,165203.001,2303.9112,S,07019.6662,W,1,09,0.9,99.6,M,34.3,M,,0000*61
$GPGSA,M,3,21,25,31,30,18,29,22,16,06,,,,1.8,0.9,1.5*3C
$GPRMC,165203.001,A,2303.9112,S,07019.6662,W,29.60,190.39,020511,,,A*59
$GPGGA,165203.999,2303.9194,S,07019.6679,W,1,09,0.9,101.0,M,34.3,M,,0000*5B
$GPGSA,M,3,21,25,31,30,18,29,22,16,06,,,,1.8,0.9,1.5*3C
$GPRMC,165203.999,A,2303.9194,S,07019.6679,W,29.44,191.26,020511,,,A*5C
$GPGGA,165204.999,2303.9273,S,07019.6697,W,1,09,0.9,100.5,M,34.3,M,,0000*52
$GPGSA,M,3,21,25,31,30,18,29,22,16,06,,,,1.8,0.9,1.5*3C
$GPGSV,3,1,11,21,75,189,37,25,46,052,39,31,41,291,36,30,36,215,31*7C
$GPGSV,3,2,11,18,35,021,36,29,33,128,35,22,14,353,35,16,13,218,33*7F
$GPGSV,3,3,11,06,09,250,28,12,07,046,,03,00,253,*4A
$GPRMC,165204.999,A,2303.9273,S,07019.6697,W,29.48,190.94,020511,,,A*55
$GPGGA,165206.000,2303.9354,S,07019.6715,W,1,09,0.9,101.9,M,34.3,M,,0000*5B
$GPGSA,M,3,21,25,31,30,18,29,22,16,06,,,,1.8,0.9,1.5*3C
$GPRMC,165206.000,A,2303.9354,S,07019.6715,W,28.91,190.38,020511,,,A*52
$GPGGA,165206.999,2303.9432,S,07019.6731,W,1,09,0.9,101.9,M,34.3,M,,0000*53
$GPGSA,M,3,21,25,31,30,18,29,22,16,06,,,,1.8,0.9,1.5*3C
$GPRMC,165206.999,A,2303.9432,S,07019.6731,W,29.21,190.87,020511,,,A*54
$GPGGA,165208.000,2303.9513,S,07019.6743,W,1,09,0.9,99.8,M,34.3,M,,0000*62
$GPGSA,M,3,21,25,31,30,18,29,22,16,06,,,,1.8,0.9,1.5*3C
$GPRMC,165208.000,A,2303.9513,S,07019.6743,W,28.61,189.61,020511,,,A*51
$GPGGA,165209.002,2303.9592,S,07019.6759,W,1,09,0.9,99.4,M,34.3,M,,0000*6F
$GPGSA,M,3,21,25,31,30,18,29,22,16,06,,,,1.8,0.9,1.5*3C
$GPRMC,165209.002,A,2303.9592,S,07019.6759,W,29.25,191.02,020511,,,A*5D
$GPGGA,165209.997,2303.9669,S,07019.6777,W,1,09,0.9,100.0,M,34.3,M,,0000*54
$GPGSA,M,3,21,25,31,30,18,29,22,16,06,,,,1.8,0.9,1.5*3C
$GPGSV,3,1,11,21,75,189,38,25,46,052,39,31,41,291,36,30,36,215,32*70
$GPGSV,3,2,11,18,35,021,36,29,33,128,36,22,14,353,35,16,13,218,33*7C
$GPGSV,3,3,11,06,09,250,35,12,07,046,,03,00,253,*46
$GPRMC,165209.997,A,2303.9669,S,07019.6777,W,28.95,191.19,020511,,,A*53
$GPGGA,165211.001,2303.9746,S,07019.6792,W,1,09,0.9,99.9,M,34.3,M,,0000*64
$GPGSA,M,3,21,25,31,30,18,29,22,16,06,,,,1.8,0.9,1.5*3C
$GPRMC,165211.001,A,2303.9746,S,07019.6792,W,29.10,190.12,020511,,,A*5D
$GPGGA,165212.000,2303.9824,S,07019.6810,W,1,09,0.9,99.8,M,34.3,M,,0000*69
$GPGSA,M,3,21,25,31,30,18,29,22,16,06,,,,1.8,0.9,1.5*3C
$GPRMC,165212.000,A,2303.9824,S,07019.6810,W,28.99,191.41,020511,,,A*56
$GPGGA,165212.998,2303.9901,S,07019.6828,W,1,09,0.9,100.7,M,34.3,M,,0000*52
$GPGSA,M,3,21,25,31,30,18,29,22,16,06,,,,1.8,0.9,1.5*3C
$GPRMC,165212.998,A,2303.9901,S,07019.6828,W,28.93,190.87,020511,,,A*52
$GPGGA,165214.000,2303.9980,S,07019.6846,W,1,09,0.9,101.0,M,34.3,M,,0000*5B
$GPGSA,M,3,21,25,31,30,18,29,22,16,06,,,,1.8,0.9,1.5*3C
$GPRMC,165214.000,A,2303.9980,S,07019.6846,W,28.78,191.39,020511,,,A*5C
$GPGGA,165215.004,2304.0061,S,07019.6862,W,1,09,0.9,101.8,M,34.3,M,,0000*58
$GPGSA,M,3,21,25,31,30,18,29,22,16,06,,,,1.8,0.9,1.5*3C
$GPGSV,3,1,11,21,75,189,37,25,46,052,39,31,41,291,34,30,36,215,32*7D
$GPGSV,3,2,11,18,35,021,36,29,33,128,35,22,14,353,34,16,13,218,35*78
$GPGSV,3,3,11,06,09,250,35,12,07,046,,03,00,253,*46
$GPRMC,165215.004,A,2304.0061,S,07019.6862,W,28.80,191.92,020511,,,A*51
$GPGGA,165215.994,2304.0139,S,07019.6880,W,1,09,0.9,102.1,M,34.3,M,,0000*52
$GPGSA,M,3,21,25,31,30,18,29,22,16,06,,,,1.8,0.9,1.5*3C
$GPRMC,165215.994,A,2304.0139,S,07019.6880,W,29.19,190.67,020511,,,A*5B
$GPGGA,165217.002,2304.0221,S,07019.6895,W,1,09,0.9,101.5,M,34.3,M,,0000*5F
$GPGSA,M,3,21,25,31,30,18,29,22,16,06,,,,1.8,0.9,1.5*3C
$GPRMC,165217.002,A,2304.0221,S,07019.6895,W,29.17,190.77,020511,,,A*5E
$GPGGA,165218.000,2304.0299,S,07019.6915,W,1,09,0.9,102.3,M,34.3,M,,0000*5D
$GPGSA,M,3,21,25,31,30,18,29,22,16,06,,,,1.8,0.9,1.5*3C
$GPRMC,165218.000,A,2304.0299,S,07019.6915,W,29.56,190.44,020511,,,A*5C
$GPGGA,165219.000,2304.0379,S,07019.6931,W,1,09,0.9,102.3,M,34.3,M,,0000*55
$GPGSA,M,3,21,25,31,30,18,29,22,16,06,,,,1.8,0.9,1.5*3C
$GPRMC,165219.000,A,2304.0379,S,07019.6931,W,29.28,190.52,020511,,,A*5A
$GPGGA,165220.000,2304.0459,S,07019.6945,W,1,09,0.9,102.1,M,34.3,M,,0000*5B
$GPGSA,M,3,21,25,31,30,18,29,22,16,06,,,,1.8,0.9,1.5*3C
$GPGSV,3,1,11,21,75,189,38,25,46,052,38,31,41,291,36,30,36,215,31*72
$GPGSV,3,2,11,18,35,021,37,29,33,128,36,22,14,353,36,16,13,218,34*79
$GPGSV,3,3,11,06,09,250,30,12,07,046,,03,00,253,*43
$GPRMC,165220.000,A,2304.0459,S,07019.6945,W,29.55,190.64,020511,,,A*59
$GPGGA,165221.000,2304.0542,S,07019.6962,W,1,09,0.9,101.4,M,34.3,M,,0000*52
$GPGSA,M,3,21,25,31,30,18,29,22,16,06,,,,1.8,0.9,1.5*3C
$GPRMC,165221.000,A,2304.0542,S,07019.6962,W,29.56,191.11,020511,,,A*56
$GPGGA,165222.000,2304.0623,S,07019.6980,W,1,09,0.9,101.6,M,34.3,M,,0000*5B
$GPGSA,M,3,21,25,31,30,18,29,22,16,06,,,,1.8,0.9,1.5*3C
$GPRMC,165222.000,A,2304.0623,S,07019.6980,W,29.59,190.82,020511,,,A*59
$GPGGA,165223.000,2304.0703,S,07019.6993,W,1,09,0.9,100.2,M,34.3,M,,0000*5E
$GPGSA,M,3,21,25,31,30,18,29,22,16,06,,,,1.8,0.9,1.5*3C
$GPRMC,165223.000,A,2304.0703,S,07019.6993,W,29.45,191.42,020511,,,A*59
$GPGGA,165223.998,2304.0785,S,07019.7006,W,1,09,0.9,100.1,M,34.3,M,,0000*5F
$GPGSA,M,3,21,25,31,30,18,29,22,16,06,,,,1.8,0.9,1.5*3C
$GPRMC,165223.998,A,2304.0785,S,07019.7006,W,29.17,190.14,020511,,,A*5E
$GPGGA,165225.002,2304.0867,S,07019.7024,W,1,09,0.9,101.1,M,34.3,M,,0000*51
$GPGSA,M,3,21,25,31,30,18,29,22,16,06,,,,1.8,0.9,1.5*3C
$GPGSV,3,1,11,21,75,189,38,25,46,052,38,31,41,291,38,30,36,215,31*7C
$GPGSV,3,2,11,18,35,021,37,29,33,128,36,22,14,353,36,16,13,218,32*7F
$GPGSV,3,3,11,06,09,250,31,12,07,046,,03,00,253,*42
$GPRMC,165225.002,A,2304.0867,S,07019.7024,W,28.92,190.28,020511,,,A*52
$GPGGA,165226.000,2304.0948,S,07019.7040,W,1,09,0.9,101.3,M,34.3,M,,0000*5C
$GPGSA,M,3,21,25,31,30,18,29,22,16,06,,,,1.8,0.9,1.5*3C
$GPRMC,165226.000,A,2304.0948,S,07019.7040,W,28.81,190.90,020511,,,A*5C
$GPGGA,165227.000,2304.1028,S,07019.7057,W,1,09,0.9,102.1,M,34.3,M,,0000*54
$GPGSA,M,3,21,25,31,30,18,29,22,16,06,,,,1.8,0.9,1.5*3C
$GPRMC,165227.000,A,2304.1028,S,07019.7057,W,28.74,191.40,020511,,,A*53
$GPGGA,165228.000,2304.1108,S,07019.7076,W,1,09,0.9,102.2,M,34.3,M,,0000*58
$GPGSA,M,3,21,25,31,30,18,29,22,16,06,,,,1.8,0.9,1.5*3C
$GPRMC,165228.000,A,2304.1108,S,07019.7076,W,28.69,190.47,020511,,,A*56
$GPGGA,165229.000,2304.1187,S,07019.7093,W,1,09,0.9,101.8,M,34.3,M,,0000*5C
$GPGSA,M,3,21,25,31,30,18,29,22,16,06,,,,1.8,0.9,1.5*3C
$GPRMC,165229.000,A,2304.1187,S,07019.7093,W,28.69,191.18,020511,,,A*50
$GPGGA,165230.000,2304.1265,S,07019.7110,W,1,09,0.9,102.1,M,34.3,M,,0000*5B
$GPGSA,M,3,21,25,31,30,18,29,22,16,06,,,,1.8,0.9,1.5*3C
$GPGSV,3,1,11,21,75,189,37,25,46,052,38,31,41,291,36,30,36,215,31*7D
$GPGSV,3,2,11,18,35,021,36,29,33,128,35,22,14,353,35,16,13,218,35*79
$GPGSV,3,3,11,06,09,250,36,12,07,046,,03,00,253,*45
$GPRMC,165230.000,A,2304.1265,S,07019.7110,W,28.89,190.95,020511,,,A*57
$GPGGA,165231.001,2304.1345,S,07019.7128,W,1,09,0.9,101.7,M,34.3,M,,0000*56
$GPGSA,M,3,21,25,31,30,18,29,22,16,06,,,,1.8,0.9,1.5*3C
$GPRMC,165231.001,A,2304.1345,S,07019.7128,W,28.64,191.42,020511,,,A*57
$GPGGA,165231.999,2304.1423,S,07019.7144,W,1,09,0.9,101.0,M,34.3,M,,0000*54
$GPGSA,M,3,21,25,31,30,18,29,22,16,06,,,,1.8,0.9,1.6*3F
$GPRMC,165231.999,A,2304.1423,S,07019.7144,W,28.83,191.17,020511,,,A*5B
$GPGGA,165232.999,2304.1503,S,07019.7158,W,1,09,0.9,100.3,M,34.3,M,,0000*5B
$GPGSA,M,3,21,25,31,30,18,29,22,16,06,,,,1.8,0.9,1.6*3F
$GPRMC,165232.999,A,2304.1503,S,07019.7158,W,29.14,190.36,020511,,,A*5B
$GPGGA,165233.999,2304.1583,S,07019.7174,W,1,09,0.9,100.9,M,34.3,M,,0000*56
$GPGSA,M,3,21,25,31,30,18,29,22,16,06,,,,1.8,0.9,1.6*3F
$GPRMC,165233.999,A,2304.1583,S,07019.7174,W,29.14,190.62,020511,,,A*5D
$GPGGA,165234.999,2304.1661,S,07019.7196,W,1,09,0.9,101.2,M,34.3,M,,0000*58
$GPGSA,M,3,21,25,31,30,18,29,22,16,06,,,,1.8,0.9,1.6*3F
$GPGSV,3,1,11,21,75,189,38,25,46,052,38,31,41,291,35,30,36,215,32*72
$GPGSV,3,2,11,18,35,021,38,29,33,128,35,22,14,353,35,16,13,218,34*76
$GPGSV,3,3,11,06,09,250,36,12,07,046,,03,00,253,*45
$GPRMC,165234.999,A,2304.1661,S,07019.7196,W,29.14,191.31,020511,,,A*5E
$GPGGA,165235.999,2304.1740,S,07019.7214,W,1,09,0.9,101.0,M,34.3,M,,0000*50
$GPGSA,M,3,21,25,31,30,18,29,22,16,06,,,,1.8,0.9,1.6*3F
$GPRMC,165235.999,A,2304.1740,S,07019.7214,W,29.24,191.63,020511,,,A*50
$GPGGA,165236.999,2304.1822,S,07019.7230,W,1,09,0.9,100.6,M,34.3,M,,0000*59
$GPGSA,M,3,21,25,31,30,18,29,22,16,06,,,,1.8,0.9,1.6*3F
$GPRMC,165236.999,A,2304.1822,S,07019.7230,W,29.25,190.54,020511,,,A*5A
$GPGGA,165237.999,2304.1901,S,07019.7245,W,1,09,0.9,100.6,M,34.3,M,,0000*5A
$GPGSA,M,3,21,25,31,30,18,29,22,16,06,,,,1.8,0.9,1.6*3F
$GPRMC,165237.999,A,2304.1901,S,07019.7245,W,29.40,190.75,020511,,,A*59
$GPGGA,165238.999,2304.1981,S,07019.7261,W,1,09,0.9,100.0,M,34.3,M,,0000*5D
$GPGSA,M,3,21,25,31,30,18,29,22,16,06,,,,1.8,0.9,1.6*3F
$GPRMC,165238.999,A,2304.1981,S,07019.7261,W,29.07,190.04,020511,,,A*5D
$GPGGA,165239.999,2304.2060,S,07019.7278,W,1,09,0.9,100.1,M,34.3,M,,0000*50
$GPGSA,M,3,21,25,31,30,18,29,22,16,06,,,,1.8,0.9,1.6*3F
$GPGSV,3,1,11,21,75,189,37,25,46,052,37,31,41,291,36,30,36,215,33*70
$GPGSV,3,2,11,18,35,021,36,29,33,128,36,22,14,353,35,16,13,218,36*79
$GPGSV,3,3,11,06,09,250,32,12,07,046,,03,00,253,*41
$GPRMC,165239.999,A,2304.2060,S,07019.7278,W,28.87,190.83,020511,,,A*57
$GPGGA,165240.999,2304.2140,S,07019.7292,W,1,09,0.9,99.8,M,34.3,M,,0000*61
$GPGSA,M,3,21,25,31,30,18,29,22,16,06,,,,1.8,0.9,1.6*3F
$GPRMC,165240.999,A,2304.2140,S,07019.7292,W,28.85,190.60,020511,,,A*51
$GPGGA,165241.999,2304.2219,S,07019.7309,W,1,09,0.9,99.1,M,34.3,M,,0000*65
$GPGSA,M,3,21,25,31,30,18,29,22,16,06,,,,1.8,0.9,1.6*3F
$GPRMC,165241.999,A,2304.2219,S,07019.7309,W,29.13,190.98,020511,,,A*55
$GPGGA,165242.999,2304.2296,S,07019.7326,W,1,09,0.9,99.3,M,34.3,M,,0000*6E
$GPGSA,M,3,21,25,31,30,18,29,22,16,06,,,,1.8,0.9,1.6*3F
$GPRMC,165242.999,A,2304.2296,S,07019.7326,W,28.86,191.85,020511,,,A*5C
$GPGGA,165244.000,2304.2377,S,07019.7341,W,1,09,0.9,99.0,M,34.3,M,,0000*6D
$GPGSA,M,3,21,25,31,30,18,29,22,16,06,,,,1.8,0.9,1.6*3F
$GPRMC,165244.000,A,2304.2377,S,07019.7341,W,29.13,190.79,020511,,,A*53
$GPGGA,165245.003,2304.2457,S,07019.7358,W,1,09,0.9,99.6,M,34.3,M,,0000*64
$GPGSA,M,3,21,25,31,30,18,29,22,16,06,,,,1.8,0.9,1.6*3F
$GPGSV,3,1,11,21,75,189,37,25,46,052,38,31,41,291,36,30,36,215,33*7F
$GPGSV,3,2,11,18,35,021,39,29,33,128,36,22,14,353,35,16,13,218,36*76
$GPGSV,3,3,11,06,09,250,36,12,07,046,,03,00,253,*45
$GPRMC,165245.003,A,2304.2457,S,07019.7358,W,29.24,190.79,020511,,,A*58
$GPGGA,165245.995,2304.2535,S,07019.7374,W,1,09,0.9,99.2,M,34.3,M,,0000*6D
$GPGSA,M,3,21,25,31,30,18,29,22,16,06,,,,1.8,0.9,1.6*3F
$GPRMC,165245.995,A,2304.2535,S,07019.7374,W,28.94,191.53,020511,,,A*56
$GPGGA,165247.000,2304.2612,S,07019.7394,W,1,09,0.9,99.4,M,34.3,M,,0000*64
$GPGSA,M,3,21,25,31,30,18,29,22,16,06,,,,1.8,0.9,1.6*3F
$GPRMC,165247.000,A,2304.2612,S,07019.7394,W,28.53,190.99,020511,,,A*55
$GPGGA,165248.004,2304.2690,S,07019.7412,W,1,09,0.9,99.5,M,34.3,M,,0000*6D
$GPGSA,M,3,21,25,31,30,18,29,22,16,06,,,,1.8,0.9,1.6*3F
$GPRMC,165248.004,A,2304.2690,S,07019.7412,W,28.71,190.90,020511,,,A*54
$GPGGA,165248.995,2304.2766,S,07019.7430,W,1,08,1.1,99.5,M,34.3,M,,0000*6C
$GPGSA,M,3,21,25,30,18,29,22,16,06,,,,,2.1,1.1,1.8*30
$GPRMC,165248.995,A,2304.2766,S,07019.7430,W,28.79,191.70,020511,,,A*5A
$GPGGA,165250.001,2304.2847,S,07019.7449,W,1,09,0.9,99.6,M,34.3,M,,0000*68
$GPGSA,M,3,21,25,31,30,18,29,22,16,06,,,,1.8,0.9,1.6*3F
$GPGSV,3,1,11,21,75,189,37,25,46,052,38,31,41,291,36,30,36,215,31*7D
$GPGSV,3,2,11,18,35,021,37,29,33,128,36,22,14,353,35,16,13,218,34*7A
$GPGSV,3,3,11,06,09,250,30,12,07,046,,03,00,253,*43
$GPRMC,165250.001,A,2304.2847,S,07019.7449,W,29.03,191.59,020511,,,A*52
$GPGGA,165251.000,2304.2926,S,07019.7468,W,1,09,0.9,99.0,M,34.3,M,,0000*6B
$GPGSA,M,3,21,25,31,30,18,29,22,16,06,,,,1.8,0.9,1.6*3F
$GPRMC,165251.000,A,2304.2926,S,07019.7468,W,28.63,190.71,020511,,,A*5B
$GPGGA,165252.002,2304.3003,S,07019.7485,W,1,09,0.9,98.2,M,34.3,M,,0000*65
$GPGSA,M,3,21,25,31,30,18,29,22,16,06,,,,1.8,0.9,1.6*3F
$GPRMC,165252.002,A,2304.3003,S,07019.7485,W,28.32,191.62,020511,,,A*51
$GPGGA,165252.998,2304.3080,S,07019.7499,W,1,09,0.9,96.9,M,34.3,M,,0000*6C
$GPGSA,M,3,21,25,31,30,18,29,22,16,06,,,,1.8,0.9,1.6*3F
$GPRMC,165252.998,A,2304.3080,S,07019.7499,W,28.25,190.98,020511,,,A*5F
$GPGGA,165253.998,2304.3157,S,07019.7518,W,1,09,0.9,96.8,M,34.3,M,,0000*6F
$GPGSA,M,3,21,25,31,30,18,29,22,16,06,,,,1.8,0.9,1.6*3F
$GPRMC,165253.998,A,2304.3157,S,07019.7518,W,27.98,191.84,020511,,,A*58
$GPGGA,165255.000,2304.3235,S,07019.7533,W,1,09,0.9,96.9,M,34.3,M,,0000*6E
$GPGSA,M,3,21,25,31,30,18,29,22,16,06,,,,1.8,0.9,1.6*3F
$GPGSV,3,1,11,21,74,185,37,25,44,051,37,31,40,293,35,30,38,215,32*73
$GPGSV,3,2,11,18,36,022,36,29,32,126,36,22,16,354,34,16,14,218,34*77
$GPGSV,3,3,11,06,10,249,35,12,06,045,,03,00,252,26*41
$GPRMC,165255.000,A,2304.3235,S,07019.7533,W,28.00,190.68,020511,,,A*55
$GPGGA,165256.000,2304.3313,S,07019.7547,W,1,09,0.9,96.9,M,34.3,M,,0000*6B
$GPGSA,M,3,21,25,31,30,18,29,22,16,06,,,,1.8,0.9,1.6*3F
$GPRMC,165256.000,A,2304.3313,S,07019.7547,W,27.80,191.34,020511,,,A*5F
$GPGGA,165257.002,2304.3389,S,07019.7563,W,1,09,0.9,97.0,M,34.3,M,,0000*65
$GPGSA,M,3,21,25,31,30,18,29,22,16,06,,,,1.8,0.9,1.6*3F
$GPRMC,165257.002,A,2304.3389,S,07019.7563,W,27.77,191.25,020511,,,A*51
$GPGGA,165258.000,2304.3465,S,07019.7581,W,1,09,0.9,97.6,M,34.3,M,,0000*67
$GPGSA,M,3,21,25,31,30,18,29,22,16,06,,,,1.8,0.9,1.6*3F
$GPRMC,165258.000,A,2304.3465,S,07019.7581,W,28.22,191.23,020511,,,A*5C
$GPGGA,165259.000,2304.3544,S,07019.7596,W,1,09,0.9,96.8,M,34.3,M,,0000*6D
$GPGSA,M,3,21,25,31,30,18,29,22,16,06,,,,1.8,0.9,1.6*3F
$GPRMC,165259.000,A,2304.3544,S,07019.7596,W,28.23,191.16,020511,,,A*5E
$GPGGA,165300.000,2304.3623,S,07019.7612,W,1,09,0.9,97.1,M,34.3,M,,0000*65
$GPGSA,M,3,21,25,31,30,18,29,22,16,06,,,,1.8,0.9,1.6*3F
$GPGSV,3,1,11,21,74,185,37,25,44,051,38,31,40,293,36,30,38,215,33*7E
$GPGSV,3,2,11,18,36,022,37,29,32,126,36,22,16,354,35,16,14,218,35*76
$GPGSV,3,3,11,06,10,249,37,12,06,045,,03,00,252,*47
$GPRMC,165300.000,A,2304.3623,S,07019.7612,W,28.29,191.17,020511,,,A*55
$GPGGA,165300.998,2304.3700,S,07019.7631,W,1,09,0.9,98.5,M,34.3,M,,0000*67
$GPGSA,M,3,21,25,31,30,18,29,22,16,06,,,,1.8,0.9,1.6*3F
$GPRMC,165300.998,A,2304.3700,S,07019.7631,W,28.13,191.60,020511,,,A*55
$GPGGA,165302.002,2304.3777,S,07019.7645,W,1,09,0.9,97.4,M,34.3,M,,0000*62
$GPGSA,M,3,21,25,31,30,18,29,22,16,06,,,,1.8,0.9,1.6*3F
$GPRMC,165302.002,A,2304.3777,S,07019.7645,W,28.04,190.69,020511,,,A*50
$GPGGA,165303.000,2304.3854,S,07019.7663,W,1,09,0.9,96.1,M,34.3,M,,0000*6F
$GPGSA,M,3,21,25,31,30,18,29,22,16,06,,,,1.8,0.9,1.6*3F
$GPRMC,165303.000,A,2304.3854,S,07019.7663,W,28.05,191.06,020511,,,A*50
$GPGGA,165304.000,2304.3930,S,07019.7682,W,1,09,0.9,97.0,M,34.3,M,,0000*64
$GPGSA,M,3,21,25,31,30,18,29,22,16,06,,,,1.8,0.9,1.6*3F
$GPRMC,165304.000,A,2304.3930,S,07019.7682,W,28.37,190.18,020511,,,A*54
$GPGGA,165305.000,2304.4007,S,07019.7696,W,1,09,0.9,95.7,M,34.3,M,,0000*6F
$GPGSA,M,3,21,25,31,30,18,29,22,16,06,,,,1.8,0.9,1.6*3F
$GPGSV,3,1,11,21,74,185,36,25,44,051,37,31,40,293,35,30,38,215,31*71
$GPGSV,3,2,11,18,36,022,37,29,32,126,35,22,16,354,35,16,14,218,36*76
$GPGSV,3,3,11,06,10,249,28,12,06,045,,03,00,252,*49
$GPRMC,165305.000,A,2304.4007,S,07019.7696,W,28.41,190.91,020511,,,A*5A
$GPGGA,165306.000,2304.4084,S,07019.7712,W,1,09,0.9,94.9,M,34.3,M,,0000*65
$GPGSA,M,3,21,25,31,30,18,29,22,16,06,,,,1.8,0.9,1.6*3F
$GPRMC,165306.000,A,2304.4084,S,07019.7712,W,28.31,191.47,020511,,,A*52
$GPGGA,165307.000,2304.4162,S,07019.7730,W,1,09,0.9,94.5,M,34.3,M,,0000*61
$GPGSA,M,3,21,25,31,30,18,29,22,16,06,,,,1.8,0.9,1.6*3F
$GPRMC,165307.000,A,2304.4162,S,07019.7730,W,28.72,191.07,020511,,,A*59
$GPGGA,165308.000,2304.4240,S,07019.7748,W,1,08,1.0,94.5,M,34.3,M,,0000*6B
$GPGSA,M,3,21,25,31,30,18,29,22,06,,,,,2.0,1.0,1.7*3A
$GPRMC,165308.000,A,2304.4240,S,07019.7748,W,28.75,193.45,020511,,,A*59
$GPGGA,165309.001,2304.4318,S,07019.7767,W,1,09,0.9,94.4,M,34.3,M,,0000*62
$GPGSA,M,3,21,25,31,30,18,29,22,16,06,,,,1.8,0.9,1.6*3F
$GPRMC,165309.001,A,2304.4318,S,07019.7767,W,28.67,192.14,020511,,,A*5E
$GPGGA,165310.000,2304.4398,S,07019.7787,W,1,09,0.9,94.9,M,34.3,M,,0000*60
$GPGSA,M,3,21,25,31,30,18,29,22,16,06,,,,1.8,0.9,1.6*3F
$GPGSV,3,1,11,21,74,185,38,25,44,051,37,31,40,293,35,30,38,215,31*7F
$GPGSV,3,2,11,18,36,022,36,29,32,126,36,22,16,354,35,16,14,218,33*71
$GPGSV,3,3,11,06,10,249,36,12,06,045,,03,00,252,28*4C
$GPRMC,165310.000,A,2304.4398,S,07019.7787,W,28.93,191.25,020511,,,A*5B
$GPGGA,165311.000,2304.4477,S,07019.7805,W,1,09,0.9,95.6,M,34.3,M,,0000*6C
$GPGSA,M,3,21,25,31,30,18,29,22,16,06,,,,1.8,0.9,1.6*3F
$GPRMC,165311.000,A,2304.4477,S,07019.7805,W,28.75,192.08,020511,,,A*5D
$GPGGA,165312.000,2304.4555,S,07019.7822,W,1,09,0.9,94.8,M,34.3,M,,0000*64
$GPGSA,M,3,21,25,31,30,18,29,22,16,06,,,,1.8,0.9,1.6*3F
$GPRMC,165312.000,A,2304.4555,S,07019.7822,W,28.90,191.35,020511,,,A*5C
$GPGGA,165313.000,2304.4632,S,07019.7839,W,1,09,0.9,95.5,M,34.3,M,,0000*61
$GPGSA,M,3,21,25,31,30,18,29,22,16,06,,,,1.8,0.9,1.6*3F
$GPRMC,165313.000,A,2304.4632,S,07019.7839,W,28.86,190.75,020511,,,A*57
$GPGGA,165313.999,2304.4710,S,07019.7855,W,1,09,0.9,95.1,M,34.3,M,,0000*67
$GPGSA,M,3,21,25,31,30,18,29,22,16,06,,,,1.8,0.9,1.6*3F
$GPRMC,165313.999,A,2304.4710,S,07019.7855,W,28.38,191.75,020511,,,A*51
$GPGGA,165315.000,2304.4790,S,07019.7871,W,1,09,0.9,95.1,M,34.3,M,,0000*66
$GPGSA,M,3,21,25,31,30,18,29,22,16,06,,,,1.8,0.9,1.6*3F
$GPGSV,3,1,11,21,74,185,37,25,44,051,38,31,40,293,31,30,38,215,31*7B
$GPGSV,3,2,11,18,36,022,37,29,32,126,36,22,16,354,35,16,14,218,34*77
$GPGSV,3,3,11,06,10,249,36,12,06,045,,03,00,252,28*4C
$GPRMC,165315.000,A,2304.4790,S,07019.7871,W,28.65,191.64,020511,,,A*58
$GPGGA,165316.000,2304.4870,S,07019.7889,W,1,09,0.9,94.4,M,34.3,M,,0000*67
$GPGSA,M,3,21,25,31,30,18,29,22,16,06,,,,1.8,0.9,1.6*3F
$GPRMC,165316.000,A,2304.4870,S,07019.7889,W,28.79,191.13,020511,,,A*50
$GPGGA,165317.000,2304.4948,S,07019.7908,W,1,09,0.9,94.7,M,34.3,M,,0000*67
$GPGSA,M,3,21,25,31,30,18,29,22,16,06,,,,1.8,0.9,1.6*3F
$GPRMC,165317.000,A,2304.4948,S,07019.7908,W,28.56,192.24,020511,,,A*59
$GPGGA,165317.998,2304.5024,S,07019.7928,W,1,09,0.9,94.2,M,34.3,M,,0000*6A
$GPGSA,M,3,21,25,31,30,18,29,22,16,06,,,,1.8,0.9,1.6*3F
$GPRMC,165317.998,A,2304.5024,S,07019.7928,W,28.39,193.67,020511,,,A*5E
$GPGGA,165318.998,2304.5103,S,07019.7948,W,1,09,0.9,93.9,M,34.3,M,,0000*6B
$GPGSA,M,3,21,25,31,30,18,29,22,16,06,,,,1.8,0.9,1.6*3F
$GPRMC,165318.998,A,2304.5103,S,07019.7948,W,28.16,192.51,020511,,,A*5A
$GPGGA,165320.004,2304.5181,S,07019.7968,W,1,09,0.9,93.9,M,34.3,M,,0000*64
$GPGSA,M,3,21,25,31,30,18,29,22,16,06,,,,1.8,0.9,1.6*3F
$GPGSV,3,1,11,21,74,185,37,25,44,051,37,31,40,293,34,30,38,215,33*73
$GPGSV,3,2,11,18,36,022,37,29,32,126,33,22,16,354,35,16,14,218,31*77
$GPGSV,3,3,11,06,10,249,33,12,06,045,,03,00,252,28*49
$GPRMC,165320.004,A,2304.5181,S,07019.7968,W,27.90,191.75,020511,,,A*51
$GPGGA,165320.996,2304.5258,S,07019.7984,W,1,09,0.9,93.4,M,34.3,M,,0000*6E
$GPGSA,M,3,21,25,31,30,18,29,22,16,06,,,,1.8,0.9,1.6*3F
$GPRMC,165320.996,A,2304.5258,S,07019.7984,W,28.24,191.18,020511,,,A*5D
$GPGGA,165322.002,2304.5335,S,07019.8002,W,1,08,1.0,94.7,M,34.3,M,,0000*67
$GPGSA,M,3,21,25,31,30,18,29,22,06,,,,,2.0,1.0,1.7*3A
$GPRMC,165322.002,A,2304.5335,S,07019.8002,W,27.88,190.57,020511,,,A*5A
$GPGGA,165322.998,2304.5411,S,07019.8016,W,1,09,0.9,93.0,M,34.3,M,,0000*60
$GPGSA,M,3,21,25,31,30,18,29,22,16,06,,,,1.8,0.9,1.6*3F
$GPRMC,165322.998,A,2304.5411,S,07019.8016,W,28.07,190.40,020511,,,A*5A
$GPGGA,165324.000,2304.5487,S,07019.8030,W,1,09,0.9,93.1,M,34.3,M,,0000*64
$GPGSA,M,3,21,25,31,30,18,29,22,16,06,,,,1.8,0.9,1.6*3F
$GPRMC,165324.000,A,2304.5487,S,07019.8030,W,27.98,190.09,020511,,,A*5B
$GPGGA,165325.002,2304.5563,S,07019.8046,W,1,08,1.1,93.0,M,34.3,M,,0000*64
$GPGSA,M,3,21,25,31,30,18,29,16,06,,,,,2.1,1.1,1.8*32
$GPGSV,3,1,11,21,74,185,38,25,44,051,38,31,40,293,36,30,38,215,33*71
$GPGSV,3,2,11,18,36,022,37,29,32,126,36,22,16,354,,16,14,218,35*70
$GPGSV,3,3,11,06,10,249,35,12,06,045,,03,00,252,34*42
$GPRMC,165325.002,A,2304.5563,S,07019.8046,W,27.85,190.97,020511,,,A*59
$GPGGA,165325.998,2304.5642,S,07019.8060,W,1,09,0.9,92.7,M,34.3,M,,0000*64
$GPGSA,M,3,21,25,31,30,18,29,22,16,06,,,,1.8,0.9,1.6*3F
$GPRMC,165325.998,A,2304.5642,S,07019.8060,W,27.57,191.10,020511,,,A*56
$GPGGA,165327.000,2304.5715,S,07019.8077,W,1,09,0.9,92.5,M,34.3,M,,0000*69
$GPGSA,M,3,21,25,31,30,18,29,22,16,06,,,,1.8,0.9,1.6*3F
$GPRMC,165327.000,A,2304.5715,S,07019.8077,W,27.10,190.23,020511,,,A*5B
$GPGGA,165328.000,2304.5793,S,07019.8091,W,1,09,0.9,92.3,M,34.3,M,,0000*66
$GPGSA,M,3,21,25,31,30,18,29,22,16,06,,,,1.8,0.9,1.6*3F
$GPRMC,165328.000,A,2304.5793,S,07019.8091,W,27.51,191.65,020511,,,A*54
$GPGGA,165329.000,2304.5870,S,07019.8111,W,1,09,0.9,93.5,M,34.3,M,,0000*6B
$GPGSA,M,3,21,25,31,30,18,29,22,16,06,,,,1.8,0.9,1.6*3F
$GPRMC,165329.000,A,2304.5870,S,07019.8111,W,27.71,191.87,020511,,,A*50
$GPGGA,165330.000,2304.5945,S,07019.8128,W,1,09,0.9,93.2,M,34.3,M,,0000*69
$GPGSA,M,3,21,25,31,30,18,29,22,16,06,,,,1.8,0.9,1.6*3F
$GPGSV,3,1,11,21,74,185,37,25,44,051,38,31,40,293,36,30,38,215,30*7D
$GPGSV,3,2,11,18,36,022,37,29,32,126,35,22,16,354,36,16,14,218,34*77
$GPGSV,3,3,11,06,10,249,34,12,06,045,,03,00,252,33*44
$GPRMC,165330.000,A,2304.5945,S,07019.8128,W,27.30,191.66,020511,,,A*5F
$GPGGA,165331.000,2304.6020,S,07019.8147,W,1,09,0.9,93.4,M,34.3,M,,0000*6E
$GPGSA,M,3,21,25,31,30,18,29,22,16,06,,,,1.8,0.9,1.6*3F
$GPRMC,165331.000,A,2304.6020,S,07019.8147,W,27.50,191.91,020511,,,A*50
$GPGGA,165332.000,2304.6096,S,07019.8163,W,1,09,0.9,93.6,M,34.3,M,,0000*64
$GPGSA,M,3,21,25,31,30,18,29,22,16,06,,,,1.8,0.9,1.6*3F
$GPRMC,165332.000,A,2304.6096,S,07019.8163,W,27.71,191.17,020511,,,A*55
$GPGGA,165333.003,2304.6175,S,07019.8179,W,1,09,0.9,93.5,M,34.3,M,,0000*62
$GPGSA,M,3,21,25,31,30,18,29,22,16,06,,,,1.8,0.9,1.6*3F
$GPRMC,165333.003,A,2304.6175,S,07019.8179,W,27.96,190.86,020511,,,A*50
$GPGGA,165334.000,2304.6249,S,07019.8199,W,1,09,0.9,94.7,M,34.3,M,,0000*61
$GPGSA,M,3,21,25,31,30,18,29,22,16,06,,,,1.8,0.9,1.6*3F
$GPRMC,165334.000,A,2304.6249,S,07019.8199,W,27.81,191.63,020511,,,A*5A
$GPGGA,165335.000,2304.6324,S,07019.8218,W,1,09,0.9,94.7,M,34.3,M,,0000*60
$GPGSA,M,3,21,25,31,30,18,29,22,16,06,,,,1.8,0.9,1.6*3F
$GPGSV,3,1,11,21,74,185,37,25,44,051,37,31,40,293,35,30,38,215,32*73
$GPGSV,3,2,11,18,36,022,36,29,32,126,35,22,16,354,35,16,14,218,36*77
$GPGSV,3,3,11,06,10,249,34,12,06,045,,03,00,252,34*43
$GPRMC,165335.000,A,2304.6324,S,07019.8218,W,27.94,190.58,020511,,,A*56
$GPGGA,165336.000,2304.6399,S,07019.8235,W,1,09,0.9,94.8,M,34.3,M,,0000*65
$GPGSA,M,3,21,25,31,30,18,29,22,16,06,,,,1.8,0.9,1.6*3F
$GPRMC,165336.000,A,2304.6399,S,07019.8235,W,27.94,191.44,020511,,,A*50
$GPGGA,165337.000,2304.6477,S,07019.8253,W,1,09,0.9,96.3,M,34.3,M,,0000*6A
$GPGSA,M,3,21,25,31,30,18,29,22,16,06,,,,1.8,0.9,1.6*3F
$GPRMC,165337.000,A,2304.6477,S,07019.8253,W,27.98,190.50,020511,,,A*5E
$GPGGA,165338.000,2304.6554,S,07019.8270,W,1,09,0.9,96.1,M,34.3,M,,0000*66
$GPGSA,M,3,21,25,31,30,18,29,22,16,06,,,,1.8,0.9,1.6*3F
$GPRMC,165338.000,A,2304.6554,S,07019.8270,W,28.02,190.86,020511,,,A*57
$GPGGA,165339.000,2304.6632,S,07019.8289,W,1,09,0.9,97.4,M,34.3,M,,0000*66
$GPGSA,M,3,21,25,31,30,18,29,22,16,06,,,,1.8,0.9,1.6*3F
$GPRMC,165339.000,A,2304.6632,S,07019.8289,W,27.86,191.49,020511,,,A*52
$GPGGA,165340.000,2304.6707,S,07019.8303,W,1,09,0.9,97.8,M,34.3,M,,0000*60
$GPGSA,M,3,21,25,31,30,18,29,22,16,06,,,,1.8,0.9,1.6*3F
$GPGSV,3,1,11,21,74,185,38,25,44,051,37,31,40,293,34,30,38,215,33*7C
$GPGSV,3,2,11,18,36,022,37,29,32,126,35,22,16,354,35,16,14,218,35*75
$GPGSV,3,3,11,06,10,249,31,12,06,045,,03,00,252,33*41
$GPRMC,165340.000,A,2304.6707,S,07019.8303,W,28.06,190.87,020511,,,A*5C
$GPGGA,165341.000,2304.6785,S,07019.8318,W,1,09,0.9,97.0,M,34.3,M,,0000*69
$GPGSA,M,3,21,25,31,30,18,29,22,16,06,,,,1.8,0.9,1.6*3F
$GPRMC,165341.000,A,2304.6785,S,07019.8318,W,28.21,190.92,020511,,,A*5C
$GPGGA,165342.000,2304.6860,S,07019.8333,W,1,09,0.9,96.6,M,34.3,M,,0000*60
$GPGSA,M,3,21,25,31,30,18,29,22,16,06,,,,1.8,0.9,1.6*3F
$GPRMC,165342.000,A,2304.6860,S,07019.8333,W,28.18,191.23,020511,,,A*53
$GPGGA,165343.000,2304.6940,S,07019.8351,W,1,09,0.9,95.7,M,34.3,M,,0000*64
$GPGSA,M,3,21,25,31,30,18,29,22,16,06,,,,1.8,0.9,1.6*3F
$GPRMC,165343.000,A,2304.6940,S,07019.8351,W,28.20,191.47,020511,,,A*5C
$GPGGA,165343.998,2304.7017,S,07019.8367,W,1,09,0.9,96.8,M,34.3,M,,0000*6F
$GPGSA,M,3,21,25,31,30,18,29,22,16,06,,,,1.8,0.9,1.6*3F
$GPRMC,165343.998,A,2304.7017,S,07019.8367,W,28.05,190.93,020511,,,A*54
$GPGGA,165345.002,2304.7094,S,07019.8388,W,1,09,0.9,97.8,M,34.3,M,,0000*68
$GPGSA,M,3,21,25,31,30,18,29,22,16,06,,,,1.8,0.9,1.6*3F
$GPGSV,3,1,11,21,74,185,38,25,44,051,38,31,40,293,36,30,38,215,32*70
$GPGSV,3,2,11,18,36,022,35,29,32,126,34,22,16,354,36,16,14,218,34*74
$GPGSV,3,3,11,06,10,249,34,12,06,045,,03,00,252,35*42
$GPRMC,165345.002,A,2304.7094,S,07019.8388,W,28.62,191.43,020511,,,A*5F
$GPGGA,165346.000,2304.7174,S,07019.8401,W,1,09,0.9,96.5,M,34.3,M,,0000*6C
$GPGSA,M,3,21,25,31,30,18,29,22,16,06,,,,1.8,0.9,1.6*3F
$GPRMC,165346.000,A,2304.7174,S,07019.8401,W,28.29,191.15,020511,,,A*5B
$GPGGA,165347.000,2304.7256,S,07019.8415,W,1,09,0.9,95.7,M,34.3,M,,0000*6A
$GPGSA,M,3,21,25,31,30,18,29,22,16,06,,,,1.8,0.9,1.6*3F
$GPRMC,165347.000,A,2304.7256,S,07019.8415,W,28.33,191.01,020511,,,A*52
$GPGGA,165348.000,2304.7333,S,07019.8434,W,1,09,0.9,95.7,M,34.3,M,,0000*64
$GPGSA,M,3,21,25,31,30,18,29,22,16,06,,,,1.8,0.9,1.6*3F
$GPRMC,165348.000,A,2304.7333,S,07019.8434,W,28.61,192.74,020511,,,A*5A
$GPGGA,165349.001,2304.7412,S,07019.8454,W,1,09,0.9,96.7,M,34.3,M,,0000*65
$GPGSA,M,3,21,25,31,30,18,29,22,16,06,,,,1.8,0.9,1.6*3F
$GPRMC,165349.001,A,2304.7412,S,07019.8454,W,28.53,190.95,020511,,,A*54
$GPGGA,165350.001,2304.7487,S,07019.8471,W,1,09,0.9,97.7,M,34.3,M,,0000*67
$GPGSA,M,3,21,25,31,30,18,29,22,16,06,,,,1.8,0.9,1.6*3F
$GPGSV,3,1,11,21,74,185,38,25,44,051,39,31,40,293,36,30,38,215,28*7A
$GPGSV,3,2,11,18,36,022,36,29,32,126,35,22,16,354,35,16,14,218,35*74
$GPGSV,3,3,11,06,10,249,34,12,06,045,,03,00,252,35*42
$GPRMC,165350.001,A,2304.7487,S,07019.8471,W,28.33,191.21,020511,,,A*5F
$GPGGA,165351.002,2304.7568,S,07019.8488,W,1,09,0.9,98.1,M,34.3,M,,0000*6A
$GPGSA,M,3,21,25,31,30,18,29,22,16,06,,,,1.8,0.9,1.6*3F
$GPRMC,165351.002,A,2304.7568,S,07019.8488,W,28.58,190.59,020511,,,A*58
$GPGGA,165351.996,2304.7647,S,07019.8503,W,1,09,0.9,97.6,M,34.3,M,,0000*6A
$GPGSA,M,3,21,25,31,30,18,29,22,16,06,,,,1.8,0.9,1.6*3F
$GPRMC,165351.996,A,2304.7647,S,07019.8503,W,28.59,191.37,020511,,,A*58
$GPGGA,165353.004,2304.7726,S,07019.8521,W,1,09,0.9,97.6,M,34.3,M,,0000*6C
$GPGSA,M,3,21,25,31,30,18,29,22,16,06,,,,1.8,0.9,1.6*3F
$GPRMC,165353.004,A,2304.7726,S,07019.8521,W,28.77,190.89,020511,,,A*56
$GPGGA,165354.001,2304.7805,S,07019.8537,W,1,09,0.9,98.4,M,34.2,M,,0000*6B
$GPGSA,M,3,21,25,31,30,18,29,22,16,06,,,,1.8,0.9,1.6*3F
$GPRMC,165354.001,A,2304.7805,S,07019.8537,W,28.54,191.30,020511,,,A*5F
$GPGGA,165354.997,2304.7882,S,07019.8555,W,1,09,0.9,98.3,M,34.2,M,,0000*61
$GPGSA,M,3,21,25,31,30,18,29,22,16,06,,,,1.8,0.9,1.6*3F
$GPGSV,3,1,11,21,74,185,37,25,44,051,39,31,40,293,37,30,38,215,31*7C
$GPGSV,3,2,11,18,36,022,36,29,32,126,36,22,16,354,36,16,14,218,34*75
$GPGSV,3,3,11,06,10,249,30,12,06,045,,03,00,252,36*45
$GPRMC,165354.997,A,2304.7882,S,07019.8555,W,28.96,191.03,020511,,,A*5C
$GPGGA,165356.001,2304.7962,S,07019.8572,W,1,09,0.9,99.5,M,34.2,M,,0000*68
$GPGSA,M,3,21,25,31,30,18,29,22,16,06,,,,1.8,0.9,1.6*3F
$GPRMC,165356.001,A,2304.7962,S,07019.8572,W,28.71,190.65,020511,,,A*5A
$GPGGA,165357.003,2304.8043,S,07019.8590,W,1,08,1.0,99.4,M,34.2,M,,0000*6A
$GPGSA,M,3,21,25,31,30,18,29,22,06,,,,,2.0,1.0,1.7*3A
$GPRMC,165357.003,A,2304.8043,S,07019.8590,W,28.75,191.81,020511,,,A*5F
$GPGGA,165357.999,2304.8122,S,07019.8607,W,1,09,0.9,99.8,M,34.2,M,,0000*6E
$GPGSA,M,3,21,25,31,30,18,29,22,16,06,,,,1.8,0.9,1.6*3F
$GPRMC,165357.999,A,2304.8122,S,07019.8607,W,28.64,191.71,020511,,,A*51
$GPGGA,165359.001,2304.8203,S,07019.8623,W,1,09,0.9,98.8,M,34.2,M,,0000*6F
$GPGSA,M,3,21,25,31,30,18,29,22,16,06,,,,1.8,0.9,1.6*3F
$GPRMC,165359.001,A,2304.8203,S,07019.8623,W,28.22,191.50,020511,,,A*50
$GPGGA,165400.001,2304.8283,S,07019.8642,W,1,09,0.9,100.8,M,34.2,M,,0000*5B
$GPGSA,M,3,21,25,31,30,18,29,22,16,06,,,,1.8,0.9,1.6*3F
$GPGSV,3,1,11,21,74,185,36,25,44,051,38,31,40,293,35,30,38,215,31*7E
$GPGSV,3,2,11,18,36,022,35,29,32,126,35,22,16,354,35,16,14,218,34*76
$GPGSV,3,3,11,06,10,249,28,12,06,045,,03,00,252,35*4F
$GPRMC,165400.001,A,2304.8283,S,07019.8642,W,28.41,191.38,020511,,,A*5F
$GPGGA,165401.001,2304.8362,S,07019.8660,W,1,09,0.9,100.2,M,34.2,M,,0000*5E
$GPGSA,M,3,21,25,31,30,18,29,22,16,06,,,,1.8,0.9,1.6*3F
$GPRMC,165401.001,A,2304.8362,S,07019.8660,W,28.73,191.75,020511,,,A*58
$GPGGA,165402.003,2304.8444,S,07019.8674,W,1,08,1.0,99.9,M,34.2,M,,0000*6A
$GPGSA,M,3,21,25,31,30,18,29,16,06,,,,,2.1,1.0,1.8*33
$GPRMC,165402.003,A,2304.8444,S,07019.8674,W,29.16,191.33,020511,,,A*5F
$GPGGA,165402.999,2304.8523,S,07019.8692,W,1,09,0.9,100.5,M,34.2,M,,0000*5C
$GPGSA,M,3,21,25,31,30,18,29,22,16,06,,,,1.8,0.9,1.6*3F
$GPRMC,165402.999,A,2304.8523,S,07019.8692,W,28.89,192.69,020511,,,A*56
$GPGGA,165404.001,2304.8601,S,07019.8714,W,1,09,0.9,100.5,M,34.2,M,,0000*5E
$GPGSA,M,3,21,25,31,30,18,29,22,16,06,,,,1.8,0.9,1.6*3F
$GPRMC,165404.001,A,2304.8601,S,07019.8714,W,29.07,191.93,020511,,,A*55
$GPGGA,165405.001,2304.8681,S,07019.8732,W,1,09,0.9,100.9,M,34.2,M,,0000*5F
$GPGSA,M,3,21,25,31,30,18,29,22,16,06,,,,1.8,0.9,1.6*3F
$GPGSV,3,1,11,21,74,185,38,25,44,051,39,31,40,293,37,30,38,215,29*7A
$GPGSV,3,2,11,18,36,022,36,29,32,126,35,22,16,354,36,16,14,218,33*71
$GPGSV,3,3,11,06,10,249,36,12,06,045,,03,00,252,37*42
$GPRMC,165405.001,A,2304.8681,S,07019.8732,W,28.99,192.13,020511,,,A*55
$GPGGA,165406.001,2304.8760,S,07019.8749,W,1,09,0.9,101.2,M,34.2,M,,0000*54
$GPGSA,M,3,21,25,31,30,18,29,22,16,06,,,,1.8,0.9,1.6*3F
$GPRMC,165406.001,A,2304.8760,S,07019.8749,W,28.80,190.73,020511,,,A*58
$GPGGA,165407.000,2304.8840,S,07019.8765,W,1,09,0.9,101.1,M,34.2,M,,0000*54
$GPGSA,M,3,21,25,31,30,18,29,22,16,06,,,,1.8,0.9,1.6*3F
$GPRMC,165407.000,A,2304.8840,S,07019.8765,W,29.09,191.28,020511,,,A*54
$GPGGA,165408.001,2304.8920,S,07019.8781,W,1,09,0.9,101.6,M,34.2,M,,0000*50
$GPGSA,M,3,21,25,31,30,18,29,22,16,06,,,,1.8,0.9,1.6*3F
$GPRMC,165408.001,A,2304.8920,S,07019.8781,W,29.15,191.15,020511,,,A*54
$GPGGA,165409.004,2304.9003,S,07019.8793,W,1,09,0.9,100.7,M,34.2,M,,0000*5E
$GPGSA,M,3,21,25,31,30,18,29,22,16,06,,,,1.8,0.9,1.6*3F
$GPRMC,165409.004,A,2304.9003,S,07019.8793,W,29.25,190.79,020511,,,A*52
$GPGGA,165410.001,2304.9083,S,07019.8814,W,1,09,0.9,101.2,M,34.2,M,,0000*5F
$GPGSA,M,3,21,25,31,30,18,29,22,16,06,,,,1.8,0.9,1.6*3F
$GPGSV,3,1,11,21,74,185,37,25,44,051,38,31,40,293,35,30,38,215,30*7E
$GPGSV,3,2,11,18,36,022,35,29,32,126,35,22,16,354,35,16,14,218,32*70
$GPGSV,3,3,11,06,10,249,35,12,06,045,,03,00,252,39*4F
$GPRMC,165410.001,A,2304.9083,S,07019.8814,W,29.35,190.95,020511,,,A*54
$GPGGA,165411.001,2304.9163,S,07019.8832,W,1,09,0.9,100.7,M,34.2,M,,0000*51
$GPGSA,M,3,21,25,31,30,18,29,22,16,06,,,,1.8,0.9,1.6*3F
$GPRMC,165411.001,A,2304.9163,S,07019.8832,W,29.66,191.95,020511,,,A*59
$GPGGA,165412.001,2304.9247,S,07019.8847,W,1,09,0.9,100.9,M,34.2,M,,0000*5B
$GPGSA,M,3,21,25,31,30,18,29,22,16,06,,,,1.8,0.9,1.6*3F
$GPRMC,165412.001,A,2304.9247,S,07019.8847,W,29.60,190.28,020511,,,A*5C
$GPGGA,165413.001,2304.9328,S,07019.8864,W,1,09,0.9,101.2,M,34.2,M,,0000*59
$GPGSA,M,3,21,25,31,30,18,29,22,16,06,,,,1.8,0.9,1.6*3F
$GPRMC,165413.001,A,2304.9328,S,07019.8864,W,29.68,191.58,020511,,,A*5A
$GPGGA,165414.001,2304.9409,S,07019.8884,W,1,09,0.9,101.6,M,34.2,M,,0000*50
$GPGSA,M,3,21,25,31,30,18,29,22,16,06,,,,1.8,0.9,1.6*3F
$GPRMC,165414.001,A,2304.9409,S,07019.8884,W,29.77,190.82,020511,,,A*5F
$GPGGA,165415.001,2304.9492,S,07019.8897,W,1,09,0.9,100.4,M,34.2,M,,0000*52
$GPGSA,M,3,21,25,31,30,18,29,22,16,06,,,,1.8,0.9,1.6*3F
$GPGSV,3,1,11,21,74,185,37,25,44,051,38,31,40,293,37,30,38,215,34*78
$GPGSV,3,2,11,18,36,022,37,29,32,126,35,22,16,354,35,16,14,218,36*76
$GPGSV,3,3,11,06,10,249,35,12,06,045,,03,00,252,39*4F
$GPRMC,165415.001,A,2304.9492,S,07019.8897,W,29.57,190.64,020511,,,A*54
$GPGGA,165416.001,2304.9573,S,07019.8913,W,1,09,0.9,101.2,M,34.2,M,,0000*55
$GPGSA,M,3,21,25,31,30,18,29,22,16,06,,,,1.8,0.9,1.6*3F
$GPRMC,165416.001,A,2304.9573,S,07019.8913,W,29.84,190.84,020511,,,A*54
$GPGGA,165417.001,2304.9659,S,07019.8928,W,1,09,0.9,100.9,M,34.2,M,,0000*5D
$GPGSA,M,3,21,25,31,30,18,29,22,16,06,,,,1.8,0.9,1.6*3F
$GPRMC,165417.001,A,2304.9659,S,07019.8928,W,29.91,190.91,020511,,,A*56
$GPGGA,165418.002,2304.9741,S,07019.8944,W,1,09,0.9,100.5,M,34.2,M,,0000*5F
$GPGSA,M,3,21,25,31,30,18,29,22,16,06,,,,1.8,0.9,1.6*3F
$GPRMC,165418.002,A,2304.9741,S,07019.8944,W,29.92,190.70,020511,,,A*54
$GPGGA,165419.001,2304.9821,S,07019.8965,W,1,09,0.9,101.3,M,34.2,M,,0000*50
$GPGSA,M,3,21,25,31,30,18,29,22,16,06,,,,1.8,0.9,1.6*3F
$GPRMC,165419.001,A,2304.9821,S,07019.8965,W,29.89,191.44,020511,,,A*50
$GPGGA,165420.000,2304.9903,S,07019.8983,W,1,09,0.9,101.5,M,34.2,M,,0000*54
$GPGSA,M,3,21,25,31,30,18,29,22,16,06,,,,1.8,0.9,1.6*3F
$GPGSV,3,1,11,21,74,185,37,25,44,051,39,31,40,293,36,30,38,215,32*7E
$GPGSV,3,2,11,18,36,022,36,29,32,126,35,22,16,354,36,16,14,218,36*74
$GPGSV,3,3,11,06,10,249,26,12,06,045,,03,00,252,40*43
$GPRMC,165420.000,A,2304.9903,S,07019.8983,W,29.98,192.19,020511,,,A*59
$GPGGA,165421.000,2304.9982,S,07019.9000,W,1,09,0.9,100.7,M,34.2,M,,0000*5C
$GPGSA,M,3,21,25,31,30,18,29,22,16,06,,,,1.8,0.9,1.6*3F
$GPRMC,165421.000,A,2304.9982,S,07019.9000,W,29.69,191.99,020511,,,A*57
$GPGGA,165422.000,2305.0064,S,07019.9018,W,1,09,0.9,100.3,M,34.2,M,,0000*5B
$GPGSA,M,3,21,25,31,30,18,29,22,16,06,,,,1.8,0.9,1.6*3F
$GPRMC,165422.000,A,2305.0064,S,07019.9018,W,29.94,191.44,020511,,,A*56
$GPGGA,165423.000,2305.0145,S,07019.9036,W,1,09,0.9,101.2,M,34.2,M,,0000*54
$GPGSA,M,3,21,25,31,30,18,29,22,16,06,,,,1.8,0.9,1.6*3F
$GPRMC,165423.000,A,2305.0145,S,07019.9036,W,30.08,190.95,020511,,,A*59
$GPGGA,165424.000,2305.0227,S,07019.9052,W,1,09,0.9,100.8,M,34.2,M,,0000*5D
$GPGSA,M,3,21,25,31,30,18,29,22,16,06,,,,1.8,0.9,1.6*3F
$GPRMC,165424.000,A,2305.0227,S,07019.9052,W,30.16,190.73,020511,,,A*5C
$GPGGA,165425.000,2305.0309,S,07019.9071,W,1,09,0.9,102.9,M,34.2,M,,0000*53
$GPGSA,M,3,21,25,31,30,18,29,22,16,06,,,,1.8,0.9,1.6*3F
$GPGSV,3,1,11,21,74,185,36,25,44,051,39,31,40,293,35,30,38,215,32*7C
$GPGSV,3,2,11,18,36,022,35,29,32,126,35,22,16,354,34,16,14,218,36*75
$GPGSV,3,3,11,06,10,249,37,12,06,045,,03,00,252,38*4C
$GPRMC,165425.000,A,2305.0309,S,07019.9071,W,29.65,191.23,020511,,,A*59
$GPGGA,165426.000,2305.0389,S,07019.9088,W,1,09,0.9,102.5,M,34.2,M,,0000*52
$GPGSA,M,3,21,25,31,30,18,29,22,16,06,,,,1.8,0.9,1.6*3F
$GPRMC,165426.000,A,2305.0389,S,07019.9088,W,29.80,190.10,020511,,,A*5E
$GPGGA,165427.000,2305.0471,S,07019.9103,W,1,09,0.9,102.0,M,34.2,M,,0000*54
$GPGSA,M,3,21,25,31,30,18,29,22,16,06,,,,1.8,0.9,1.6*3F
$GPRMC,165427.000,A,2305.0471,S,07019.9103,W,29.81,189.97,020511,,,A*5B
$GPGGA,165428.000,2305.0552,S,07019.9121,W,1,09,0.9,104.3,M,34.2,M,,0000*5E
$GPGSA,M,3,21,25,31,30,18,29,22,16,06,,,,1.8,0.9,1.6*3F
$GPRMC,165428.000,A,2305.0552,S,07019.9121,W,29.57,190.17,020511,,,A*5F
$GPGGA,165429.000,2305.0634,S,07019.9135,W,1,09,0.9,103.8,M,34.2,M,,0000*55
$GPGSA,M,3,21,25,31,30,18,29,22,16,06,,,,1.8,0.9,1.6*3F
$GPRMC,165429.000,A,2305.0634,S,07019.9135,W,29.58,189.51,020511,,,A*5D
$GPGGA,165430.000,2305.0715,S,07019.9150,W,1,09,0.9,103.5,M,34.2,M,,0000*51
$GPGSA,M,3,21,25,31,30,18,29,22,16,06,,,,1.8,0.9,1.6*3F
$GPGSV,3,1,11,21,74,185,38,25,44,051,37,31,40,293,37,30,38,215,34*78
$GPGSV,3,2,11,18,36,022,36,29,32,126,36,22,16,354,36,16,14,218,35*74
$GPGSV,3,3,11,06,10,249,32,12,06,045,,03,00,252,37*46
$GPRMC,165430.000,A,2305.0715,S,07019.9150,W,29.34,189.80,020511,,,A*52
$GPGGA,165430.996,2305.0796,S,07019.9168,W,1,09,0.9,104.9,M,34.2,M,,0000*5C
$GPGSA,M,3,21,25,31,30,18,29,22,16,06,,,,1.8,0.9,1.6*3F
$GPRMC,165430.996,A,2305.0796,S,07019.9168,W,29.33,190.27,020511,,,A*56
$GPGGA,165432.005,2305.0876,S,07019.9187,W,1,09,0.9,105.6,M,34.2,M,,0000*53
$GPGSA,M,3,21,25,31,30,18,29,22,16,06,,,,1.8,0.9,1.6*3F
$GPRMC,165432.005,A,2305.0876,S,07019.9187,W,29.34,191.43,020511,,,A*53
$GPGGA,165433.001,2305.0957,S,07019.9204,W,1,09,0.9,106.3,M,34.2,M,,0000*5A
$GPGSA,M,3,21,25,31,30,18,29,22,16,06,,,,1.8,0.9,1.6*3F
$GPRMC,165433.001,A,2305.0957,S,07019.9204,W,29.60,191.29,020511,,,A*51
$GPGGA,165433.997,2305.1038,S,07019.9226,W,1,09,0.9,107.0,M,34.2,M,,0000*5F
$GPGSA,M,3,21,25,31,30,18,29,22,16,06,,,,1.8,0.9,1.6*3F
$GPRMC,165433.997,A,2305.1038,S,07019.9226,W,29.99,191.95,020511,,,A*57
$GPGGA,165435.003,2305.1121,S,07019.9244,W,1,08,1.0,107.1,M,34.2,M,,0000*58
$GPGSA,M,3,21,25,31,30,18,29,22,06,,,,,2.0,1.0,1.7*3A
$GPGSV,3,1,11,21,74,185,37,25,44,051,36,31,40,293,37,30,38,215,32*70
$GPGSV,3,2,11,18,36,022,35,29,32,126,35,22,16,354,35,16,14,218,*71
$GPGSV,3,3,11,06,10,249,36,12,06,045,,03,00,252,36*43
$GPRMC,165435.003,A,2305.1121,S,07019.9244,W,29.53,191.61,020511,,,A*55
$GPGGA,165435.999,2305.1203,S,07019.9262,W,1,09,0.9,107.4,M,34.2,M,,0000*59
$GPGSA,M,3,21,25,31,30,18,29,22,16,06,,,,1.8,0.9,1.6*3F
$GPRMC,165435.999,A,2305.1203,S,07019.9262,W,29.45,190.88,020511,,,A*59
$GPGGA,165437.003,2305.1285,S,07019.9275,W,1,08,1.0,106.1,M,34.2,M,,0000*54
$GPGSA,M,3,21,25,31,30,18,29,22,06,,,,,2.0,1.0,1.7*3A
$GPRMC,165437.003,A,2305.1285,S,07019.9275,W,29.41,191.26,020511,,,A*58
$GPGGA,165437.999,2305.1364,S,07019.9294,W,1,09,0.9,106.8,M,34.2,M,,0000*5F
$GPGSA,M,3,21,25,31,30,18,29,22,16,06,,,,1.8,0.9,1.6*3F
$GPRMC,165437.999,A,2305.1364,S,07019.9294,W,29.43,191.76,020511,,,A*54
$GPGGA,165439.003,2305.1444,S,07019.9310,W,1,08,1.0,106.1,M,34.2,M,,0000*53
$GPGSA,M,3,21,25,31,30,18,29,16,06,,,,,2.1,1.0,1.8*33
$GPRMC,165439.003,A,2305.1444,S,07019.9310,W,29.01,191.38,020511,,,A*54
$GPGGA,165440.002,2305.1525,S,07019.9323,W,1,09,0.9,106.0,M,34.2,M,,0000*52
$GPGSA,M,3,21,25,31,30,18,29,22,16,06,,,,1.8,0.9,1.6*3F
$GPGSV,3,1,11,21,74,185,38,25,44,051,38,31,40,293,37,30,38,215,31*72
$GPGSV,3,2,11,18,36,022,36,29,32,126,36,22,16,354,36,16,14,218,35*74
$GPGSV,3,3,11,06,10,249,35,12,06,045,,03,00,252,37*41
$GPRMC,165440.002,A,2305.1525,S,07019.9323,W,29.48,190.99,020511,,,A*5A
$GPGGA,165441.001,2305.1606,S,07019.9342,W,1,09,0.9,106.0,M,34.2,M,,0000*55
$GPGSA,M,3,21,25,31,30,18,29,22,16,06,,,,1.8,0.9,1.6*3F
$GPRMC,165441.001,A,2305.1606,S,07019.9342,W,29.71,190.54,020511,,,A*56
$GPGGA,165442.001,2305.1687,S,07019.9357,W,1,09,0.9,105.1,M,34.2,M,,0000*59
$GPGSA,M,3,21,25,31,30,18,29,22,16,06,,,,1.8,0.9,1.6*3F
$GPRMC,165442.001,A,2305.1687,S,07019.9357,W,29.71,191.56,020511,,,A*5B
$GPGGA,165443.001,2305.1766,S,07019.9375,W,1,09,0.9,104.9,M,34.2,M,,0000*5F
$GPGSA,M,3,21,25,31,30,18,29,22,16,06,,,,1.8,0.9,1.6*3F
$GPRMC,165443.001,A,2305.1766,S,07019.9375,W,29.67,191.28,020511,,,A*5A
$GPGGA,165444.001,2305.1845,S,07019.9392,W,1,09,0.9,104.3,M,34.2,M,,0000*55
$GPGSA,M,3,21,25,31,30,18,29,22,16,06,,,,1.8,0.9,1.6*3F
$GPRMC,165444.001,A,2305.1845,S,07019.9392,W,29.44,191.14,020511,,,A*54
$GPGGA,165445.001,2305.1927,S,07019.9414,W,1,09,0.9,105.5,M,34.2,M,,0000*5F
$GPGSA,M,3,21,25,31,30,18,29,22,16,06,,,,1.8,0.9,1.6*3F
$GPGSV,3,1,11,21,74,185,37,25,44,051,38,31,40,293,37,30,38,215,31*7D
$GPGSV,3,2,11,18,36,022,35,29,32,126,35,22,16,354,34,16,14,218,35*76
$GPGSV,3,3,11,06,10,249,35,12,06,045,,03,00,252,37*41
$GPRMC,165445.001,A,2305.1927,S,07019.9414,W,30.11,190.76,020511,,,A*54
$GPGGA,165446.001,2305.2010,S,07019.9430,W,1,09,0.9,105.7,M,34.2,M,,0000*56
$GPGSA,M,3,21,25,31,30,18,29,22,16,06,,,,1.8,0.9,1.6*3F
$GPRMC,165446.001,A,2305.2010,S,07019.9430,W,30.04,191.30,020511,,,A*58
$GPGGA,165447.001,2305.2093,S,07019.9449,W,1,09,0.9,106.4,M,34.2,M,,0000*52
$GPGSA,M,3,21,25,31,30,18,29,22,16,06,,,,1.8,0.9,1.6*3F
$GPRMC,165447.001,A,2305.2093,S,07019.9449,W,29.88,191.17,020511,,,A*55
$GPGGA,165448.001,2305.2175,S,07019.9467,W,1,09,0.9,106.7,M,34.2,M,,0000*5B
$GPGSA,M,3,21,25,31,30,18,29,22,16,06,,,,1.8,0.9,1.6*3F
$GPRMC,165448.001,A,2305.2175,S,07019.9467,W,30.03,190.83,020511,,,A*58
$GPGGA,165449.001,2305.2257,S,07019.9485,W,1,09,0.9,107.1,M,34.2,M,,0000*52
$GPGSA,M,3,21,25,31,30,18,29,22,16,06,,,,1.8,0.9,1.6*3F
$GPRMC,165449.001,A,2305.2257,S,07019.9485,W,29.82,191.99,020511,,,A*5D
$GPGGA,165450.001,2305.2338,S,07019.9504,W,1,09,0.9,107.3,M,34.2,M,,0000*58
$GPGSA,M,3,21,25,31,30,18,29,22,16,06,,,,1.8,0.9,1.6*3F
$GPGSV,3,1,11,21,74,185,37,25,44,051,38,31,40,293,37,30,38,215,33*7F
$GPGSV,3,2,11,18,36,022,35,29,32,126,33,22,16,354,36,16,14,218,35*72
$GPGSV,3,3,11,06,10,249,30,12,06,045,,03,00,252,36*45
$GPRMC,165450.001,A,2305.2338,S,07019.9504,W,30.13,191.96,020511,,,A*5A
$GPGGA,165451.001,2305.2421,S,07019.9524,W,1,09,0.9,107.2,M,34.2,M,,0000*55
$GPGSA,M,3,21,25,31,30,18,29,22,16,06,,,,1.8,0.9,1.6*3F
$GPRMC,165451.001,A,2305.2421,S,07019.9524,W,30.62,192.13,020511,,,A*5E
$GPGGA,165452.001,2305.2503,S,07019.9541,W,1,09,0.9,106.9,M,34.2,M,,0000*5E
$GPGSA,M,3,21,25,31,30,18,29,22,16,06,,,,1.8,0.9,1.6*3F
$GPRMC,165452.001,A,2305.2503,S,07019.9541,W,30.21,192.06,020511,,,A*5C
$GPGGA,165453.001,2305.2584,S,07019.9560,W,1,09,0.9,106.3,M,34.2,M,,0000*59
$GPGSA,M,3,21,25,31,30,18,29,22,16,06,,,,1.8,0.9,1.6*3F
$GPRMC,165453.001,A,2305.2584,S,07019.9560,W,30.29,191.94,020511,,,A*51
$GPGGA,165454.001,2305.2665,S,07019.9579,W,1,09,0.9,105.8,M,34.2,M,,0000*52
$GPGSA,M,3,21,25,31,30,18,29,22,16,06,,,,1.8,0.9,1.6*3F
$GPRMC,165454.001,A,2305.2665,S,07019.9579,W,30.48,190.90,020511,,,A*50
$GPGGA,165455.001,2305.2747,S,07019.9596,W,1,09,0.9,106.2,M,34.2,M,,0000*5A
$GPGSA,M,3,21,25,31,30,18,29,22,16,06,,,,1.8,0.9,1.6*3F
$GPGSV,3,1,11,21,74,185,37,25,44,051,37,31,40,293,37,30,38,215,34*77
$GPGSV,3,2,11,18,36,022,36,29,32,126,34,22,16,354,35,16,14,218,34*74
$GPGSV,3,3,11,06,10,249,35,12,06,045,,03,00,252,36*40
$GPRMC,165455.001,A,2305.2747,S,07019.9596,W,29.70,191.27,020511,,,A*5F
$GPGGA,165456.001,2305.2828,S,07019.9614,W,1,09,0.9,106.4,M,34.2,M,,0000*50
$GPGSA,M,3,21,25,31,30,18,29,22,16,06,,,,1.8,0.9,1.6*3F
$GPRMC,165456.001,A,2305.2828,S,07019.9614,W,29.95,191.55,020511,,,A*5D
$GPGGA,165457.001,2305.2910,S,07019.9627,W,1,09,0.9,106.1,M,34.2,M,,0000*5E
$GPGSA,M,3,21,25,31,30,18,29,22,16,06,,,,1.8,0.9,1.6*3F
$GPRMC,165457.001,A,2305.2910,S,07019.9627,W,29.95,191.55,020511,,,A*56
$GPGGA,165458.002,2305.2992,S,07019.9645,W,1,09,0.9,106.4,M,34.2,M,,0000*59
$GPGSA,M,3,21,25,31,30,18,29,22,16,06,,,,1.8,0.9,1.6*3F
$GPRMC,165458.002,A,2305.2992,S,07019.9645,W,29.75,191.57,020511,,,A*58
$GPGGA,165459.000,2305.3075,S,07019.9663,W,1,09,0.9,106.8,M,34.2,M,,0000*53
$GPGSA,M,3,21,25,31,30,18,29,22,16,06,,,,1.8,0.9,1.6*3F
$GPRMC,165459.000,A,2305.3075,S,07019.9663,W,29.86,190.80,020511,,,A*59
$GPGGA,165500.000,2305.3158,S,07019.9677,W,1,09,0.9,106.0,M,34.2,M,,0000*5D
$GPGSA,M,3,21,25,31,30,18,29,22,16,06,,,,1.8,0.9,1.6*3F
$GPGSV,3,1,11,21,74,185,37,25,44,051,39,31,40,293,37,30,38,215,32*7F
$GPGSV,3,2,11,18,36,022,36,29,32,126,34,22,16,354,34,16,14,218,33*72
$GPGSV,3,3,11,06,10,249,34,12,06,045,,03,00,252,36*41
$GPRMC,165500.000,A,2305.3158,S,07019.9677,W,29.83,191.84,020511,,,A*5F
$GPGGA,165501.000,2305.3239,S,07019.9695,W,1,09,0.9,105.8,M,34.2,M,,0000*5F
$GPGSA,M,3,21,25,31,30,18,29,22,16,06,,,,1.8,0.9,1.6*3F
$GPRMC,165501.000,A,2305.3239,S,07019.9695,W,29.80,191.95,020511,,,A*55
$GPGGA,165502.000,2305.3319,S,07019.9715,W,1,09,0.9,105.3,M,34.2,M,,0000*5D
$GPGSA,M,3,21,25,31,30,18,29,22,16,06,,,,1.8,0.9,1.6*3F
$GPRMC,165502.000,A,2305.3319,S,07019.9715,W,29.79,191.56,020511,,,A*55
$GPGGA,165503.000,2305.3401,S,07019.9731,W,1,09,0.9,104.5,M,34.2,M,,0000*53
$GPGSA,M,3,21,25,31,30,18,29,22,16,06,,,,1.8,0.9,1.6*3F
$GPRMC,165503.000,A,2305.3401,S,07019.9731,W,29.80,191.49,020511,,,A*54
$GPGGA,165504.000,2305.3482,S,07019.9751,W,1,09,0.9,104.5,M,34.2,M,,0000*59
$GPGSA,M,3,21,25,31,30,18,29,22,16,06,,,,1.8,0.9,1.6*3F
$GPRMC,165504.000,A,2305.3482,S,07019.9751,W,29.78,191.93,020511,,,A*5E
$GPGGA,165505.000,2305.3565,S,07019.9768,W,1,09,0.9,104.7,M,34.2,M,,0000*58
$GPGSA,M,3,21,25,31,30,18,29,22,16,06,,,,1.8,0.9,1.6*3F
$GPGSV,3,1,11,21,74,185,37,25,44,051,38,31,40,293,37,30,38,215,34*78
$GPGSV,3,2,11,18,36,022,36,29,32,126,36,22,16,354,36,16,14,218,35*74
$GPGSV,3,3,11,06,10,249,36,12,06,045,,03,00,252,38*4D
$GPRMC,165505.000,A,2305.3565,S,07019.9768,W,30.21,191.56,020511,,,A*50
$GPGGA,165506.000,2305.3647,S,07019.9789,W,1,09,0.9,105.1,M,34.2,M,,0000*50
$GPGSA,M,3,21,25,31,30,18,29,22,16,06,,,,1.8,0.9,1.6*3F
$GPRMC,165506.000,A,2305.3647,S,07019.9789,W,29.98,191.36,020511,,,A*53
$GPGGA,165507.000,2305.3727,S,07019.9806,W,1,09,0.9,104.0,M,34.2,M,,0000*5E
$GPGSA,M,3,21,25,31,30,18,29,22,16,06,,,,1.8,0.9,1.6*3F
$GPRMC,165507.000,A,2305.3727,S,07019.9806,W,29.45,191.25,020511,,,A*5F
$GPGGA,165508.000,2305.3806,S,07019.9825,W,1,09,0.9,103.9,M,34.2,M,,0000*52
$GPGSA,M,3,21,25,31,30,18,29,22,16,06,,,,1.8,0.9,1.6*3F
$GPRMC,165508.000,A,2305.3806,S,07019.9825,W,29.59,191.31,020511,,,A*55
$GPGGA,165509.000,2305.3887,S,07019.9842,W,1,09,0.9,104.2,M,34.2,M,,0000*57
$GPGSA,M,3,21,25,31,30,18,29,22,16,06,,,,1.8,0.9,1.6*3F
$GPRMC,165509.000,A,2305.3887,S,07019.9842,W,29.11,191.48,020511,,,A*5E
$GPGGA,165509.998,2305.3966,S,07019.9858,W,1,08,1.4,103.9,M,34.2,M,,0000*5B
$GPGSA,M,3,21,25,31,30,18,22,16,06,,,,,2.2,1.4,1.8*3F
$GPGSV,3,1,11,21,74,185,38,25,44,051,38,31,40,293,38,30,38,215,31*7D
$GPGSV,3,2,11,18,36,022,36,29,32,126,,22,16,354,36,16,14,218,35*71
$GPGSV,3,3,11,06,10,249,35,12,06,045,,03,00,252,37*41
$GPRMC,165509.998,A,2305.3966,S,07019.9858,W,29.27,191.79,020511,,,A*54
$GPGGA,165511.001,2305.4045,S,07019.9878,W,1,09,0.9,104.4,M,34.2,M,,0000*51
$GPGSA,M,3,21,25,31,30,18,29,22,16,06,,,,1.8,0.9,1.6*3F
$GPRMC,165511.001,A,2305.4045,S,07019.9878,W,29.54,191.91,020511,,,A*5B
$GPGGA,165511.999,2305.4125,S,07019.9894,W,1,09,0.9,102.9,M,34.2,M,,0000*57
$GPGSA,M,3,21,25,31,30,18,29,22,16,06,,,,1.8,0.9,1.6*3F
$GPRMC,165511.999,A,2305.4125,S,07019.9894,W,29.13,191.99,020511,,,A*5D
$GPGGA,165513.001,2305.4206,S,07019.9911,W,1,09,0.9,103.1,M,34.2,M,,0000*5A
$GPGSA,M,3,21,25,31,30,18,29,22,16,06,,,,1.8,0.9,1.6*3F
$GPRMC,165513.001,A,2305.4206,S,07019.9911,W,29.44,190.48,020511,,,A*56
$GPGGA,165514.001,2305.4286,S,07019.9930,W,1,09,0.9,102.9,M,34.2,M,,0000*5F
$GPGSA,M,3,21,25,31,30,18,29,22,16,06,,,,1.8,0.9,1.6*3F
$GPRMC,165514.001,A,2305.4286,S,07019.9930,W,29.35,191.65,020511,,,A*52
$GPGGA,165515.003,2305.4368,S,07019.9945,W,1,08,1.0,103.5,M,34.2,M,,0000*5B
$GPGSA,M,3,21,25,31,30,18,29,22,06,,,,,2.0,1.0,1.7*3A
$GPGSV,3,1,11,21,74,185,37,25,44,051,37,31,40,293,36,30,38,215,32*70
$GPGSV,3,2,11,18,36,022,35,29,32,126,34,22,16,354,36,16,14,218,*73
$GPGSV,3,3,11,06,10,249,32,12,06,045,,03,00,252,36*47
$GPRMC,165515.003,A,2305.4368,S,07019.9945,W,29.40,190.37,020511,,,A*56
$GPGGA,165515.999,2305.4447,S,07019.9962,W,1,09,0.9,103.3,M,34.2,M,,0000*51
$GPGSA,M,3,21,25,31,30,18,29,22,16,06,,,,1.8,0.9,1.6*3F
$GPRMC,165515.999,A,2305.4447,S,07019.9962,W,29.53,191.67,020511,,,A*55
$GPGGA,165517.001,2305.4527,S,07019.9979,W,1,09,0.9,102.5,M,34.2,M,,0000*51
$GPGSA,M,3,21,25,31,30,18,29,22,16,06,,,,1.8,0.9,1.6*3F
$GPRMC,165517.001,A,2305.4527,S,07019.9979,W,29.46,191.11,020511,,,A*57
$GPGGA,165518.003,2305.4609,S,07019.9998,W,1,08,1.0,104.0,M,34.2,M,,0000*56
$GPGSA,M,3,21,25,31,30,18,29,22,16,,,,,2.0,1.0,1.7*3B
$GPRMC,165518.003,A,2305.4609,S,07019.9998,W,28.92,191.31,020511,,,A*50
$GPGGA,165519.002,2305.4691,S,07020.0012,W,1,09,0.9,103.6,M,34.2,M,,0000*57
$GPGSA,M,3,21,25,31,30,18,29,22,16,06,,,,1.8,0.9,1.6*3F
$GPRMC,165519.002,A,2305.4691,S,07020.0012,W,29.34,191.26,020511,,,A*52
$GPGGA,165520.001,2305.4771,S,07020.0030,W,1,09,0.9,103.7,M,34.2,M,,0000*50
$GPGSA,M,3,21,25,31,30,18,29,22,16,06,,,,1.8,0.9,1.6*3F
$GPGSV,3,1,11,21,74,185,37,25,44,051,38,31,40,293,37,30,38,215,34*78
$GPGSV,3,2,11,18,36,022,35,29,32,126,35,22,16,354,36,16,14,218,35*74
$GPGSV,3,3,11,06,10,249,33,12,06,045,,03,00,252,40*47
$GPRMC,165520.001,A,2305.4771,S,07020.0030,W,29.94,191.39,020511,,,A*50
$GPGGA,165521.001,2305.4854,S,07020.0045,W,1,09,0.9,102.5,M,34.2,M,,0000*58
$GPGSA,M,3,21,25,31,30,18,29,22,16,06,,,,1.8,0.9,1.6*3F
$GPRMC,165521.001,A,2305.4854,S,07020.0045,W,29.83,190.66,020511,,,A*56
$GPGGA,165522.001,2305.4938,S,07020.0063,W,1,09,0.9,102.7,M,34.2,M,,0000*56
$GPGSA,M,3,21,25,31,30,18,29,22,16,06,,,,1.8,0.9,1.6*3F
$GPRMC,165522.001,A,2305.4938,S,07020.0063,W,29.96,192.24,020511,,,A*5A
$GPGGA,165523.001,2305.5018,S,07020.0082,W,1,09,0.9,102.6,M,34.2,M,,0000*53
$GPGSA,M,3,21,25,31,30,18,29,22,16,06,,,,1.8,0.9,1.6*3F
$GPRMC,165523.001,A,2305.5018,S,07020.0082,W,29.97,192.04,020511,,,A*5D
$GPGGA,165524.001,2305.5102,S,07020.0098,W,1,09,0.9,102.4,M,34.2,M,,0000*57
$GPGSA,M,3,21,25,31,30,18,29,22,16,06,,,,1.8,0.9,1.6*3F
$GPRMC,165524.001,A,2305.5102,S,07020.0098,W,30.15,191.15,020511,,,A*5A
$GPGGA,165525.002,2305.5183,S,07020.0117,W,1,09,0.9,102.4,M,34.2,M,,0000*5A
$GPGSA,M,3,21,25,31,30,18,29,22,16,06,,,,1.8,0.9,1.6*3F
$GPGSV,3,1,11,21,74,185,37,25,44,051,37,31,40,293,38,30,38,215,33*7F
$GPGSV,3,2,11,18,36,022,35,29,32,126,35,22,16,354,36,16,14,218,36*77
$GPGSV,3,3,11,06,10,249,27,12,06,045,,03,00,252,37*42
$GPRMC,165525.002,A,2305.5183,S,07020.0117,W,29.50,191.67,020511,,,A*5B
$GPGGA,165526.002,2305.5265,S,07020.0134,W,1,09,0.9,102.1,M,34.2,M,,0000*56
$GPGSA,M,3,21,25,31,30,18,29,22,16,06,,,,1.8,0.9,1.6*3F
$GPRMC,165526.002,A,2305.5265,S,07020.0134,W,29.72,191.71,020511,,,A*55
$GPGGA,165526.999,2305.5344,S,07020.0154,W,1,09,0.9,102.0,M,34.2,M,,0000*58
$GPGSA,M,3,21,25,31,30,18,29,22,16,06,,,,1.8,0.9,1.6*3F
$GPRMC,165526.999,A,2305.5344,S,07020.0154,W,29.07,191.75,020511,,,A*5C
$GPGGA,165528.001,2305.5424,S,07020.0172,W,1,09,0.9,102.3,M,34.2,M,,0000*58
$GPGSA,M,3,21,25,31,30,18,29,22,16,06,,,,1.8,0.9,1.6*3F
$GPRMC,165528.001,A,2305.5424,S,07020.0172,W,29.37,191.57,020511,,,A*5C
$GPGGA,165529.001,2305.5507,S,07020.0187,W,1,09,0.9,101.8,M,34.2,M,,0000*5B
$GPGSA,M,3,21,25,31,30,18,29,22,16,06,,,,1.9,0.9,1.6*3E
$GPRMC,165529.001,A,2305.5507,S,07020.0187,W,29.63,191.89,020511,,,A*55
$GPGGA,165530.001,2305.5588,S,07020.0205,W,1,09,0.9,102.2,M,34.2,M,,0000*54
$GPGSA,M,3,21,25,31,30,18,29,22,16,06,,,,1.9,0.9,1.6*3E
$GPGSV,3,1,11,21,74,185,37,25,44,051,38,31,40,293,36,30,38,215,33*7E
$GPGSV,3,2,11,18,36,022,36,29,32,126,35,22,16,354,36,16,14,218,35*77
$GPGSV,3,3,11,06,10,249,36,12,06,045,,03,00,252,36*43
$GPRMC,165530.001,A,2305.5588,S,07020.0205,W,29.76,191.62,020511,,,A*52
$GPGGA,165531.001,2305.5669,S,07020.0223,W,1,09,0.9,101.8,M,34.2,M,,0000*54
$GPGSA,M,3,21,25,31,30,18,29,22,16,06,,,,1.9,0.9,1.6*3E
$GPRMC,165531.001,A,2305.5669,S,07020.0223,W,29.59,192.03,020511,,,A*52
$GPGGA,165532.001,2305.5751,S,07020.0241,W,1,09,0.9,101.7,M,34.2,M,,0000*56
$GPGSA,M,3,21,25,31,30,18,29,22,16,06,,,,1.9,0.9,1.6*3E
$GPRMC,165532.001,A,2305.5751,S,07020.0241,W,30.21,192.07,020511,,,A*5C
$GPGGA,165533.001,2305.5832,S,07020.0261,W,1,09,0.9,101.7,M,34.2,M,,0000*5F
$GPGSA,M,3,21,25,31,30,18,29,22,16,06,,,,1.9,0.9,1.6*3E
$GPRMC,165533.001,A,2305.5832,S,07020.0261,W,29.97,191.57,020511,,,A*56
$GPGGA,165534.001,2305.5914,S,07020.0276,W,1,09,0.9,100.2,M,34.2,M,,0000*5F
$GPGSA,M,3,21,25,31,30,18,29,22,16,06,,,,1.9,0.9,1.6*3E
$GPRMC,165534.001,A,2305.5914,S,07020.0276,W,29.47,191.90,020511,,,A*54
