$GPGGA,203129.004,3955.4331,S,07102.0871,W,1,08,1.1,857.5,M,22.6,M,,0000*58
$GPGSA,M,3,19,03,22,06,11,32,24,18,,,,,1.9,1.1,1.5*31
$GPRMC,203129.004,A,3955.4331,S,07102.0871,W,26.12,299.83,130511,,,A*52
$GPGGA,203129.997,3955.4296,S,07102.0950,W,1,08,1.1,856.4,M,22.6,M,,0000*55
$GPGSA,M,3,19,03,22,06,11,32,24,18,,,,,1.9,1.1,1.5*31
$GPGSV,3,1,12,19,76,252,38,03,61,000,39,22,49,128,30,06,48,021,36*78
$GPGSV,3,2,12,14,40,069,,11,33,243,37,32,22,313,40,24,22,255,37*70
$GPGSV,3,3,12,18,14,129,28,16,05,346,34,28,04,210,,20,00,307,*79
$GPRMC,203129.997,A,3955.4296,S,07102.0950,W,26.00,301.82,130511,,,A*5D
$GPGGA,203131.000,3955.4257,S,07102.1032,W,1,08,1.1,854.8,M,22.6,M,,0000*54
$GPGSA,M,3,19,03,22,06,11,32,24,18,,,,,1.9,1.1,1.5*31
$GPRMC,203131.000,A,3955.4257,S,07102.1032,W,27.02,301.49,130511,,,A*56
$GPGGA,203132.005,3955.4214,S,07102.1113,W,1,09,1.0,853.5,M,22.6,M,,0000*5D
$GPGSA,M,3,19,03,22,06,14,11,32,24,18,,,,1.8,1.0,1.5*34
$GPRMC,203132.005,A,3955.4214,S,07102.1113,W,26.98,302.09,130511,,,A*50
$GPGGA,203132.995,3955.4177,S,07102.1186,W,1,08,1.1,851.4,M,22.6,M,,0000*54
$GPGSA,M,3,19,03,22,06,11,32,24,18,,,,,1.9,1.1,1.5*31
$GPRMC,203132.995,A,3955.4177,S,07102.1186,W,25.86,304.49,130511,,,A*54
$GPGGA,203134.000,3955.4140,S,07102.1265,W,1,08,1.1,850.6,M,22.6,M,,0000*5E
$GPGSA,M,3,19,03,22,06,11,32,24,18,,,,,1.9,1.1,1.5*31
$GPRMC,203134.000,A,3955.4140,S,07102.1265,W,26.04,302.63,130511,,,A*5A
$GPGGA,203135.001,3955.4105,S,07102.1334,W,1,06,1.5,849.1,M,22.6,M,,0000*5F
$GPGSA,M,3,19,03,22,06,11,32,,,,,,,3.0,1.5,2.6*31
$GPGSV,3,1,12,19,76,252,38,03,61,000,38,22,49,128,29,06,48,021,35*72
$GPGSV,3,2,12,14,40,069,,11,33,243,32,32,22,313,38,24,22,255,*7E
$GPGSV,3,3,12,18,14,129,,16,05,346,34,28,04,210,,20,00,307,*73
$GPRMC,203135.001,A,3955.4105,S,07102.1334,W,26.86,302.78,130511,,,A*5E
$GPGGA,203136.000,3955.4065,S,07102.1415,W,1,08,1.2,848.4,M,22.6,M,,0000*53
$GPGSA,M,3,19,03,22,06,14,11,32,24,,,,,2.4,1.2,2.1*37
$GPRMC,203136.000,A,3955.4065,S,07102.1415,W,26.78,301.22,130511,,,A*52
$GPGGA,203136.999,3955.4030,S,07102.1496,W,1,07,1.4,848.4,M,22.6,M,,0000*58
$GPGSA,M,3,19,03,22,06,11,32,24,,,,,,2.9,1.4,2.5*3D
$GPRMC,203136.999,A,3955.4030,S,07102.1496,W,26.97,301.04,130511,,,A*55
$GPGGA,203138.001,3955.3990,S,07102.1583,W,1,08,1.2,848.5,M,22.6,M,,0000*57
$GPGSA,M,3,19,03,22,06,14,11,32,24,,,,,2.4,1.2,2.1*37
$GPRMC,203138.001,A,3955.3990,S,07102.1583,W,27.20,299.31,130511,,,A*59
$GPGGA,203139.000,3955.3961,S,07102.1669,W,1,07,1.4,849.4,M,22.6,M,,0000*57
$GPGSA,M,3,19,03,22,06,11,32,24,,,,,,2.9,1.4,2.5*3D
$GPRMC,203139.000,A,3955.3961,S,07102.1669,W,26.89,297.96,130511,,,A*51
$GPGGA,203140.001,3955.3922,S,07102.1750,W,1,08,1.2,847.9,M,22.6,M,,0000*5E
$GPGSA,M,3,19,03,22,06,14,11,32,24,,,,,2.4,1.2,2.1*37
$GPGSV,3,1,12,19,76,252,37,03,61,000,33,22,49,128,28,06,48,021,33*71
$GPGSV,3,2,12,14,40,069,27,11,33,243,39,32,22,313,39,24,22,255,32*70
$GPGSV,3,3,12,18,14,129,,16,05,346,36,28,04,210,,20,00,307,*71
$GPRMC,203140.001,A,3955.3922,S,07102.1750,W,26.03,299.31,130511,,,A*53
$GPGGA,203141.001,3955.3894,S,07102.1836,W,1,08,1.1,848.8,M,22.6,M,,0000*51
$GPGSA,M,3,19,03,22,06,11,32,24,18,,,,,1.9,1.1,1.5*31
$GPRMC,203141.001,A,3955.3894,S,07102.1836,W,27.39,296.41,130511,,,A*51
$GPGGA,203142.001,3955.3861,S,07102.1922,W,1,08,1.1,848.0,M,22.6,M,,0000*54
$GPGSA,M,3,19,03,22,06,11,32,24,18,,,,,1.9,1.1,1.5*31
$GPRMC,203142.001,A,3955.3861,S,07102.1922,W,26.45,293.24,130511,,,A*50
$GPGGA,203143.001,3955.3834,S,07102.2008,W,1,08,1.1,847.4,M,22.6,M,,0000*5C
$GPGSA,M,3,19,03,22,06,11,32,24,18,,,,,1.9,1.1,1.5*31
$GPRMC,203143.001,A,3955.3834,S,07102.2008,W,26.46,291.12,130511,,,A*57
$GPGGA,203144.001,3955.3804,S,07102.2100,W,1,08,1.1,846.6,M,22.6,M,,0000*52
$GPGSA,M,3,19,03,22,06,11,32,24,18,,,,,1.9,1.1,1.5*31
$GPRMC,203144.001,A,3955.3804,S,07102.2100,W,26.29,289.16,130511,,,A*5E
$GPGGA,203145.001,3955.3780,S,07102.2188,W,1,08,1.1,845.9,M,22.6,M,,0000*5C
$GPGSA,M,3,19,03,22,06,11,32,24,18,,,,,1.9,1.1,1.5*31
$GPGSV,3,1,12,19,76,252,37,03,61,000,32,22,49,128,27,06,48,021,36*7A
$GPGSV,3,2,12,14,40,069,,11,33,243,39,32,22,313,35,24,22,255,37*7C
$GPGSV,3,3,12,18,14,129,30,16,05,346,26,28,04,210,,20,00,307,*73
$GPRMC,203145.001,A,3955.3780,S,07102.2188,W,26.53,287.70,130511,,,A*5F
$GPGGA,203146.003,3955.3758,S,07102.2279,W,1,09,1.0,845.1,M,22.6,M,,0000*5D
$GPGSA,M,3,19,03,22,06,14,11,32,24,18,,,,1.8,1.0,1.5*34
$GPRMC,203146.003,A,3955.3758,S,07102.2279,W,27.00,285.32,130511,,,A*55
$GPGGA,203146.998,3955.3741,S,07102.2373,W,1,08,1.1,844.5,M,22.6,M,,0000*50
$GPGSA,M,3,19,03,22,06,11,32,24,18,,,,,1.9,1.1,1.5*31
$GPRMC,203146.998,A,3955.3741,S,07102.2373,W,27.63,285.68,130511,,,A*57
$GPGGA,203147.999,3955.3715,S,07102.2466,W,1,07,1.1,842.3,M,22.6,M,,0000*5D
$GPGSA,M,3,19,03,06,11,32,24,18,,,,,,2.0,1.1,1.6*38
$GPRMC,203147.999,A,3955.3715,S,07102.2466,W,27.39,285.11,130511,,,A*54
$GPGGA,203149.002,3955.3699,S,07102.2562,W,1,07,1.4,841.0,M,22.6,M,,0000*5D
$GPGSA,M,3,19,03,22,06,11,32,24,,,,,,2.9,1.4,2.5*3D
$GPRMC,203149.002,A,3955.3699,S,07102.2562,W,27.03,283.55,130511,,,A*5E
$GPGGA,203149.997,3955.3679,S,07102.2656,W,1,07,1.4,839.5,M,22.6,M,,0000*58
$GPGSA,M,3,19,03,22,06,11,32,24,,,,,,2.9,1.4,2.5*3D
$GPGSV,3,1,12,19,76,252,37,03,61,000,33,22,49,128,18,06,48,021,36*77
$GPGSV,3,2,12,14,40,069,,11,33,243,39,32,22,313,33,24,22,255,36*7B
$GPGSV,3,3,12,18,14,129,,16,05,346,32,28,04,210,,20,00,307,*75
$GPRMC,203149.997,A,3955.3679,S,07102.2656,W,26.65,283.26,130511,,,A*54
$GPGGA,203151.002,3955.3655,S,07102.2749,W,1,07,1.4,837.8,M,22.6,M,,0000*56
$GPGSA,M,3,19,03,22,06,11,32,24,,,,,,2.9,1.4,2.5*3D
$GPRMC,203151.002,A,3955.3655,S,07102.2749,W,27.38,283.08,130511,,,A*5C
$GPGGA,203152.000,3955.3637,S,07102.2844,W,1,07,1.4,837.1,M,22.6,M,,0000*58
$GPGSA,M,3,19,03,22,06,11,32,24,,,,,,2.9,1.4,2.5*3D
$GPRMC,203152.000,A,3955.3637,S,07102.2844,W,27.33,283.00,130511,,,A*58
$GPGGA,203153.000,3955.3621,S,07102.2939,W,1,08,1.1,835.3,M,22.6,M,,0000*5F
$GPGSA,M,3,19,03,22,06,11,32,24,18,,,,,1.9,1.1,1.5*31
$GPRMC,203153.000,A,3955.3621,S,07102.2939,W,27.36,283.94,130511,,,A*5D
$GPGGA,203154.000,3955.3601,S,07102.3035,W,1,08,1.1,832.9,M,22.6,M,,0000*53
$GPGSA,M,3,19,03,22,06,11,32,24,18,,,,,1.9,1.1,1.5*31
$GPRMC,203154.000,A,3955.3601,S,07102.3035,W,27.32,283.91,130511,,,A*5D
$GPGGA,203154.998,3955.3582,S,07102.3130,W,1,07,1.1,832.1,M,22.6,M,,0000*50
$GPGSA,M,3,19,03,06,11,32,24,18,,,,,,2.0,1.1,1.6*38
$GPGSV,3,1,12,19,76,252,38,03,61,000,31,22,49,128,,06,48,021,35*70
$GPGSV,3,2,12,14,40,069,,11,33,243,38,32,22,313,31,24,22,255,36*78
$GPGSV,3,3,12,18,14,129,29,16,05,346,31,28,04,210,,20,00,307,*7D
$GPRMC,203154.998,A,3955.3582,S,07102.3130,W,27.36,283.80,130511,,,A*5D
$GPGGA,203156.002,3955.3563,S,07102.3226,W,1,08,1.1,831.8,M,22.6,M,,0000*56
$GPGSA,M,3,19,03,22,06,11,32,24,18,,,,,1.9,1.1,1.5*31
$GPRMC,203156.002,A,3955.3563,S,07102.3226,W,27.25,282.51,130511,,,A*51
$GPGGA,203157.000,3955.3543,S,07102.3317,W,1,08,1.1,829.6,M,22.6,M,,0000*53
$GPGSA,M,3,19,03,22,06,11,32,24,18,,,,,1.9,1.1,1.5*31
$GPRMC,203157.000,A,3955.3543,S,07102.3317,W,26.61,284.38,130511,,,A*5B
$GPGGA,203158.000,3955.3523,S,07102.3413,W,1,08,1.1,829.4,M,22.6,M,,0000*5B
$GPGSA,M,3,19,03,22,06,11,32,24,18,,,,,1.9,1.1,1.5*31
$GPRMC,203158.000,A,3955.3523,S,07102.3413,W,27.13,285.17,130511,,,A*59
$GPGGA,203158.998,3955.3505,S,07102.3507,W,1,08,1.1,828.4,M,22.6,M,,0000*52
$GPGSA,M,3,19,03,22,06,11,32,24,18,,,,,1.9,1.1,1.5*31
$GPRMC,203158.998,A,3955.3505,S,07102.3507,W,27.14,285.88,130511,,,A*50
$GPGGA,203200.000,3955.3482,S,07102.3598,W,1,08,1.1,827.2,M,22.6,M,,0000*55
$GPGSA,M,3,19,03,22,06,11,32,24,18,,,,,1.9,1.1,1.5*31
$GPGSV,3,1,12,19,76,252,39,03,61,000,32,22,49,128,28,06,48,021,32*7F
$GPGSV,3,2,12,14,40,069,,11,33,243,38,32,22,313,36,24,22,255,39*70
$GPGSV,3,3,12,18,14,129,26,16,05,346,,28,04,210,,20,00,307,*70
$GPRMC,203200.000,A,3955.3482,S,07102.3598,W,27.25,286.39,130511,,,A*55
$GPGGA,203201.000,3955.3458,S,07102.3690,W,1,07,1.4,826.8,M,22.6,M,,0000*59
$GPGSA,M,3,19,03,22,06,11,32,24,,,,,,2.9,1.4,2.5*3D
$GPRMC,203201.000,A,3955.3458,S,07102.3690,W,27.54,288.85,130511,,,A*57
$GPGGA,203202.003,3955.3433,S,07102.3782,W,1,09,1.0,827.8,M,22.6,M,,0000*5D
$GPGSA,M,3,19,03,22,06,14,11,32,24,18,,,,1.8,1.0,1.5*34
$GPRMC,203202.003,A,3955.3433,S,07102.3782,W,27.57,289.67,130511,,,A*56
$GPGGA,203202.999,3955.3406,S,07102.3875,W,1,08,1.2,827.4,M,22.6,M,,0000*59
$GPGSA,M,3,19,03,22,06,14,11,32,24,,,,,2.4,1.2,2.1*37
$GPRMC,203202.999,A,3955.3406,S,07102.3875,W,28.44,293.50,130511,,,A*5F
$GPGGA,203204.001,3955.3371,S,07102.3964,W,1,09,1.0,825.7,M,22.6,M,,0000*53
$GPGSA,M,3,19,03,22,06,14,11,32,24,18,,,,1.8,1.0,1.5*34
$GPRMC,203204.001,A,3955.3371,S,07102.3964,W,28.13,295.63,130511,,,A*53
$GPGGA,203205.001,3955.3340,S,07102.4059,W,1,09,1.0,825.2,M,22.6,M,,0000*55
$GPGSA,M,3,19,03,22,06,14,11,32,24,18,,,,1.8,1.0,1.5*34
$GPGSV,3,1,12,19,76,252,39,03,61,000,38,22,49,128,25,06,48,021,35*7F
$GPGSV,3,2,12,14,40,069,28,11,33,243,39,32,22,313,40,24,22,255,38*7B
$GPGSV,3,3,12,18,14,129,29,16,05,346,33,28,04,210,,20,00,307,*7F
$GPRMC,203205.001,A,3955.3340,S,07102.4059,W,28.36,298.54,130511,,,A*5E
$GPGGA,203206.000,3955.3301,S,07102.4145,W,1,06,3.3,823.8,M,22.6,M,,0000*5C
$GPGSA,M,3,19,03,06,11,32,24,,,,,,,5.2,3.3,4.0*37
$GPRMC,203206.000,A,3955.3301,S,07102.4145,W,27.97,301.35,130511,,,A*57
$GPGGA,203206.999,3955.3253,S,07102.4227,W,1,08,1.2,823.5,M,22.6,M,,0000*54
$GPGSA,M,3,19,03,22,06,14,11,32,24,,,,,2.4,1.2,2.1*37
$GPRMC,203206.999,A,3955.3253,S,07102.4227,W,27.80,305.07,130511,,,A*5C
$GPGGA,203208.001,3955.3209,S,07102.4306,W,1,08,1.1,821.3,M,22.6,M,,0000*58
$GPGSA,M,3,19,03,06,14,11,32,24,18,,,,,1.9,1.1,1.6*37
$GPRMC,203208.001,A,3955.3209,S,07102.4306,W,28.20,308.52,130511,,,A*5F
$GPGGA,203209.000,3955.3162,S,07102.4387,W,1,08,1.0,821.2,M,22.6,M,,0000*5F
$GPGSA,M,3,19,03,22,06,11,32,24,18,,,,,1.9,1.0,1.5*30
$GPRMC,203209.000,A,3955.3162,S,07102.4387,W,28.28,312.45,130511,,,A*5D
$GPGGA,203210.002,3955.3107,S,07102.4463,W,1,09,1.0,820.1,M,22.6,M,,0000*58
$GPGSA,M,3,19,03,22,06,14,11,32,24,18,,,,1.8,1.0,1.5*34
$GPGSV,3,1,12,19,76,252,37,03,61,000,40,22,49,128,28,06,48,021,36*70
$GPGSV,3,2,12,14,40,069,27,11,33,243,40,32,22,313,39,24,22,255,37*7B
$GPGSV,3,3,12,18,14,129,29,16,05,346,34,28,04,210,,20,00,307,*78
$GPRMC,203210.002,A,3955.3107,S,07102.4463,W,28.49,313.65,130511,,,A*5D
$GPGGA,203210.996,3955.3046,S,07102.4533,W,1,09,1.0,819.0,M,22.6,M,,0000*57
$GPGSA,M,3,19,03,22,06,14,11,32,24,18,,,,1.8,1.0,1.5*34
$GPRMC,203210.996,A,3955.3046,S,07102.4533,W,28.42,316.33,130511,,,A*54
$GPGGA,203212.004,3955.2988,S,07102.4603,W,1,07,1.5,818.7,M,22.6,M,,0000*50
$GPGSA,M,3,19,03,06,14,11,32,24,,,,,,2.6,1.5,2.2*31
$GPRMC,203212.004,A,3955.2988,S,07102.4603,W,28.17,319.06,130511,,,A*57
$GPGGA,203213.000,3955.2927,S,07102.4673,W,1,07,1.5,817.9,M,22.6,M,,0000*56
$GPGSA,M,3,19,03,06,14,11,32,24,,,,,,2.6,1.5,2.2*31
$GPRMC,203213.000,A,3955.2927,S,07102.4673,W,28.67,318.97,130511,,,A*5E
$GPGGA,203213.998,3955.2862,S,07102.4753,W,1,07,1.5,819.3,M,22.6,M,,0000*59
$GPGSA,M,3,19,03,06,14,11,32,24,,,,,,2.6,1.5,2.2*31
$GPRMC,203213.998,A,3955.2862,S,07102.4753,W,28.72,320.57,130511,,,A*56
$GPGGA,203215.003,3955.2797,S,07102.4821,W,1,07,1.5,819.7,M,22.6,M,,0000*5F
$GPGSA,M,3,19,03,06,14,11,32,24,,,,,,2.6,1.5,2.2*31
$GPGSV,3,1,12,19,76,252,36,03,61,000,40,22,49,128,,06,48,021,35*78
$GPGSV,3,2,12,14,40,069,36,11,33,243,40,32,22,313,37,24,22,255,36*74
$GPGSV,3,3,12,18,14,129,,16,05,346,30,28,04,210,,20,00,307,*77
$GPRMC,203215.003,A,3955.2797,S,07102.4821,W,28.39,321.58,130511,,,A*55
$GPGGA,203215.999,3955.2740,S,07102.4894,W,1,07,1.5,821.8,M,22.6,M,,0000*55
$GPGSA,M,3,19,03,06,14,11,32,24,,,,,,2.6,1.5,2.2*31
$GPRMC,203215.999,A,3955.2740,S,07102.4894,W,28.10,321.82,130511,,,A*57
$GPGGA,203217.001,3955.2674,S,07102.4966,W,1,08,1.1,822.8,M,22.6,M,,0000*5D
$GPGSA,M,3,19,03,06,14,11,32,24,18,,,,,1.9,1.1,1.6*37
$GPRMC,203217.001,A,3955.2674,S,07102.4966,W,27.54,323.08,130511,,,A*58
$GPGGA,203218.001,3955.2612,S,07102.5027,W,1,08,1.1,821.7,M,22.6,M,,0000*53
$GPGSA,M,3,19,03,06,14,11,32,24,18,,,,,1.9,1.1,1.6*37
$GPRMC,203218.001,A,3955.2612,S,07102.5027,W,28.12,322.58,130511,,,A*53
$GPGGA,203219.001,3955.2550,S,07102.5091,W,1,08,1.1,822.1,M,22.6,M,,0000*5F
$GPGSA,M,3,19,03,06,14,11,32,24,18,,,,,1.9,1.1,1.6*37
$GPRMC,203219.001,A,3955.2550,S,07102.5091,W,27.91,322.22,130511,,,A*53
$GPGGA,203220.002,3955.2487,S,07102.5149,W,1,07,1.5,820.1,M,22.6,M,,0000*50
$GPGSA,M,3,19,03,06,14,11,32,24,,,,,,2.6,1.5,2.2*31
$GPGSV,3,1,12,19,76,252,36,03,61,000,39,22,49,128,,06,48,021,34*77
$GPGSV,3,2,12,14,40,069,36,11,33,243,39,32,22,313,37,24,22,255,39*75
$GPGSV,3,3,12,18,14,129,,16,05,346,34,28,04,210,,20,00,307,*73
$GPRMC,203220.002,A,3955.2487,S,07102.5149,W,28.68,322.16,130511,,,A*5B
$GPGGA,203221.000,3955.2425,S,07102.5214,W,1,09,1.0,819.3,M,22.6,M,,0000*53
$GPGSA,M,3,19,03,22,06,14,11,32,24,18,,,,1.8,1.0,1.5*34
$GPRMC,203221.000,A,3955.2425,S,07102.5214,W,28.08,322.46,130511,,,A*58
$GPGGA,203221.997,3955.2361,S,07102.5279,W,1,07,1.5,818.4,M,22.6,M,,0000*55
$GPGSA,M,3,19,03,06,14,11,32,24,,,,,,2.6,1.5,2.2*31
$GPRMC,203221.997,A,3955.2361,S,07102.5279,W,28.35,322.89,130511,,,A*5E
$GPGGA,203223.003,3955.2296,S,07102.5337,W,1,08,1.1,816.4,M,22.6,M,,0000*54
$GPGSA,M,3,19,03,06,14,11,32,24,18,,,,,1.9,1.1,1.6*37
$GPRMC,203223.003,A,3955.2296,S,07102.5337,W,28.79,322.59,130511,,,A*5F
$GPGGA,203224.001,3955.2234,S,07102.5402,W,1,08,1.2,814.6,M,22.6,M,,0000*5B
$GPGSA,M,3,19,03,22,06,14,11,32,24,,,,,2.4,1.2,2.1*37
$GPRMC,203224.001,A,3955.2234,S,07102.5402,W,28.38,322.02,130511,,,A*58
$GPGGA,203225.002,3955.2172,S,07102.5467,W,1,09,1.0,814.6,M,22.6,M,,0000*58
$GPGSA,M,3,19,03,22,06,14,11,32,24,18,,,,1.8,1.0,1.5*34
$GPGSV,3,1,12,19,76,252,37,03,61,000,39,22,49,128,29,06,48,021,35*7C
$GPGSV,3,2,12,14,40,069,36,11,33,243,39,32,22,313,36,24,22,255,36*7B
$GPGSV,3,3,12,18,14,129,27,16,05,346,36,28,04,210,,20,00,307,*74
$GPRMC,203225.002,A,3955.2172,S,07102.5467,W,28.33,322.93,130511,,,A*5B
$GPGGA,203226.000,3955.2106,S,07102.5528,W,1,08,1.2,813.1,M,22.6,M,,0000*53
$GPGSA,M,3,19,03,22,06,14,11,32,24,,,,,2.4,1.2,2.1*37
$GPRMC,203226.000,A,3955.2106,S,07102.5528,W,27.81,323.80,130511,,,A*56
$GPGGA,203227.001,3955.2043,S,07102.5584,W,1,09,1.0,811.3,M,22.6,M,,0000*56
$GPGSA,M,3,19,03,22,06,14,11,32,24,18,,,,1.8,1.0,1.5*34
$GPRMC,203227.001,A,3955.2043,S,07102.5584,W,27.27,321.64,130511,,,A*54
$GPGGA,203228.000,3955.1985,S,07102.5645,W,1,08,1.2,811.0,M,22.6,M,,0000*56
$GPGSA,M,3,19,03,22,06,14,11,32,24,,,,,2.4,1.2,2.1*37
$GPRMC,203228.000,A,3955.1985,S,07102.5645,W,26.91,322.07,130511,,,A*5E
$GPGGA,203228.998,3955.1927,S,07102.5704,W,1,07,1.5,809.6,M,22.6,M,,0000*55
$GPGSA,M,3,19,03,06,14,11,32,24,,,,,,2.6,1.5,2.2*31
$GPRMC,203228.998,A,3955.1927,S,07102.5704,W,27.52,321.98,130511,,,A*51
$GPGGA,203230.004,3955.1862,S,07102.5770,W,1,09,1.0,811.2,M,22.6,M,,0000*55
$GPGSA,M,3,19,03,22,06,14,11,32,24,18,,,,1.8,1.0,1.5*34
$GPRMC,203230.004,A,3955.1862,S,07102.5770,W,27.98,322.75,130511,,,A*51
$GPGGA,203230.999,3955.1801,S,07102.5832,W,1,08,1.2,810.5,M,22.6,M,,0000*51
$GPGSA,M,3,19,03,22,06,14,11,32,24,,,,,2.4,1.2,2.1*37
$GPRMC,203230.999,A,3955.1801,S,07102.5832,W,27.50,322.30,130511,,,A*55
$GPGGA,203232.002,3955.1738,S,07102.5898,W,1,08,1.2,810.6,M,22.6,M,,0000*5E
$GPGSA,M,3,19,03,22,06,14,11,32,24,,,,,2.4,1.2,2.1*37
$GPRMC,203232.002,A,3955.1738,S,07102.5898,W,27.73,320.18,130511,,,A*50
$GPGGA,203233.002,3955.1680,S,07102.5962,W,1,09,1.0,809.7,M,22.6,M,,0000*53
$GPGSA,M,3,19,03,22,06,14,11,32,24,18,,,,1.8,1.0,1.5*34
$GPRMC,203233.002,A,3955.1680,S,07102.5962,W,27.05,317.44,130511,,,A*5B
$GPGGA,203234.000,3955.1629,S,07102.6031,W,1,08,1.2,810.8,M,22.6,M,,0000*5D
$GPGSA,M,3,19,03,22,06,14,11,32,24,,,,,2.4,1.2,2.1*37
$GPRMC,203234.000,A,3955.1629,S,07102.6031,W,27.48,315.22,130511,,,A*5A
$GPGGA,203235.001,3955.1577,S,07102.6100,W,1,09,1.0,809.4,M,22.6,M,,0000*51
$GPGSA,M,3,19,03,22,06,14,11,32,24,18,,,,1.8,1.0,1.5*34
$GPGSV,3,1,12,19,76,252,37,03,61,000,39,22,49,128,30,06,48,021,31*70
$GPGSV,3,2,12,14,40,069,30,11,33,243,36,32,22,313,39,24,22,255,35*7E
$GPGSV,3,3,12,18,14,129,29,16,05,346,32,28,04,210,,20,00,307,*7E
$GPRMC,203235.001,A,3955.1577,S,07102.6100,W,27.26,311.73,130511,,,A*59
$GPGGA,203236.001,3955.1533,S,07102.6176,W,1,08,1.0,810.3,M,22.6,M,,0000*5D
$GPGSA,M,3,19,03,22,06,11,32,24,18,,,,,1.9,1.0,1.5*30
$GPRMC,203236.001,A,3955.1533,S,07102.6176,W,27.72,306.10,130511,,,A*59
$GPGGA,203237.000,3955.1494,S,07102.6254,W,1,06,1.6,808.5,M,22.6,M,,0000*55
$GPGSA,M,3,19,03,22,11,32,24,,,,,,,3.0,1.6,2.5*31
$GPRMC,203237.000,A,3955.1494,S,07102.6254,W,27.53,302.35,130511,,,A*56
$GPGGA,203237.998,3955.1455,S,07102.6340,W,1,07,1.1,808.9,M,22.6,M,,0000*5E
$GPGSA,M,3,19,03,06,11,32,24,18,,,,,,2.0,1.1,1.6*38
$GPRMC,203237.998,A,3955.1455,S,07102.6340,W,27.05,296.85,130511,,,A*53
$GPGGA,203239.001,3955.1424,S,07102.6429,W,1,07,1.4,808.1,M,22.6,M,,0000*5A
$GPGSA,M,3,19,03,22,06,11,32,24,,,,,,2.9,1.4,2.5*3D
$GPRMC,203239.001,A,3955.1424,S,07102.6429,W,26.79,292.15,130511,,,A*5D
$GPGGA,203240.001,3955.1397,S,07102.6522,W,1,06,3.3,808.1,M,22.6,M,,0000*55
$GPGSA,M,3,19,03,06,11,32,24,,,,,,,5.2,3.3,4.0*37
$GPGSV,3,1,12,19,76,252,40,03,61,000,33,22,49,128,,06,48,021,34*7C
$GPGSV,3,2,12,14,40,069,,11,33,243,30,32,22,313,36,24,22,255,30*71
$GPGSV,3,3,12,18,14,129,,16,05,346,,28,04,210,,20,00,307,*74
$GPRMC,203240.001,A,3955.1397,S,07102.6522,W,27.32,289.78,130511,,,A*59
$GPGGA,203241.003,3955.1378,S,07102.6616,W,1,07,1.1,807.5,M,22.6,M,,0000*59
$GPGSA,M,3,19,03,06,11,32,24,18,,,,,,2.0,1.1,1.6*38
$GPRMC,203241.003,A,3955.1378,S,07102.6616,W,26.88,284.25,130511,,,A*5A
$GPGGA,203241.999,3955.1363,S,07102.6710,W,1,08,1.0,806.6,M,22.6,M,,0000*52
$GPGSA,M,3,19,03,22,06,11,32,24,18,,,,,1.9,1.0,1.5*30
$GPRMC,203241.999,A,3955.1363,S,07102.6710,W,26.74,280.09,130511,,,A*54
$GPGGA,203243.000,3955.1353,S,07102.6803,W,1,08,1.0,805.6,M,22.6,M,,0000*54
$GPGSA,M,3,19,03,22,06,11,32,24,18,,,,,1.9,1.0,1.5*30
$GPRMC,203243.000,A,3955.1353,S,07102.6803,W,27.03,275.94,130511,,,A*5E
$GPGGA,203244.001,3955.1347,S,07102.6899,W,1,06,3.3,804.7,M,22.6,M,,0000*5B
$GPGSA,M,3,19,03,06,11,32,24,,,,,,,5.2,3.3,4.0*37
$GPRMC,203244.001,A,3955.1347,S,07102.6899,W,27.16,272.91,130511,,,A*58
$GPGGA,203245.000,3955.1360,S,07102.7002,W,1,09,1.0,805.9,M,22.6,M,,0000*54
$GPGSA,M,3,19,03,22,06,14,11,32,24,18,,,,1.8,1.0,1.5*34
$GPRMC,203245.000,A,3955.1360,S,07102.7002,W,27.66,265.64,130511,,,A*5D
$GPGGA,203246.000,3955.1368,S,07102.7100,W,1,08,1.0,806.2,M,22.6,M,,0000*55
$GPGSA,M,3,19,03,22,06,11,32,24,18,,,,,1.9,1.0,1.6*33
$GPRMC,203246.000,A,3955.1368,S,07102.7100,W,27.28,260.47,130511,,,A*5B
$GPGGA,203247.003,3955.1386,S,07102.7199,W,1,08,1.0,806.0,M,22.6,M,,0000*55
$GPGSA,M,3,19,03,22,06,11,32,24,18,,,,,1.9,1.0,1.6*33
$GPRMC,203247.003,A,3955.1386,S,07102.7199,W,27.78,257.45,130511,,,A*5A
$GPGGA,203247.997,3955.1399,S,07102.7293,W,1,08,1.1,804.3,M,22.6,M,,0000*56
$GPGSA,M,3,19,03,06,14,11,32,24,18,,,,,1.9,1.1,1.6*37
$GPRMC,203247.997,A,3955.1399,S,07102.7293,W,27.25,256.14,130511,,,A*54
$GPGGA,203249.003,3955.1408,S,07102.7384,W,1,07,1.4,803.9,M,22.6,M,,0000*53
$GPGSA,M,3,19,03,22,06,11,32,24,,,,,,2.8,1.4,2.5*3C
$GPRMC,203249.003,A,3955.1408,S,07102.7384,W,27.21,254.98,130511,,,A*54
$GPGGA,203250.001,3955.1431,S,07102.7479,W,1,07,1.4,802.3,M,22.6,M,,0000*5D
$GPGSA,M,3,19,03,22,06,11,32,24,,,,,,2.8,1.4,2.5*3C
$GPGSV,3,1,12,19,76,252,36,03,61,000,30,22,49,128,26,06,48,021,28*77
$GPGSV,3,2,12,14,40,069,,11,33,243,39,32,22,313,31,24,22,255,40*78
$GPGSV,3,3,12,18,14,129,,16,05,346,,28,04,210,,20,00,307,*74
$GPRMC,203250.001,A,3955.1431,S,07102.7479,W,27.79,252.57,130511,,,A*59
$GPGGA,203250.999,3955.1456,S,07102.7567,W,1,06,1.6,800.9,M,22.6,M,,0000*51
$GPGSA,M,3,19,03,22,11,32,24,,,,,,,3.0,1.6,2.5*31
$GPRMC,203250.999,A,3955.1456,S,07102.7567,W,27.23,253.00,130511,,,A*52
$GPGGA,203252.002,3955.1476,S,07102.7659,W,1,06,1.6,800.1,M,22.6,M,,0000*5C
$GPGSA,M,3,19,03,22,11,32,24,,,,,,,3.0,1.6,2.5*31
$GPRMC,203252.002,A,3955.1476,S,07102.7659,W,26.97,251.87,130511,,,A*54
$GPGGA,203253.001,3955.1494,S,07102.7750,W,1,04,4.4,800.4,M,22.6,M,,0000*5A
$GPGSA,M,3,19,03,11,24,,,,,,,,,4.5,4.4,1.0*33
$GPRMC,203253.001,A,3955.1494,S,07102.7750,W,25.80,254.65,130511,,,A*5E
$GPGGA,203254.001,3955.1515,S,07102.7837,W,1,06,1.6,799.1,M,22.6,M,,0000*54
$GPGSA,M,3,19,03,22,06,11,24,,,,,,,3.3,1.6,2.9*39
$GPRMC,203254.001,A,3955.1515,S,07102.7837,W,26.75,258.34,130511,,,A*5E
$GPGGA,203255.002,3955.1525,S,07102.7928,W,1,07,1.4,796.7,M,22.6,M,,0000*50
$GPGSA,M,3,19,03,22,06,11,32,24,,,,,,2.8,1.4,2.5*3C
$GPGSV,3,1,12,19,76,252,35,03,61,000,32,22,49,128,23,06,48,021,26*7D
$GPGSV,3,2,12,14,40,069,,11,33,243,37,32,22,313,30,24,22,255,40*77
$GPGSV,3,3,12,18,14,129,,16,05,346,,28,04,210,,20,00,307,*74
$GPRMC,203255.002,A,3955.1525,S,07102.7928,W,26.51,259.79,130511,,,A*5E
$GPGGA,203255.999,3955.1534,S,07102.8024,W,1,06,1.6,796.6,M,22.6,M,,0000*53
$GPGSA,M,3,19,03,22,06,11,24,,,,,,,3.3,1.6,2.9*39
$GPRMC,203255.999,A,3955.1534,S,07102.8024,W,26.20,261.87,130511,,,A*53
$GPGGA,203257.001,3955.1535,S,07102.8107,W,1,06,2.2,793.8,M,22.6,M,,0000*54
$GPGSA,M,3,19,03,06,14,11,24,,,,,,,3.3,2.2,2.4*36
$GPRMC,203257.001,A,3955.1535,S,07102.8107,W,25.83,262.93,130511,,,A*54
$GPGGA,203258.002,3955.1546,S,07102.8197,W,1,06,2.2,792.9,M,22.6,M,,0000*55
$GPGSA,M,3,19,03,06,14,11,24,,,,,,,3.3,2.2,2.4*36
$GPRMC,203258.002,A,3955.1546,S,07102.8197,W,26.27,261.36,130511,,,A*54
$GPGGA,203259.003,3955.1548,S,07102.8288,W,1,08,1.2,791.2,M,22.6,M,,0000*53
$GPGSA,M,3,19,03,22,06,14,11,32,24,,,,,2.4,1.2,2.1*37
$GPRMC,203259.003,A,3955.1548,S,07102.8288,W,26.05,263.52,130511,,,A*57
$GPGGA,203259.999,3955.1560,S,07102.8376,W,1,07,1.3,788.8,M,22.6,M,,0000*5F
$GPGSA,M,3,19,03,22,14,11,32,24,,,,,,2.5,1.3,2.1*31
$GPGSV,3,1,12,19,76,252,37,03,61,000,28,22,49,128,25,06,48,021,*76
$GPGSV,3,2,12,14,40,069,28,11,33,243,33,32,22,313,29,24,22,255,38*7E
$GPGSV,3,3,12,18,14,129,,16,05,346,,28,04,210,,20,00,307,*74
$GPRMC,203259.999,A,3955.1560,S,07102.8376,W,26.37,262.40,130511,,,A*54
$GPGGA,203300.999,3955.1570,S,07102.8465,W,1,08,1.2,785.3,M,22.6,M,,0000*5E
$GPGSA,M,3,19,03,22,06,14,11,32,24,,,,,2.4,1.2,2.1*37
$GPRMC,203300.999,A,3955.1570,S,07102.8465,W,26.28,263.75,130511,,,A*54
$GPGGA,203302.003,3955.1578,S,07102.8559,W,1,07,1.5,785.0,M,22.6,M,,0000*5B
$GPGSA,M,3,19,03,06,14,11,32,24,,,,,,2.7,1.5,2.2*30
$GPRMC,203302.003,A,3955.1578,S,07102.8559,W,26.46,263.00,130511,,,A*50
$GPGGA,203302.999,3955.1583,S,07102.8655,W,1,08,1.2,783.9,M,22.6,M,,0000*5D
$GPGSA,M,3,19,03,22,06,14,11,32,24,,,,,2.4,1.2,2.1*37
$GPRMC,203302.999,A,3955.1583,S,07102.8655,W,26.84,264.76,130511,,,A*59
$GPGGA,203304.001,3955.1598,S,07102.8752,W,1,08,1.2,784.1,M,22.6,M,,0000*50
$GPGSA,M,3,19,03,22,06,14,11,32,24,,,,,2.4,1.2,2.1*37
$GPRMC,203304.001,A,3955.1598,S,07102.8752,W,26.91,263.35,130511,,,A*5F
$GPGGA,203305.002,3955.1609,S,07102.8849,W,1,09,1.0,783.8,M,22.6,M,,0000*51
$GPGSA,M,3,19,03,22,06,14,11,32,24,18,,,,1.8,1.0,1.5*34
$GPRMC,203305.002,A,3955.1609,S,07102.8849,W,26.38,261.36,130511,,,A*51
$GPGGA,203306.000,3955.1614,S,07102.8941,W,1,08,1.1,782.2,M,22.6,M,,0000*5E
$GPGSA,M,3,19,03,06,14,11,32,24,18,,,,,1.9,1.1,1.6*37
$GPRMC,203306.000,A,3955.1614,S,07102.8941,W,26.65,263.66,130511,,,A*5A
$GPGGA,203307.001,3955.1619,S,07102.9039,W,1,09,1.0,782.0,M,22.6,M,,0000*56
$GPGSA,M,3,19,03,22,06,14,11,32,24,18,,,,1.8,1.0,1.5*34
$GPRMC,203307.001,A,3955.1619,S,07102.9039,W,26.50,265.08,130511,,,A*58
$GPGGA,203308.000,3955.1629,S,07102.9140,W,1,08,1.1,783.1,M,22.6,M,,0000*54
$GPGSA,M,3,19,03,06,14,11,32,24,18,,,,,1.9,1.1,1.6*37
$GPRMC,203308.000,A,3955.1629,S,07102.9140,W,27.05,264.65,130511,,,A*51
$GPGGA,203309.000,3955.1636,S,07102.9238,W,1,08,1.1,783.0,M,22.6,M,,0000*56
$GPGSA,M,3,19,03,06,14,11,32,24,18,,,,,1.9,1.1,1.6*37
$GPRMC,203309.000,A,3955.1636,S,07102.9238,W,26.58,265.86,130511,,,A*57
$GPGGA,203310.000,3955.1642,S,07102.9334,W,1,08,1.1,782.3,M,22.6,M,,0000*52
$GPGSA,M,3,19,03,06,14,11,32,24,18,,,,,1.9,1.1,1.6*37
$GPGSV,3,1,12,19,76,252,36,03,61,000,29,22,49,128,,06,48,021,30*72
$GPGSV,3,2,12,14,40,069,26,11,33,243,35,32,22,313,31,24,22,255,37*70
$GPGSV,3,3,12,18,14,129,29,16,05,346,,28,04,210,,20,00,307,*7F
$GPRMC,203310.000,A,3955.1642,S,07102.9334,W,26.81,264.08,130511,,,A*52
$GPGGA,203311.001,3955.1659,S,07102.9431,W,1,09,1.0,784.4,M,22.6,M,,0000*5B
$GPGSA,M,3,19,03,22,06,14,11,32,24,18,,,,1.8,1.0,1.5*34
$GPRMC,203311.001,A,3955.1659,S,07102.9431,W,27.10,263.35,130511,,,A*5A
$GPGGA,203312.000,3955.1668,S,07102.9528,W,1,08,1.1,783.9,M,22.6,M,,0000*58
$GPGSA,M,3,19,03,06,14,11,32,24,18,,,,,1.9,1.1,1.6*37
$GPRMC,203312.000,A,3955.1668,S,07102.9528,W,26.86,263.04,130511,,,A*5F
$GPGGA,203313.000,3955.1678,S,07102.9628,W,1,08,1.2,783.7,M,22.6,M,,0000*56
$GPGSA,M,3,19,03,22,06,14,11,32,24,,,,,2.4,1.2,2.1*37
$GPRMC,203313.000,A,3955.1678,S,07102.9628,W,28.14,264.96,130511,,,A*55
$GPGGA,203314.002,3955.1684,S,07102.9732,W,1,07,1.1,783.8,M,22.6,M,,0000*59
$GPGSA,M,3,19,03,06,14,11,32,18,,,,,,2.0,1.1,1.7*3A
$GPRMC,203314.002,A,3955.1684,S,07102.9732,W,28.05,265.54,130511,,,A*56
$GPGGA,203315.000,3955.1694,S,07102.9831,W,1,08,1.1,783.1,M,22.6,M,,0000*51
$GPGSA,M,3,19,03,06,14,11,32,24,18,,,,,1.9,1.1,1.6*37
$GPGSV,3,1,12,19,76,252,34,03,61,000,31,22,49,128,,06,48,021,31*78
$GPGSV,3,2,12,14,40,069,28,11,33,243,36,32,22,313,34,24,22,255,36*79
$GPGSV,3,3,12,18,14,129,25,16,05,346,22,28,04,210,,20,00,307,*73
$GPRMC,203315.000,A,3955.1694,S,07102.9831,W,26.88,264.77,130511,,,A*53
$GPGGA,203316.001,3955.1705,S,07102.9928,W,1,08,1.2,782.1,M,22.6,M,,0000*51
$GPGSA,M,3,19,03,22,06,14,11,32,24,,,,,2.4,1.2,2.1*37
$GPRMC,203316.001,A,3955.1705,S,07102.9928,W,27.59,263.93,130511,,,A*51
$GPGGA,203316.998,3955.1716,S,07103.0027,W,1,08,1.2,781.2,M,22.6,M,,0000*54
$GPGSA,M,3,19,03,22,06,14,11,32,24,,,,,2.4,1.2,2.1*37
$GPRMC,203316.998,A,3955.1716,S,07103.0027,W,27.51,265.83,130511,,,A*5B
$GPGGA,203318.002,3955.1721,S,07103.0124,W,1,07,1.5,780.5,M,22.6,M,,0000*58
$GPGSA,M,3,19,03,06,14,11,32,24,,,,,,2.7,1.5,2.2*30
$GPRMC,203318.002,A,3955.1721,S,07103.0124,W,27.43,264.34,130511,,,A*57
$GPGGA,203319.002,3955.1735,S,07103.0222,W,1,07,1.5,781.7,M,22.6,M,,0000*5A
$GPGSA,M,3,19,03,06,14,11,32,24,,,,,,2.7,1.5,2.2*30
$GPRMC,203319.002,A,3955.1735,S,07103.0222,W,26.64,264.53,130511,,,A*53
$GPGGA,203320.001,3955.1742,S,07103.0314,W,1,09,1.0,780.3,M,22.6,M,,0000*59
$GPGSA,M,3,19,03,22,06,14,11,32,24,18,,,,1.8,1.0,1.5*34
$GPGSV,3,1,12,19,76,252,37,03,61,000,25,22,49,128,28,06,48,021,28*7C
$GPGSV,3,2,12,14,40,069,29,11,33,243,36,32,22,313,29,24,22,255,37*75
$GPGSV,3,3,12,18,14,129,29,16,05,346,,28,04,210,,20,00,307,*7F
$GPRMC,203320.001,A,3955.1742,S,07103.0314,W,26.89,264.52,130511,,,A*5C
$GPGGA,203321.001,3955.1751,S,07103.0422,W,1,08,1.1,782.8,M,22.6,M,,0000*51
$GPGSA,M,3,19,03,06,14,11,32,24,18,,,,,1.9,1.1,1.6*37
$GPRMC,203321.001,A,3955.1751,S,07103.0422,W,27.42,264.00,130511,,,A*5C
$GPGGA,203322.001,3955.1757,S,07103.0518,W,1,08,1.1,782.3,M,22.6,M,,0000*57
$GPGSA,M,3,19,03,06,14,11,32,24,18,,,,,1.9,1.1,1.6*37
$GPRMC,203322.001,A,3955.1757,S,07103.0518,W,27.14,265.21,130511,,,A*50
$GPGGA,203323.001,3955.1762,S,07103.0618,W,1,08,1.1,781.5,M,22.6,M,,0000*56
$GPGSA,M,3,19,03,06,14,11,32,24,18,,,,,1.9,1.1,1.6*37
$GPRMC,203323.001,A,3955.1762,S,07103.0618,W,26.87,265.67,130511,,,A*5D
$GPGGA,203324.002,3955.1761,S,07103.0715,W,1,08,1.1,780.6,M,22.6,M,,0000*5F
$GPGSA,M,3,19,03,06,14,11,32,24,18,,,,,1.9,1.1,1.6*37
$GPRMC,203324.002,A,3955.1761,S,07103.0715,W,26.79,266.21,130511,,,A*56
$GPGGA,203324.999,3955.1763,S,07103.0816,W,1,09,1.0,780.4,M,22.6,M,,0000*58
$GPGSA,M,3,19,03,22,06,14,11,32,24,18,,,,1.8,1.0,1.5*34
$GPGSV,3,1,12,19,76,252,37,03,61,000,29,22,49,128,25,06,48,021,27*72
$GPGSV,3,2,12,14,40,069,27,11,33,243,33,32,22,313,24,24,22,255,38*7C
$GPGSV,3,3,12,18,14,129,34,16,05,346,,28,04,210,,20,00,307,*73
$GPRMC,203324.999,A,3955.1763,S,07103.0816,W,27.70,268.50,130511,,,A*53
$GPGGA,203326.001,3955.1769,S,07103.0918,W,1,08,1.1,780.4,M,22.6,M,,0000*57
$GPGSA,M,3,19,03,06,14,11,32,24,18,,,,,1.9,1.1,1.6*37
$GPRMC,203326.001,A,3955.1769,S,07103.0918,W,27.44,266.68,130511,,,A*5E
$GPGGA,203327.000,3955.1774,S,07103.1016,W,1,07,1.5,780.1,M,22.6,M,,0000*53
$GPGSA,M,3,19,03,06,14,11,24,18,,,,,,2.7,1.5,2.3*39
$GPRMC,203327.000,A,3955.1774,S,07103.1016,W,26.67,265.81,130511,,,A*50
$GPGGA,203328.002,3955.1775,S,07103.1118,W,1,08,1.1,780.2,M,22.6,M,,0000*58
$GPGSA,M,3,19,03,06,14,11,32,24,18,,,,,1.9,1.1,1.6*37
$GPRMC,203328.002,A,3955.1775,S,07103.1118,W,27.06,266.48,130511,,,A*53
$GPGGA,203328.999,3955.1780,S,07103.1213,W,1,08,1.1,778.6,M,22.6,M,,0000*52
$GPGSA,M,3,19,03,06,14,11,32,24,18,,,,,1.9,1.1,1.6*37
$GPRMC,203328.999,A,3955.1780,S,07103.1213,W,26.60,266.06,130511,,,A*51
$GPGGA,203330.002,3955.1782,S,07103.1312,W,1,08,1.1,779.0,M,22.6,M,,0000*55
$GPGSA,M,3,19,03,06,14,11,32,24,18,,,,,1.9,1.1,1.6*37
$GPGSV,3,1,12,19,76,252,36,03,61,000,29,22,49,128,,06,48,021,31*73
$GPGSV,3,2,12,14,40,069,28,11,33,243,34,32,22,313,29,24,22,255,38*79
$GPGSV,3,3,12,18,14,129,36,16,05,346,,28,04,210,,20,00,307,*71
$GPRMC,203330.002,A,3955.1782,S,07103.1312,W,26.76,265.84,130511,,,A*5F
$GPGGA,203330.999,3955.1785,S,07103.1408,W,1,08,1.1,779.1,M,22.6,M,,0000*54
$GPGSA,M,3,19,03,06,14,11,32,24,18,,,,,1.9,1.1,1.6*37
$GPRMC,203330.999,A,3955.1785,S,07103.1408,W,26.17,266.00,130511,,,A*57
$GPGGA,203332.001,3955.1790,S,07103.1500,W,1,08,1.1,778.3,M,22.6,M,,0000*50
$GPGSA,M,3,19,03,06,14,11,32,24,18,,,,,1.9,1.1,1.6*37
$GPRMC,203332.001,A,3955.1790,S,07103.1500,W,26.41,265.73,130511,,,A*54
$GPGGA,203332.999,3955.1796,S,07103.1596,W,1,07,1.5,778.4,M,22.6,M,,0000*5D
$GPGSA,M,3,19,03,06,14,11,24,18,,,,,,2.7,1.5,2.3*39
$GPRMC,203332.999,A,3955.1796,S,07103.1596,W,26.37,265.65,130511,,,A*53
$GPGGA,203334.004,3955.1798,S,07103.1693,W,1,08,1.1,777.8,M,22.6,M,,0000*56
$GPGSA,M,3,19,03,06,14,11,32,24,18,,,,,1.9,1.1,1.6*37
$GPGSV,3,1,12,19,76,252,37,03,61,000,28,22,49,128,,06,48,021,29*7A
$GPGSV,3,2,12,14,40,069,30,11,33,243,32,32,22,313,29,24,22,255,38*76
$GPGSV,3,3,12,18,14,129,32,16,05,346,27,28,04,210,27,20,00,307,*75
$GPRMC,203334.004,A,3955.1798,S,07103.1693,W,26.55,267.29,130511,,,A*5E
$GPGGA,203334.998,3955.1802,S,07103.1790,W,1,07,1.5,778.0,M,22.6,M,,0000*58
$GPGSA,M,3,19,03,06,14,11,24,18,,,,,,2.7,1.5,2.3*39
$GPGSV,3,1,12,19,76,252,36,03,61,000,28,22,49,128,,06,48,021,27*75
$GPGSV,3,2,12,14,40,069,28,11,33,243,32,32,22,313,,24,22,255,38*74
$GPGSV,3,3,12,18,14,129,30,16,05,346,27,28,04,210,,20,00,307,*72
$GPRMC,203334.998,A,3955.1802,S,07103.1790,W,26.69,267.61,130511,,,A*5F
$GPGGA,203336.001,3955.1810,S,07103.1892,W,1,07,1.5,780.7,M,22.6,M,,0000*5D
$GPGSA,M,3,19,03,06,14,11,24,18,,,,,,2.7,1.5,2.3*39
$GPRMC,203336.001,A,3955.1810,S,07103.1892,W,26.82,266.63,130511,,,A*5C
$GPGGA,203337.003,3955.1813,S,07103.1993,W,1,07,1.5,780.4,M,22.6,M,,0000*5E
$GPGSA,M,3,19,03,06,14,11,24,18,,,,,,2.7,1.5,2.3*39
$GPRMC,203337.003,A,3955.1813,S,07103.1993,W,26.85,266.45,130511,,,A*5F
$GPGGA,203337.999,3955.1818,S,07103.2090,W,1,07,1.5,780.2,M,22.6,M,,0000*50
$GPGSA,M,3,19,03,06,14,11,24,18,,,,,,2.7,1.5,2.3*39
$GPRMC,203337.999,A,3955.1818,S,07103.2090,W,27.13,266.20,130511,,,A*5A
$GPGGA,203339.001,3955.1825,S,07103.2189,W,1,07,1.1,781.9,M,22.6,M,,0000*5F
$GPGSA,M,3,19,03,14,11,32,24,18,,,,,,2.0,1.1,1.6*3B
$GPGSV,3,1,12,19,76,252,37,03,61,000,28,22,49,128,,06,48,021,*71
$GPGSV,3,2,12,14,40,069,29,11,33,243,34,32,22,313,27,24,22,255,37*79
$GPGSV,3,3,12,18,14,129,35,16,05,346,30,28,04,210,,20,00,307,*71
$GPRMC,203339.001,A,3955.1825,S,07103.2189,W,27.10,266.01,130511,,,A*5B
$GPGGA,203340.000,3955.1828,S,07103.2287,W,1,09,1.0,781.3,M,22.6,M,,0000*55
$GPGSA,M,3,19,03,22,06,14,11,32,24,18,,,,1.8,1.0,1.5*34
$GPRMC,203340.000,A,3955.1828,S,07103.2287,W,26.10,266.82,130511,,,A*5E
$GPGGA,203341.002,3955.1833,S,07103.2381,W,1,08,1.2,781.1,M,22.6,M,,0000*5A
$GPGSA,M,3,19,03,22,06,14,11,24,18,,,,,2.3,1.2,1.9*33
$GPRMC,203341.002,A,3955.1833,S,07103.2381,W,27.15,266.25,130511,,,A*59
$GPGGA,203342.001,3955.1837,S,07103.2481,W,1,09,1.0,781.4,M,22.6,M,,0000*5F
$GPGSA,M,3,19,03,22,06,14,11,32,24,18,,,,1.8,1.0,1.5*34
$GPRMC,203342.001,A,3955.1837,S,07103.2481,W,27.27,266.33,130511,,,A*5C
$GPGGA,203343.001,3955.1837,S,07103.2580,W,1,08,1.1,780.4,M,22.6,M,,0000*5F
$GPGSA,M,3,19,03,06,14,11,32,24,18,,,,,1.9,1.1,1.6*37
$GPRMC,203343.001,A,3955.1837,S,07103.2580,W,27.68,265.06,130511,,,A*53
$GPGGA,203344.003,3955.1840,S,07103.2681,W,1,08,1.2,779.9,M,22.6,M,,0000*50
$GPGSA,M,3,19,03,22,06,14,11,24,18,,,,,2.3,1.2,1.9*33
$GPGSV,3,1,12,19,76,252,36,03,61,000,29,22,49,128,22,06,48,021,29*7A
$GPGSV,3,2,12,14,40,069,31,11,33,243,35,32,22,313,26,24,22,255,31*76
$GPGSV,3,3,12,18,14,129,35,16,05,346,34,28,04,210,,20,00,307,*75
$GPRMC,203344.003,A,3955.1840,S,07103.2681,W,27.41,266.32,130511,,,A*5B
$GPGGA,203344.999,3955.1840,S,07103.2778,W,1,08,1.1,779.5,M,22.6,M,,0000*52
$GPGSA,M,3,19,03,06,14,11,32,24,18,,,,,1.9,1.1,1.6*37
$GPGSV,3,1,12,19,76,252,36,03,61,000,30,22,49,128,,06,48,021,29*72
$GPGSV,3,2,12,14,40,069,29,11,33,243,35,32,22,313,28,24,22,255,34*74
$GPGSV,3,3,12,18,14,129,31,16,05,346,31,28,04,210,,20,00,307,*74
$GPRMC,203344.999,A,3955.1840,S,07103.2778,W,26.99,267.61,130511,,,A*55
$GPGGA,203346.003,3955.1844,S,07103.2883,W,1,08,1.1,778.9,M,22.6,M,,0000*58
$GPGSA,M,3,19,03,06,14,11,32,24,18,,,,,1.9,1.1,1.6*37
$GPRMC,203346.003,A,3955.1844,S,07103.2883,W,27.80,266.96,130511,,,A*52
$GPGGA,203346.999,3955.1841,S,07103.2981,W,1,09,1.0,776.9,M,22.6,M,,0000*5A
$GPGSA,M,3,19,03,22,06,14,11,32,24,18,,,,1.8,1.0,1.6*37
$GPRMC,203346.999,A,3955.1841,S,07103.2981,W,26.93,266.54,130511,,,A*53
$GPGGA,203348.000,3955.1844,S,07103.3079,W,1,07,1.2,775.8,M,22.6,M,,0000*59
$GPGSA,M,3,19,03,22,11,32,24,18,,,,,,2.0,1.2,1.6*3D
$GPRMC,203348.000,A,3955.1844,S,07103.3079,W,26.59,268.93,130511,,,A*5D
$GPGGA,203349.001,3955.1847,S,07103.3174,W,1,08,1.0,777.3,M,22.6,M,,0000*52
$GPGSA,M,3,19,03,22,06,11,32,24,18,,,,,1.9,1.0,1.6*33
$GPGSV,3,1,12,19,76,252,37,03,61,000,28,22,49,128,28,06,48,021,30*78
$GPGSV,3,2,12,14,40,069,,11,33,243,34,32,22,313,33,24,22,255,36*76
$GPGSV,3,3,12,18,14,129,33,16,05,346,,28,04,210,25,20,00,307,*73
$GPRMC,203349.001,A,3955.1847,S,07103.3174,W,27.04,271.52,130511,,,A*5E
$GPGGA,203350.001,3955.1845,S,07103.3272,W,1,08,1.0,777.7,M,22.6,M,,0000*59
$GPGSA,M,3,19,03,22,06,11,32,24,18,,,,,1.9,1.0,1.6*33
$GPRMC,203350.001,A,3955.1845,S,07103.3272,W,27.38,272.90,130511,,,A*53
$GPGGA,203351.003,3955.1845,S,07103.3372,W,1,08,1.0,778.1,M,22.6,M,,0000*52
$GPGSA,M,3,19,03,22,06,11,32,24,18,,,,,1.9,1.0,1.6*33
$GPRMC,203351.003,A,3955.1845,S,07103.3372,W,27.67,273.29,130511,,,A*58
$GPGGA,203351.999,3955.1833,S,07103.3473,W,1,08,1.0,776.5,M,22.6,M,,0000*55
$GPGSA,M,3,19,03,22,06,11,32,24,18,,,,,1.9,1.0,1.6*33
$GPRMC,203351.999,A,3955.1833,S,07103.3473,W,28.16,273.97,130511,,,A*59
$GPGGA,203353.001,3955.1825,S,07103.3575,W,1,07,1.4,775.2,M,22.6,M,,0000*50
$GPGSA,M,3,19,03,22,06,11,32,24,,,,,,2.8,1.4,2.5*3C
$GPRMC,203353.001,A,3955.1825,S,07103.3575,W,28.02,274.51,130511,,,A*5B
$GPGGA,203354.002,3955.1815,S,07103.3677,W,1,07,1.4,773.7,M,22.6,M,,0000*55
$GPGSA,M,3,19,03,22,06,11,32,24,,,,,,2.8,1.4,2.5*3C
$GPRMC,203354.002,A,3955.1815,S,07103.3677,W,28.92,276.36,130511,,,A*57
$GPGGA,203355.000,3955.1807,S,07103.3776,W,1,06,3.2,774.5,M,22.6,M,,0000*55
$GPGSA,M,3,19,03,06,11,32,24,,,,,,,5.1,3.2,3.9*3B
$GPGSV,3,1,12,19,76,252,36,03,61,000,31,22,49,128,,06,48,021,33*78
$GPGSV,3,2,12,14,40,069,,11,33,243,34,32,22,313,31,24,22,255,37*75
$GPGSV,3,3,12,18,14,129,,16,05,346,,28,04,210,28,20,00,307,*7E
$GPRMC,203355.000,A,3955.1807,S,07103.3776,W,27.71,276.62,130511,,,A*54
$GPGGA,203356.000,3955.1795,S,07103.3874,W,1,07,1.5,773.4,M,22.6,M,,0000*5D
$GPGSA,M,3,19,03,06,14,11,32,24,,,,,,2.7,1.5,2.2*30
$GPRMC,203356.000,A,3955.1795,S,07103.3874,W,27.23,278.71,130511,,,A*55
$GPGGA,203357.000,3955.1778,S,07103.3973,W,1,07,1.1,771.6,M,22.6,M,,0000*5D
$GPGSA,M,3,19,03,06,11,32,24,18,,,,,,2.0,1.1,1.6*38
$GPRMC,203357.000,A,3955.1778,S,07103.3973,W,27.29,282.22,130511,,,A*58
$GPGGA,203358.001,3955.1762,S,07103.4068,W,1,07,1.1,770.1,M,22.6,M,,0000*5A
$GPGSA,M,3,19,03,06,11,32,24,18,,,,,,2.0,1.1,1.6*38
$GPRMC,203358.001,A,3955.1762,S,07103.4068,W,26.66,284.55,130511,,,A*55
$GPGGA,203359.000,3955.1741,S,07103.4163,W,1,07,1.1,768.0,M,22.6,M,,0000*59
$GPGSA,M,3,19,03,06,11,32,24,18,,,,,,2.0,1.1,1.6*38
$GPRMC,203359.000,A,3955.1741,S,07103.4163,W,26.39,285.80,130511,,,A*5D
$GPGGA,203359.998,3955.1717,S,07103.4255,W,1,08,1.0,767.3,M,22.6,M,,0000*56
$GPGSA,M,3,19,03,22,06,11,32,24,18,,,,,1.9,1.0,1.6*33
$GPRMC,203359.998,A,3955.1717,S,07103.4255,W,27.08,289.91,130511,,,A*5F
$GPGGA,203401.002,3955.1688,S,07103.4345,W,1,09,1.0,765.7,M,22.6,M,,0000*56
$GPGSA,M,3,19,03,22,06,14,11,32,24,18,,,,1.8,1.0,1.6*37
$GPRMC,203401.002,A,3955.1688,S,07103.4345,W,27.11,289.37,130511,,,A*5C
$GPGGA,203402.001,3955.1663,S,07103.4433,W,1,09,1.0,766.5,M,22.6,M,,0000*54
$GPGSA,M,3,19,03,22,06,14,11,32,24,18,,,,1.8,1.0,1.6*37
$GPRMC,203402.001,A,3955.1663,S,07103.4433,W,27.70,291.30,130511,,,A*56
$GPGGA,203403.003,3955.1632,S,07103.4526,W,1,08,1.1,766.2,M,22.6,M,,0000*51
$GPGSA,M,3,19,03,22,06,14,32,24,18,,,,,1.9,1.1,1.6*37
$GPRMC,203403.003,A,3955.1632,S,07103.4526,W,27.85,294.08,130511,,,A*50
$GPGGA,203404.001,3955.1598,S,07103.4616,W,1,08,1.1,765.1,M,22.6,M,,0000*57
$GPGSA,M,3,19,03,22,06,14,32,24,18,,,,,1.9,1.1,1.6*37
$GPGSV,3,1,12,19,76,252,38,03,61,000,38,22,49,128,29,06,48,021,33*74
$GPGSV,3,2,12,14,40,069,29,11,33,243,,32,22,313,38,24,22,255,39*7E
$GPGSV,3,3,12,18,14,129,28,16,05,346,37,28,04,210,35,20,00,307,*7C
$GPRMC,203404.001,A,3955.1598,S,07103.4616,W,27.74,294.02,130511,,,A*52
$GPGGA,203405.001,3955.1565,S,07103.4709,W,1,08,1.1,765.3,M,22.6,M,,0000*59
$GPGSA,M,3,19,03,22,06,14,32,24,18,,,,,1.9,1.1,1.6*37
$GPRMC,203405.001,A,3955.1565,S,07103.4709,W,27.17,293.94,130511,,,A*53
$GPGGA,203405.999,3955.1533,S,07103.4796,W,1,09,1.0,765.3,M,22.6,M,,0000*54
$GPGSA,M,3,19,03,22,06,14,11,32,24,18,,,,1.8,1.0,1.6*37
$GPRMC,203405.999,A,3955.1533,S,07103.4796,W,27.06,295.99,130511,,,A*55
$GPGGA,203407.001,3955.1496,S,07103.4885,W,1,09,1.0,765.6,M,22.6,M,,0000*58
$GPGSA,M,3,19,03,22,06,14,11,32,24,18,,,,1.8,1.0,1.6*37
$GPRMC,203407.001,A,3955.1496,S,07103.4885,W,27.79,297.61,130511,,,A*51
$GPGGA,203408.001,3955.1466,S,07103.4975,W,1,09,1.0,765.2,M,22.6,M,,0000*52
$GPGSA,M,3,19,03,22,06,14,11,32,24,18,,,,1.8,1.0,1.6*37
$GPRMC,203408.001,A,3955.1466,S,07103.4975,W,27.78,296.48,130511,,,A*54
$GPGGA,203409.003,3955.1433,S,07103.5063,W,1,08,1.2,765.1,M,22.6,M,,0000*5E
$GPGSA,M,3,19,03,22,06,14,11,32,24,,,,,2.5,1.2,2.2*35
$GPGSV,3,1,12,19,76,252,38,03,61,000,38,22,49,128,29,06,48,021,31*76
$GPGSV,3,2,12,14,40,069,29,11,33,243,36,32,22,313,37,24,22,255,40*7A
$GPGSV,3,3,12,18,14,129,,16,05,346,34,28,04,210,37,20,00,307,*77
$GPRMC,203409.003,A,3955.1433,S,07103.5063,W,27.24,296.45,130511,,,A*5C
$GPGGA,203409.998,3955.1400,S,07103.5149,W,1,08,1.2,765.3,M,22.6,M,,0000*5E
$GPGSA,M,3,19,03,22,06,14,11,32,24,,,,,2.5,1.2,2.2*35
$GPRMC,203409.998,A,3955.1400,S,07103.5149,W,27.46,296.09,130511,,,A*52
$GPGGA,203411.002,3955.1369,S,07103.5235,W,1,09,1.0,766.9,M,22.6,M,,0000*57
$GPGSA,M,3,19,03,22,06,14,11,32,24,18,,,,1.8,1.0,1.6*37
$GPRMC,203411.002,A,3955.1369,S,07103.5235,W,27.55,296.90,130511,,,A*53
$GPGGA,203412.003,3955.1336,S,07103.5324,W,1,08,1.2,767.1,M,22.6,M,,0000*54
$GPGSA,M,3,19,03,22,06,14,11,32,24,,,,,2.5,1.2,2.2*35
$GPRMC,203412.003,A,3955.1336,S,07103.5324,W,27.29,296.57,130511,,,A*5A
$GPGGA,203412.999,3955.1303,S,07103.5412,W,1,09,1.0,768.2,M,22.6,M,,0000*55
$GPGSA,M,3,19,03,22,06,14,11,32,24,18,,,,1.8,1.0,1.6*37
$GPRMC,203412.999,A,3955.1303,S,07103.5412,W,27.30,296.33,130511,,,A*5E
$GPGGA,203414.001,3955.1273,S,07103.5495,W,1,09,1.0,769.0,M,22.6,M,,0000*51
$GPGSA,M,3,19,03,22,06,14,11,32,24,18,,,,1.8,1.0,1.6*37
$GPGSV,3,1,12,19,76,252,40,03,61,000,38,22,49,128,28,06,48,021,28*70
$GPGSV,3,2,12,14,40,069,28,11,33,243,36,32,22,313,36,24,22,255,39*74
$GPGSV,3,3,12,18,14,129,28,16,05,346,35,28,04,210,36,20,00,307,*7D
$GPRMC,203414.001,A,3955.1273,S,07103.5495,W,26.72,295.83,130511,,,A*56
$GPGGA,203415.002,3955.1241,S,07103.5581,W,1,07,1.3,768.7,M,22.6,M,,0000*5D
$GPGSA,M,3,19,03,22,14,11,32,24,,,,,,2.5,1.3,2.2*32
$GPRMC,203415.002,A,3955.1241,S,07103.5581,W,26.87,296.23,130511,,,A*52
$GPGGA,203416.002,3955.1212,S,07103.5667,W,1,08,1.2,768.7,M,22.6,M,,0000*5D
$GPGSA,M,3,19,03,22,06,14,11,32,24,,,,,2.5,1.2,2.2*35
$GPRMC,203416.002,A,3955.1212,S,07103.5667,W,27.18,295.91,130511,,,A*51
$GPGGA,203417.000,3955.1186,S,07103.5755,W,1,07,1.4,768.7,M,22.6,M,,0000*59
$GPGSA,M,3,19,03,22,06,11,32,24,,,,,,2.8,1.4,2.5*3C
$GPRMC,203417.000,A,3955.1186,S,07103.5755,W,26.96,295.52,130511,,,A*54
$GPGGA,203417.999,3955.1160,S,07103.5839,W,1,07,1.3,768.4,M,22.6,M,,0000*59
$GPGSA,M,3,19,03,22,14,11,32,24,,,,,,2.5,1.3,2.2*32
$GPRMC,203417.999,A,3955.1160,S,07103.5839,W,26.80,293.96,130511,,,A*59
$GPGGA,203419.001,3955.1127,S,07103.5924,W,1,07,1.3,767.5,M,22.6,M,,0000*5F
$GPGSA,M,3,19,03,22,14,11,32,24,,,,,,2.5,1.3,2.2*32
$GPGSV,3,1,12,19,76,252,38,03,61,000,37,22,49,128,25,06,48,021,*77
$GPGSV,3,2,12,14,40,069,27,11,33,243,36,32,22,313,36,24,22,255,40*75
$GPGSV,3,3,12,18,14,129,,16,05,346,28,28,04,210,37,20,00,307,*7A
$GPRMC,203419.001,A,3955.1127,S,07103.5924,W,26.90,295.40,130511,,,A*5D
$GPGGA,203420.001,3955.1099,S,07103.6014,W,1,07,1.4,769.2,M,22.6,M,,0000*56
$GPGSA,M,3,19,03,22,06,11,32,24,,,,,,2.8,1.4,2.5*3C
$GPRMC,203420.001,A,3955.1099,S,07103.6014,W,27.33,294.96,130511,,,A*58
$GPGGA,203421.001,3955.1065,S,07103.6098,W,1,07,1.1,768.0,M,22.6,M,,0000*56
$GPGSA,M,3,19,03,22,06,11,32,18,,,,,,2.0,1.1,1.6*3E
$GPRMC,203421.001,A,3955.1065,S,07103.6098,W,26.69,296.90,130511,,,A*54
$GPGGA,203422.003,3955.1032,S,07103.6184,W,1,08,1.2,768.8,M,22.6,M,,0000*5D
$GPGSA,M,3,19,03,22,06,14,11,32,24,,,,,2.5,1.2,2.2*35
$GPRMC,203422.003,A,3955.1032,S,07103.6184,W,26.96,296.41,130511,,,A*57
$GPGGA,203422.998,3955.1000,S,07103.6270,W,1,09,1.0,769.0,M,22.6,M,,0000*55
$GPGSA,M,3,19,03,22,06,14,11,32,24,18,,,,1.8,1.0,1.6*37
$GPRMC,203422.998,A,3955.1000,S,07103.6270,W,26.77,296.34,130511,,,A*58
$GPGGA,203424.000,3955.0967,S,07103.6357,W,1,09,1.0,769.0,M,22.6,M,,0000*56
$GPGSA,M,3,19,03,22,06,14,11,32,24,18,,,,1.8,1.0,1.6*37
$GPGSV,3,1,12,19,76,252,40,03,61,000,38,22,49,128,29,06,48,021,35*7D
$GPGSV,3,2,12,14,40,069,29,11,33,243,33,32,22,313,38,24,22,255,39*7E
$GPGSV,3,3,12,18,14,129,28,16,05,346,35,28,04,210,35,20,00,307,*7E
$GPRMC,203424.000,A,3955.0967,S,07103.6357,W,27.91,297.98,130511,,,A*55
$GPGGA,203425.000,3955.0934,S,07103.6440,W,1,09,1.0,767.6,M,22.6,M,,0000*58
$GPGSA,M,3,19,03,22,06,14,11,32,24,18,,,,1.8,1.0,1.6*37
$GPRMC,203425.000,A,3955.0934,S,07103.6440,W,27.33,297.28,130511,,,A*50
$GPGGA,203426.000,3955.0895,S,07103.6534,W,1,09,1.0,767.5,M,22.6,M,,0000*50
$GPGSA,M,3,19,03,22,06,14,11,32,24,18,,,,1.8,1.0,1.6*37
$GPRMC,203426.000,A,3955.0895,S,07103.6534,W,28.45,297.23,130511,,,A*5E
$GPGGA,203427.000,3955.0857,S,07103.6622,W,1,09,1.0,766.9,M,22.6,M,,0000*56
$GPGSA,M,3,19,03,22,06,14,11,32,24,18,,,,1.8,1.0,1.6*37
$GPRMC,203427.000,A,3955.0857,S,07103.6622,W,27.68,296.96,130511,,,A*5A
$GPGGA,203428.000,3955.0827,S,07103.6707,W,1,09,1.0,766.9,M,22.6,M,,0000*58
$GPGSA,M,3,19,03,22,06,14,11,32,24,18,,,,1.8,1.0,1.6*37
$GPRMC,203428.000,A,3955.0827,S,07103.6707,W,27.46,297.26,130511,,,A*52
$GPGGA,203429.003,3955.0795,S,07103.6793,W,1,09,1.0,765.5,M,22.6,M,,0000*5E
$GPGSA,M,3,19,03,22,06,14,11,32,24,18,,,,1.8,1.0,1.6*37
$GPGSV,3,1,12,19,77,257,39,03,60,001,38,22,48,128,29,06,47,021,34*78
$GPGSV,3,2,12,14,41,071,29,11,34,243,34,32,23,313,37,24,23,254,38*79
$GPGSV,3,3,12,18,13,129,27,16,04,347,34,28,04,211,36,20,01,306,*75
$GPRMC,203429.003,A,3955.0795,S,07103.6793,W,26.97,297.76,130511,,,A*53
$GPGGA,203429.998,3955.0763,S,07103.6879,W,1,09,1.0,766.0,M,22.6,M,,0000*51
$GPGSA,M,3,19,03,22,06,14,11,32,24,18,,,,1.8,1.0,1.6*37
$GPRMC,203429.998,A,3955.0763,S,07103.6879,W,26.71,298.69,130511,,,A*53
$GPGGA,203431.000,3955.0726,S,07103.6962,W,1,09,1.0,765.6,M,22.6,M,,0000*5F
$GPGSA,M,3,19,03,22,06,14,11,32,24,18,,,,1.8,1.0,1.6*37
$GPRMC,203431.000,A,3955.0726,S,07103.6962,W,26.84,299.04,130511,,,A*58
$GPGGA,203432.000,3955.0690,S,07103.7046,W,1,09,1.0,765.9,M,22.6,M,,0000*51
$GPGSA,M,3,19,03,22,06,14,11,32,24,18,,,,1.8,1.0,1.6*37
$GPRMC,203432.000,A,3955.0690,S,07103.7046,W,26.79,300.98,130511,,,A*5F
$GPGGA,203433.000,3955.0650,S,07103.7128,W,1,09,1.0,766.2,M,22.6,M,,0000*5D
$GPGSA,M,3,19,03,22,06,14,11,32,24,18,,,,1.8,1.0,1.6*37
$GPRMC,203433.000,A,3955.0650,S,07103.7128,W,26.45,302.39,130511,,,A*5D
$GPGGA,203434.002,3955.0612,S,07103.7210,W,1,08,1.2,765.6,M,22.6,M,,0000*52
$GPGSA,M,3,19,03,22,06,14,11,32,24,,,,,2.5,1.2,2.2*35
$GPGSV,3,1,12,19,77,257,37,03,60,001,39,22,48,128,30,06,47,021,35*7E
$GPGSV,3,2,12,14,41,071,28,11,34,243,36,32,23,313,37,24,23,254,33*71
$GPGSV,3,3,12,18,13,129,,28,04,211,37,16,04,347,35,20,01,306,*70
$GPRMC,203434.002,A,3955.0612,S,07103.7210,W,26.50,302.04,130511,,,A*5C
$GPGGA,203435.000,3955.0575,S,07103.7291,W,1,07,1.4,765.8,M,22.6,M,,0000*5D
$GPGSA,M,3,19,03,22,06,11,32,24,,,,,,2.8,1.4,2.5*3C
$GPRMC,203435.000,A,3955.0575,S,07103.7291,W,26.25,303.61,130511,,,A*54
$GPGGA,203436.000,3955.0530,S,07103.7372,W,1,07,1.4,766.6,M,22.6,M,,0000*5E
$GPGSA,M,3,19,03,22,06,11,32,24,,,,,,2.8,1.4,2.5*3C
$GPRMC,203436.000,A,3955.0530,S,07103.7372,W,27.19,305.19,130511,,,A*5D
$GPGGA,203437.000,3955.0483,S,07103.7451,W,1,07,1.4,766.3,M,22.6,M,,0000*55
$GPGSA,M,3,19,03,22,06,11,32,24,,,,,,2.8,1.4,2.5*3C
$GPRMC,203437.000,A,3955.0483,S,07103.7451,W,27.20,307.63,130511,,,A*56
$GPGGA,203438.001,3955.0437,S,07103.7530,W,1,08,1.0,765.3,M,22.6,M,,0000*5A
$GPGSA,M,3,19,03,22,06,11,32,24,18,,,,,1.9,1.0,1.6*33
$GPRMC,203438.001,A,3955.0437,S,07103.7530,W,27.35,309.48,130511,,,A*52
$GPGGA,203439.001,3955.0390,S,07103.7603,W,1,08,1.0,764.9,M,22.6,M,,0000*59
$GPGSA,M,3,19,03,22,06,11,32,24,18,,,,,1.9,1.0,1.6*33
$GPGSV,3,1,12,19,77,257,38,03,60,001,40,22,48,128,31,06,47,021,31*7A
$GPGSV,3,2,12,14,41,071,,11,34,243,38,32,23,313,39,24,23,254,36*7E
$GPGSV,3,3,12,18,13,129,27,28,04,211,32,16,04,347,31,20,01,306,*74
$GPRMC,203439.001,A,3955.0390,S,07103.7603,W,27.59,312.11,130511,,,A*56
$GPGGA,203439.999,3955.0335,S,07103.7675,W,1,09,1.0,763.9,M,22.6,M,,0000*59
$GPGSA,M,3,19,03,22,06,14,11,32,24,18,,,,1.8,1.0,1.6*37
$GPRMC,203439.999,A,3955.0335,S,07103.7675,W,27.34,312.91,130511,,,A*53
$GPGGA,203441.002,3955.0281,S,07103.7746,W,1,08,1.2,763.1,M,22.6,M,,0000*59
$GPGSA,M,3,19,03,22,06,14,11,32,24,,,,,2.5,1.2,2.2*35
$GPRMC,203441.002,A,3955.0281,S,07103.7746,W,27.44,311.98,130511,,,A*55
$GPGGA,203441.999,3955.0231,S,07103.7818,W,1,09,1.0,763.4,M,22.6,M,,0000*5B
$GPGSA,M,3,19,03,22,06,14,11,32,24,18,,,,1.8,1.0,1.6*37
$GPRMC,203441.999,A,3955.0231,S,07103.7818,W,26.70,312.99,130511,,,A*55
$GPGGA,203443.001,3955.0181,S,07103.7890,W,1,08,1.2,764.0,M,22.6,M,,0000*59
$GPGSA,M,3,19,03,22,06,14,11,32,24,,,,,2.5,1.2,2.2*35
$GPRMC,203443.001,A,3955.0181,S,07103.7890,W,26.81,312.26,130511,,,A*5D
$GPGGA,203444.002,3955.0130,S,07103.7965,W,1,09,1.0,764.5,M,22.6,M,,0000*5A
$GPGSA,M,3,19,03,22,06,14,11,32,24,18,,,,1.8,1.0,1.6*37
$GPGSV,3,1,12,19,77,257,38,03,60,001,40,22,48,128,29,06,47,021,29*7A
$GPGSV,3,2,12,14,41,071,30,11,34,243,37,32,23,313,38,24,23,254,37*72
$GPGSV,3,3,12,18,13,129,28,28,04,211,34,16,04,347,,20,01,306,*7F
$GPRMC,203444.002,A,3955.0130,S,07103.7965,W,27.27,311.93,130511,,,A*58
$GPGGA,203445.001,3955.0081,S,07103.8037,W,1,09,1.0,764.4,M,22.6,M,,0000*53
$GPGSA,M,3,19,03,22,06,14,11,32,24,18,,,,1.8,1.0,1.6*37
$GPRMC,203445.001,A,3955.0081,S,07103.8037,W,27.05,311.67,130511,,,A*5B
$GPGGA,203446.001,3955.0031,S,07103.8111,W,1,09,1.0,764.8,M,22.6,M,,0000*52
$GPGSA,M,3,19,03,22,06,14,11,32,24,18,,,,1.8,1.0,1.6*37
$GPRMC,203446.001,A,3955.0031,S,07103.8111,W,26.42,311.49,130511,,,A*58
$GPGGA,203446.998,3954.9983,S,07103.8181,W,1,08,1.0,765.8,M,22.6,M,,0000*5A
$GPGSA,M,3,19,03,22,06,11,32,24,18,,,,,1.9,1.0,1.6*33
$GPRMC,203446.998,A,3954.9983,S,07103.8181,W,26.37,311.85,130511,,,A*52
$GPGGA,203448.000,3954.9934,S,07103.8251,W,1,08,1.0,766.4,M,22.6,M,,0000*51
$GPGSA,M,3,19,03,22,06,11,32,24,18,,,,,1.9,1.0,1.6*33
$GPRMC,203448.000,A,3954.9934,S,07103.8251,W,25.98,312.22,130511,,,A*5E
$GPGGA,203448.999,3954.9884,S,07103.8321,W,1,07,1.4,767.1,M,22.6,M,,0000*5B
$GPGSA,M,3,19,03,22,06,11,32,24,,,,,,2.8,1.4,2.5*3C
$GPGSV,3,1,12,19,77,257,38,03,60,001,39,22,48,128,30,06,47,021,30*74
$GPGSV,3,2,12,14,41,071,,11,34,243,37,32,23,313,39,24,23,254,35*72
$GPGSV,3,3,12,18,13,129,,28,04,211,30,16,04,347,,20,01,306,*71
$GPRMC,203448.999,A,3954.9884,S,07103.8321,W,26.54,312.22,130511,,,A*58
$GPGGA,203450.002,3954.9832,S,07103.8394,W,1,08,1.2,768.1,M,22.6,M,,0000*5C
$GPGSA,M,3,19,03,22,06,14,11,32,24,,,,,2.5,1.2,2.2*35
$GPRMC,203450.002,A,3954.9832,S,07103.8394,W,27.16,312.88,130511,,,A*5E
$GPGGA,203450.998,3954.9782,S,07103.8466,W,1,08,1.2,767.5,M,22.6,M,,0000*53
$GPGSA,M,3,19,03,22,06,14,11,32,24,,,,,2.5,1.2,2.2*35
$GPRMC,203450.998,A,3954.9782,S,07103.8466,W,26.82,312.82,130511,,,A*5C
$GPGGA,203452.000,3954.9731,S,07103.8540,W,1,08,1.2,768.1,M,22.6,M,,0000*5F
$GPGSA,M,3,19,03,22,06,14,11,32,24,,,,,2.5,1.2,2.2*35
$GPRMC,203452.000,A,3954.9731,S,07103.8540,W,27.23,312.29,130511,,,A*50
$GPGGA,203453.000,3954.9683,S,07103.8607,W,1,08,1.2,767.3,M,22.6,M,,0000*5B
$GPGSA,M,3,19,03,22,06,14,11,32,24,,,,,2.5,1.2,2.2*35
$GPRMC,203453.000,A,3954.9683,S,07103.8607,W,27.22,311.66,130511,,,A*50
$GPGGA,203454.002,3954.9632,S,07103.8682,W,1,09,1.0,767.8,M,22.6,M,,0000*51
$GPGSA,M,3,19,03,22,06,14,11,32,24,18,,,,1.8,1.0,1.6*37
$GPGSV,3,1,12,19,77,257,39,03,60,001,40,22,48,128,31,06,47,021,35*7F
$GPGSV,3,2,12,14,41,071,29,11,34,243,37,32,23,313,40,24,23,254,36*74
$GPGSV,3,3,12,18,13,129,26,28,04,211,35,16,04,347,,20,01,306,*70
$GPRMC,203454.002,A,3954.9632,S,07103.8682,W,27.31,310.23,130511,,,A*50
$GPGGA,203454.998,3954.9584,S,07103.8751,W,1,08,1.2,767.7,M,22.6,M,,0000*56
$GPGSA,M,3,19,03,22,06,14,11,32,24,,,,,2.5,1.2,2.2*35
$GPRMC,203454.998,A,3954.9584,S,07103.8751,W,26.93,313.11,130511,,,A*50
$GPGGA,203455.998,3954.9533,S,07103.8816,W,1,08,1.0,766.3,M,22.6,M,,0000*50
$GPGSA,M,3,19,03,22,06,11,32,24,18,,,,,1.9,1.0,1.6*33
$GPRMC,203455.998,A,3954.9533,S,07103.8816,W,26.23,312.59,130511,,,A*57
$GPGGA,203457.004,3954.9483,S,07103.8892,W,1,07,1.4,768.0,M,22.6,M,,0000*5E
$GPGSA,M,3,19,03,22,06,11,32,24,,,,,,2.8,1.4,2.5*3C
$GPRMC,203457.004,A,3954.9483,S,07103.8892,W,26.57,311.56,130511,,,A*50
$GPGGA,203457.997,3954.9434,S,07103.8967,W,1,07,1.4,769.5,M,22.6,M,,0000*5E
$GPGSA,M,3,19,03,22,06,11,32,24,,,,,,2.8,1.4,2.5*3C
$GPRMC,203457.997,A,3954.9434,S,07103.8967,W,27.72,311.90,130511,,,A*58
$GPGGA,203458.999,3954.9381,S,07103.9039,W,1,09,1.0,769.1,M,22.6,M,,0000*5B
$GPGSA,M,3,19,03,22,06,14,11,32,24,18,,,,1.8,1.0,1.6*37
$GPGSV,3,1,12,19,77,257,38,03,60,001,39,22,48,128,30,06,47,021,34*70
$GPGSV,3,2,12,14,41,071,29,11,34,243,37,32,23,313,39,24,23,254,36*7A
$GPGSV,3,3,12,18,13,129,26,28,04,211,35,16,04,347,,20,01,306,*70
$GPRMC,203458.999,A,3954.9381,S,07103.9039,W,27.28,312.53,130511,,,A*50
$GPGGA,203459.999,3954.9332,S,07103.9112,W,1,08,1.2,770.2,M,22.6,M,,0000*52
$GPGSA,M,3,19,03,22,06,14,11,32,24,,,,,2.5,1.2,2.2*35
$GPRMC,203459.999,A,3954.9332,S,07103.9112,W,26.95,312.49,130511,,,A*5D
$GPGGA,203500.999,3954.9284,S,07103.9187,W,1,08,1.2,769.9,M,22.6,M,,0000*5C
$GPGSA,M,3,19,03,22,06,14,11,32,24,,,,,2.5,1.2,2.2*35
$GPRMC,203500.999,A,3954.9284,S,07103.9187,W,27.12,312.41,130511,,,A*56
$GPGGA,203502.002,3954.9232,S,07103.9259,W,1,08,1.2,770.0,M,22.6,M,,0000*59
$GPGSA,M,3,19,03,22,06,14,11,32,24,,,,,2.5,1.2,2.2*35
$GPRMC,203502.002,A,3954.9232,S,07103.9259,W,26.97,312.78,130511,,,A*54
$GPGGA,203503.000,3954.9181,S,07103.9330,W,1,08,1.2,770.2,M,22.6,M,,0000*5D
$GPGSA,M,3,19,03,22,06,14,11,32,24,,,,,2.5,1.2,2.2*35
$GPRMC,203503.000,A,3954.9181,S,07103.9330,W,26.98,312.95,130511,,,A*5E
$GPGGA,203504.001,3954.9130,S,07103.9402,W,1,08,1.2,770.3,M,22.6,M,,0000*56
$GPGSA,M,3,19,03,22,06,14,11,32,24,,,,,2.5,1.2,2.2*35
$GPGSV,3,1,12,19,77,257,37,03,60,001,39,22,48,128,30,06,47,021,35*7E
$GPGSV,3,2,12,14,41,071,26,11,34,243,37,32,23,313,37,24,23,254,35*78
$GPGSV,3,3,12,18,13,129,,28,04,211,32,16,04,347,34,20,01,306,*74
$GPRMC,203504.001,A,3954.9130,S,07103.9402,W,27.10,311.58,130511,,,A*57
$GPGGA,203504.997,3954.9080,S,07103.9472,W,1,09,1.0,769.7,M,22.6,M,,0000*52
$GPGSA,M,3,19,03,22,06,14,11,32,24,18,,,,1.8,1.0,1.6*37
$GPRMC,203504.997,A,3954.9080,S,07103.9472,W,27.02,311.64,130511,,,A*50
$GPGGA,203506.000,3954.9028,S,07103.9541,W,1,09,1.0,768.4,M,22.6,M,,0000*56
$GPGSA,M,3,19,03,22,06,14,11,32,24,18,,,,1.8,1.0,1.6*37
$GPRMC,203506.000,A,3954.9028,S,07103.9541,W,26.89,312.40,130511,,,A*51
$GPGGA,203507.001,3954.8981,S,07103.9606,W,1,08,1.2,767.1,M,22.6,M,,0000*54
$GPGSA,M,3,19,03,22,06,14,11,32,24,,,,,2.5,1.2,2.2*35
$GPRMC,203507.001,A,3954.8981,S,07103.9606,W,26.64,311.59,130511,,,A*52
$GPGGA,203507.999,3954.8930,S,07103.9684,W,1,09,1.0,767.5,M,22.6,M,,0000*5B
$GPGSA,M,3,19,03,22,06,14,11,32,24,18,,,,1.8,1.0,1.6*37
$GPRMC,203507.999,A,3954.8930,S,07103.9684,W,26.42,312.71,130511,,,A*57
$GPGGA,203509.000,3954.8878,S,07103.9752,W,1,07,1.4,767.7,M,22.6,M,,0000*53
$GPGSA,M,3,19,03,22,06,11,32,24,,,,,,2.8,1.4,2.5*3C
$GPGSV,3,1,12,19,77,257,37,03,60,001,40,22,48,128,28,06,47,021,33*7F
$GPGSV,3,2,12,14,41,071,,11,34,243,39,32,23,313,40,24,23,254,36*71
$GPGSV,3,3,12,18,13,129,,28,04,211,26,16,04,347,28,20,01,306,*7C
$GPRMC,203509.000,A,3954.8878,S,07103.9752,W,26.25,313.53,130511,,,A*57
$GPGGA,203510.000,3954.8825,S,07103.9817,W,1,08,1.2,766.2,M,22.6,M,,0000*50
$GPGSA,M,3,19,03,22,06,14,11,32,24,,,,,2.5,1.2,2.2*35
$GPRMC,203510.000,A,3954.8825,S,07103.9817,W,26.76,313.11,130511,,,A*59
$GPGGA,203511.002,3954.8772,S,07103.9886,W,1,07,1.5,766.2,M,22.6,M,,0000*5E
$GPGSA,M,3,19,03,06,14,11,32,24,,,,,,2.7,1.5,2.2*30
$GPRMC,203511.002,A,3954.8772,S,07103.9886,W,26.78,312.89,130511,,,A*51
$GPGGA,203511.999,3954.8721,S,07103.9956,W,1,07,1.4,765.7,M,22.6,M,,0000*58
$GPGSA,M,3,19,03,22,06,11,32,24,,,,,,2.8,1.4,2.5*3C
$GPRMC,203511.999,A,3954.8721,S,07103.9956,W,26.30,312.44,130511,,,A*5D
$GPGGA,203512.999,3954.8672,S,07104.0028,W,1,08,1.0,765.2,M,22.6,M,,0000*5C
$GPGSA,M,3,19,03,22,06,11,32,24,18,,,,,1.9,1.0,1.6*33
$GPRMC,203512.999,A,3954.8672,S,07104.0028,W,26.89,312.50,130511,,,A*50
$GPGGA,203514.000,3954.8623,S,07104.0096,W,1,07,1.4,763.6,M,22.6,M,,0000*5B
$GPGSA,M,3,19,03,22,06,11,32,24,,,,,,2.8,1.4,2.5*3C
$GPRMC,203514.000,A,3954.8623,S,07104.0096,W,26.21,312.05,130511,,,A*5C
$GPGGA,203514.998,3954.8577,S,07104.0170,W,1,06,3.1,763.6,M,22.6,M,,0000*5E
$GPGSA,M,3,19,03,06,11,32,24,,,,,,,5.0,3.1,3.9*39
$GPGSV,3,1,12,19,77,257,38,03,60,001,40,22,48,128,,06,47,021,35*7C
$GPGSV,3,2,12,14,41,071,,11,34,243,40,32,23,313,39,24,23,254,37*70
$GPGSV,3,3,12,18,13,129,,28,04,211,22,16,04,347,,20,01,306,*72
$GPRMC,203514.998,A,3954.8577,S,07104.0170,W,26.51,312.49,130511,,,A*50
$GPGGA,203515.998,3954.8526,S,07104.0233,W,1,07,1.2,761.8,M,22.6,M,,0000*53
$GPGSA,M,3,19,03,22,06,32,24,18,,,,,,2.0,1.2,1.6*3B
$GPRMC,203515.998,A,3954.8526,S,07104.0233,W,25.69,313.25,130511,,,A*52
$GPGGA,203517.000,3954.8477,S,07104.0301,W,1,07,1.4,762.0,M,22.6,M,,0000*51
$GPGSA,M,3,19,03,22,06,11,32,24,,,,,,2.8,1.4,2.5*3C
$GPRMC,203517.000,A,3954.8477,S,07104.0301,W,25.30,313.25,130511,,,A*51
$GPGGA,203518.000,3954.8428,S,07104.0366,W,1,07,1.4,761.6,M,22.6,M,,0000*50
$GPGSA,M,3,19,03,22,06,11,32,24,,,,,,2.8,1.4,2.5*3C
$GPRMC,203518.000,A,3954.8428,S,07104.0366,W,25.36,312.59,130511,,,A*59
$GPGGA,203519.002,3954.8381,S,07104.0435,W,1,07,1.4,762.7,M,22.6,M,,0000*54
$GPGSA,M,3,19,03,22,06,11,32,24,,,,,,2.8,1.4,2.5*3C
$GPGSV,3,1,12,19,77,257,37,03,60,001,39,22,48,128,28,06,47,021,30*72
$GPGSV,3,2,12,14,41,071,,11,34,243,39,32,23,313,39,24,23,254,35*7C
$GPGSV,3,3,12,18,13,129,,28,04,211,,16,04,347,,20,01,306,*72
$GPRMC,203519.002,A,3954.8381,S,07104.0435,W,25.46,312.20,130511,,,A*56
$GPGGA,203519.998,3954.8335,S,07104.0506,W,1,07,1.4,764.5,M,22.6,M,,0000*54
$GPGSA,M,3,19,03,22,06,11,32,24,,,,,,2.8,1.4,2.5*3C
$GPRMC,203519.998,A,3954.8335,S,07104.0506,W,24.75,312.86,130511,,,A*5F
$GPGGA,203521.000,3954.8293,S,07104.0573,W,1,06,3.1,764.6,M,22.6,M,,0000*5D
$GPGSA,M,3,19,03,06,11,32,24,,,,,,,5.0,3.1,3.9*39
$GPRMC,203521.000,A,3954.8293,S,07104.0573,W,25.15,312.10,130511,,,A*5B
$GPGGA,203522.002,3954.8246,S,07104.0634,W,1,06,3.1,763.8,M,22.6,M,,0000*5D
$GPGSA,M,3,19,03,06,11,32,24,,,,,,,5.0,3.1,3.9*39
$GPRMC,203522.002,A,3954.8246,S,07104.0634,W,24.32,313.41,130511,,,A*53
$GPGGA,203522.999,3954.8199,S,07104.0707,W,1,07,1.5,764.4,M,22.6,M,,0000*5A
$GPGSA,M,3,19,03,06,14,11,32,24,,,,,,2.7,1.5,2.2*30
$GPRMC,203522.999,A,3954.8199,S,07104.0707,W,24.47,310.34,130511,,,A*5B
$GPGGA,203524.001,3954.8158,S,07104.0771,W,1,07,1.2,764.0,M,22.6,M,,0000*5B
$GPGSA,M,3,19,03,22,06,14,11,32,,,,,,2.7,1.2,2.4*37
$GPGSV,3,1,12,19,77,257,39,03,60,001,39,22,48,128,30,06,47,021,31*74
$GPGSV,3,2,12,14,41,071,29,11,34,243,36,32,23,313,38,24,23,254,*7F
$GPGSV,3,3,12,18,13,129,,28,04,211,29,16,04,347,,20,01,306,*79
$GPRMC,203524.001,A,3954.8158,S,07104.0771,W,24.11,308.80,130511,,,A*5C
$GPGGA,203524.998,3954.8120,S,07104.0837,W,1,06,1.4,763.9,M,22.6,M,,0000*59
$GPGSA,M,3,19,03,22,06,11,32,,,,,,,3.0,1.4,2.6*30
$GPGSV,3,1,12,19,77,257,39,03,60,001,39,22,48,128,33,06,47,021,30*76
$GPGSV,3,2,12,14,41,071,,11,34,243,36,32,23,313,37,24,23,254,*7B
$GPGSV,3,3,12,18,13,129,,28,04,211,35,16,04,347,,20,01,306,*74
$GPRMC,203524.998,A,3954.8120,S,07104.0837,W,23.23,305.84,130511,,,A*58
$GPGGA,203526.000,3954.8084,S,07104.0905,W,1,08,1.2,764.9,M,22.6,M,,0000*53
$GPGSA,M,3,19,03,22,06,14,11,32,24,,,,,2.5,1.2,2.2*35
$GPRMC,203526.000,A,3954.8084,S,07104.0905,W,22.26,301.77,130511,,,A*51
$GPGGA,203527.002,3954.8057,S,07104.0974,W,1,07,1.4,766.3,M,22.6,M,,0000*59
$GPGSA,M,3,19,03,22,06,11,32,24,,,,,,2.8,1.4,2.5*3C
$GPRMC,203527.002,A,3954.8057,S,07104.0974,W,20.92,298.68,130511,,,A*58
$GPGGA,203528.000,3954.8031,S,07104.1043,W,1,07,1.4,766.9,M,22.6,M,,0000*52
$GPGSA,M,3,19,03,22,06,11,32,24,,,,,,2.8,1.4,2.5*3C
$GPRMC,203528.000,A,3954.8031,S,07104.1043,W,21.34,294.09,130511,,,A*5F
$GPGGA,203529.000,3954.8009,S,07104.1112,W,1,07,1.4,767.9,M,22.6,M,,0000*5C
$GPGSA,M,3,19,03,22,06,11,32,24,,,,,,2.8,1.4,2.5*3C
$GPRMC,203529.000,A,3954.8009,S,07104.1112,W,20.15,292.06,130511,,,A*5B
$GPGGA,203530.000,3954.7994,S,07104.1182,W,1,07,1.5,768.0,M,22.6,M,,0000*58
$GPGSA,M,3,19,03,06,14,11,32,24,,,,,,2.7,1.5,2.2*30
$GPGSV,3,1,12,19,77,257,30,03,60,001,37,22,48,128,,06,47,021,30*71
$GPGSV,3,2,12,14,41,071,28,11,34,243,37,32,23,313,36,24,23,254,37*75
$GPGSV,3,3,12,18,13,129,,28,04,211,35,16,04,347,,20,01,306,*74
$GPRMC,203530.000,A,3954.7994,S,07104.1182,W,20.52,286.62,130511,,,A*5C
$GPGGA,203530.998,3954.7982,S,07104.1253,W,1,08,1.2,769.5,M,22.6,M,,0000*54
$GPGSA,M,3,19,03,22,06,14,11,32,24,,,,,2.5,1.2,2.2*35
$GPRMC,203530.998,A,3954.7982,S,07104.1253,W,20.47,281.71,130511,,,A*5D
$GPGGA,203532.002,3954.7973,S,07104.1325,W,1,07,1.4,769.7,M,22.6,M,,0000*59
$GPGSA,M,3,19,03,22,06,11,32,24,,,,,,2.8,1.4,2.5*3C
$GPRMC,203532.002,A,3954.7973,S,07104.1325,W,20.02,277.20,130511,,,A*57
$GPGGA,203532.996,3954.7972,S,07104.1396,W,1,09,1.0,769.3,M,22.6,M,,0000*5A
$GPGSA,M,3,19,03,22,06,14,11,32,24,18,,,,1.8,1.0,1.6*37
$GPRMC,203532.996,A,3954.7972,S,07104.1396,W,20.31,272.54,130511,,,A*5C
$GPGGA,203534.002,3954.7969,S,07104.1473,W,1,08,1.0,770.0,M,22.6,M,,0000*54
$GPGSA,M,3,19,03,22,06,11,32,24,18,,,,,1.9,1.0,1.6*33
$GPGSV,3,1,12,19,77,257,36,03,60,001,35,22,48,128,28,06,47,021,36*79
$GPGSV,3,2,12,14,41,071,,11,34,243,34,32,23,313,36,24,23,254,37*7C
$GPGSV,3,3,12,18,13,129,30,28,04,211,36,16,04,347,,20,01,306,*74
$GPRMC,203534.002,A,3954.7969,S,07104.1473,W,21.24,271.59,130511,,,A*53
$GPGGA,203535.000,3954.7972,S,07104.1551,W,1,08,1.0,768.7,M,22.6,M,,0000*52
$GPGSA,M,3,19,03,22,06,11,32,24,18,,,,,1.9,1.0,1.6*33
$GPRMC,203535.000,A,3954.7972,S,07104.1551,W,21.29,266.99,130511,,,A*5C
$GPGGA,203535.998,3954.7975,S,07104.1626,W,1,09,1.0,769.1,M,22.6,M,,0000*58
$GPGSA,M,3,19,03,22,06,14,11,32,24,18,,,,1.8,1.0,1.6*37
$GPRMC,203535.998,A,3954.7975,S,07104.1626,W,21.19,263.41,130511,,,A*53
$GPGGA,203537.002,3954.7984,S,07104.1706,W,1,09,1.0,769.4,M,22.6,M,,0000*58
$GPGSA,M,3,19,03,22,06,14,11,32,24,18,,,,1.8,1.0,1.6*37
