$GPGGA,210422.999,3909.6686,S,07003.0539,W,1,08,1.0,943.1,M,23.2,M,,0000*5E
$GPGSA,M,3,19,03,14,11,22,06,32,24,,,,,2.8,1.0,2.6*3E
$GPRMC,210422.999,A,3909.6686,S,07003.0539,W,26.24,197.26,110511,,,A*55
$GPGGA,210423.998,3909.6754,S,07003.0570,W,1,08,1.0,941.5,M,23.2,M,,0000*5B
$GPGSA,M,3,19,03,14,11,22,06,32,24,,,,,2.8,1.0,2.6*3E
$GPRMC,210423.998,A,3909.6754,S,07003.0570,W,26.88,198.52,110511,,,A*5C
$GPGGA,210424.995,3909.6823,S,07003.0600,W,1,08,1.0,941.2,M,23.2,M,,0000*5D
$GPGSA,M,3,19,03,14,11,22,06,32,24,,,,,2.8,1.0,2.6*3E
$GPRMC,210424.995,A,3909.6823,S,07003.0600,W,26.58,197.61,110511,,,A*5F
$GPGGA,210426.003,3909.6897,S,07003.0635,W,1,08,1.0,941.0,M,23.2,M,,0000*52
$GPGSA,M,3,19,03,14,11,22,06,32,24,,,,,2.8,1.0,2.6*3E
$GPGSV,3,1,11,19,78,302,40,03,50,001,41,14,46,084,36,11,40,238,37*7C
$GPGSV,3,2,11,22,39,129,38,06,38,018,38,32,31,306,38,24,29,246,37*78
$GPGSV,3,3,11,20,08,301,,28,07,218,35,18,05,126,34*4F
$GPRMC,210426.003,A,3909.6897,S,07003.0635,W,27.75,196.74,110511,,,A*59
$GPGGA,210426.997,3909.6970,S,07003.0663,W,1,08,1.0,940.0,M,23.2,M,,0000*5C
$GPGSA,M,3,19,03,14,11,22,06,32,24,,,,,2.8,1.0,2.6*3E
$GPRMC,210426.997,A,3909.6970,S,07003.0663,W,27.27,198.19,110511,,,A*54
$GPGGA,210428.000,3909.7041,S,07003.0695,W,1,08,1.0,940.0,M,23.2,M,,0000*56
$GPGSA,M,3,19,03,14,11,22,06,32,24,,,,,2.8,1.0,2.6*3E
$GPRMC,210428.000,A,3909.7041,S,07003.0695,W,27.33,198.01,110511,,,A*52
$GPGGA,210429.004,3909.7113,S,07003.0725,W,1,08,1.0,938.7,M,23.2,M,,0000*57
$GPGSA,M,3,19,03,14,11,22,06,32,24,,,,,2.8,1.0,2.6*3E
$GPRMC,210429.004,A,3909.7113,S,07003.0725,W,27.12,198.03,110511,,,A*5A
$GPGGA,210429.999,3909.7183,S,07003.0753,W,1,08,1.0,937.6,M,23.2,M,,0000*5C
$GPGSA,M,3,19,03,14,11,22,06,32,24,,,,,2.8,1.0,2.6*3E
$GPRMC,210429.999,A,3909.7183,S,07003.0753,W,27.40,198.14,110511,,,A*5E
$GPGGA,210430.997,3909.7253,S,07003.0781,W,1,08,1.0,937.8,M,23.2,M,,0000*55
$GPGSA,M,3,19,03,14,11,22,06,32,24,,,,,2.8,1.0,2.6*3E
$GPGSV,3,1,11,19,78,302,40,03,50,001,41,14,46,084,36,11,40,238,36*7D
$GPGSV,3,2,11,22,39,129,38,06,38,018,38,32,31,306,38,24,29,246,37*78
$GPGSV,3,3,11,20,08,301,25,28,07,218,35,18,05,126,32*4E
$GPRMC,210430.997,A,3909.7253,S,07003.0781,W,27.09,197.99,110511,,,A*5E
$GPGGA,210432.004,3909.7328,S,07003.0814,W,1,08,1.0,936.9,M,23.2,M,,0000*5A
$GPGSA,M,3,19,03,14,11,22,06,32,24,,,,,2.8,1.0,2.6*3E
$GPRMC,210432.004,A,3909.7328,S,07003.0814,W,27.33,198.91,110511,,,A*5F
$GPGGA,210432.995,3909.7400,S,07003.0846,W,1,08,1.0,935.3,M,23.2,M,,0000*58
$GPGSA,M,3,19,03,14,11,22,06,32,24,,,,,2.8,1.0,2.6*3E
$GPRMC,210432.995,A,3909.7400,S,07003.0846,W,27.58,199.48,110511,,,A*5C
$GPGGA,210434.003,3909.7474,S,07003.0877,W,1,08,1.0,935.8,M,23.2,M,,0000*52
$GPGSA,M,3,19,03,14,11,22,06,32,24,,,,,2.8,1.0,2.6*3E
$GPRMC,210434.003,A,3909.7474,S,07003.0877,W,27.06,197.84,110511,,,A*58
$GPGGA,210434.998,3909.7548,S,07003.0904,W,1,08,1.0,935.6,M,23.2,M,,0000*5C
$GPGSA,M,3,19,03,14,11,22,06,32,24,,,,,2.8,1.0,2.6*3E
$GPRMC,210434.998,A,3909.7548,S,07003.0904,W,27.26,198.45,110511,,,A*58
$GPGGA,210436.002,3909.7625,S,07003.0932,W,1,08,1.0,935.9,M,23.2,M,,0000*56
$GPGSA,M,3,19,03,14,11,22,06,32,24,,,,,2.8,1.0,2.6*3E
$GPGSV,3,1,11,19,78,302,40,03,50,001,40,14,46,084,37,11,40,238,36*7D
$GPGSV,3,2,11,22,39,129,38,06,38,018,39,32,31,306,37,24,29,246,37*76
$GPGSV,3,3,11,20,08,301,,28,07,218,34,18,05,126,37*4D
$GPRMC,210436.002,A,3909.7625,S,07003.0932,W,27.48,198.73,110511,,,A*50
$GPGGA,210437.000,3909.7696,S,07003.0969,W,1,08,1.0,937.2,M,23.2,M,,0000*5A
$GPGSA,M,3,19,03,14,11,22,06,32,24,,,,,2.8,1.0,2.6*3E
$GPRMC,210437.000,A,3909.7696,S,07003.0969,W,27.29,199.05,110511,,,A*52
$GPGGA,210437.999,3909.7771,S,07003.1001,W,1,08,1.0,937.5,M,23.2,M,,0000*5A
$GPGSA,M,3,19,03,14,11,22,06,32,24,,,,,2.8,1.0,2.6*3E
$GPRMC,210437.999,A,3909.7771,S,07003.1001,W,27.77,198.82,110511,,,A*50
$GPGGA,210439.000,3909.7836,S,07003.1041,W,1,08,1.0,937.3,M,23.2,M,,0000*53
$GPGSA,M,3,19,03,14,11,22,06,32,24,,,,,2.8,1.0,2.6*3E
$GPRMC,210439.000,A,3909.7836,S,07003.1041,W,26.94,199.14,110511,,,A*5D
$GPGGA,210440.001,3909.7907,S,07003.1073,W,1,08,1.0,937.1,M,23.2,M,,0000*5C
$GPGSA,M,3,19,03,14,11,22,06,32,24,,,,,2.8,1.0,2.6*3E
$GPRMC,210440.001,A,3909.7907,S,07003.1073,W,27.14,198.24,110511,,,A*5B
$GPGGA,210440.998,3909.7980,S,07003.1103,W,1,08,1.0,937.9,M,23.2,M,,0000*54
$GPGSA,M,3,19,03,14,11,22,06,32,24,,,,,2.8,1.0,2.6*3E
$GPGSV,3,1,11,19,78,302,40,03,50,001,40,14,46,084,35,11,40,238,37*7E
$GPGSV,3,2,11,22,39,129,37,06,38,018,39,32,31,306,38,24,29,246,37*76
$GPGSV,3,3,11,20,08,301,23,28,07,218,36,18,05,126,35*4C
$GPRMC,210440.998,A,3909.7980,S,07003.1103,W,27.46,198.15,110511,,,A*5E
$GPGGA,210441.999,3909.8053,S,07003.1130,W,1,08,1.0,936.6,M,23.2,M,,0000*52
$GPGSA,M,3,19,03,14,11,22,06,32,24,,,,,2.8,1.0,2.6*3E
$GPRMC,210441.999,A,3909.8053,S,07003.1130,W,27.31,197.56,110511,,,A*5E
$GPGGA,210443.003,3909.8125,S,07003.1159,W,1,08,1.0,937.0,M,23.2,M,,0000*52
$GPGSA,M,3,19,03,14,11,22,06,32,24,,,,,2.8,1.0,2.6*3E
$GPRMC,210443.003,A,3909.8125,S,07003.1159,W,27.24,197.52,110511,,,A*59
$GPGGA,210444.004,3909.8197,S,07003.1189,W,1,08,1.0,936.6,M,23.2,M,,0000*51
$GPGSA,M,3,19,03,14,11,22,06,32,24,,,,,2.8,1.0,2.6*3E
$GPRMC,210444.004,A,3909.8197,S,07003.1189,W,27.51,196.79,110511,,,A*57
$GPGGA,210444.994,3909.8270,S,07003.1222,W,1,08,1.0,936.6,M,23.2,M,,0000*59
$GPGSA,M,3,19,03,14,11,22,06,32,24,,,,,2.8,1.0,2.6*3E
$GPRMC,210444.994,A,3909.8270,S,07003.1222,W,27.62,197.54,110511,,,A*51
$GPGGA,210446.000,3909.8343,S,07003.1253,W,1,08,1.0,936.0,M,23.2,M,,0000*5E
$GPGSA,M,3,19,03,14,11,22,06,32,24,,,,,2.8,1.0,2.6*3E
$GPGSV,3,1,11,19,78,302,39,03,50,001,41,14,46,084,37,11,40,238,38*7C
$GPGSV,3,2,11,22,39,129,39,06,38,018,38,32,31,306,38,24,29,246,36*78
$GPGSV,3,3,11,20,08,301,,28,07,218,33,18,05,126,36*4B
$GPRMC,210446.000,A,3909.8343,S,07003.1253,W,27.83,197.61,110511,,,A*59
$GPGGA,210447.000,3909.8418,S,07003.1286,W,1,08,1.0,934.5,M,23.2,M,,0000*59
$GPGSA,M,3,19,03,14,11,22,06,32,24,,,,,2.8,1.0,2.6*3E
$GPRMC,210447.000,A,3909.8418,S,07003.1286,W,27.74,198.32,110511,,,A*58
$GPGGA,210448.000,3909.8492,S,07003.1317,W,1,08,1.0,934.0,M,23.2,M,,0000*58
$GPGSA,M,3,19,03,14,11,22,06,32,24,,,,,2.8,1.0,2.6*3E
$GPRMC,210448.000,A,3909.8492,S,07003.1317,W,28.21,198.63,110511,,,A*57
$GPGGA,210449.001,3909.8569,S,07003.1347,W,1,08,1.0,933.7,M,23.2,M,,0000*58
$GPGSA,M,3,19,03,14,11,22,06,32,24,,,,,2.8,1.0,2.6*3E
$GPRMC,210449.001,A,3909.8569,S,07003.1347,W,28.31,198.46,110511,,,A*51
$GPGGA,210449.995,3909.8647,S,07003.1383,W,1,08,1.0,932.9,M,23.2,M,,0000*54
$GPGSA,M,3,19,03,14,11,22,06,32,24,,,,,2.8,1.0,2.6*3E
$GPRMC,210449.995,A,3909.8647,S,07003.1383,W,28.32,198.47,110511,,,A*50
$GPGGA,210451.002,3909.8721,S,07003.1416,W,1,08,1.0,933.9,M,23.2,M,,0000*51
$GPGSA,M,3,19,03,14,11,22,06,32,24,,,,,2.8,1.0,2.6*3E
$GPGSV,3,1,11,19,78,302,39,03,50,001,40,14,46,084,37,11,40,238,37*72
$GPGSV,3,2,11,22,39,129,38,06,38,018,37,32,31,306,39,24,29,246,36*77
$GPGSV,3,3,11,20,08,301,,28,07,218,,18,05,126,36*4B
$GPRMC,210451.002,A,3909.8721,S,07003.1416,W,27.93,198.16,110511,,,A*54
$GPGGA,210452.000,3909.8794,S,07003.1448,W,1,08,1.0,933.7,M,23.2,M,,0000*5B
$GPGSA,M,3,19,03,14,11,22,06,32,24,,,,,2.8,1.0,2.6*3E
$GPRMC,210452.000,A,3909.8794,S,07003.1448,W,28.03,197.61,110511,,,A*59
$GPGGA,210453.000,3909.8869,S,07003.1483,W,1,08,1.0,931.8,M,23.2,M,,0000*5D
$GPGSA,M,3,19,03,14,11,22,06,32,24,,,,,2.8,1.0,2.6*3E
$GPRMC,210453.000,A,3909.8869,S,07003.1483,W,28.15,198.51,110511,,,A*59
$GPGGA,210453.998,3909.8944,S,07003.1515,W,1,08,1.0,932.0,M,23.2,M,,0000*5E
$GPGSA,M,3,19,03,14,11,22,06,32,24,,,,,2.8,1.0,2.6*3E
$GPRMC,210453.998,A,3909.8944,S,07003.1515,W,28.33,198.03,110511,,,A*52
$GPGGA,210455.000,3909.9021,S,07003.1548,W,1,08,1.0,931.0,M,23.2,M,,0000*50
$GPGSA,M,3,19,03,14,11,22,06,32,24,,,,,2.8,1.0,2.6*3E
$GPRMC,210455.000,A,3909.9021,S,07003.1548,W,28.68,198.31,110511,,,A*50
$GPGGA,210456.000,3909.9096,S,07003.1582,W,1,08,1.0,930.8,M,23.2,M,,0000*50
$GPGSA,M,3,19,03,14,11,22,06,32,24,,,,,2.8,1.0,2.6*3E
$GPGSV,3,1,11,19,78,302,40,03,50,001,40,14,46,084,37,11,40,238,38*73
$GPGSV,3,2,11,22,39,129,37,06,38,018,38,32,31,306,40,24,29,246,36*79
$GPGSV,3,3,11,20,08,301,,28,07,218,28,18,05,126,37*40
$GPRMC,210456.000,A,3909.9096,S,07003.1582,W,28.13,198.37,110511,,,A*53
$GPGGA,210457.002,3909.9172,S,07003.1614,W,1,08,1.0,929.7,M,23.2,M,,0000*53
$GPGSA,M,3,19,03,14,11,22,06,32,24,,,,,2.8,1.0,2.6*3E
$GPRMC,210457.002,A,3909.9172,S,07003.1614,W,28.78,197.82,110511,,,A*5B
$GPGGA,210458.000,3909.9249,S,07003.1649,W,1,08,1.0,929.5,M,23.2,M,,0000*5F
$GPGSA,M,3,19,03,14,11,22,06,32,24,,,,,2.8,1.0,2.6*3E
$GPRMC,210458.000,A,3909.9249,S,07003.1649,W,28.51,198.20,110511,,,A*59
$GPGGA,210459.000,3909.9325,S,07003.1679,W,1,08,1.0,928.7,M,23.2,M,,0000*55
$GPGSA,M,3,19,03,14,11,22,06,32,24,,,,,2.8,1.0,2.6*3E
$GPRMC,210459.000,A,3909.9325,S,07003.1679,W,28.38,198.45,110511,,,A*5C
$GPGGA,210500.004,3909.9407,S,07003.1710,W,1,08,1.0,928.0,M,23.2,M,,0000*52
$GPGSA,M,3,19,03,14,11,22,06,32,24,,,,,2.8,1.0,2.6*3E
$GPRMC,210500.004,A,3909.9407,S,07003.1710,W,28.56,198.28,110511,,,A*5F
$GPGGA,210500.995,3909.9480,S,07003.1743,W,1,08,1.0,927.8,M,23.2,M,,0000*5D
$GPGSA,M,3,19,03,14,11,22,06,32,24,,,,,2.8,1.0,2.6*3E
$GPGSV,3,1,11,19,78,302,39,03,50,001,41,14,46,084,37,11,40,238,38*7C
$GPGSV,3,2,11,22,39,129,37,06,38,018,39,32,31,306,39,24,29,246,35*75
$GPGSV,3,3,11,20,08,301,26,28,07,218,27,18,05,126,36*4A
$GPRMC,210500.995,A,3909.9480,S,07003.1743,W,28.74,198.28,110511,,,A*57
$GPGGA,210502.000,3909.9559,S,07003.1778,W,1,08,1.0,927.8,M,23.2,M,,0000*57
$GPGSA,M,3,19,03,14,11,22,06,32,24,,,,,2.8,1.0,2.6*3E
$GPRMC,210502.000,A,3909.9559,S,07003.1778,W,28.53,198.72,110511,,,A*57
$GPGGA,210503.004,3909.9636,S,07003.1809,W,1,08,1.0,927.7,M,23.2,M,,0000*5E
$GPGSA,M,3,19,03,14,11,22,06,32,24,,,,,2.8,1.0,2.6*3E
$GPRMC,210503.004,A,3909.9636,S,07003.1809,W,29.52,198.06,110511,,,A*52
$GPGGA,210503.996,3909.9709,S,07003.1844,W,1,08,1.0,929.0,M,23.2,M,,0000*51
$GPGSA,M,3,19,03,14,11,22,06,32,24,,,,,2.8,1.0,2.6*3E
$GPRMC,210503.996,A,3909.9709,S,07003.1844,W,28.75,197.64,110511,,,A*5B
$GPGGA,210505.000,3909.9785,S,07003.1875,W,1,08,1.0,928.6,M,23.2,M,,0000*50
$GPGSA,M,3,19,03,14,11,22,06,32,24,,,,,2.8,1.0,2.6*3E
$GPRMC,210505.000,A,3909.9785,S,07003.1875,W,28.95,198.21,110511,,,A*5D
$GPGGA,210506.002,3909.9867,S,07003.1909,W,1,08,1.0,928.5,M,23.2,M,,0000*5B
$GPGSA,M,3,19,03,14,11,22,06,32,24,,,,,2.8,1.0,2.6*3E
$GPGSV,3,1,11,19,78,302,40,03,50,001,41,14,46,084,36,11,40,238,37*7C
$GPGSV,3,2,11,22,39,129,37,06,38,018,38,32,31,306,39,24,29,246,35*74
$GPGSV,3,3,11,20,08,301,26,28,07,218,21,18,05,126,35*4F
$GPRMC,210506.002,A,3909.9867,S,07003.1909,W,29.66,197.77,110511,,,A*54
$GPGGA,210507.003,3909.9945,S,07003.1939,W,1,08,1.0,928.0,M,23.2,M,,0000*5C
$GPGSA,M,3,19,03,14,11,22,06,32,24,,,,,2.8,1.0,2.6*3E
$GPRMC,210507.003,A,3909.9945,S,07003.1939,W,28.52,198.04,110511,,,A*5B
$GPGGA,210507.998,3910.0021,S,07003.1971,W,1,08,1.0,929.3,M,23.2,M,,0000*53
$GPGSA,M,3,19,03,14,11,22,06,32,24,,,,,2.8,1.0,2.6*3E
$GPRMC,210507.998,A,3910.0021,S,07003.1971,W,28.51,197.19,110511,,,A*56
$GPGGA,210508.997,3910.0097,S,07003.2004,W,1,08,1.0,928.7,M,23.2,M,,0000*53
$GPGSA,M,3,19,03,14,11,22,06,32,24,,,,,2.8,1.0,2.6*3E
$GPRMC,210508.997,A,3910.0097,S,07003.2004,W,28.69,198.21,110511,,,A*5C
$GPGGA,210510.002,3910.0171,S,07003.2034,W,1,08,1.0,928.1,M,23.2,M,,0000*53
$GPGSA,M,3,19,03,14,11,22,06,32,24,,,,,2.8,1.0,2.6*3E
$GPRMC,210510.002,A,3910.0171,S,07003.2034,W,28.65,198.43,110511,,,A*52
$GPGGA,210511.000,3910.0246,S,07003.2068,W,1,08,1.0,928.6,M,23.2,M,,0000*59
$GPGSA,M,3,19,03,14,11,22,06,32,24,,,,,2.8,1.0,2.6*3E
$GPGSV,3,1,11,19,78,302,39,03,50,001,41,14,46,084,37,11,40,238,37*73
$GPGSV,3,2,11,22,39,129,37,06,38,018,39,32,31,306,39,24,29,246,36*76
$GPGSV,3,3,11,20,08,301,,28,07,218,29,18,05,126,34*42
$GPRMC,210511.000,A,3910.0246,S,07003.2068,W,28.55,197.71,110511,,,A*52
$GPGGA,210512.003,3910.0322,S,07003.2098,W,1,08,1.0,927.7,M,23.2,M,,0000*5B
$GPGSA,M,3,19,03,14,11,22,06,32,24,,,,,2.8,1.0,2.6*3E
$GPRMC,210512.003,A,3910.0322,S,07003.2098,W,29.16,197.61,110511,,,A*59
$GPGGA,210512.997,3910.0399,S,07003.2135,W,1,08,1.0,926.7,M,23.2,M,,0000*58
$GPGSA,M,3,19,03,14,11,22,06,32,24,,,,,2.8,1.0,2.6*3E
$GPRMC,210512.997,A,3910.0399,S,07003.2135,W,29.26,198.90,110511,,,A*59
$GPGGA,210514.002,3910.0476,S,07003.2169,W,1,08,1.0,925.6,M,23.2,M,,0000*56
$GPGSA,M,3,19,03,14,11,22,06,32,24,,,,,2.8,1.0,2.6*3E
$GPRMC,210514.002,A,3910.0476,S,07003.2169,W,28.97,198.05,110511,,,A*52
$GPGGA,210514.998,3910.0551,S,07003.2196,W,1,08,1.0,922.8,M,23.2,M,,0000*51
$GPGSA,M,3,19,03,14,11,22,06,32,24,,,,,2.8,1.0,2.6*3E
$GPRMC,210514.998,A,3910.0551,S,07003.2196,W,29.08,197.83,110511,,,A*5A
$GPGGA,210516.002,3910.0630,S,07003.2227,W,1,08,1.0,922.5,M,23.2,M,,0000*59
$GPGSA,M,3,19,03,14,11,22,06,32,24,,,,,2.8,1.0,2.6*3E
$GPGSV,3,1,11,19,78,302,39,03,50,001,42,14,46,084,35,11,40,238,37*72
$GPGSV,3,2,11,22,39,129,37,06,38,018,38,32,31,306,39,24,29,246,35*74
$GPGSV,3,3,11,20,08,301,,28,07,218,29,18,05,126,36*40
$GPRMC,210516.002,A,3910.0630,S,07003.2227,W,28.99,197.87,110511,,,A*52
$GPGGA,210516.998,3910.0709,S,07003.2254,W,1,08,1.0,920.8,M,23.2,M,,0000*53
$GPGSA,M,3,19,03,14,11,22,06,32,24,,,,,2.8,1.0,2.6*3E
$GPRMC,210516.998,A,3910.0709,S,07003.2254,W,28.82,198.10,110511,,,A*5C
$GPGGA,210518.001,3910.0785,S,07003.2286,W,1,08,1.0,920.8,M,23.2,M,,0000*5F
$GPGSA,M,3,19,03,14,11,22,06,32,24,,,,,2.8,1.0,2.6*3E
$GPRMC,210518.001,A,3910.0785,S,07003.2286,W,29.10,198.02,110511,,,A*59
$GPGGA,210519.000,3910.0862,S,07003.2318,W,1,08,1.0,919.0,M,23.2,M,,0000*5D
$GPGSA,M,3,19,03,14,11,22,06,32,24,,,,,2.8,1.0,2.6*3E
$GPRMC,210519.000,A,3910.0862,S,07003.2318,W,29.27,198.06,110511,,,A*59
$GPGGA,210520.002,3910.0939,S,07003.2350,W,1,08,1.0,919.0,M,23.2,M,,0000*56
$GPGSA,M,3,19,03,14,11,22,06,32,24,,,,,2.8,1.0,2.6*3E
$GPRMC,210520.002,A,3910.0939,S,07003.2350,W,29.20,197.67,110511,,,A*5D
$GPGGA,210520.998,3910.1017,S,07003.2382,W,1,08,1.0,918.4,M,23.2,M,,0000*52
$GPGSA,M,3,19,03,14,11,22,06,32,24,,,,,2.8,1.0,2.6*3E
$GPGSV,3,1,11,19,78,302,40,03,50,001,41,14,46,084,37,11,40,238,38*72
$GPGSV,3,2,11,22,39,129,38,06,38,018,39,32,31,306,39,24,29,246,34*7B
$GPGSV,3,3,11,20,08,301,26,28,07,218,33,18,05,126,36*4F
$GPRMC,210520.998,A,3910.1017,S,07003.2382,W,29.36,197.95,110511,,,A*56
$GPGGA,210522.000,3910.1095,S,07003.2414,W,1,08,1.0,917.1,M,23.2,M,,0000*50
$GPGSA,M,3,19,03,14,11,22,06,32,24,,,,,2.8,1.0,2.6*3E
$GPRMC,210522.000,A,3910.1095,S,07003.2414,W,28.62,197.89,110511,,,A*53
$GPGGA,210523.000,3910.1171,S,07003.2447,W,1,08,1.0,916.0,M,23.2,M,,0000*5C
$GPGSA,M,3,19,03,14,11,22,06,32,24,,,,,2.8,1.0,2.6*3E
$GPRMC,210523.000,A,3910.1171,S,07003.2447,W,29.02,198.03,110511,,,A*55
$GPGGA,210523.997,3910.1248,S,07003.2480,W,1,08,1.0,915.7,M,23.2,M,,0000*5D
$GPGSA,M,3,19,03,14,11,22,06,32,24,,,,,2.8,1.0,2.6*3E
$GPRMC,210523.997,A,3910.1248,S,07003.2480,W,29.15,198.54,110511,,,A*54
$GPGGA,210525.000,3910.1324,S,07003.2515,W,1,08,1.0,913.4,M,23.2,M,,0000*5F
$GPGSA,M,3,19,03,14,11,22,06,32,24,,,,,2.8,1.0,2.6*3E
$GPRMC,210525.000,A,3910.1324,S,07003.2515,W,28.76,199.62,110511,,,A*53
$GPGGA,210525.999,3910.1403,S,07003.2553,W,1,08,1.0,912.9,M,23.2,M,,0000*5A
$GPGSA,M,3,19,03,14,11,22,06,32,24,,,,,2.8,1.0,2.6*3E
$GPGSV,3,1,11,19,78,302,39,03,50,001,40,14,46,084,37,11,40,238,37*72
$GPGSV,3,2,11,22,39,129,38,06,38,018,38,32,31,306,38,24,29,246,35*7A
$GPGSV,3,3,11,20,08,301,,28,07,218,35,18,05,126,36*4D
$GPRMC,210525.999,A,3910.1403,S,07003.2553,W,29.32,198.46,110511,,,A*5C
$GPGGA,210526.999,3910.1479,S,07003.2586,W,1,08,1.0,913.7,M,23.2,M,,0000*53
$GPGSA,M,3,19,03,14,11,22,06,32,24,,,,,2.8,1.0,2.6*3E
$GPRMC,210526.999,A,3910.1479,S,07003.2586,W,28.29,197.79,110511,,,A*52
$GPGGA,210528.002,3910.1556,S,07003.2620,W,1,08,1.0,911.9,M,23.2,M,,0000*59
$GPGSA,M,3,19,03,14,11,22,06,32,24,,,,,2.8,1.0,2.6*3E
$GPRMC,210528.002,A,3910.1556,S,07003.2620,W,29.54,198.77,110511,,,A*5E
$GPGGA,210528.997,3910.1636,S,07003.2652,W,1,08,1.0,912.2,M,23.2,M,,0000*54
$GPGSA,M,3,19,03,14,11,22,06,32,24,,,,,2.8,1.0,2.6*3E
$GPRMC,210528.997,A,3910.1636,S,07003.2652,W,29.59,198.85,110511,,,A*5B
$GPGGA,210530.000,3910.1712,S,07003.2687,W,1,08,1.0,911.7,M,23.2,M,,0000*53
$GPGSA,M,3,19,03,14,11,22,06,32,24,,,,,2.8,1.0,2.6*3E
$GPRMC,210530.000,A,3910.1712,S,07003.2687,W,29.63,198.47,110511,,,A*5D
$GPGGA,210531.004,3910.1795,S,07003.2720,W,1,08,1.0,910.5,M,23.2,M,,0000*56
$GPGSA,M,3,19,03,14,11,22,06,32,24,,,,,2.8,1.0,2.6*3E
$GPGSV,3,1,11,19,78,302,40,03,50,001,40,14,46,084,36,11,40,238,37*7D
$GPGSV,3,2,11,22,39,129,37,06,38,018,39,32,31,306,39,24,29,246,30*70
$GPGSV,3,3,11,20,08,301,,28,07,218,33,18,05,126,34*49
$GPRMC,210531.004,A,3910.1795,S,07003.2720,W,29.15,197.68,110511,,,A*58
$GPGGA,210531.999,3910.1872,S,07003.2751,W,1,08,1.0,909.2,M,23.2,M,,0000*54
$GPGSA,M,3,19,03,14,11,22,06,32,24,,,,,2.8,1.0,2.6*3E
$GPRMC,210531.999,A,3910.1872,S,07003.2751,W,30.25,198.66,110511,,,A*5F
$GPGGA,210532.999,3910.1948,S,07003.2786,W,1,08,1.0,908.6,M,23.2,M,,0000*50
$GPGSA,M,3,19,03,14,11,22,06,32,24,,,,,2.8,1.0,2.6*3E
$GPRMC,210532.999,A,3910.1948,S,07003.2786,W,29.47,198.57,110511,,,A*50
$GPGGA,210533.999,3910.2024,S,07003.2818,W,1,08,1.0,907.3,M,23.2,M,,0000*53
$GPGSA,M,3,19,03,14,11,22,06,32,24,,,,,2.8,1.0,2.6*3E
$GPRMC,210533.999,A,3910.2024,S,07003.2818,W,28.97,198.48,110511,,,A*5B
$GPGGA,210534.999,3910.2100,S,07003.2851,W,1,08,1.0,906.7,M,23.2,M,,0000*5B
$GPGSA,M,3,19,03,14,11,22,06,32,24,,,,,2.8,1.0,2.6*3E
$GPRMC,210534.999,A,3910.2100,S,07003.2851,W,28.53,198.41,110511,,,A*57
$GPGGA,210535.999,3910.2176,S,07003.2885,W,1,08,1.0,906.6,M,23.2,M,,0000*53
$GPGSA,M,3,19,03,14,11,22,06,32,24,,,,,2.8,1.0,2.6*3E
$GPGSV,3,1,11,19,78,302,40,03,50,001,41,14,46,084,38,11,40,238,38*7D
$GPGSV,3,2,11,22,39,129,37,06,38,018,38,32,31,306,40,24,29,246,34*7B
$GPGSV,3,3,11,20,08,301,,28,07,218,28,18,05,126,34*43
$GPRMC,210535.999,A,3910.2176,S,07003.2885,W,28.64,198.10,110511,,,A*5E
$GPGGA,210536.999,3910.2251,S,07003.2916,W,1,08,1.0,906.2,M,23.2,M,,0000*59
$GPGSA,M,3,19,03,14,11,22,06,32,24,,,,,2.8,1.0,2.6*3E
$GPRMC,210536.999,A,3910.2251,S,07003.2916,W,28.20,197.30,110511,,,A*5D
$GPGGA,210537.997,3910.2326,S,07003.2949,W,1,08,1.0,907.6,M,23.2,M,,0000*58
$GPGSA,M,3,19,03,14,11,22,06,32,24,,,,,2.8,1.0,2.6*3E
$GPRMC,210537.997,A,3910.2326,S,07003.2949,W,28.35,197.95,110511,,,A*52
$GPGGA,210539.001,3910.2404,S,07003.2979,W,1,08,1.0,906.9,M,23.2,M,,0000*5A
$GPGSA,M,3,19,03,14,11,22,06,32,24,,,,,2.8,1.0,2.6*3E
$GPRMC,210539.001,A,3910.2404,S,07003.2979,W,28.24,197.35,110511,,,A*54
$GPGGA,210540.000,3910.2478,S,07003.3008,W,1,08,1.0,907.5,M,23.2,M,,0000*5D
$GPGSA,M,3,19,03,14,11,22,06,32,24,,,,,2.8,1.0,2.6*3E
$GPRMC,210540.000,A,3910.2478,S,07003.3008,W,28.40,197.99,110511,,,A*5A
$GPGGA,210540.999,3910.2556,S,07003.3037,W,1,08,1.0,907.3,M,23.2,M,,0000*53
$GPGSA,M,3,19,03,14,11,22,06,32,24,,,,,2.8,1.0,2.6*3E
$GPGSV,3,1,11,19,78,302,41,03,50,001,41,14,46,084,33,11,40,238,37*78
$GPGSV,3,2,11,22,39,129,37,06,38,018,37,32,31,306,40,24,29,246,33*73
$GPGSV,3,3,11,20,08,301,,28,07,218,,18,05,126,35*48
$GPRMC,210540.999,A,3910.2556,S,07003.3037,W,27.87,197.73,110511,,,A*52
$GPGGA,210541.999,3910.2631,S,07003.3068,W,1,08,1.0,907.1,M,23.2,M,,0000*58
$GPGSA,M,3,19,03,14,11,22,06,32,24,,,,,2.8,1.0,2.6*3E
$GPRMC,210541.999,A,3910.2631,S,07003.3068,W,27.70,198.32,110511,,,A*59
$GPGGA,210543.001,3910.2705,S,07003.3100,W,1,08,1.0,906.8,M,23.2,M,,0000*53
$GPGSA,M,3,19,03,14,11,22,06,32,24,,,,,2.8,1.0,2.6*3E
$GPRMC,210543.001,A,3910.2705,S,07003.3100,W,27.72,199.14,110511,,,A*5D
$GPGGA,210543.999,3910.2778,S,07003.3130,W,1,08,1.0,907.1,M,23.2,M,,0000*5A
$GPGSA,M,3,19,03,14,11,22,06,32,24,,,,,2.8,1.0,2.6*3E
$GPRMC,210543.999,A,3910.2778,S,07003.3130,W,26.76,199.77,110511,,,A*5C
$GPGGA,210544.998,3910.2850,S,07003.3161,W,1,08,1.0,906.0,M,23.2,M,,0000*5D
$GPGSA,M,3,19,03,14,11,22,06,32,24,,,,,2.8,1.0,2.6*3E
$GPRMC,210544.998,A,3910.2850,S,07003.3161,W,27.83,198.07,110511,,,A*56
$GPGGA,210546.000,3910.2922,S,07003.3193,W,1,08,1.0,905.5,M,23.2,M,,0000*58
$GPGSA,M,3,19,03,14,11,22,06,32,24,,,,,2.8,1.0,2.6*3E
$GPGSV,3,1,11,19,78,302,39,03,50,001,40,14,46,084,36,11,40,238,35*71
$GPGSV,3,2,11,22,39,129,38,06,38,018,37,32,31,306,38,24,29,246,33*73
$GPGSV,3,3,11,20,08,301,26,28,07,218,,18,05,126,35*4C
$GPRMC,210546.000,A,3910.2922,S,07003.3193,W,27.41,199.90,110511,,,A*54
$GPGGA,210547.001,3910.2995,S,07003.3230,W,1,08,1.0,905.0,M,23.2,M,,0000*5B
$GPGSA,M,3,19,03,14,11,22,06,32,24,,,,,2.8,1.0,2.6*3E
$GPRMC,210547.001,A,3910.2995,S,07003.3230,W,27.98,198.78,110511,,,A*51
$GPGGA,210548.000,3910.3066,S,07003.3263,W,1,08,1.0,904.7,M,23.2,M,,0000*51
$GPGSA,M,3,19,03,14,11,22,06,32,24,,,,,2.8,1.0,2.6*3E
$GPRMC,210548.000,A,3910.3066,S,07003.3263,W,26.96,198.50,110511,,,A*58
$GPGGA,210548.999,3910.3138,S,07003.3291,W,1,08,1.0,904.2,M,23.2,M,,0000*5A
$GPGSA,M,3,19,03,14,11,22,06,32,24,,,,,2.8,1.0,2.6*3E
$GPRMC,210548.999,A,3910.3138,S,07003.3291,W,27.61,197.21,110511,,,A*56
$GPGGA,210549.999,3910.3212,S,07003.3322,W,1,08,1.0,904.2,M,23.2,M,,0000*59
$GPGSA,M,3,19,03,14,11,22,06,32,24,,,,,2.8,1.0,2.6*3E
$GPRMC,210549.999,A,3910.3212,S,07003.3322,W,27.56,196.47,110511,,,A*50
$GPGGA,210551.001,3910.3285,S,07003.3351,W,1,08,1.0,904.2,M,23.2,M,,0000*52
$GPGSA,M,3,19,03,14,11,22,06,32,24,,,,,2.8,1.0,2.6*3E
$GPGSV,3,1,11,19,78,302,40,03,50,001,39,14,46,084,30,11,40,238,37*75
$GPGSV,3,2,11,22,39,129,39,06,38,018,38,32,31,306,41,24,29,246,31*71
$GPGSV,3,3,11,20,08,301,,28,07,218,29,18,05,126,32*44
$GPRMC,210551.001,A,3910.3285,S,07003.3351,W,27.51,196.81,110511,,,A*56
$GPGGA,210552.000,3910.3361,S,07003.3377,W,1,08,1.0,904.1,M,23.2,M,,0000*5C
$GPGSA,M,3,19,03,14,11,22,06,32,24,,,,,2.8,1.0,2.6*3E
$GPRMC,210552.000,A,3910.3361,S,07003.3377,W,27.82,196.84,110511,,,A*50
$GPGGA,210552.998,3910.3435,S,07003.3408,W,1,08,1.0,903.7,M,23.2,M,,0000*5C
$GPGSA,M,3,19,03,14,11,22,06,32,24,,,,,2.8,1.0,2.6*3E
$GPRMC,210552.998,A,3910.3435,S,07003.3408,W,27.57,198.62,110511,,,A*5F
$GPGGA,210554.000,3910.3507,S,07003.3437,W,1,08,1.0,902.6,M,23.2,M,,0000*5E
$GPGSA,M,3,19,03,14,11,22,06,32,24,,,,,2.8,1.0,2.6*3E
$GPRMC,210554.000,A,3910.3507,S,07003.3437,W,27.46,198.34,110511,,,A*5E
$GPGGA,210554.998,3910.3578,S,07003.3467,W,1,08,1.0,902.5,M,23.2,M,,0000*58
$GPGSA,M,3,19,03,14,11,22,06,32,24,,,,,2.8,1.0,2.6*3E
$GPRMC,210554.998,A,3910.3578,S,07003.3467,W,27.66,197.73,110511,,,A*55
$GPGGA,210556.000,3910.3650,S,07003.3498,W,1,08,1.0,901.3,M,23.2,M,,0000*5E
$GPGSA,M,3,19,03,14,11,22,06,32,24,,,,,2.8,1.0,2.6*3E
$GPGSV,3,1,11,19,78,302,41,03,50,001,39,14,46,084,30,11,40,238,37*74
$GPGSV,3,2,11,22,39,129,36,06,38,018,36,32,31,306,38,24,29,246,32*7D
$GPGSV,3,3,11,20,08,301,,28,07,218,31,18,05,126,32*4D
$GPRMC,210556.000,A,3910.3650,S,07003.3498,W,27.54,198.87,110511,,,A*53
$GPGGA,210557.000,3910.3721,S,07003.3528,W,1,08,1.0,900.6,M,23.2,M,,0000*56
$GPGSA,M,3,19,03,14,11,22,06,32,24,,,,,2.8,1.0,2.6*3E
$GPRMC,210557.000,A,3910.3721,S,07003.3528,W,27.12,197.80,110511,,,A*55
$GPGGA,210558.002,3910.3795,S,07003.3558,W,1,08,1.0,900.6,M,23.2,M,,0000*53
$GPGSA,M,3,19,03,14,11,22,06,32,24,,,,,2.8,1.0,2.6*3E
$GPRMC,210558.002,A,3910.3795,S,07003.3558,W,27.69,197.94,110511,,,A*59
$GPGGA,210559.000,3910.3868,S,07003.3592,W,1,08,1.0,900.2,M,23.2,M,,0000*5F
$GPGSA,M,3,19,03,14,11,22,06,32,24,,,,,2.8,1.0,2.6*3E
$GPRMC,210559.000,A,3910.3868,S,07003.3592,W,27.71,198.81,110511,,,A*53
$GPGGA,210600.003,3910.3941,S,07003.3624,W,1,08,1.0,898.7,M,23.2,M,,0000*52
$GPGSA,M,3,19,03,14,11,22,06,32,24,,,,,2.8,1.0,2.6*3E
$GPRMC,210600.003,A,3910.3941,S,07003.3624,W,27.17,198.33,110511,,,A*52
$GPGGA,210600.996,3910.4014,S,07003.3657,W,1,08,1.0,898.5,M,23.2,M,,0000*5F
$GPGSA,M,3,19,03,14,11,22,06,32,24,,,,,2.8,1.0,2.6*3E
$GPGSV,3,1,11,19,78,302,40,03,50,001,40,14,46,084,35,11,40,238,38*71
$GPGSV,3,2,11,22,39,129,38,06,38,018,37,32,31,306,39,24,29,246,28*78
$GPGSV,3,3,11,20,08,301,,28,07,218,29,18,05,126,34*42
$GPRMC,210600.996,A,3910.4014,S,07003.3657,W,28.26,197.90,110511,,,A*56
$GPGGA,210602.002,3910.4090,S,07003.3690,W,1,08,1.0,898.8,M,23.2,M,,0000*53
$GPGSA,M,3,19,03,14,11,22,06,32,24,,,,,2.8,1.0,2.6*3E
$GPRMC,210602.002,A,3910.4090,S,07003.3690,W,28.36,198.18,110511,,,A*59
$GPGGA,210603.003,3910.4164,S,07003.3722,W,1,08,1.0,898.6,M,23.2,M,,0000*5F
$GPGSA,M,3,19,03,14,11,22,06,32,24,,,,,2.8,1.0,2.6*3E
$GPRMC,210603.003,A,3910.4164,S,07003.3722,W,28.22,199.56,110511,,,A*55
$GPGGA,210603.997,3910.4240,S,07003.3754,W,1,08,1.0,897.8,M,23.2,M,,0000*5E
$GPGSA,M,3,19,03,14,11,22,06,32,24,,,,,2.8,1.0,2.6*3E
$GPRMC,210603.997,A,3910.4240,S,07003.3754,W,28.72,198.65,110511,,,A*51
$GPGGA,210604.998,3910.4315,S,07003.3785,W,1,08,1.0,897.2,M,23.2,M,,0000*51
$GPGSA,M,3,19,03,14,11,22,06,32,24,,,,,2.8,1.0,2.6*3E
$GPRMC,210604.998,A,3910.4315,S,07003.3785,W,28.62,198.28,110511,,,A*5C
$GPGGA,210605.999,3910.4394,S,07003.3817,W,1,08,1.0,896.3,M,23.2,M,,0000*5C
$GPGSA,M,3,19,03,14,11,22,06,32,24,,,,,2.8,1.0,2.6*3E
$GPGSV,3,1,11,19,78,302,40,03,50,001,41,14,46,084,37,11,40,238,37*7D
$GPGSV,3,2,11,22,39,129,38,06,38,018,38,32,31,306,38,24,29,246,35*7A
$GPGSV,3,3,11,20,08,301,,28,07,218,29,18,05,126,35*43
$GPRMC,210605.999,A,3910.4394,S,07003.3817,W,29.00,198.02,110511,,,A*5C
$GPGGA,210607.002,3910.4471,S,07003.3853,W,1,08,1.0,895.2,M,23.2,M,,0000*5B
$GPGSA,M,3,19,03,14,11,22,06,32,24,,,,,2.8,1.0,2.6*3E
$GPRMC,210607.002,A,3910.4471,S,07003.3853,W,28.67,198.26,110511,,,A*5F
$GPGGA,210608.001,3910.4545,S,07003.3884,W,1,08,1.0,894.5,M,23.2,M,,0000*5D
$GPGSA,M,3,19,03,14,11,22,06,32,24,,,,,2.8,1.0,2.6*3E
$GPRMC,210608.001,A,3910.4545,S,07003.3884,W,28.38,198.06,110511,,,A*57
$GPGGA,210608.999,3910.4623,S,07003.3918,W,1,08,1.0,894.1,M,23.2,M,,0000*56
$GPGSA,M,3,19,03,14,11,22,06,32,24,,,,,2.8,1.0,2.6*3E
$GPRMC,210608.999,A,3910.4623,S,07003.3918,W,28.36,196.63,110511,,,A*5B
$GPGGA,210609.996,3910.4700,S,07003.3949,W,1,08,1.0,891.4,M,23.2,M,,0000*5C
$GPGSA,M,3,19,03,14,11,22,06,32,24,,,,,2.8,1.0,2.6*3E
$GPRMC,210609.996,A,3910.4700,S,07003.3949,W,29.09,198.55,110511,,,A*57
$GPGGA,210611.001,3910.4779,S,07003.3984,W,1,08,1.0,889.5,M,23.2,M,,0000*55
$GPGSA,M,3,19,03,14,11,22,06,32,24,,,,,2.8,1.0,2.6*3E
$GPGSV,3,1,11,19,78,302,39,03,50,001,40,14,46,084,36,11,40,238,37*73
$GPGSV,3,2,11,22,39,129,37,06,38,018,37,32,31,306,38,24,29,246,36*79
$GPGSV,3,3,11,20,08,301,26,28,07,218,29,18,05,126,37*45
$GPRMC,210611.001,A,3910.4779,S,07003.3984,W,28.88,198.93,110511,,,A*54
$GPGGA,210612.003,3910.4853,S,07003.4016,W,1,08,1.0,888.2,M,23.2,M,,0000*50
$GPGSA,M,3,19,03,14,11,22,06,32,24,,,,,2.8,1.0,2.6*3E
$GPRMC,210612.003,A,3910.4853,S,07003.4016,W,28.50,198.86,110511,,,A*56
$GPGGA,210612.999,3910.4926,S,07003.4051,W,1,08,1.0,888.5,M,23.2,M,,0000*5D
$GPGSA,M,3,19,03,14,11,22,06,32,24,,,,,2.8,1.0,2.6*3E
$GPRMC,210612.999,A,3910.4926,S,07003.4051,W,29.06,198.42,110511,,,A*56
$GPGGA,210613.999,3910.5003,S,07003.4085,W,1,08,1.0,887.6,M,23.2,M,,0000*56
$GPGSA,M,3,19,03,14,11,22,06,32,24,,,,,2.8,1.0,2.6*3E
$GPRMC,210613.999,A,3910.5003,S,07003.4085,W,28.98,197.87,110511,,,A*51
$GPGGA,210614.999,3910.5080,S,07003.4116,W,1,08,1.0,887.4,M,23.2,M,,0000*53
$GPGSA,M,3,19,03,14,11,22,06,32,24,,,,,2.8,1.0,2.6*3E
$GPRMC,210614.999,A,3910.5080,S,07003.4116,W,28.52,198.08,110511,,,A*58
$GPGGA,210615.998,3910.5159,S,07003.4153,W,1,08,1.0,886.8,M,23.2,M,,0000*5A
$GPGSA,M,3,19,03,14,11,22,06,32,24,,,,,2.8,1.0,2.6*3E
$GPGSV,3,1,11,19,77,309,40,03,49,001,41,14,46,086,38,11,41,237,37*72
$GPGSV,3,2,11,22,38,128,38,06,36,017,38,32,32,305,37,24,30,245,36*7C
$GPGSV,3,3,11,18,04,125,36,20,09,300,26,28,08,219,*43
$GPRMC,210615.998,A,3910.5159,S,07003.4153,W,28.64,198.00,110511,,,A*51
$GPGGA,210617.001,3910.5234,S,07003.4184,W,1,08,1.0,885.7,M,23.2,M,,0000*5F
$GPGSA,M,3,19,03,14,11,22,06,32,24,,,,,2.8,1.0,2.6*3E
$GPRMC,210617.001,A,3910.5234,S,07003.4184,W,28.45,197.84,110511,,,A*58
$GPGGA,210618.000,3910.5311,S,07003.4213,W,1,08,1.0,885.0,M,23.2,M,,0000*5D
$GPGSA,M,3,19,03,14,11,22,06,32,24,,,,,2.8,1.0,2.6*3E
$GPRMC,210618.000,A,3910.5311,S,07003.4213,W,28.33,198.68,110511,,,A*51
$GPGGA,210619.000,3910.5386,S,07003.4247,W,1,08,1.0,886.0,M,23.2,M,,0000*50
$GPGSA,M,3,19,03,14,11,22,06,32,24,,,,,2.8,1.0,2.6*3E
$GPRMC,210619.000,A,3910.5386,S,07003.4247,W,28.33,198.82,110511,,,A*5B
$GPGGA,210619.998,3910.5461,S,07003.4280,W,1,08,1.0,886.7,M,23.2,M,,0000*5A
$GPGSA,M,3,19,03,14,11,22,06,32,24,,,,,2.8,1.0,2.6*3E
$GPRMC,210619.998,A,3910.5461,S,07003.4280,W,28.34,198.09,110511,,,A*52
$GPGGA,210621.000,3910.5538,S,07003.4311,W,1,08,1.0,887.6,M,23.2,M,,0000*5D
$GPGSA,M,3,19,03,14,11,22,06,32,24,,,,,2.8,1.0,2.6*3E
$GPGSV,3,1,11,19,77,309,37,03,49,001,40,14,46,086,36,11,41,237,36*7C
$GPGSV,3,2,11,22,38,128,37,06,36,017,37,32,32,305,37,24,30,245,35*7F
$GPGSV,3,3,11,20,09,300,,28,08,219,,18,04,125,36*47
$GPRMC,210621.000,A,3910.5538,S,07003.4311,W,28.23,198.28,110511,,,A*50
$GPGGA,210622.002,3910.5613,S,07003.4347,W,1,08,1.0,887.8,M,23.2,M,,0000*5B
$GPGSA,M,3,19,03,14,11,22,06,32,24,,,,,2.8,1.0,2.6*3E
$GPRMC,210622.002,A,3910.5613,S,07003.4347,W,28.18,198.12,110511,,,A*59
$GPGGA,210622.999,3910.5686,S,07003.4378,W,1,08,1.0,886.9,M,23.2,M,,0000*50
$GPGSA,M,3,19,03,14,11,22,06,32,24,,,,,2.8,1.0,2.6*3E
$GPRMC,210622.999,A,3910.5686,S,07003.4378,W,28.10,198.27,110511,,,A*5C
$GPGGA,210624.000,3910.5765,S,07003.4407,W,1,08,1.0,887.2,M,23.2,M,,0000*56
$GPGSA,M,3,19,03,14,11,22,06,32,24,,,,,2.8,1.0,2.6*3E
$GPRMC,210624.000,A,3910.5765,S,07003.4407,W,28.20,197.46,110511,,,A*5B
$GPGGA,210624.999,3910.5842,S,07003.4437,W,1,08,1.0,886.6,M,23.2,M,,0000*53
$GPGSA,M,3,19,03,14,11,22,06,32,24,,,,,2.8,1.0,2.6*3E
$GPRMC,210624.999,A,3910.5842,S,07003.4437,W,28.17,197.77,110511,,,A*5D
$GPGGA,210626.002,3910.5917,S,07003.4468,W,1,08,1.0,886.5,M,23.2,M,,0000*52
$GPGSA,M,3,19,03,14,11,22,06,32,24,,,,,2.8,1.0,2.6*3E
$GPGSV,3,1,11,19,77,309,39,03,49,001,40,14,46,086,37,11,41,237,37*72
$GPGSV,3,2,11,22,38,128,37,06,36,017,38,32,32,305,38,24,30,245,36*7C
$GPGSV,3,3,11,20,09,300,,28,08,219,26,18,04,125,34*41
$GPRMC,210626.002,A,3910.5917,S,07003.4468,W,28.02,198.57,110511,,,A*56
$GPGGA,210626.994,3910.5990,S,07003.4500,W,1,08,1.0,886.1,M,23.2,M,,0000*50
$GPGSA,M,3,19,03,14,11,22,06,32,24,,,,,2.8,1.0,2.6*3E
$GPRMC,210626.994,A,3910.5990,S,07003.4500,W,28.15,198.29,110511,,,A*5F
$GPGGA,210628.000,3910.6064,S,07003.4532,W,1,08,1.0,885.2,M,23.2,M,,0000*5A
$GPGSA,M,3,19,03,14,11,22,06,32,24,,,,,2.8,1.0,2.6*3E
$GPRMC,210628.000,A,3910.6064,S,07003.4532,W,27.92,197.68,110511,,,A*5F
$GPGGA,210629.000,3910.6137,S,07003.4563,W,1,08,1.0,885.4,M,23.2,M,,0000*5E
$GPGSA,M,3,19,03,14,11,22,06,32,24,,,,,2.8,1.0,2.6*3E
$GPRMC,210629.000,A,3910.6137,S,07003.4563,W,28.31,198.12,110511,,,A*59
$GPGGA,210630.000,3910.6212,S,07003.4596,W,1,08,1.0,883.5,M,23.2,M,,0000*5F
$GPGSA,M,3,19,03,14,11,22,06,32,24,,,,,2.8,1.0,2.6*3E
$GPRMC,210630.000,A,3910.6212,S,07003.4596,W,28.32,198.51,110511,,,A*5B
$GPGGA,210631.000,3910.6287,S,07003.4631,W,1,08,1.0,883.1,M,23.2,M,,0000*58
$GPGSA,M,3,19,03,14,11,22,06,32,24,,,,,2.8,1.0,2.6*3E
$GPGSV,3,1,11,19,77,309,39,03,49,001,40,14,46,086,36,11,41,237,38*7C
$GPGSV,3,2,11,22,38,128,38,06,36,017,37,32,32,305,37,24,30,245,36*73
$GPGSV,3,3,11,20,09,300,,28,08,219,29,18,04,125,35*4F
$GPRMC,210631.000,A,3910.6287,S,07003.4631,W,28.38,199.02,110511,,,A*55
$GPGGA,210632.000,3910.6363,S,07003.4661,W,1,08,1.0,883.4,M,23.2,M,,0000*50
$GPGSA,M,3,19,03,14,11,22,06,32,24,,,,,2.8,1.0,2.6*3E
$GPRMC,210632.000,A,3910.6363,S,07003.4661,W,28.23,198.25,110511,,,A*56
$GPGGA,210633.001,3910.6437,S,07003.4694,W,1,08,1.0,882.9,M,23.2,M,,0000*50
$GPGSA,M,3,19,03,14,11,22,06,32,24,,,,,2.8,1.0,2.6*3E
$GPRMC,210633.001,A,3910.6437,S,07003.4694,W,28.53,199.02,110511,,,A*59
$GPGGA,210634.000,3910.6514,S,07003.4726,W,1,08,1.0,883.1,M,23.2,M,,0000*57
$GPGSA,M,3,19,03,14,11,22,06,32,24,,,,,2.8,1.0,2.6*3E
$GPRMC,210634.000,A,3910.6514,S,07003.4726,W,28.42,197.80,110511,,,A*53
$GPGGA,210635.000,3910.6590,S,07003.4758,W,1,08,1.0,883.7,M,23.2,M,,0000*55
$GPGSA,M,3,19,03,14,11,22,06,32,24,,,,,2.8,1.0,2.6*3E
$GPRMC,210635.000,A,3910.6590,S,07003.4758,W,27.96,198.45,110511,,,A*57
$GPGGA,210636.001,3910.6669,S,07003.4787,W,1,08,1.0,883.6,M,23.2,M,,0000*51
$GPGSA,M,3,19,03,14,11,22,06,32,24,,,,,2.8,1.0,2.6*3E
$GPGSV,3,1,11,19,77,309,40,03,49,001,41,14,46,086,32,11,41,237,35*7A
$GPGSV,3,2,11,22,38,128,38,06,36,017,38,32,32,305,38,24,30,245,33*76
$GPGSV,3,3,11,20,09,300,,28,08,219,27,18,04,125,33*47
$GPRMC,210636.001,A,3910.6669,S,07003.4787,W,28.26,198.00,110511,,,A*57
$GPGGA,210636.999,3910.6742,S,07003.4817,W,1,08,1.0,880.6,M,23.2,M,,0000*54
$GPGSA,M,3,19,03,14,11,22,06,32,24,,,,,2.8,1.0,2.6*3E
$GPRMC,210636.999,A,3910.6742,S,07003.4817,W,28.19,198.04,110511,,,A*59
$GPGGA,210637.999,3910.6818,S,07003.4850,W,1,08,1.0,880.3,M,23.2,M,,0000*53
$GPGSA,M,3,19,03,14,11,22,06,32,24,,,,,2.8,1.0,2.6*3E
$GPRMC,210637.999,A,3910.6818,S,07003.4850,W,27.64,198.39,110511,,,A*50
$GPGGA,210638.999,3910.6892,S,07003.4880,W,1,08,1.0,878.9,M,23.2,M,,0000*5E
$GPGSA,M,3,19,03,14,11,22,06,32,24,,,,,2.8,1.0,2.6*3E
$GPRMC,210638.999,A,3910.6892,S,07003.4880,W,27.15,198.64,110511,,,A*5E
$GPGGA,210640.002,3910.6965,S,07003.4911,W,1,08,1.0,879.0,M,23.2,M,,0000*52
$GPGSA,M,3,19,03,14,11,22,06,32,24,,,,,2.8,1.0,2.6*3E
$GPRMC,210640.002,A,3910.6965,S,07003.4911,W,27.75,198.17,110511,,,A*58
$GPGGA,210640.998,3910.7039,S,07003.4943,W,1,08,1.0,878.2,M,23.2,M,,0000*5D
$GPGSA,M,3,19,03,14,11,22,06,32,24,,,,,2.8,1.0,2.6*3E
$GPGSV,3,1,11,19,77,309,40,03,49,001,41,14,46,086,36,11,41,237,35*7E
$GPGSV,3,2,11,22,38,128,38,06,36,017,38,32,32,305,39,24,30,245,36*72
$GPGSV,3,3,11,20,09,300,25,28,08,219,29,18,04,125,36*4B
$GPRMC,210640.998,A,3910.7039,S,07003.4943,W,27.78,198.95,110511,,,A*53
$GPGGA,210642.002,3910.7115,S,07003.4972,W,1,08,1.0,878.0,M,23.2,M,,0000*5A
$GPGSA,M,3,19,03,14,11,22,06,32,24,,,,,2.8,1.0,2.6*3E
$GPRMC,210642.002,A,3910.7115,S,07003.4972,W,27.56,198.79,110511,,,A*58
$GPGGA,210642.999,3910.7188,S,07003.5007,W,1,08,1.0,878.6,M,23.2,M,,0000*59
$GPGSA,M,3,19,03,14,11,22,06,32,24,,,,,2.8,1.0,2.6*3E
$GPRMC,210642.999,A,3910.7188,S,07003.5007,W,28.13,198.03,110511,,,A*5E
$GPGGA,210643.996,3910.7263,S,07003.5041,W,1,08,1.0,878.5,M,23.2,M,,0000*50
$GPGSA,M,3,19,03,14,11,22,06,32,24,,,,,2.8,1.0,2.6*3E
$GPRMC,210643.996,A,3910.7263,S,07003.5041,W,28.25,198.93,110511,,,A*58
$GPGGA,210645.001,3910.7338,S,07003.5077,W,1,08,1.0,877.9,M,23.2,M,,0000*58
$GPGSA,M,3,19,03,14,11,22,06,32,24,,,,,2.8,1.0,2.6*3E
$GPRMC,210645.001,A,3910.7338,S,07003.5077,W,27.38,199.14,110511,,,A*5E
$GPGGA,210646.000,3910.7412,S,07003.5113,W,1,08,1.0,877.9,M,23.2,M,,0000*56
$GPGSA,M,3,19,03,14,11,22,06,32,24,,,,,2.8,1.0,2.6*3E
$GPGSV,3,1,11,19,77,309,41,03,49,001,41,14,46,086,37,11,41,237,37*7C
$GPGSV,3,2,11,22,38,128,38,06,36,017,38,32,32,305,38,24,30,245,36*73
$GPGSV,3,3,11,20,09,300,25,28,08,219,30,18,04,125,34*41
$GPRMC,210646.000,A,3910.7412,S,07003.5113,W,27.08,201.09,110511,,,A*5D
$GPGGA,210647.001,3910.7485,S,07003.5146,W,1,07,1.3,876.4,M,23.2,M,,0000*58
$GPGSA,M,3,19,03,14,11,06,32,24,,,,,,3.1,1.3,2.8*3B
$GPRMC,210647.001,A,3910.7485,S,07003.5146,W,28.45,198.90,110511,,,A*56
$GPGGA,210648.002,3910.7563,S,07003.5180,W,1,08,1.0,876.4,M,23.2,M,,0000*5B
$GPGSA,M,3,19,03,14,11,22,06,32,24,,,,,2.8,1.0,2.6*3E
$GPRMC,210648.002,A,3910.7563,S,07003.5180,W,29.01,198.72,110511,,,A*54
$GPGGA,210648.999,3910.7640,S,07003.5210,W,1,08,1.0,876.0,M,23.2,M,,0000*5C
$GPGSA,M,3,19,03,14,11,22,06,32,24,,,,,2.8,1.0,2.6*3E
$GPRMC,210648.999,A,3910.7640,S,07003.5210,W,28.77,197.04,110511,,,A*59
$GPGGA,210649.999,3910.7715,S,07003.5240,W,1,08,1.0,875.4,M,23.2,M,,0000*5E
$GPGSA,M,3,19,03,14,11,22,06,32,24,,,,,2.8,1.0,2.6*3E
$GPRMC,210649.999,A,3910.7715,S,07003.5240,W,28.98,197.79,110511,,,A*57
$GPGGA,210650.999,3910.7793,S,07003.5270,W,1,08,1.0,873.9,M,23.2,M,,0000*50
$GPGSA,M,3,19,03,14,11,22,06,32,24,,,,,2.8,1.0,2.6*3E
$GPGSV,3,1,11,19,77,309,38,03,49,001,40,14,46,086,37,11,41,237,38*7C
$GPGSV,3,2,11,22,38,128,37,06,36,017,38,32,32,305,39,24,30,245,35*7E
$GPGSV,3,3,11,20,09,300,,28,08,219,34,18,04,125,31*47
$GPRMC,210650.999,A,3910.7793,S,07003.5270,W,28.84,197.68,110511,,,A*5F
$GPGGA,210651.999,3910.7872,S,07003.5301,W,1,08,1.0,873.8,M,23.2,M,,0000*57
$GPGSA,M,3,19,03,14,11,22,06,32,24,,,,,2.8,1.0,2.6*3E
$GPRMC,210651.999,A,3910.7872,S,07003.5301,W,29.13,197.62,110511,,,A*5C
$GPGGA,210652.999,3910.7949,S,07003.5335,W,1,08,1.0,872.0,M,23.2,M,,0000*53
$GPGSA,M,3,19,03,14,11,22,06,32,24,,,,,2.8,1.0,2.6*3E
$GPRMC,210652.999,A,3910.7949,S,07003.5335,W,29.07,197.48,110511,,,A*5C
$GPGGA,210653.999,3910.8026,S,07003.5367,W,1,08,1.0,871.7,M,23.2,M,,0000*5E
$GPGSA,M,3,19,03,14,11,22,06,32,24,,,,,2.8,1.0,2.6*3E
$GPRMC,210653.999,A,3910.8026,S,07003.5367,W,29.24,197.75,110511,,,A*5A
$GPGGA,210654.997,3910.8101,S,07003.5401,W,1,08,1.0,872.1,M,23.2,M,,0000*51
$GPGSA,M,3,19,03,14,11,22,06,32,24,,,,,2.8,1.0,2.6*3E
$GPRMC,210654.997,A,3910.8101,S,07003.5401,W,29.47,197.82,110511,,,A*5D
$GPGGA,210656.000,3910.8180,S,07003.5439,W,1,08,1.0,872.3,M,23.2,M,,0000*54
$GPGSA,M,3,19,03,14,11,22,06,32,24,,,,,2.8,1.0,2.6*3E
$GPGSV,3,1,11,19,77,309,39,03,49,001,41,14,46,086,37,11,41,237,37*73
$GPGSV,3,2,11,22,38,128,38,06,36,017,37,32,32,305,39,24,30,245,36*7D
$GPGSV,3,3,11,20,09,300,26,28,08,219,31,18,04,125,35*42
$GPRMC,210656.000,A,3910.8180,S,07003.5439,W,28.62,198.67,110511,,,A*58
$GPGGA,210656.999,3910.8256,S,07003.5472,W,1,08,1.0,871.0,M,23.2,M,,0000*5A
$GPGSA,M,3,19,03,14,11,22,06,32,24,,,,,2.8,1.0,2.6*3E
$GPRMC,210656.999,A,3910.8256,S,07003.5472,W,28.90,199.29,110511,,,A*50
$GPGGA,210657.999,3910.8334,S,07003.5506,W,1,08,1.0,869.9,M,23.2,M,,0000*5C
$GPGSA,M,3,19,03,14,11,22,06,32,24,,,,,2.8,1.0,2.6*3E
$GPRMC,210657.999,A,3910.8334,S,07003.5506,W,29.04,197.74,110511,,,A*5C
$GPGGA,210659.002,3910.8411,S,07003.5539,W,1,08,1.0,871.2,M,23.2,M,,0000*57
$GPGSA,M,3,19,03,14,11,22,06,32,24,,,,,2.8,1.0,2.6*3E
$GPRMC,210659.002,A,3910.8411,S,07003.5539,W,29.39,198.32,110511,,,A*56
$GPGGA,210659.998,3910.8491,S,07003.5570,W,1,08,1.0,871.4,M,23.2,M,,0000*5E
$GPGSA,M,3,19,03,14,11,22,06,32,24,,,,,2.8,1.0,2.6*3E
$GPRMC,210659.998,A,3910.8491,S,07003.5570,W,29.11,197.47,110511,,,A*5E
$GPGGA,210700.999,3910.8567,S,07003.5599,W,1,08,1.0,870.2,M,23.2,M,,0000*5A
$GPGSA,M,3,19,03,14,11,22,06,32,24,,,,,2.8,1.0,2.6*3E
$GPGSV,3,1,11,19,77,309,38,03,49,001,40,14,46,086,34,11,41,237,36*71
$GPGSV,3,2,11,22,38,128,38,06,36,017,38,32,32,305,38,24,30,245,33*76
$GPGSV,3,3,11,20,09,300,27,28,08,219,,18,04,125,36*42
$GPRMC,210700.999,A,3910.8567,S,07003.5599,W,29.00,197.94,110511,,,A*53
$GPGGA,210702.002,3910.8646,S,07003.5632,W,1,08,1.0,868.0,M,23.2,M,,0000*5A
$GPGSA,M,3,19,03,14,11,22,06,32,24,,,,,2.8,1.0,2.6*3E
$GPRMC,210702.002,A,3910.8646,S,07003.5632,W,29.88,198.30,110511,,,A*59
$GPGGA,210702.996,3910.8725,S,07003.5663,W,1,08,1.0,867.3,M,23.2,M,,0000*52
$GPGSA,M,3,19,03,14,11,22,06,32,24,,,,,2.8,1.0,2.6*3E
$GPRMC,210702.996,A,3910.8725,S,07003.5663,W,29.06,196.89,110511,,,A*57
$GPGGA,210704.002,3910.8805,S,07003.5694,W,1,08,1.0,867.1,M,23.2,M,,0000*57
$GPGSA,M,3,19,03,14,11,22,06,32,24,,,,,2.8,1.0,2.6*3E
$GPRMC,210704.002,A,3910.8805,S,07003.5694,W,30.43,198.51,110511,,,A*52
$GPGGA,210705.000,3910.8884,S,07003.5726,W,1,08,1.0,866.0,M,23.2,M,,0000*55
$GPGSA,M,3,19,03,14,11,22,06,32,24,,,,,2.8,1.0,2.6*3E
$GPRMC,210705.000,A,3910.8884,S,07003.5726,W,28.58,197.99,110511,,,A*58
$GPGGA,210706.000,3910.8960,S,07003.5758,W,1,08,1.0,864.6,M,23.2,M,,0000*50
$GPGSA,M,3,19,03,14,11,22,06,32,24,,,,,2.8,1.0,2.6*3E
$GPGSV,3,1,11,19,77,309,39,03,49,001,41,14,46,086,36,11,41,237,38*7D
$GPGSV,3,2,11,22,38,128,37,06,36,017,38,32,32,305,38,24,30,245,35*7F
$GPGSV,3,3,11,20,09,300,,28,08,219,28,18,04,125,36*4D
$GPRMC,210706.000,A,3910.8960,S,07003.5758,W,28.77,197.57,110511,,,A*56
$GPGGA,210706.999,3910.9036,S,07003.5788,W,1,08,1.0,862.8,M,23.2,M,,0000*57
$GPGSA,M,3,19,03,14,11,22,06,32,24,,,,,2.8,1.0,2.6*3E
$GPRMC,210706.999,A,3910.9036,S,07003.5788,W,28.14,196.97,110511,,,A*51
$GPGGA,210707.998,3910.9112,S,07003.5820,W,1,08,1.0,862.1,M,23.2,M,,0000*54
$GPGSA,M,3,19,03,14,11,22,06,32,24,,,,,2.8,1.0,2.6*3E
$GPRMC,210707.998,A,3910.9112,S,07003.5820,W,28.84,198.07,110511,,,A*55
$GPGGA,210709.003,3910.9189,S,07003.5854,W,1,08,1.0,861.7,M,23.2,M,,0000*55
$GPGSA,M,3,19,03,14,11,22,06,32,24,,,,,2.8,1.0,2.6*3E
$GPRMC,210709.003,A,3910.9189,S,07003.5854,W,28.46,198.62,110511,,,A*5C
$GPGGA,210709.997,3910.9267,S,07003.5887,W,1,08,1.0,861.2,M,23.2,M,,0000*59
$GPGSA,M,3,19,03,14,11,22,06,32,24,,,,,2.8,1.0,2.6*3E
$GPRMC,210709.997,A,3910.9267,S,07003.5887,W,28.22,198.91,110511,,,A*5B
$GPGGA,210711.000,3910.9340,S,07003.5920,W,1,08,1.0,860.9,M,23.2,M,,0000*55
$GPGSA,M,3,19,03,14,11,22,06,32,24,,,,,2.8,1.0,2.6*3E
$GPGSV,3,1,11,19,77,309,39,03,49,001,41,14,46,086,37,11,41,237,37*73
$GPGSV,3,2,11,22,38,128,38,06,36,017,38,32,32,305,38,24,30,245,36*73
$GPGSV,3,3,11,20,09,300,,28,08,219,26,18,04,125,36*43
$GPRMC,210711.000,A,3910.9340,S,07003.5920,W,27.96,197.98,110511,,,A*5B
$GPGGA,210712.002,3910.9418,S,07003.5946,W,1,08,1.0,861.7,M,23.2,M,,0000*51
$GPGSA,M,3,19,03,14,11,22,06,32,24,,,,,2.8,1.0,2.6*3E
$GPRMC,210712.002,A,3910.9418,S,07003.5946,W,27.95,198.21,110511,,,A*5E
$GPGGA,210713.001,3910.9492,S,07003.5975,W,1,08,1.0,861.8,M,23.2,M,,0000*5E
$GPGSA,M,3,19,03,14,11,22,06,32,24,,,,,2.8,1.0,2.6*3E
$GPRMC,210713.001,A,3910.9492,S,07003.5975,W,28.37,197.84,110511,,,A*59
$GPGGA,210714.001,3910.9568,S,07003.6008,W,1,08,1.0,861.7,M,23.2,M,,0000*52
$GPGSA,M,3,19,03,14,11,22,06,32,24,,,,,2.8,1.0,2.6*3E
$GPRMC,210714.001,A,3910.9568,S,07003.6008,W,28.24,198.44,110511,,,A*5B
$GPGGA,210714.996,3910.9637,S,07003.6049,W,1,08,1.0,862.0,M,23.2,M,,0000*5D
$GPGSA,M,3,19,03,14,11,22,06,32,24,,,,,2.8,1.0,2.6*3E
$GPRMC,210714.996,A,3910.9637,S,07003.6049,W,27.79,198.92,110511,,,A*5C
$GPGGA,210716.003,3910.9710,S,07003.6082,W,1,08,1.0,861.3,M,23.2,M,,0000*59
$GPGSA,M,3,19,03,14,11,22,06,32,24,,,,,2.8,1.0,2.6*3E
$GPGSV,3,1,11,19,77,309,39,03,49,001,41,14,46,086,35,11,41,237,37*71
$GPGSV,3,2,11,22,38,128,37,06,36,017,37,32,32,305,38,24,30,245,33*76
$GPGSV,3,3,11,20,09,300,,28,08,219,26,18,04,125,31*44
$GPRMC,210716.003,A,3910.9710,S,07003.6082,W,27.93,198.04,110511,,,A*53
$GPGGA,210716.999,3910.9785,S,07003.6114,W,1,08,1.0,861.6,M,23.2,M,,0000*54
$GPGSA,M,3,19,03,14,11,22,06,32,24,,,,,2.8,1.0,2.6*3E
$GPRMC,210716.999,A,3910.9785,S,07003.6114,W,27.60,197.92,110511,,,A*57
$GPGGA,210717.999,3910.9861,S,07003.6145,W,1,08,1.0,858.7,M,23.2,M,,0000*5F
$GPGSA,M,3,19,03,14,11,22,06,32,24,,,,,2.8,1.0,2.6*3E
$GPRMC,210717.999,A,3910.9861,S,07003.6145,W,27.62,198.77,110511,,,A*51
$GPGGA,210718.997,3910.9933,S,07003.6178,W,1,08,1.0,858.3,M,23.2,M,,0000*52
$GPGSA,M,3,19,03,14,11,22,06,32,24,,,,,2.8,1.0,2.6*3E
$GPRMC,210718.997,A,3910.9933,S,07003.6178,W,28.02,198.56,110511,,,A*52
$GPGGA,210720.002,3911.0008,S,07003.6209,W,1,08,1.0,857.7,M,23.2,M,,0000*5B
$GPGSA,M,3,19,03,14,11,22,06,32,24,,,,,2.8,1.0,2.6*3E
$GPRMC,210720.002,A,3911.0008,S,07003.6209,W,27.86,197.99,110511,,,A*5F
$GPGGA,210721.001,3911.0082,S,07003.6242,W,1,08,1.0,857.9,M,23.2,M,,0000*5A
$GPGSA,M,3,19,03,14,11,22,06,32,24,,,,,2.8,1.0,2.6*3E
$GPGSV,3,1,11,19,77,309,39,03,49,001,41,14,46,086,36,11,41,237,38*7D
$GPGSV,3,2,11,22,38,128,38,06,36,017,38,32,32,305,38,24,30,245,35*70
$GPGSV,3,3,11,20,09,300,,28,08,219,28,18,04,125,35*4E
$GPRMC,210721.001,A,3911.0082,S,07003.6242,W,28.22,198.18,110511,,,A*57
$GPGGA,210721.999,3911.0158,S,07003.6274,W,1,08,1.0,857.7,M,23.2,M,,0000*5F
$GPGSA,M,3,19,03,14,11,22,06,32,24,,,,,2.8,1.0,2.6*3E
$GPRMC,210721.999,A,3911.0158,S,07003.6274,W,28.05,198.45,110511,,,A*51
$GPGGA,210723.000,3911.0232,S,07003.6307,W,1,08,1.0,859.3,M,23.2,M,,0000*54
$GPGSA,M,3,19,03,14,11,22,06,32,24,,,,,2.8,1.0,2.6*3E
$GPRMC,210723.000,A,3911.0232,S,07003.6307,W,28.12,198.88,110511,,,A*57
$GPGGA,210724.000,3911.0307,S,07003.6340,W,1,08,1.0,858.4,M,23.2,M,,0000*51
$GPGSA,M,3,19,03,14,11,22,06,32,24,,,,,2.8,1.0,2.6*3E
$GPRMC,210724.000,A,3911.0307,S,07003.6340,W,28.11,198.37,110511,,,A*53
$GPGGA,210724.998,3911.0380,S,07003.6369,W,1,08,1.0,859.2,M,23.2,M,,0000*5A
$GPGSA,M,3,19,03,14,11,22,06,32,24,,,,,2.8,1.0,2.6*3E
$GPRMC,210724.998,A,3911.0380,S,07003.6369,W,28.26,198.32,110511,,,A*5E
$GPGGA,210725.999,3911.0455,S,07003.6400,W,1,08,1.0,857.4,M,23.2,M,,0000*55
$GPGSA,M,3,19,03,14,11,22,06,32,24,,,,,2.8,1.0,2.6*3E
$GPGSV,3,1,11,19,77,309,38,03,49,001,41,14,46,086,37,11,41,237,37*72
$GPGSV,3,2,11,22,38,128,38,06,36,017,38,32,32,305,39,24,30,245,33*77
$GPGSV,3,3,11,20,09,300,,28,08,219,27,18,04,125,32*46
$GPRMC,210725.999,A,3911.0455,S,07003.6400,W,28.09,198.36,110511,,,A*50
$GPGGA,210727.000,3911.0529,S,07003.6433,W,1,08,1.0,857.9,M,23.2,M,,0000*59
$GPGSA,M,3,19,03,14,11,22,06,32,24,,,,,2.8,1.0,2.6*3E
$GPRMC,210727.000,A,3911.0529,S,07003.6433,W,27.47,197.74,110511,,,A*5D
$GPGGA,210727.999,3911.0605,S,07003.6465,W,1,08,1.0,857.8,M,23.2,M,,0000*5F
$GPGSA,M,3,19,03,14,11,22,06,32,24,,,,,2.8,1.0,2.6*3E
$GPRMC,210727.999,A,3911.0605,S,07003.6465,W,27.78,197.88,110511,,,A*55
$GPGGA,210729.000,3911.0680,S,07003.6499,W,1,08,1.0,859.2,M,23.2,M,,0000*52
$GPGSA,M,3,19,03,14,11,22,06,32,24,,,,,2.8,1.0,2.6*3E
$GPRMC,210729.000,A,3911.0680,S,07003.6499,W,28.30,198.44,110511,,,A*50
$GPGGA,210730.002,3911.0755,S,07003.6535,W,1,08,1.0,859.3,M,23.2,M,,0000*57
$GPGSA,M,3,19,03,14,11,22,06,32,24,,,,,2.8,1.0,2.6*3E
$GPRMC,210730.002,A,3911.0755,S,07003.6535,W,28.71,198.95,110511,,,A*5D
$GPGGA,210731.000,3911.0831,S,07003.6566,W,1,08,1.0,859.1,M,23.2,M,,0000*5D
$GPGSA,M,3,19,03,14,11,22,06,32,24,,,,,2.8,1.0,2.6*3E
$GPGSV,3,1,11,19,77,309,38,03,49,001,41,14,46,086,36,11,41,237,37*73
$GPGSV,3,2,11,22,38,128,38,06,36,017,38,32,32,305,38,24,30,245,35*70
$GPGSV,3,3,11,20,09,300,,28,08,219,31,18,04,125,33*40
$GPRMC,210731.000,A,3911.0831,S,07003.6566,W,28.59,197.80,110511,,,A*54
$GPGGA,210731.999,3911.0907,S,07003.6595,W,1,08,1.0,859.6,M,23.2,M,,0000*5B
$GPGSA,M,3,19,03,14,11,22,06,32,24,,,,,2.8,1.0,2.6*3E
$GPRMC,210731.999,A,3911.0907,S,07003.6595,W,28.66,198.51,110511,,,A*5A
$GPGGA,210732.997,3911.0983,S,07003.6628,W,1,08,1.0,858.8,M,23.2,M,,0000*50
$GPGSA,M,3,19,03,14,11,22,06,32,24,,,,,2.8,1.0,2.6*3E
$GPRMC,210732.997,A,3911.0983,S,07003.6628,W,28.76,197.99,110511,,,A*54
$GPGGA,210733.999,3911.1059,S,07003.6662,W,1,08,1.0,858.8,M,23.2,M,,0000*5E
$GPGSA,M,3,19,03,14,11,22,06,32,24,,,,,2.8,1.0,2.6*3E
$GPRMC,210733.999,A,3911.1059,S,07003.6662,W,28.44,197.51,110511,,,A*5F
$GPGGA,210734.999,3911.1136,S,07003.6698,W,1,08,1.0,859.0,M,23.2,M,,0000*5D
$GPGSA,M,3,19,03,14,11,22,06,32,24,,,,,2.8,1.0,2.6*3E
$GPRMC,210734.999,A,3911.1136,S,07003.6698,W,29.16,197.90,110511,,,A*5E
$GPGGA,210736.001,3911.1214,S,07003.6732,W,1,08,1.0,860.1,M,23.2,M,,0000*5E
$GPGSA,M,3,19,03,14,11,22,06,32,24,,,,,2.8,1.0,2.6*3E
$GPGSV,3,1,11,19,77,309,38,03,49,001,41,14,46,086,37,11,41,237,37*72
$GPGSV,3,2,11,22,38,128,39,06,36,017,38,32,32,305,39,24,30,245,35*70
$GPGSV,3,3,11,20,09,300,,28,08,219,,18,04,125,32*43
$GPRMC,210736.001,A,3911.1214,S,07003.6732,W,29.12,197.63,110511,,,A*5E
$GPGGA,210737.000,3911.1291,S,07003.6763,W,1,08,1.0,859.2,M,23.2,M,,0000*5E
$GPGSA,M,3,19,03,14,11,22,06,32,24,,,,,2.8,1.0,2.6*3E
$GPRMC,210737.000,A,3911.1291,S,07003.6763,W,29.14,197.92,110511,,,A*5F
$GPGGA,210737.998,3911.1367,S,07003.6800,W,1,08,1.0,859.2,M,23.2,M,,0000*54
$GPGSA,M,3,19,03,14,11,22,06,32,24,,,,,2.8,1.0,2.6*3E
$GPRMC,210737.998,A,3911.1367,S,07003.6800,W,29.54,198.13,110511,,,A*57
$GPGGA,210739.002,3911.1444,S,07003.6830,W,1,08,1.0,858.1,M,23.2,M,,0000*57
$GPGSA,M,3,19,03,14,11,22,06,32,24,,,,,2.8,1.0,2.6*3E
$GPRMC,210739.002,A,3911.1444,S,07003.6830,W,29.48,197.83,110511,,,A*5D
$GPGGA,210739.998,3911.1523,S,07003.6866,W,1,08,1.0,857.1,M,23.2,M,,0000*51
$GPGSA,M,3,19,03,14,11,22,06,32,24,,,,,2.8,1.0,2.6*3E
$GPRMC,210739.998,A,3911.1523,S,07003.6866,W,29.70,198.30,110511,,,A*58
$GPGGA,210741.001,3911.1603,S,07003.6898,W,1,08,1.0,857.4,M,23.2,M,,0000*52
$GPGSA,M,3,19,03,14,11,22,06,32,24,,,,,2.8,1.0,2.6*3E
$GPGSV,3,1,11,19,77,309,38,03,49,001,40,14,46,086,37,11,41,237,38*7C
$GPGSV,3,2,11,22,38,128,37,06,36,017,38,32,32,305,37,24,30,245,36*73
$GPGSV,3,3,11,20,09,300,,28,08,219,27,18,04,125,32*46
$GPRMC,210741.001,A,3911.1603,S,07003.6898,W,29.21,198.12,110511,,,A*5A
$GPGGA,210742.001,3911.1679,S,07003.6928,W,1,08,1.0,856.2,M,23.2,M,,0000*51
$GPGSA,M,3,19,03,14,11,22,06,32,24,,,,,2.8,1.0,2.6*3E
$GPRMC,210742.001,A,3911.1679,S,07003.6928,W,29.20,198.49,110511,,,A*51
$GPGGA,210742.998,3911.1758,S,07003.6959,W,1,08,1.0,855.7,M,23.2,M,,0000*5A
$GPGSA,M,3,19,03,14,11,22,06,32,24,,,,,2.8,1.0,2.6*3E
$GPRMC,210742.998,A,3911.1758,S,07003.6959,W,29.57,197.95,110511,,,A*52
$GPGGA,210744.000,3911.1836,S,07003.6992,W,1,08,1.0,854.5,M,23.2,M,,0000*57
$GPGSA,M,3,19,03,14,11,22,06,32,24,,,,,2.8,1.0,2.6*3E
$GPRMC,210744.000,A,3911.1836,S,07003.6992,W,29.45,198.49,110511,,,A*51
$GPGGA,210745.000,3911.1915,S,07003.7020,W,1,08,1.0,853.8,M,23.2,M,,0000*5D
$GPGSA,M,3,19,03,14,11,22,06,32,24,,,,,2.8,1.0,2.6*3E
$GPRMC,210745.000,A,3911.1915,S,07003.7020,W,29.26,198.38,110511,,,A*52
$GPGGA,210746.000,3911.1992,S,07003.7054,W,1,08,1.0,853.8,M,23.2,M,,0000*52
$GPGSA,M,3,19,03,14,11,22,06,32,24,,,,,2.8,1.0,2.6*3E
$GPGSV,3,1,11,19,77,309,38,03,49,001,41,14,46,086,36,11,41,237,38*7C
$GPGSV,3,2,11,22,38,128,37,06,36,017,38,32,32,305,38,24,30,245,36*7C
$GPGSV,3,3,11,20,09,300,,28,08,219,30,18,04,125,30*42
$GPRMC,210746.000,A,3911.1992,S,07003.7054,W,29.30,197.98,110511,,,A*5F
$GPGGA,210747.000,3911.2070,S,07003.7085,W,1,08,1.0,853.7,M,23.2,M,,0000*56
$GPGSA,M,3,19,03,14,11,22,06,32,24,,,,,2.8,1.0,2.6*3E
$GPRMC,210747.000,A,3911.2070,S,07003.7085,W,28.95,198.34,110511,,,A*53
$GPGGA,210748.001,3911.2147,S,07003.7115,W,1,08,1.0,853.5,M,23.2,M,,0000*57
$GPGSA,M,3,19,03,14,11,22,06,32,24,,,,,2.8,1.0,2.6*3E
$GPRMC,210748.001,A,3911.2147,S,07003.7115,W,28.85,197.51,110511,,,A*5D
$GPGGA,210748.999,3911.2223,S,07003.7146,W,1,08,1.0,852.0,M,23.2,M,,0000*5C
$GPGSA,M,3,19,03,14,11,22,06,32,24,,,,,2.8,1.0,2.6*3E
$GPRMC,210748.999,A,3911.2223,S,07003.7146,W,28.59,198.08,110511,,,A*50
$GPGGA,210749.999,3911.2297,S,07003.7176,W,1,08,1.0,852.3,M,23.2,M,,0000*52
$GPGSA,M,3,19,03,14,11,22,06,32,24,,,,,2.8,1.0,2.6*3E
$GPRMC,210749.999,A,3911.2297,S,07003.7176,W,28.90,198.54,110511,,,A*51
$GPGGA,210750.999,3911.2372,S,07003.7211,W,1,08,1.0,852.2,M,23.2,M,,0000*53
$GPGSA,M,3,19,03,14,11,22,06,32,24,,,,,2.8,1.0,2.6*3E
$GPGSV,3,1,11,19,77,309,39,03,49,001,40,14,46,086,37,11,41,237,35*70
$GPGSV,3,2,11,22,38,128,37,06,36,017,38,32,32,305,39,24,30,245,35*7E
$GPGSV,3,3,11,20,09,300,,28,08,219,34,18,04,125,31*47
$GPRMC,210750.999,A,3911.2372,S,07003.7211,W,28.23,198.34,110511,,,A*5F
$GPGGA,210751.999,3911.2446,S,07003.7244,W,1,08,1.0,850.8,M,23.2,M,,0000*5A
$GPGSA,M,3,19,03,14,11,22,06,32,24,,,,,2.8,1.0,2.6*3E
$GPRMC,210751.999,A,3911.2446,S,07003.7244,W,28.05,199.42,110511,,,A*5A
$GPGGA,210752.999,3911.2520,S,07003.7276,W,1,08,1.0,850.7,M,23.2,M,,0000*56
$GPGSA,M,3,19,03,14,11,22,06,32,24,,,,,2.8,1.0,2.6*3E
$GPRMC,210752.999,A,3911.2520,S,07003.7276,W,28.23,198.11,110511,,,A*5A
$GPGGA,210754.002,3911.2596,S,07003.7306,W,1,08,1.0,849.2,M,23.2,M,,0000*5D
$GPGSA,M,3,19,03,14,11,22,06,32,24,,,,,2.8,1.0,2.6*3E
$GPRMC,210754.002,A,3911.2596,S,07003.7306,W,28.76,197.74,110511,,,A*50
$GPGGA,210755.000,3911.2673,S,07003.7337,W,1,08,1.0,848.9,M,23.2,M,,0000*5E
$GPGSA,M,3,19,03,14,11,22,06,32,24,,,,,2.8,1.0,2.6*3E
$GPRMC,210755.000,A,3911.2673,S,07003.7337,W,28.96,198.10,110511,,,A*5A
$GPGGA,210755.998,3911.2748,S,07003.7371,W,1,08,1.0,850.2,M,23.2,M,,0000*5F
$GPGSA,M,3,19,03,14,11,22,06,32,24,,,,,2.8,1.0,2.6*3E
$GPGSV,3,1,11,19,77,309,40,03,49,001,40,14,46,086,33,11,41,237,33*7C
$GPGSV,3,2,11,22,38,128,30,06,36,017,38,32,32,305,39,24,30,245,35*79
$GPGSV,3,3,11,20,09,300,27,28,08,219,30,18,04,125,28*4E
$GPRMC,210755.998,A,3911.2748,S,07003.7371,W,27.71,199.23,110511,,,A*5E
$GPGGA,210757.003,3911.2822,S,07003.7405,W,1,08,1.0,851.1,M,23.2,M,,0000*53
$GPGSA,M,3,19,03,14,11,22,06,32,24,,,,,2.8,1.0,2.6*3E
$GPRMC,210757.003,A,3911.2822,S,07003.7405,W,28.26,198.61,110511,,,A*5A
$GPGGA,210758.001,3911.2898,S,07003.7437,W,1,08,1.0,850.8,M,23.2,M,,0000*56
$GPGSA,M,3,19,03,14,11,22,06,32,24,,,,,2.8,1.0,2.6*3E
$GPRMC,210758.001,A,3911.2898,S,07003.7437,W,27.97,197.01,110511,,,A*5B
$GPGGA,210758.998,3911.2973,S,07003.7468,W,1,08,1.0,850.2,M,23.2,M,,0000*5B
$GPGSA,M,3,19,03,14,11,22,06,32,24,,,,,2.8,1.0,2.6*3E
$GPRMC,210758.998,A,3911.2973,S,07003.7468,W,27.52,196.24,110511,,,A*53
$GPGGA,210800.000,3911.3046,S,07003.7498,W,1,08,1.0,850.7,M,23.2,M,,0000*55
$GPGSA,M,3,19,03,14,11,22,06,32,24,,,,,2.8,1.0,2.6*3E
$GPRMC,210800.000,A,3911.3046,S,07003.7498,W,26.97,199.04,110511,,,A*5D
$GPGGA,210801.000,3911.3112,S,07003.7529,W,1,08,1.0,853.7,M,23.2,M,,0000*5C
$GPGSA,M,3,19,03,14,11,22,06,32,24,,,,,2.8,1.0,2.6*3E
$GPGSV,3,1,11,19,77,309,40,03,49,001,41,14,46,086,35,11,41,237,35*7D
$GPGSV,3,2,11,22,38,128,35,06,36,017,39,32,32,305,38,24,30,245,36*7F
$GPGSV,3,3,11,20,09,300,,28,08,219,31,18,04,125,33*40
$GPRMC,210801.000,A,3911.3112,S,07003.7529,W,26.53,198.77,110511,,,A*5A
$GPGGA,210802.023,3911.3184,S,07003.7560,W,0,00,,854.2,M,23.2,M,,0000*78
$GPGSA,M,1,,,,,,,,,,,,,,,*12
$GPRMC,210802.023,V,3911.3184,S,07003.7560,W,,,110511,,,N*70
$GPGGA,210802.731,3911.3233,S,07003.7582,W,0,00,,854.4,M,23.2,M,,0000*79
$GPGSA,M,1,,,,,,,,,,,,,,,*12
$GPRMC,210802.731,V,3911.3233,S,07003.7582,W,,,110511,,,N*77
$GPGGA,210803.000,3911.3252,S,07003.7590,W,0,00,,854.5,M,23.2,M,,0000*78
$GPGSA,M,1,,,,,,,,,,,,,,,*12
$GPRMC,210803.000,V,3911.3252,S,07003.7590,W,,,110511,,,N*77
$GPGGA,210804.000,3911.3322,S,07003.7620,W,0,00,,855.0,M,23.2,M,,0000*75
$GPGSA,M,1,,,,,,,,,,,,,,,*12
$GPRMC,210804.000,V,3911.3322,S,07003.7620,W,,,110511,,,N*7E
$GPGGA,210805.000,3911.3405,S,07003.7665,W,1,08,1.0,857.0,M,23.2,M,,0000*53
$GPGSA,M,3,19,03,14,11,06,22,32,24,,,,,2.8,1.0,2.6*3E
$GPRMC,210805.000,A,3911.3405,S,07003.7665,W,27.67,198.69,110511,,,A*5F
$GPGGA,210806.000,3911.3484,S,07003.7704,W,1,08,1.0,859.1,M,23.2,M,,0000*50
$GPGSA,M,3,19,03,14,11,06,22,32,24,,,,,2.8,1.0,2.6*3E
$GPGSV,3,1,11,19,77,313,44,03,48,002,45,14,46,087,36,11,42,237,36*76
$GPGSV,3,2,11,22,37,128,37,06,35,017,41,32,33,304,43,24,30,245,36*72
$GPGSV,3,3,11,18,04,125,32,20,09,299,,28,08,220,*48
$GPRMC,210806.000,A,3911.3484,S,07003.7704,W,27.69,198.63,110511,,,A*57
$GPGGA,210807.000,3911.3558,S,07003.7742,W,1,08,1.0,861.4,M,23.2,M,,0000*5D
$GPGSA,M,3,19,03,14,11,06,22,32,24,,,,,2.8,1.0,2.6*3E
$GPRMC,210807.000,A,3911.3558,S,07003.7742,W,27.91,198.54,110511,,,A*57
$GPGGA,210808.000,3911.3632,S,07003.7777,W,1,08,1.0,863.2,M,23.2,M,,0000*5F
$GPGSA,M,3,19,03,14,11,06,22,32,24,,,,,2.8,1.0,2.6*3E
$GPRMC,210808.000,A,3911.3632,S,07003.7777,W,28.19,198.58,110511,,,A*52
$GPGGA,210809.000,3911.3707,S,07003.7810,W,1,08,1.0,864.2,M,23.2,M,,0000*50
$GPGSA,M,3,19,03,14,11,06,22,32,24,,,,,2.8,1.0,2.6*3E
$GPRMC,210809.000,A,3911.3707,S,07003.7810,W,28.46,198.75,110511,,,A*5F
$GPGGA,210810.000,3911.3782,S,07003.7844,W,1,08,1.0,864.6,M,23.2,M,,0000*50
$GPGSA,M,3,19,03,14,11,06,22,32,24,,,,,2.8,1.0,2.6*3E
$GPRMC,210810.000,A,3911.3782,S,07003.7844,W,28.68,198.89,110511,,,A*54
$GPGGA,210811.000,3911.3860,S,07003.7878,W,1,08,1.0,865.0,M,23.2,M,,0000*5A
$GPGSA,M,3,19,03,14,11,06,22,32,24,,,,,2.8,1.0,2.6*3E
$GPGSV,3,1,11,19,77,313,44,03,48,002,45,14,46,087,36,11,42,237,37*77
$GPGSV,3,2,11,22,37,128,37,06,35,017,41,32,33,304,43,24,30,245,34*70
$GPGSV,3,3,11,18,04,125,33,20,09,299,,28,08,220,*49
$GPRMC,210811.000,A,3911.3860,S,07003.7878,W,28.83,198.66,110511,,,A*5D
$GPGGA,210812.000,3911.3938,S,07003.7912,W,1,08,1.0,865.1,M,23.2,M,,0000*59
$GPGSA,M,3,19,03,14,11,06,22,32,24,,,,,2.8,1.0,2.6*3E
$GPRMC,210812.000,A,3911.3938,S,07003.7912,W,29.11,198.73,110511,,,A*51
$GPGGA,210813.000,3911.4016,S,07003.7946,W,1,08,1.0,865.5,M,23.2,M,,0000*5F
$GPGSA,M,3,19,03,14,11,06,22,32,24,,,,,2.8,1.0,2.6*3E
$GPRMC,210813.000,A,3911.4016,S,07003.7946,W,29.50,198.56,110511,,,A*51
$GPGGA,210814.000,3911.4095,S,07003.7979,W,1,08,1.0,865.3,M,23.2,M,,0000*59
$GPGSA,M,3,19,03,14,11,06,22,32,24,,,,,2.8,1.0,2.6*3E
$GPRMC,210814.000,A,3911.4095,S,07003.7979,W,29.84,198.18,110511,,,A*52
$GPGGA,210815.000,3911.4175,S,07003.8013,W,1,08,1.0,865.0,M,23.2,M,,0000*5E
$GPGSA,M,3,19,03,14,11,06,22,32,24,,,,,2.8,1.0,2.6*3E
$GPRMC,210815.000,A,3911.4175,S,07003.8013,W,29.97,197.93,110511,,,A*58
$GPGGA,210816.014,3911.4255,S,07003.8045,W,1,08,1.0,864.8,M,23.2,M,,0000*53
$GPGSA,M,3,19,03,14,11,22,06,32,24,,,,,2.8,1.0,2.6*3E
$GPGSV,3,1,11,19,77,314,38,03,48,002,41,14,46,087,32,11,42,237,37*7B
$GPGSV,3,2,11,22,37,128,36,06,35,017,40,32,33,304,41,24,30,245,37*71
$GPGSV,3,3,11,18,04,125,34,20,09,299,,28,08,220,31*4C
$GPRMC,210816.014,A,3911.4255,S,07003.8045,W,29.88,196.77,110511,,,A*59
$GPGGA,210816.984,3911.4332,S,07003.8075,W,1,08,1.0,864.3,M,23.2,M,,0000*5B
$GPGSA,M,3,19,03,14,11,22,06,32,24,,,,,2.8,1.0,2.6*3E
$GPRMC,210816.984,A,3911.4332,S,07003.8075,W,29.97,197.56,110511,,,A*56
$GPGGA,210818.001,3911.4412,S,07003.8106,W,1,08,1.0,864.1,M,23.2,M,,0000*53
$GPGSA,M,3,19,03,14,11,22,06,32,24,,,,,2.8,1.0,2.6*3E
$GPRMC,210818.001,A,3911.4412,S,07003.8106,W,29.33,196.76,110511,,,A*51
$GPGGA,210819.002,3911.4492,S,07003.8136,W,1,08,1.0,863.4,M,23.2,M,,0000*58
$GPGSA,M,3,19,03,14,11,22,06,32,24,,,,,2.8,1.0,2.6*3E
$GPRMC,210819.002,A,3911.4492,S,07003.8136,W,29.40,196.12,110511,,,A*5E
$GPGGA,210819.997,3911.4570,S,07003.8163,W,1,08,1.0,863.3,M,23.2,M,,0000*57
$GPGSA,M,3,19,03,14,11,22,06,32,24,,,,,2.8,1.0,2.6*3E
$GPRMC,210819.997,A,3911.4570,S,07003.8163,W,29.20,194.77,110511,,,A*51
$GPGGA,210821.002,3911.4647,S,07003.8187,W,1,08,1.0,862.9,M,23.2,M,,0000*5F
$GPGSA,M,3,19,03,14,11,22,06,32,24,,,,,2.8,1.0,2.6*3E
$GPGSV,3,1,11,19,77,314,38,03,48,002,41,14,46,087,34,11,42,237,37*7D
$GPGSV,3,2,11,22,37,128,35,06,35,017,38,32,33,304,40,24,30,245,36*7D
$GPGSV,3,3,11,20,09,299,,28,08,220,38,18,04,125,26*46
$GPRMC,210821.002,A,3911.4647,S,07003.8187,W,28.42,193.98,110511,,,A*51
$GPGGA,210821.998,3911.4724,S,07003.8212,W,1,08,1.0,862.6,M,23.2,M,,0000*51
$GPGSA,M,3,19,03,14,11,22,06,32,24,,,,,2.8,1.0,2.6*3E
$GPRMC,210821.998,A,3911.4724,S,07003.8212,W,28.20,194.23,110511,,,A*53
$GPGGA,210822.999,3911.4800,S,07003.8236,W,1,08,1.0,862.7,M,23.2,M,,0000*5D
$GPGSA,M,3,19,03,14,11,22,06,32,24,,,,,2.8,1.0,2.6*3E
$GPRMC,210822.999,A,3911.4800,S,07003.8236,W,27.72,193.29,110511,,,A*5B
$GPGGA,210824.002,3911.4876,S,07003.8260,W,1,08,1.0,862.0,M,23.2,M,,0000*55
$GPGSA,M,3,19,03,14,11,22,06,32,24,,,,,2.8,1.0,2.6*3E
$GPRMC,210824.002,A,3911.4876,S,07003.8260,W,27.84,193.34,110511,,,A*51
$GPGGA,210824.997,3911.4952,S,07003.8281,W,1,08,1.0,861.4,M,23.2,M,,0000*5F
$GPGSA,M,3,19,03,14,11,22,06,32,24,,,,,2.8,1.0,2.6*3E
$GPRMC,210824.997,A,3911.4952,S,07003.8281,W,28.39,192.07,110511,,,A*54
$GPGGA,210826.000,3911.5028,S,07003.8303,W,1,08,1.0,861.1,M,23.2,M,,0000*51
$GPGSA,M,3,19,03,14,11,22,06,32,24,,,,,2.8,1.0,2.6*3E
$GPGSV,3,1,11,19,77,314,40,03,48,002,40,14,46,087,30,11,42,237,37*77
$GPGSV,3,2,11,22,37,128,30,06,35,017,39,32,33,304,40,24,30,245,37*78
$GPGSV,3,3,11,20,09,299,28,28,08,220,38,18,04,125,*48
$GPRMC,210826.000,A,3911.5028,S,07003.8303,W,27.98,192.79,110511,,,A*52
$GPGGA,210827.002,3911.5104,S,07003.8324,W,1,08,1.0,860.5,M,23.2,M,,0000*5D
$GPGSA,M,3,19,03,14,11,22,06,32,24,,,,,2.8,1.0,2.6*3E
$GPRMC,210827.002,A,3911.5104,S,07003.8324,W,28.27,192.30,110511,,,A*5D
$GPGGA,210827.998,3911.5182,S,07003.8346,W,1,08,1.0,859.3,M,23.2,M,,0000*51
$GPGSA,M,3,19,03,14,11,22,06,32,24,,,,,2.8,1.0,2.6*3E
$GPRMC,210827.998,A,3911.5182,S,07003.8346,W,28.45,191.91,110511,,,A*51
$GPGGA,210828.999,3911.5258,S,07003.8365,W,1,08,1.0,858.0,M,23.2,M,,0000*58
$GPGSA,M,3,19,03,14,11,22,06,32,24,,,,,2.8,1.0,2.6*3E
$GPRMC,210828.999,A,3911.5258,S,07003.8365,W,28.38,191.68,110511,,,A*56
$GPGGA,210829.999,3911.5333,S,07003.8384,W,1,08,1.0,856.4,M,23.2,M,,0000*50
$GPGSA,M,3,19,03,14,11,22,06,32,24,,,,,2.8,1.0,2.6*3E
$GPRMC,210829.999,A,3911.5333,S,07003.8384,W,27.14,191.55,110511,,,A*5B
$GPGGA,210831.002,3911.5409,S,07003.8404,W,1,07,1.1,856.0,M,23.2,M,,0000*59
$GPGSA,M,3,19,03,11,22,06,32,24,,,,,,2.9,1.1,2.6*3B
$GPGSV,3,1,11,19,77,314,38,03,48,002,41,14,46,087,,11,42,237,37*7A
$GPGSV,3,2,11,22,37,128,32,06,35,017,39,32,33,304,39,24,30,245,37*74
$GPGSV,3,3,11,20,09,299,34,28,08,220,31,18,04,125,27*49
$GPRMC,210831.002,A,3911.5409,S,07003.8404,W,28.33,191.53,110511,,,A*54
