$GPGGA,183142.998,1608.2774,S,06934.7424,W,1,09,0.9,3834.0,M,33.9,M,,0000*67
$GPGSA,M,3,18,30,22,16,21,31,06,25,29,,,,1.7,0.9,1.5*33
$GPRMC,183142.998,A,1608.2774,S,06934.7424,W,26.58,130.09,270411,,,A*53
$GPGGA,183144.000,1608.2821,S,06934.7362,W,1,08,1.3,3833.7,M,33.9,M,,0000*69
$GPGSA,M,3,18,30,22,16,21,31,06,03,,,,,2.4,1.3,2.0*31
$GPRMC,183144.000,A,1608.2821,S,06934.7362,W,26.80,126.29,270411,,,A*57
$GPGGA,183145.000,1608.2864,S,06934.7296,W,1,09,1.0,3833.5,M,33.9,M,,0000*63
$GPGSA,M,3,18,30,22,16,21,31,06,25,03,,,,1.8,1.0,1.5*3C
$GPGSV,3,1,12,18,65,086,36,30,62,228,31,22,57,004,37,16,39,217,37*7B
$GPGSV,3,2,12,21,35,154,31,31,24,323,37,06,22,219,33,25,21,032,33*77
$GPGSV,3,3,12,29,18,095,,03,12,225,35,14,07,008,,15,00,105,*7D
$GPRMC,183145.000,A,1608.2864,S,06934.7296,W,27.17,124.34,270411,,,A*5C
$GPGGA,183146.001,1608.2906,S,06934.7233,W,1,08,1.1,3834.2,M,33.9,M,,0000*6B
$GPGSA,M,3,18,22,16,21,31,06,25,03,,,,,2.1,1.1,1.8*39
$GPRMC,183146.001,A,1608.2906,S,06934.7233,W,26.41,123.85,270411,,,A*5B
$GPGGA,183146.999,1608.2949,S,06934.7166,W,1,09,1.0,3833.8,M,33.9,M,,0000*66
$GPGSA,M,3,18,30,22,16,21,31,06,25,03,,,,1.8,1.0,1.5*3C
$GPRMC,183146.999,A,1608.2949,S,06934.7166,W,27.11,123.89,270411,,,A*53
$GPGGA,183148.000,1608.2993,S,06934.7096,W,1,10,0.8,3833.6,M,33.9,M,,0000*67
$GPGSA,M,3,18,30,22,16,21,31,06,25,29,03,,,1.6,0.8,1.3*36
$GPRMC,183148.000,A,1608.2993,S,06934.7096,W,27.41,124.25,270411,,,A*59
$GPGGA,183149.000,1608.3038,S,06934.7029,W,1,10,0.8,3833.2,M,33.9,M,,0000*6F
$GPGSA,M,3,18,30,22,16,21,31,06,25,29,03,,,1.6,0.8,1.3*36
$GPRMC,183149.000,A,1608.3038,S,06934.7029,W,28.07,124.39,270411,,,A*55
$GPGGA,183150.002,1608.3083,S,06934.6963,W,1,09,1.0,3833.5,M,33.9,M,,0000*65
$GPGSA,M,3,18,30,22,16,21,31,06,25,03,,,,1.8,1.0,1.5*3C
$GPGSV,3,1,12,18,65,086,35,30,62,228,37,22,57,004,38,16,39,217,38*7E
$GPGSV,3,2,12,21,35,154,36,31,24,323,39,06,22,219,30,25,21,032,34*7A
$GPGSV,3,3,12,29,18,095,,03,12,225,35,14,07,008,,15,00,105,*7D
$GPRMC,183150.002,A,1608.3083,S,06934.6963,W,27.30,125.10,270411,,,A*58
$GPGGA,183150.999,1608.3125,S,06934.6899,W,1,09,1.0,3834.0,M,33.9,M,,0000*65
$GPGSA,M,3,18,30,22,16,21,31,06,25,03,,,,1.8,1.0,1.5*3C
$GPRMC,183150.999,A,1608.3125,S,06934.6899,W,26.67,125.80,270411,,,A*50
$GPGGA,183152.001,1608.3169,S,06934.6835,W,1,09,1.0,3833.4,M,33.9,M,,0000*62
$GPGSA,M,3,18,30,22,16,21,31,06,25,03,,,,1.8,1.0,1.5*3C
$GPRMC,183152.001,A,1608.3169,S,06934.6835,W,26.20,125.08,270411,,,A*57
$GPGGA,183152.998,1608.3211,S,06934.6771,W,1,08,1.1,3833.2,M,33.9,M,,0000*6E
$GPGSA,M,3,18,30,22,16,21,31,06,25,,,,,2.0,1.1,1.6*36
$GPRMC,183152.998,A,1608.3211,S,06934.6771,W,27.11,124.28,270411,,,A*5D
$GPGGA,183154.002,1608.3254,S,06934.6704,W,1,09,0.9,3832.2,M,33.9,M,,0000*68
$GPGSA,M,3,18,30,22,16,21,31,06,25,29,,,,1.7,0.9,1.5*33
$GPRMC,183154.002,A,1608.3254,S,06934.6704,W,26.64,123.82,270411,,,A*56
$GPGGA,183155.001,1608.3294,S,06934.6643,W,1,07,1.2,3831.7,M,33.9,M,,0000*66
$GPGSA,M,3,18,30,22,16,21,31,25,,,,,,2.2,1.2,1.9*3E
$GPGSV,3,1,12,18,65,086,33,30,62,228,36,22,57,004,38,16,39,217,38*79
$GPGSV,3,2,12,21,35,154,35,31,24,323,37,06,22,219,,25,21,032,33*73
$GPGSV,3,3,12,29,18,095,,03,12,225,,14,07,008,,15,00,105,*7B
$GPRMC,183155.001,A,1608.3294,S,06934.6643,W,27.02,125.13,270411,,,A*55
$GPGGA,183156.000,1608.3338,S,06934.6577,W,1,07,1.2,3830.4,M,33.9,M,,0000*65
$GPGSA,M,3,18,30,22,16,21,31,25,,,,,,2.2,1.2,1.9*3E
$GPRMC,183156.000,A,1608.3338,S,06934.6577,W,26.82,124.77,270411,,,A*5E
$GPGGA,183157.000,1608.3380,S,06934.6512,W,1,07,1.2,3830.4,M,33.9,M,,0000*64
$GPGSA,M,3,18,30,22,16,21,31,25,,,,,,2.2,1.2,1.9*3E
$GPRMC,183157.000,A,1608.3380,S,06934.6512,W,27.01,124.86,270411,,,A*5B
$GPGGA,183157.999,1608.3423,S,06934.6445,W,1,08,1.1,3831.6,M,33.9,M,,0000*6F
$GPGSA,M,3,18,30,22,16,21,31,06,25,,,,,2.0,1.1,1.6*36
$GPRMC,183157.999,A,1608.3423,S,06934.6445,W,27.18,124.28,270411,,,A*53
$GPGGA,183159.000,1608.3465,S,06934.6382,W,1,08,1.1,3832.0,M,33.9,M,,0000*63
$GPGSA,M,3,18,30,22,16,21,31,06,25,,,,,2.0,1.1,1.6*36
$GPRMC,183159.000,A,1608.3465,S,06934.6382,W,26.95,124.71,270411,,,A*52
$GPGGA,183200.000,1608.3508,S,06934.6317,W,1,08,1.1,3832.2,M,33.9,M,,0000*68
$GPGSA,M,3,18,30,22,16,21,31,06,25,,,,,2.0,1.1,1.6*36
$GPGSV,3,1,12,18,65,086,35,30,62,228,37,22,57,004,38,16,39,217,38*7E
$GPGSV,3,2,12,21,35,154,35,31,24,323,37,06,22,219,30,25,21,032,32*71
$GPGSV,3,3,12,29,18,095,,03,12,225,,14,07,008,,15,00,105,*7B
$GPRMC,183200.000,A,1608.3508,S,06934.6317,W,26.93,125.89,270411,,,A*5B
$GPGGA,183201.001,1608.3552,S,06934.6252,W,1,09,1.0,3832.8,M,33.9,M,,0000*6D
$GPGSA,M,3,18,30,22,16,21,31,06,25,03,,,,1.8,1.0,1.5*3C
$GPRMC,183201.001,A,1608.3552,S,06934.6252,W,27.31,124.47,270411,,,A*5E
$GPGGA,183202.001,1608.3595,S,06934.6184,W,1,09,1.0,3832.0,M,33.9,M,,0000*65
$GPGSA,M,3,18,30,22,16,21,31,06,25,03,,,,1.8,1.0,1.5*3C
$GPRMC,183202.001,A,1608.3595,S,06934.6184,W,27.21,124.35,270411,,,A*5A
$GPGGA,183203.001,1608.3640,S,06934.6119,W,1,09,1.0,3831.6,M,33.9,M,,0000*6E
$GPGSA,M,3,18,30,22,16,21,31,06,25,03,,,,1.8,1.0,1.5*3C
$GPRMC,183203.001,A,1608.3640,S,06934.6119,W,27.37,124.79,270411,,,A*5B
$GPGGA,183204.001,1608.3684,S,06934.6050,W,1,09,1.0,3831.3,M,33.9,M,,0000*68
$GPGSA,M,3,18,30,22,16,21,31,06,25,03,,,,1.8,1.0,1.5*3C
$GPRMC,183204.001,A,1608.3684,S,06934.6050,W,27.68,124.73,270411,,,A*58
$GPGGA,183205.004,1608.3728,S,06934.5985,W,1,09,1.0,3830.6,M,33.9,M,,0000*6D
$GPGSA,M,3,18,30,22,16,21,06,31,25,03,,,,1.8,1.0,1.5*3C
$GPGSV,3,1,12,18,65,090,35,30,63,231,36,22,59,004,39,16,40,217,38*70
$GPGSV,3,2,12,21,34,154,33,06,23,218,33,31,23,324,38,25,19,031,34*74
$GPGSV,3,3,12,29,18,094,,03,13,225,36,14,07,009,,15,00,107,*7D
$GPRMC,183205.004,A,1608.3728,S,06934.5985,W,27.21,125.02,270411,,,A*53
$GPGGA,183205.997,1608.3771,S,06934.5925,W,1,09,1.0,3831.2,M,33.9,M,,0000*6D
$GPGSA,M,3,18,30,22,16,21,06,31,25,03,,,,1.8,1.0,1.5*3C
$GPRMC,183205.997,A,1608.3771,S,06934.5925,W,27.33,124.57,270411,,,A*54
$GPGGA,183207.000,1608.3812,S,06934.5859,W,1,09,1.0,3831.2,M,33.9,M,,0000*68
$GPGSA,M,3,18,30,22,16,21,06,31,25,03,,,,1.8,1.0,1.5*3C
$GPRMC,183207.000,A,1608.3812,S,06934.5859,W,27.27,124.51,270411,,,A*52
$GPGGA,183208.004,1608.3854,S,06934.5793,W,1,09,1.0,3831.1,M,33.9,M,,0000*6B
$GPGSA,M,3,18,30,22,16,21,06,31,25,03,,,,1.8,1.0,1.5*3C
$GPRMC,183208.004,A,1608.3854,S,06934.5793,W,26.50,125.58,270411,,,A*5B
$GPGGA,183208.996,1608.3897,S,06934.5730,W,1,09,1.0,3831.2,M,33.9,M,,0000*6C
$GPGSA,M,3,18,30,22,16,21,06,31,25,03,,,,1.8,1.0,1.5*3C
$GPRMC,183208.996,A,1608.3897,S,06934.5730,W,27.17,124.65,270411,,,A*52
$GPGGA,183209.999,1608.3940,S,06934.5667,W,1,09,1.0,3831.5,M,33.9,M,,0000*6D
$GPGSA,M,3,18,30,22,16,21,06,31,25,03,,,,1.8,1.0,1.5*3C
$GPGSV,3,1,12,18,65,090,35,30,63,231,36,22,59,004,39,16,40,217,36*7E
$GPGSV,3,2,12,21,34,154,32,06,23,218,33,31,23,324,38,25,19,031,33*72
$GPGSV,3,3,12,29,18,094,,03,13,225,36,14,07,009,,15,00,107,*7D
$GPRMC,183209.999,A,1608.3940,S,06934.5667,W,27.22,125.16,270411,,,A*57
$GPGGA,183211.001,1608.3982,S,06934.5605,W,1,09,1.0,3832.5,M,33.9,M,,0000*65
$GPGSA,M,3,18,30,22,16,21,06,31,25,03,,,,1.8,1.0,1.5*3C
$GPRMC,183211.001,A,1608.3982,S,06934.5605,W,26.38,124.07,270411,,,A*57
$GPGGA,183212.000,1608.4023,S,06934.5539,W,1,09,1.0,3832.3,M,33.9,M,,0000*68
$GPGSA,M,3,18,30,22,16,21,06,31,25,03,,,,1.8,1.0,1.5*3C
$GPRMC,183212.000,A,1608.4023,S,06934.5539,W,27.18,123.26,270411,,,A*5B
$GPGGA,183213.002,1608.4066,S,06934.5475,W,1,09,1.0,3832.8,M,33.9,M,,0000*68
$GPGSA,M,3,18,30,22,16,21,06,31,25,03,,,,1.8,1.0,1.5*3C
$GPRMC,183213.002,A,1608.4066,S,06934.5475,W,27.42,124.82,270411,,,A*56
$GPGGA,183213.998,1608.4107,S,06934.5412,W,1,09,1.0,3833.2,M,33.9,M,,0000*6E
$GPGSA,M,3,18,30,22,16,21,06,31,25,03,,,,1.8,1.0,1.5*3C
$GPRMC,183213.998,A,1608.4107,S,06934.5412,W,26.88,124.52,270411,,,A*51
$GPGGA,183215.001,1608.4151,S,06934.5345,W,1,09,1.0,3833.9,M,33.9,M,,0000*6C
$GPGSA,M,3,18,30,22,16,21,06,31,25,03,,,,1.8,1.0,1.5*3C
$GPGSV,3,1,12,18,65,090,34,30,63,231,38,22,59,004,38,16,40,217,36*70
$GPGSV,3,2,12,21,34,154,35,06,23,218,34,31,23,324,38,25,19,031,31*70
$GPGSV,3,3,12,29,18,094,,03,13,225,34,14,07,009,,15,00,107,*7F
$GPRMC,183215.001,A,1608.4151,S,06934.5345,W,27.24,124.68,270411,,,A*56
$GPGGA,183216.002,1608.4193,S,06934.5279,W,1,09,1.0,3834.5,M,33.9,M,,0000*67
$GPGSA,M,3,18,30,22,16,21,06,31,25,03,,,,1.8,1.0,1.5*3C
$GPRMC,183216.002,A,1608.4193,S,06934.5279,W,27.43,123.80,270411,,,A*56
$GPGGA,183216.998,1608.4234,S,06934.5214,W,1,09,1.0,3833.5,M,33.9,M,,0000*6F
$GPGSA,M,3,18,30,22,16,21,06,31,25,03,,,,1.8,1.0,1.5*3C
$GPRMC,183216.998,A,1608.4234,S,06934.5214,W,26.79,124.00,270411,,,A*5E
$GPGGA,183218.000,1608.4277,S,06934.5150,W,1,09,1.0,3834.7,M,33.9,M,,0000*68
$GPGSA,M,3,18,30,22,16,21,06,31,25,03,,,,1.8,1.0,1.5*3C
$GPRMC,183218.000,A,1608.4277,S,06934.5150,W,27.24,124.69,270411,,,A*5A
$GPGGA,183219.001,1608.4321,S,06934.5081,W,1,09,1.0,3834.4,M,33.9,M,,0000*64
$GPGSA,M,3,18,30,22,16,21,06,31,25,03,,,,1.8,1.0,1.5*3C
$GPRMC,183219.001,A,1608.4321,S,06934.5081,W,27.50,124.15,270411,,,A*5D
$GPGGA,183219.999,1608.4365,S,06934.5013,W,1,09,1.0,3834.9,M,33.9,M,,0000*6A
$GPGSA,M,3,18,30,22,16,21,06,31,25,03,,,,1.8,1.0,1.5*3C
$GPGSV,3,1,12,18,65,090,34,30,63,231,38,22,59,004,38,16,40,217,37*71
$GPGSV,3,2,12,21,34,154,35,06,23,218,32,31,23,324,37,25,19,031,34*7C
$GPGSV,3,3,12,29,18,094,,03,13,225,35,14,07,009,27,15,00,107,*7B
$GPRMC,183219.999,A,1608.4365,S,06934.5013,W,27.35,124.51,270411,,,A*5D
$GPGGA,183221.000,1608.4409,S,06934.4944,W,1,09,1.0,3833.8,M,33.9,M,,0000*69
$GPGSA,M,3,18,30,22,16,21,06,31,25,03,,,,1.8,1.0,1.5*3C
$GPRMC,183221.000,A,1608.4409,S,06934.4944,W,26.90,124.72,270411,,,A*57
$GPGGA,183222.002,1608.4453,S,06934.4875,W,1,09,1.0,3833.4,M,33.9,M,,0000*68
$GPGSA,M,3,18,30,22,16,21,06,31,25,03,,,,1.8,1.0,1.5*3C
$GPRMC,183222.002,A,1608.4453,S,06934.4875,W,26.80,124.27,270411,,,A*5B
$GPGGA,183223.000,1608.4496,S,06934.4812,W,1,09,1.0,3834.2,M,33.9,M,,0000*62
$GPGSA,M,3,18,30,22,16,21,06,31,25,03,,,,1.8,1.0,1.5*3C
$GPRMC,183223.000,A,1608.4496,S,06934.4812,W,27.03,124.56,270411,,,A*5C
$GPGGA,183223.997,1608.4538,S,06934.4752,W,1,09,1.0,3834.0,M,33.9,M,,0000*69
$GPGSA,M,3,18,30,22,16,21,06,31,25,03,,,,1.8,1.0,1.5*3C
$GPRMC,183223.997,A,1608.4538,S,06934.4752,W,26.43,124.69,270411,,,A*5C
$GPGGA,183225.000,1608.4580,S,06934.4687,W,1,09,1.0,3834.4,M,33.9,M,,0000*66
$GPGSA,M,3,18,30,22,16,21,06,31,25,03,,,,1.8,1.0,1.5*3C
$GPGSV,3,1,12,18,65,090,35,30,63,231,38,22,59,004,38,16,40,217,37*70
$GPGSV,3,2,12,21,34,154,34,06,23,218,35,31,23,324,38,25,19,031,33*72
$GPGSV,3,3,12,29,18,094,,03,13,225,34,14,07,009,27,15,00,107,*7A
$GPRMC,183225.000,A,1608.4580,S,06934.4687,W,27.14,123.91,270411,,,A*54
$GPGGA,183226.003,1608.4624,S,06934.4621,W,1,09,1.0,3834.3,M,33.9,M,,0000*60
$GPGSA,M,3,18,30,22,16,21,06,31,25,03,,,,1.8,1.0,1.5*3C
$GPRMC,183226.003,A,1608.4624,S,06934.4621,W,26.27,124.61,270411,,,A*5C
$GPGGA,183226.995,1608.4666,S,06934.4557,W,1,09,1.0,3834.4,M,33.9,M,,0000*65
$GPGSA,M,3,18,30,22,16,21,06,31,25,03,,,,1.8,1.0,1.5*3C
$GPRMC,183226.995,A,1608.4666,S,06934.4557,W,26.67,124.29,270411,,,A*56
$GPGGA,183228.005,1608.4709,S,06934.4487,W,1,09,1.0,3833.7,M,33.9,M,,0000*6B
$GPGSA,M,3,18,30,22,16,21,06,31,25,03,,,,1.8,1.0,1.5*3C
$GPRMC,183228.005,A,1608.4709,S,06934.4487,W,26.36,124.43,270411,,,A*54
$GPGGA,183228.999,1608.4753,S,06934.4418,W,1,09,1.0,3833.7,M,33.9,M,,0000*6E
$GPGSA,M,3,18,30,22,16,21,06,31,25,03,,,,1.8,1.0,1.5*3C
$GPRMC,183228.999,A,1608.4753,S,06934.4418,W,26.91,124.47,270411,,,A*58
$GPGGA,183230.000,1608.4794,S,06934.4351,W,1,09,1.0,3834.2,M,33.9,M,,0000*6D
$GPGSA,M,3,18,30,22,16,21,06,31,25,03,,,,1.8,1.0,1.5*3C
$GPGSV,3,1,12,18,65,090,36,30,63,231,39,22,59,004,38,16,40,217,36*73
$GPGSV,3,2,12,21,34,154,35,06,23,218,34,31,23,324,37,25,19,031,33*7D
$GPGSV,3,3,12,29,18,094,,03,13,225,35,14,07,009,,15,00,107,*7E
$GPRMC,183230.000,A,1608.4794,S,06934.4351,W,26.18,123.92,270411,,,A*57
$GPGGA,183231.000,1608.4836,S,06934.4290,W,1,09,1.0,3834.5,M,33.9,M,,0000*60
$GPGSA,M,3,18,30,22,16,21,06,31,25,03,,,,1.8,1.0,1.5*3C
$GPRMC,183231.000,A,1608.4836,S,06934.4290,W,26.43,123.96,270411,,,A*57
$GPGGA,183232.000,1608.4877,S,06934.4228,W,1,09,1.0,3834.1,M,33.9,M,,0000*61
$GPGSA,M,3,18,30,22,16,21,06,31,25,03,,,,1.8,1.0,1.5*3C
$GPRMC,183232.000,A,1608.4877,S,06934.4228,W,26.04,123.95,270411,,,A*52
$GPGGA,183233.002,1608.4919,S,06934.4167,W,1,09,1.0,3834.3,M,33.9,M,,0000*61
$GPGSA,M,3,18,30,22,16,21,06,31,25,03,,,,1.8,1.0,1.5*3C
$GPRMC,183233.002,A,1608.4919,S,06934.4167,W,26.26,124.10,270411,,,A*5A
$GPGGA,183234.001,1608.4961,S,06934.4105,W,1,09,1.0,3835.5,M,33.9,M,,0000*69
$GPGSA,M,3,18,30,22,16,21,06,31,25,03,,,,1.8,1.0,1.5*3C
$GPRMC,183234.001,A,1608.4961,S,06934.4105,W,26.07,124.53,270411,,,A*51
$GPGGA,183234.997,1608.5001,S,06934.4039,W,1,08,1.1,3834.0,M,33.9,M,,0000*6B
$GPGSA,M,3,18,30,22,21,06,31,25,03,,,,,1.8,1.1,1.5*3A
$GPGSV,3,1,12,18,65,090,35,30,63,231,37,22,59,004,37,16,40,217,*74
$GPGSV,3,2,12,21,34,154,33,06,23,218,34,31,23,324,38,25,19,031,35*72
$GPGSV,3,3,12,29,18,094,,03,13,225,28,14,07,009,,15,00,107,*72
$GPRMC,183234.997,A,1608.5001,S,06934.4039,W,26.05,123.77,270411,,,A*54
$GPGGA,183236.001,1608.5045,S,06934.3977,W,1,09,1.0,3834.6,M,33.9,M,,0000*6D
$GPGSA,M,3,18,30,22,16,21,06,31,25,03,,,,1.8,1.0,1.5*3C
$GPRMC,183236.001,A,1608.5045,S,06934.3977,W,26.49,123.38,270411,,,A*57
$GPGGA,183237.002,1608.5084,S,06934.3914,W,1,09,1.0,3835.0,M,33.9,M,,0000*60
$GPGSA,M,3,18,30,22,16,21,06,31,25,03,,,,1.8,1.0,1.5*3C
$GPRMC,183237.002,A,1608.5084,S,06934.3914,W,26.25,124.06,270411,,,A*5D
$GPGGA,183237.998,1608.5126,S,06934.3852,W,1,09,1.0,3835.8,M,33.9,M,,0000*68
$GPGSA,M,3,18,30,22,16,21,06,31,25,03,,,,1.8,1.0,1.5*3C
$GPRMC,183237.998,A,1608.5126,S,06934.3852,W,26.21,125.12,270411,,,A*5D
$GPGGA,183239.026,1608.5169,S,06934.3788,W,0,00,,3836.4,M,33.9,M,,0000*41
$GPGSA,M,1,,,,,,,,,,,,,,,*12
$GPRMC,183239.026,V,1608.5169,S,06934.3788,W,,,270411,,,N*76
$GPGGA,183239.724,1608.5198,S,06934.3745,W,0,00,,3836.9,M,33.9,M,,0000*46
$GPGSA,M,1,,,,,,,,,,,,,,,*12
$GPGSV,3,1,12,18,65,091,,30,63,231,,22,59,004,,16,40,217,*73
$GPGSV,3,2,12,21,33,153,,06,23,217,,31,23,324,,25,19,031,*77
$GPGSV,3,3,12,29,18,094,,03,13,224,,14,07,009,,15,00,107,*79
$GPRMC,183239.724,V,1608.5198,S,06934.3745,W,,,270411,,,N*7C
$GPGGA,183240.000,1608.5210,S,06934.3728,W,0,00,,3837.0,M,33.9,M,,0000*49
$GPGSA,M,1,,,,,,,,,,,,,,,*12
$GPGSV,3,1,12,18,65,091,,30,63,231,,22,59,004,,16,40,217,*73
$GPGSV,3,2,12,21,33,153,,06,23,217,,31,23,324,,25,19,031,*77
$GPGSV,3,3,12,29,18,094,,03,13,224,,14,07,009,,15,00,107,*79
$GPRMC,183240.000,V,1608.5210,S,06934.3728,W,,,270411,,,N*7B
$GPGGA,183241.000,1608.5252,S,06934.3666,W,0,00,,3837.7,M,33.9,M,,0000*42
$GPGSA,M,1,,,,,,,,,,,,,,,*12
$GPRMC,183241.000,V,1608.5252,S,06934.3666,W,,,270411,,,N*77
$GPGGA,183242.000,1608.5290,S,06934.3606,W,1,07,1.3,3838.2,M,33.9,M,,0000*69
$GPGSA,M,3,18,06,30,22,16,21,31,,,,,,2.5,1.3,2.2*31
$GPRMC,183242.000,A,1608.5290,S,06934.3606,W,26.02,124.01,270411,,,A*54
$GPGGA,183243.000,1608.5331,S,06934.3543,W,1,08,1.3,3838.5,M,33.9,M,,0000*68
$GPGSA,M,3,18,06,30,22,16,21,31,03,,,,,2.4,1.3,2.0*31
$GPRMC,183243.000,A,1608.5331,S,06934.3543,W,26.06,123.92,270411,,,A*54
$GPGGA,183244.000,1608.5367,S,06934.3484,W,1,09,1.0,3840.0,M,33.9,M,,0000*6E
$GPGSA,M,3,18,06,30,22,16,21,31,03,25,,,,1.8,1.0,1.5*3C
$GPRMC,183244.000,A,1608.5367,S,06934.3484,W,26.26,124.47,270411,,,A*57
$GPGGA,183245.000,1608.5405,S,06934.3426,W,1,09,1.0,3841.8,M,33.9,M,,0000*6D
$GPGSA,M,3,18,06,30,22,16,21,31,03,25,,,,1.8,1.0,1.5*3C
$GPGSV,3,1,12,18,65,091,36,30,63,231,42,22,59,004,42,16,40,217,40*72
$GPGSV,3,2,12,21,33,153,35,06,23,217,36,31,23,324,41,25,19,031,33*71
$GPGSV,3,3,12,29,18,094,,03,13,224,36,14,07,009,27,15,00,107,*79
$GPRMC,183245.000,A,1608.5405,S,06934.3426,W,26.03,124.26,270411,,,A*5D
$GPGGA,183246.000,1608.5444,S,06934.3365,W,1,09,1.0,3843.1,M,33.9,M,,0000*60
$GPGSA,M,3,18,06,30,22,16,21,31,03,25,,,,1.8,1.0,1.5*3C
$GPRMC,183246.000,A,1608.5444,S,06934.3365,W,25.89,124.12,270411,,,A*5D
$GPGGA,183247.000,1608.5484,S,06934.3304,W,1,09,1.0,3843.8,M,33.9,M,,0000*63
$GPGSA,M,3,18,06,30,22,16,21,31,03,25,,,,1.8,1.0,1.5*3C
$GPRMC,183247.000,A,1608.5484,S,06934.3304,W,25.80,124.21,270411,,,A*5E
$GPGGA,183248.000,1608.5523,S,06934.3242,W,1,09,1.0,3844.5,M,33.9,M,,0000*69
$GPGSA,M,3,18,06,30,22,16,21,31,03,25,,,,1.8,1.0,1.5*3C
$GPRMC,183248.000,A,1608.5523,S,06934.3242,W,25.84,124.38,270411,,,A*52
$GPGGA,183249.000,1608.5563,S,06934.3183,W,1,09,1.0,3845.8,M,33.9,M,,0000*6E
$GPGSA,M,3,18,06,30,22,16,21,31,03,25,,,,1.8,1.0,1.5*3C
$GPRMC,183249.000,A,1608.5563,S,06934.3183,W,25.87,124.57,270411,,,A*53
$GPGGA,183250.000,1608.5604,S,06934.3123,W,1,09,1.0,3846.8,M,33.9,M,,0000*6D
$GPGSA,M,3,18,06,30,22,16,21,31,03,25,,,,1.8,1.0,1.5*3C
$GPGSV,3,1,12,18,65,091,36,30,63,231,42,22,59,004,42,16,40,217,40*72
$GPGSV,3,2,12,21,33,153,35,06,23,217,35,31,23,324,41,25,19,031,35*74
$GPGSV,3,3,12,29,18,094,,03,13,224,36,14,07,009,27,15,00,107,18*70
$GPRMC,183250.000,A,1608.5604,S,06934.3123,W,25.79,124.21,270411,,,A*53
$GPGGA,183251.000,1608.5644,S,06934.3063,W,1,10,0.8,3847.2,M,33.9,M,,0000*67
$GPGSA,M,3,18,06,30,22,16,21,31,03,29,25,,,1.5,0.8,1.3*35
$GPRMC,183251.000,A,1608.5644,S,06934.3063,W,25.69,124.06,270411,,,A*57
$GPGGA,183252.000,1608.5685,S,06934.3002,W,1,10,0.8,3847.8,M,33.9,M,,0000*64
$GPGSA,M,3,18,06,30,22,16,21,31,03,29,25,,,1.5,0.8,1.3*35
$GPRMC,183252.000,A,1608.5685,S,06934.3002,W,25.69,124.39,270411,,,A*52
$GPGGA,183253.012,1608.5726,S,06934.2939,W,1,09,1.0,3848.0,M,33.9,M,,0000*68
$GPGSA,M,3,18,30,22,16,21,06,31,25,03,,,,1.8,1.0,1.5*3C
$GPRMC,183253.012,A,1608.5726,S,06934.2939,W,26.27,124.86,270411,,,A*55
$GPGGA,183253.991,1608.5766,S,06934.2877,W,1,09,1.0,3847.8,M,33.9,M,,0000*62
$GPGSA,M,3,18,30,22,16,21,06,31,25,03,,,,1.8,1.0,1.5*3C
$GPRMC,183253.991,A,1608.5766,S,06934.2877,W,25.68,124.48,270411,,,A*52
$GPGGA,183254.999,1608.5807,S,06934.2816,W,1,09,1.0,3848.1,M,33.9,M,,0000*64
$GPGSA,M,3,18,30,22,16,21,06,31,25,03,,,,1.8,1.0,1.5*3C
$GPGSV,3,1,12,18,65,091,35,30,63,231,37,22,59,004,38,16,40,217,37*7E
$GPGSV,3,2,12,21,33,153,34,06,23,217,32,31,23,324,38,25,19,031,34*7D
$GPGSV,3,3,12,29,18,094,,03,13,224,34,14,07,009,27,15,00,107,*7B
$GPRMC,183254.999,A,1608.5807,S,06934.2816,W,25.82,124.11,270411,,,A*5A
$GPGGA,183255.999,1608.5847,S,06934.2753,W,1,09,1.0,3848.0,M,33.9,M,,0000*6E
$GPGSA,M,3,18,30,22,16,21,06,31,25,03,,,,1.8,1.0,1.5*3C
$GPRMC,183255.999,A,1608.5847,S,06934.2753,W,25.53,124.61,270411,,,A*5A
$GPGGA,183256.997,1608.5887,S,06934.2692,W,1,09,1.0,3848.8,M,33.9,M,,0000*6B
$GPGSA,M,3,18,30,22,16,21,06,31,25,03,,,,1.8,1.0,1.5*3C
$GPRMC,183256.997,A,1608.5887,S,06934.2692,W,25.89,124.31,270411,,,A*55
$GPGGA,183258.004,1608.5929,S,06934.2627,W,1,09,1.0,3848.6,M,33.9,M,,0000*63
$GPGSA,M,3,18,30,22,16,21,06,31,25,03,,,,1.8,1.0,1.5*3C
$GPRMC,183258.004,A,1608.5929,S,06934.2627,W,26.26,124.85,270411,,,A*5A
$GPGGA,183259.000,1608.5972,S,06934.2565,W,1,09,1.0,3848.7,M,33.9,M,,0000*6C
$GPGSA,M,3,18,30,22,16,21,06,31,25,03,,,,1.8,1.0,1.5*3C
$GPRMC,183259.000,A,1608.5972,S,06934.2565,W,26.28,124.82,270411,,,A*5D
$GPGGA,183259.997,1608.6014,S,06934.2501,W,1,09,1.0,3849.1,M,33.9,M,,0000*64
$GPGSA,M,3,18,30,22,16,21,06,31,25,03,,,,1.8,1.0,1.5*3C
$GPGSV,3,1,12,18,65,091,34,30,63,231,37,22,59,004,39,16,40,217,39*70
$GPGSV,3,2,12,21,33,153,34,06,23,217,34,31,23,324,39,25,19,031,35*7B
$GPGSV,3,3,12,29,18,094,,03,13,224,36,14,07,009,25,15,00,107,*7B
$GPRMC,183259.997,A,1608.6014,S,06934.2501,W,27.10,124.81,270411,,,A*5B
$GPGGA,183301.003,1608.6058,S,06934.2436,W,1,09,1.0,3849.2,M,33.9,M,,0000*62
$GPGSA,M,3,18,30,22,16,21,06,31,25,03,,,,1.8,1.0,1.5*3C
$GPRMC,183301.003,A,1608.6058,S,06934.2436,W,27.08,125.01,270411,,,A*5E
$GPGGA,183301.998,1608.6102,S,06934.2372,W,1,10,0.8,3849.4,M,33.9,M,,0000*67
$GPGSA,M,3,18,30,22,16,21,06,31,25,29,03,,,1.5,0.8,1.3*35
$GPRMC,183301.998,A,1608.6102,S,06934.2372,W,27.18,124.89,270411,,,A*5C
$GPGGA,183303.000,1608.6144,S,06934.2307,W,1,09,1.0,3849.3,M,33.9,M,,0000*6B
$GPGSA,M,3,18,30,22,16,21,06,31,25,03,,,,1.8,1.0,1.5*3C
$GPRMC,183303.000,A,1608.6144,S,06934.2307,W,26.71,124.79,270411,,,A*57
$GPGGA,183304.000,1608.6187,S,06934.2243,W,1,09,1.0,3849.7,M,33.9,M,,0000*66
$GPGSA,M,3,18,30,22,16,21,06,31,25,03,,,,1.8,1.0,1.5*3C
$GPRMC,183304.000,A,1608.6187,S,06934.2243,W,26.72,124.59,270411,,,A*5F
$GPGGA,183305.001,1608.6231,S,06934.2178,W,1,09,1.1,3849.6,M,33.9,M,,0000*63
$GPGSA,M,3,18,30,22,16,21,06,25,29,03,,,,1.7,1.1,1.4*3A
$GPGSV,3,1,12,18,65,091,35,30,63,231,37,22,59,004,39,16,40,217,39*71
$GPGSV,3,2,12,21,33,153,35,06,23,217,36,31,23,324,,25,19,031,34*73
$GPGSV,3,3,12,29,18,094,26,03,13,224,37,14,07,009,,15,00,107,*79
$GPRMC,183305.001,A,1608.6231,S,06934.2178,W,26.96,124.63,270411,,,A*59
$GPGGA,183306.000,1608.6274,S,06934.2112,W,1,08,1.3,3849.6,M,33.9,M,,0000*6F
$GPGSA,M,3,18,30,22,16,21,06,25,03,,,,,2.0,1.3,1.5*36
$GPRMC,183306.000,A,1608.6274,S,06934.2112,W,26.94,124.88,270411,,,A*51
$GPGGA,183307.002,1608.6318,S,06934.2047,W,1,09,1.1,3850.0,M,33.9,M,,0000*6B
$GPGSA,M,3,18,30,22,16,21,06,25,29,03,,,,1.7,1.1,1.4*3A
$GPRMC,183307.002,A,1608.6318,S,06934.2047,W,28.02,124.98,270411,,,A*58
$GPGGA,183307.999,1608.6362,S,06934.1981,W,1,09,1.0,3850.3,M,33.9,M,,0000*6F
$GPGSA,M,3,18,30,22,16,21,06,31,25,03,,,,1.8,1.0,1.4*3D
$GPRMC,183307.999,A,1608.6362,S,06934.1981,W,27.60,124.29,270411,,,A*5F
$GPGGA,183308.997,1608.6406,S,06934.1914,W,1,10,0.8,3849.9,M,33.9,M,,0000*64
$GPGSA,M,3,18,30,22,16,21,06,31,25,29,03,,,1.5,0.8,1.3*35
$GPRMC,183308.997,A,1608.6406,S,06934.1914,W,27.22,125.58,270411,,,A*56
$GPGGA,183310.002,1608.6452,S,06934.1843,W,1,09,1.0,3848.9,M,33.9,M,,0000*6A
$GPGSA,M,3,18,30,22,16,21,06,31,25,03,,,,1.8,1.0,1.4*3D
$GPGSV,3,1,12,18,65,091,35,30,63,231,37,22,59,004,39,16,40,217,38*70
$GPGSV,3,2,12,21,33,153,35,06,23,217,32,31,23,324,39,25,19,031,34*7D
$GPGSV,3,3,12,29,18,094,,03,13,224,33,14,07,009,,15,00,107,*79
$GPRMC,183310.002,A,1608.6452,S,06934.1843,W,27.62,124.65,270411,,,A*53
$GPGGA,183310.998,1608.6496,S,06934.1776,W,1,09,1.0,3848.2,M,33.9,M,,0000*6A
$GPGSA,M,3,18,30,22,16,21,06,31,25,03,,,,1.8,1.0,1.4*3D
$GPRMC,183310.998,A,1608.6496,S,06934.1776,W,26.90,124.74,270411,,,A*54
$GPGGA,183312.004,1608.6540,S,06934.1709,W,1,09,1.0,3847.6,M,33.9,M,,0000*6D
$GPGSA,M,3,18,30,22,16,21,06,31,25,03,,,,1.8,1.0,1.4*3D
$GPRMC,183312.004,A,1608.6540,S,06934.1709,W,26.86,125.55,270411,,,A*5D
$GPGGA,183312.997,1608.6584,S,06934.1644,W,1,10,0.8,3847.4,M,33.9,M,,0000*6D
$GPGSA,M,3,18,30,22,16,21,06,31,25,29,03,,,1.5,0.8,1.3*35
$GPRMC,183312.997,A,1608.6584,S,06934.1644,W,27.35,124.41,270411,,,A*53
$GPGGA,183314.002,1608.6627,S,06934.1578,W,1,09,1.0,3846.7,M,33.9,M,,0000*6B
$GPGSA,M,3,18,30,22,16,21,06,31,25,03,,,,1.8,1.0,1.4*3D
$GPRMC,183314.002,A,1608.6627,S,06934.1578,W,27.62,123.87,270411,,,A*59
$GPGGA,183314.998,1608.6670,S,06934.1513,W,1,10,0.8,3846.5,M,33.9,M,,0000*6D
$GPGSA,M,3,18,30,22,16,21,06,31,25,29,03,,,1.5,0.8,1.3*35
$GPGSV,3,1,12,18,65,091,34,30,63,231,37,22,59,004,39,16,40,217,39*70
$GPGSV,3,2,12,21,33,153,35,06,23,217,33,31,23,324,39,25,19,031,30*78
$GPGSV,3,3,12,29,18,094,25,03,13,224,34,14,07,009,,15,00,107,26*7D
$GPRMC,183314.998,A,1608.6670,S,06934.1513,W,27.32,123.68,270411,,,A*58
$GPGGA,183316.001,1608.6712,S,06934.1448,W,1,09,1.0,3846.6,M,33.9,M,,0000*6E
$GPGSA,M,3,18,30,22,16,21,06,31,25,03,,,,1.8,1.0,1.4*3D
$GPRMC,183316.001,A,1608.6712,S,06934.1448,W,27.34,123.33,270411,,,A*51
$GPGGA,183317.000,1608.6756,S,06934.1380,W,1,09,0.9,3846.1,M,33.9,M,,0000*62
$GPGSA,M,3,18,30,22,16,21,31,25,29,03,,,,1.6,0.9,1.3*31
$GPRMC,183317.000,A,1608.6756,S,06934.1380,W,27.85,123.91,270411,,,A*50
$GPGGA,183318.003,1608.6800,S,06934.1310,W,1,09,1.0,3845.2,M,33.9,M,,0000*63
$GPGSA,M,3,18,30,22,16,21,06,31,25,03,,,,1.8,1.0,1.4*3D
$GPRMC,183318.003,A,1608.6800,S,06934.1310,W,27.42,124.58,270411,,,A*50
$GPGGA,183318.997,1608.6844,S,06934.1246,W,1,10,0.8,3845.5,M,33.9,M,,0000*63
$GPGSA,M,3,18,30,22,16,21,06,31,25,29,03,,,1.5,0.8,1.3*35
$GPRMC,183318.997,A,1608.6844,S,06934.1246,W,27.27,124.50,270411,,,A*5D
$GPGGA,183320.003,1608.6889,S,06934.1177,W,1,09,1.0,3844.0,M,33.9,M,,0000*69
$GPGSA,M,3,18,30,22,16,21,06,31,25,03,,,,1.8,1.0,1.4*3D
$GPGSV,3,1,12,18,65,091,32,30,63,231,37,22,59,004,38,16,40,217,38*76
$GPGSV,3,2,12,21,33,153,36,06,23,217,29,31,23,324,38,25,19,031,31*70
$GPGSV,3,3,12,29,18,094,,03,13,224,33,14,07,009,,15,00,107,29*72
$GPRMC,183320.003,A,1608.6889,S,06934.1177,W,27.20,124.67,270411,,,A*51
$GPGGA,183320.997,1608.6933,S,06934.1112,W,1,10,0.8,3843.5,M,33.9,M,,0000*6D
$GPGSA,M,3,18,30,22,16,21,06,31,25,29,03,,,1.5,0.8,1.3*35
$GPRMC,183320.997,A,1608.6933,S,06934.1112,W,27.00,124.35,270411,,,A*53
$GPGGA,183321.998,1608.6974,S,06934.1050,W,1,09,1.0,3844.2,M,33.9,M,,0000*66
$GPGSA,M,3,18,30,22,16,21,06,31,25,03,,,,1.8,1.0,1.4*3D
$GPRMC,183321.998,A,1608.6974,S,06934.1050,W,27.05,123.32,270411,,,A*5C
$GPGGA,183323.004,1608.7017,S,06934.0983,W,1,10,0.8,3843.6,M,33.9,M,,0000*61
$GPGSA,M,3,18,30,22,16,21,06,31,25,29,03,,,1.5,0.8,1.3*35
$GPRMC,183323.004,A,1608.7017,S,06934.0983,W,27.14,124.44,270411,,,A*5F
$GPGGA,183323.999,1608.7058,S,06934.0921,W,1,10,0.8,3843.9,M,33.9,M,,0000*60
$GPGSA,M,3,18,30,22,16,21,06,31,25,29,03,,,1.5,0.8,1.3*35
$GPRMC,183323.999,A,1608.7058,S,06934.0921,W,27.09,123.86,270411,,,A*54
$GPGGA,183325.000,1608.7102,S,06934.0853,W,1,10,0.8,3843.5,M,33.9,M,,0000*69
$GPGSA,M,3,18,30,22,16,21,06,31,25,29,03,,,1.5,0.8,1.3*35
$GPGSV,3,1,12,18,65,091,35,30,63,231,37,22,59,004,39,16,40,217,38*70
$GPGSV,3,2,12,21,33,153,35,06,23,217,33,31,23,324,38,25,19,031,30*79
$GPGSV,3,3,12,29,18,094,28,03,13,224,35,14,07,009,,15,00,107,25*72
$GPRMC,183325.000,A,1608.7102,S,06934.0853,W,27.26,125.33,270411,,,A*54
$GPGGA,183326.001,1608.7145,S,06934.0790,W,1,09,1.0,3843.6,M,33.9,M,,0000*6A
$GPGSA,M,3,18,30,22,16,21,06,31,25,03,,,,1.8,1.0,1.4*3D
$GPRMC,183326.001,A,1608.7145,S,06934.0790,W,26.78,125.13,270411,,,A*5D
$GPGGA,183326.999,1608.7188,S,06934.0723,W,1,10,0.8,3843.1,M,33.9,M,,0000*6D
$GPGSA,M,3,18,30,22,16,21,06,31,25,29,03,,,1.5,0.8,1.3*35
$GPRMC,183326.999,A,1608.7188,S,06934.0723,W,27.64,124.68,270411,,,A*5D
$GPGGA,183327.999,1608.7232,S,06934.0655,W,1,10,0.8,3842.2,M,33.9,M,,0000*6C
$GPGSA,M,3,18,30,22,16,21,06,31,25,29,03,,,1.5,0.8,1.3*35
$GPRMC,183327.999,A,1608.7232,S,06934.0655,W,27.72,123.97,270411,,,A*5E
$GPGGA,183329.001,1608.7277,S,06934.0586,W,1,10,0.8,3841.7,M,33.9,M,,0000*60
$GPGSA,M,3,18,30,22,16,21,06,31,25,29,03,,,1.5,0.8,1.3*35
$GPRMC,183329.001,A,1608.7277,S,06934.0586,W,27.77,124.22,270411,,,A*58
$GPGGA,183330.000,1608.7322,S,06934.0516,W,1,09,1.0,3840.6,M,33.9,M,,0000*60
$GPGSA,M,3,18,30,22,16,21,06,31,25,03,,,,1.8,1.0,1.4*3D
$GPGSV,3,1,12,18,65,091,34,30,63,231,38,22,59,004,38,16,40,217,39*7E
$GPGSV,3,2,12,21,33,153,35,06,23,217,35,31,23,324,38,25,19,031,30*7F
$GPGSV,3,3,12,29,18,094,,03,13,224,34,14,07,009,,15,00,107,27*7B
$GPRMC,183330.000,A,1608.7322,S,06934.0516,W,28.19,124.28,270411,,,A*54
$GPGGA,183331.001,1608.7368,S,06934.0448,W,1,10,0.8,3839.6,M,33.9,M,,0000*6B
$GPGSA,M,3,18,30,22,16,21,06,31,25,29,03,,,1.5,0.8,1.3*35
$GPRMC,183331.001,A,1608.7368,S,06934.0448,W,27.78,124.91,270411,,,A*5A
$GPGGA,183332.001,1608.7412,S,06934.0385,W,1,10,0.8,3839.7,M,33.9,M,,0000*65
$GPGSA,M,3,18,30,22,16,21,06,31,25,29,03,,,1.5,0.8,1.3*35
$GPRMC,183332.001,A,1608.7412,S,06934.0385,W,27.49,124.73,270411,,,A*5B
$GPGGA,183332.999,1608.7457,S,06934.0317,W,1,10,0.8,3839.2,M,33.9,M,,0000*62
$GPGSA,M,3,18,30,22,16,21,06,31,25,29,03,,,1.5,0.8,1.3*35
$GPRMC,183332.999,A,1608.7457,S,06934.0317,W,28.12,124.24,270411,,,A*5A
$GPGGA,183334.001,1608.7502,S,06934.0250,W,1,10,0.8,3838.5,M,33.9,M,,0000*69
$GPGSA,M,3,18,30,22,16,21,06,31,25,29,03,,,1.5,0.8,1.3*35
$GPRMC,183334.001,A,1608.7502,S,06934.0250,W,28.35,124.64,270411,,,A*56
$GPGGA,183335.001,1608.7547,S,06934.0182,W,1,10,0.8,3837.7,M,33.9,M,,0000*68
$GPGSA,M,3,18,30,22,16,21,06,31,25,29,03,,,1.5,0.8,1.3*35
$GPGSV,3,1,12,18,65,091,34,30,63,231,37,22,59,004,39,16,40,217,39*70
$GPGSV,3,2,12,21,33,153,35,06,23,217,35,31,23,324,39,25,19,031,31*7F
$GPGSV,3,3,12,29,18,094,27,03,13,224,35,14,07,009,,15,00,107,*7A
$GPRMC,183335.001,A,1608.7547,S,06934.0182,W,27.96,123.84,270411,,,A*55
$GPGGA,183336.001,1608.7590,S,06934.0114,W,1,10,0.8,3836.8,M,33.9,M,,0000*60
$GPGSA,M,3,18,30,22,16,21,06,31,25,29,03,,,1.5,0.8,1.3*35
$GPRMC,183336.001,A,1608.7590,S,06934.0114,W,28.09,124.19,270411,,,A*59
$GPGGA,183337.004,1608.7635,S,06934.0049,W,1,09,1.0,3837.1,M,33.9,M,,0000*68
$GPGSA,M,3,18,30,22,16,21,06,31,25,03,,,,1.8,1.0,1.4*3D
$GPRMC,183337.004,A,1608.7635,S,06934.0049,W,27.26,123.93,270411,,,A*5F
$GPGGA,183337.999,1608.7680,S,06933.9982,W,1,09,1.0,3836.7,M,33.9,M,,0000*6C
$GPGSA,M,3,18,30,22,16,21,06,31,25,03,,,,1.8,1.0,1.4*3D
$GPRMC,183337.999,A,1608.7680,S,06933.9982,W,27.92,124.26,270411,,,A*5A
$GPGGA,183338.998,1608.7724,S,06933.9917,W,1,10,0.8,3836.9,M,33.9,M,,0000*6E
$GPGSA,M,3,18,30,22,16,21,06,31,25,29,03,,,1.5,0.8,1.3*35
$GPRMC,183338.998,A,1608.7724,S,06933.9917,W,26.87,125.12,270411,,,A*54
$GPGGA,183340.004,1608.7767,S,06933.9852,W,1,10,0.8,3837.1,M,33.9,M,,0000*63
$GPGSA,M,3,18,30,22,16,21,06,31,25,29,03,,,1.5,0.8,1.3*35
$GPGSV,3,1,12,18,65,091,34,30,63,231,38,22,59,004,38,16,40,217,38*7F
$GPGSV,3,2,12,21,33,153,33,06,23,217,34,31,23,324,39,25,19,031,34*7D
$GPGSV,3,3,12,29,18,094,28,03,13,224,36,14,07,009,25,15,00,107,*71
$GPRMC,183340.004,A,1608.7767,S,06933.9852,W,26.92,125.48,270411,,,A*5B
$GPGGA,183340.997,1608.7811,S,06933.9791,W,1,10,0.8,3837.1,M,33.9,M,,0000*6E
$GPGSA,M,3,18,30,22,16,21,06,31,25,29,03,,,1.5,0.8,1.3*35
$GPRMC,183340.997,A,1608.7811,S,06933.9791,W,26.80,124.90,270411,,,A*51
$GPGGA,183341.998,1608.7854,S,06933.9728,W,1,10,0.8,3837.0,M,33.9,M,,0000*62
$GPGSA,M,3,18,30,22,16,21,06,31,25,29,03,,,1.5,0.8,1.3*35
$GPRMC,183341.998,A,1608.7854,S,06933.9728,W,27.07,125.12,270411,,,A*59
$GPGGA,183343.001,1608.7898,S,06933.9661,W,1,10,0.8,3837.1,M,33.9,M,,0000*64
$GPGSA,M,3,18,30,22,16,21,06,31,25,29,03,,,1.5,0.8,1.3*35
$GPRMC,183343.001,A,1608.7898,S,06933.9661,W,26.95,124.54,270411,,,A*57
$GPGGA,183344.001,1608.7940,S,06933.9597,W,1,09,1.0,3837.7,M,33.9,M,,0000*6A
$GPGSA,M,3,18,30,22,16,21,06,31,25,03,,,,1.8,1.0,1.4*3D
$GPRMC,183344.001,A,1608.7940,S,06933.9597,W,26.69,124.53,270411,,,A*5A
$GPGGA,183345.001,1608.7982,S,06933.9533,W,1,09,1.0,3838.0,M,33.9,M,,0000*63
$GPGSA,M,3,18,30,22,16,21,06,31,25,03,,,,1.8,1.0,1.4*3D
$GPGSV,3,1,12,18,65,091,34,30,63,231,38,22,59,004,39,16,40,217,39*7F
$GPGSV,3,2,12,21,33,153,35,06,23,217,35,31,23,324,38,25,19,031,34*7B
$GPGSV,3,3,12,29,18,094,,03,13,224,36,14,07,009,25,15,00,107,*7B
$GPRMC,183345.001,A,1608.7982,S,06933.9533,W,26.52,124.52,270411,,,A*52
$GPGGA,183346.001,1608.8025,S,06933.9468,W,1,10,0.8,3837.7,M,33.9,M,,0000*6D
$GPGSA,M,3,18,30,22,16,21,06,31,25,29,03,,,1.5,0.8,1.3*35
$GPRMC,183346.001,A,1608.8025,S,06933.9468,W,26.80,124.47,270411,,,A*5E
$GPGGA,183347.004,1608.8067,S,06933.9405,W,1,10,0.8,3837.3,M,33.9,M,,0000*60
$GPGSA,M,3,18,30,22,16,21,06,31,25,29,03,,,1.5,0.8,1.3*35
$GPRMC,183347.004,A,1608.8067,S,06933.9405,W,26.37,124.81,270411,,,A*51
$GPGGA,183347.997,1608.8109,S,06933.9343,W,1,10,0.8,3837.6,M,33.9,M,,0000*6A
$GPGSA,M,3,18,30,22,16,21,06,31,25,29,03,,,1.5,0.8,1.3*35
$GPRMC,183347.997,A,1608.8109,S,06933.9343,W,26.35,124.41,270411,,,A*50
$GPGGA,183349.000,1608.8151,S,06933.9280,W,1,09,1.0,3837.7,M,33.9,M,,0000*60
$GPGSA,M,3,18,30,22,16,21,06,31,25,03,,,,1.8,1.0,1.4*3D
$GPRMC,183349.000,A,1608.8151,S,06933.9280,W,26.52,124.21,270411,,,A*5D
$GPGGA,183350.000,1608.8193,S,06933.9215,W,1,09,1.0,3837.1,M,33.9,M,,0000*6C
$GPGSA,M,3,18,30,22,16,21,06,31,25,03,,,,1.8,1.0,1.4*3D
$GPGSV,3,1,12,18,65,091,32,30,63,231,37,22,59,004,38,16,40,217,39*77
$GPGSV,3,2,12,21,33,153,31,06,23,217,34,31,23,324,38,25,19,031,33*79
$GPGSV,3,3,12,29,18,094,,03,13,224,34,14,07,009,21,15,00,107,28*77
$GPRMC,183350.000,A,1608.8193,S,06933.9215,W,26.62,124.34,270411,,,A*50
$GPGGA,183351.004,1608.8234,S,06933.9153,W,1,10,0.8,3837.1,M,33.9,M,,0000*67
$GPGSA,M,3,18,30,22,16,21,06,31,25,29,03,,,1.5,0.8,1.3*35
$GPRMC,183351.004,A,1608.8234,S,06933.9153,W,26.12,124.60,270411,,,A*5C
$GPGGA,183351.994,1608.8276,S,06933.9089,W,1,09,1.0,3836.7,M,33.9,M,,0000*61
$GPGSA,M,3,18,30,22,16,21,06,31,25,03,,,,1.8,1.0,1.4*3D
$GPRMC,183351.994,A,1608.8276,S,06933.9089,W,26.59,125.25,270411,,,A*53
$GPGGA,183353.004,1608.8321,S,06933.9023,W,1,09,1.0,3836.1,M,33.9,M,,0000*66
$GPGSA,M,3,18,30,22,16,21,06,31,25,03,,,,1.8,1.0,1.4*3D
$GPRMC,183353.004,A,1608.8321,S,06933.9023,W,26.32,124.64,270411,,,A*5B
$GPGGA,183353.996,1608.8362,S,06933.8961,W,1,09,0.9,3836.1,M,33.9,M,,0000*65
$GPGSA,M,3,18,30,22,16,06,31,25,29,03,,,,1.6,0.9,1.3*34
$GPRMC,183353.996,A,1608.8362,S,06933.8961,W,26.77,124.67,270411,,,A*52
$GPGGA,183355.001,1608.8404,S,06933.8898,W,1,10,0.8,3835.9,M,33.9,M,,0000*66
$GPGSA,M,3,18,30,22,16,21,06,31,25,29,03,,,1.5,0.8,1.3*35
$GPGSV,3,1,12,18,65,091,32,30,63,231,37,22,59,004,38,16,40,217,39*77
$GPGSV,3,2,12,21,33,153,33,06,23,217,35,31,23,324,38,25,19,031,31*78
$GPGSV,3,3,12,29,18,094,23,03,13,224,34,14,07,009,,15,00,107,*7F
$GPRMC,183355.001,A,1608.8404,S,06933.8898,W,26.60,124.16,270411,,,A*53
$GPGGA,183356.006,1608.8448,S,06933.8833,W,1,10,0.8,3835.7,M,33.9,M,,0000*65
$GPGSA,M,3,18,30,22,16,21,06,31,25,29,03,,,1.5,0.8,1.3*35
$GPRMC,183356.006,A,1608.8448,S,06933.8833,W,26.88,124.99,270411,,,A*5F
$GPGGA,183356.995,1608.8491,S,06933.8771,W,1,10,0.8,3835.6,M,33.9,M,,0000*6A
$GPGSA,M,3,18,30,22,16,21,06,31,25,29,03,,,1.5,0.8,1.3*35
$GPRMC,183356.995,A,1608.8491,S,06933.8771,W,27.17,124.48,270411,,,A*5A
$GPGGA,183358.000,1608.8536,S,06933.8707,W,1,10,0.8,3835.8,M,33.9,M,,0000*62
$GPGSA,M,3,18,30,22,16,21,06,31,25,29,03,,,1.5,0.8,1.3*35
$GPRMC,183358.000,A,1608.8536,S,06933.8707,W,27.04,124.56,270411,,,A*51
$GPGGA,183359.002,1608.8579,S,06933.8644,W,1,09,1.0,3835.5,M,33.9,M,,0000*60
$GPGSA,M,3,18,30,22,16,21,06,31,25,03,,,,1.8,1.0,1.4*3D
$GPRMC,183359.002,A,1608.8579,S,06933.8644,W,27.04,124.23,270411,,,A*5D
$GPGGA,183359.997,1608.8621,S,06933.8579,W,1,10,0.8,3835.4,M,33.9,M,,0000*66
$GPGSA,M,3,18,30,22,16,21,06,31,25,29,03,,,1.5,0.8,1.3*35
$GPGSV,3,1,12,18,65,091,33,30,63,231,37,22,59,004,38,16,40,217,39*76
$GPGSV,3,2,12,21,33,153,35,06,23,217,35,31,23,324,39,25,19,031,32*7C
$GPGSV,3,3,12,29,18,094,27,03,13,224,35,14,07,009,,15,00,107,*7A
$GPRMC,183359.997,A,1608.8621,S,06933.8579,W,27.82,124.31,270411,,,A*56
$GPGGA,183401.005,1608.8665,S,06933.8513,W,1,10,0.8,3835.8,M,33.9,M,,0000*6E
$GPGSA,M,3,18,30,22,16,21,06,31,25,29,03,,,1.5,0.8,1.3*35
$GPRMC,183401.005,A,1608.8665,S,06933.8513,W,27.39,123.98,270411,,,A*56
$GPGGA,183401.996,1608.8708,S,06933.8446,W,1,10,0.8,3835.6,M,33.9,M,,0000*68
$GPGSA,M,3,18,30,22,16,21,06,31,25,29,03,,,1.5,0.8,1.3*35
$GPRMC,183401.996,A,1608.8708,S,06933.8446,W,27.46,123.65,270411,,,A*54
$GPGGA,183402.999,1608.8752,S,06933.8381,W,1,10,0.8,3835.8,M,33.9,M,,0000*69
$GPGSA,M,3,18,30,22,16,21,06,31,25,29,03,,,1.5,0.8,1.3*35
$GPRMC,183402.999,A,1608.8752,S,06933.8381,W,26.88,123.82,270411,,,A*51
$GPGGA,183404.001,1608.8793,S,06933.8317,W,1,10,0.8,3835.8,M,33.9,M,,0000*65
$GPGSA,M,3,18,30,22,16,21,06,31,25,29,03,,,1.5,0.8,1.3*35
$GPRMC,183404.001,A,1608.8793,S,06933.8317,W,26.82,123.75,270411,,,A*5F
$GPGGA,183405.007,1608.8835,S,06933.8253,W,1,10,0.8,3834.6,M,33.9,M,,0000*6F
$GPGSA,M,3,18,30,22,16,21,06,31,25,29,03,,,1.5,0.8,1.3*35
$GPGSV,3,1,12,18,65,091,35,30,63,231,37,22,59,004,38,16,40,217,40*7E
$GPGSV,3,2,12,21,33,153,33,06,23,217,35,31,23,324,39,25,19,031,31*79
$GPGSV,3,3,12,29,18,094,27,03,13,224,34,14,07,009,,15,00,107,25*7C
$GPRMC,183405.007,A,1608.8835,S,06933.8253,W,26.27,124.64,270411,,,A*52
$GPGGA,183405.995,1608.8876,S,06933.8191,W,1,10,0.8,3834.5,M,33.9,M,,0000*64
$GPGSA,M,3,18,30,22,16,21,06,31,25,29,03,,,1.5,0.8,1.3*35
$GPRMC,183405.995,A,1608.8876,S,06933.8191,W,27.05,124.56,270411,,,A*5A
$GPGGA,183407.001,1608.8920,S,06933.8126,W,1,10,0.8,3834.2,M,33.9,M,,0000*6B
$GPGSA,M,3,18,30,22,16,21,06,31,25,29,03,,,1.5,0.8,1.3*35
$GPRMC,183407.001,A,1608.8920,S,06933.8126,W,27.17,124.70,270411,,,A*55
$GPGGA,183407.999,1608.8963,S,06933.8061,W,1,10,0.8,3834.5,M,33.9,M,,0000*61
$GPGSA,M,3,18,30,22,16,21,06,31,25,29,03,,,1.5,0.8,1.3*35
$GPRMC,183407.999,A,1608.8963,S,06933.8061,W,27.15,124.73,270411,,,A*59
$GPGGA,183409.002,1608.9008,S,06933.7993,W,1,09,0.9,3834.2,M,33.9,M,,0000*64
$GPGSA,M,3,18,30,22,16,21,06,31,29,03,,,,1.7,0.9,1.4*36
$GPRMC,183409.002,A,1608.9008,S,06933.7993,W,27.10,125.49,270411,,,A*5F
$GPGGA,183409.998,1608.9053,S,06933.7925,W,1,10,0.8,3833.7,M,33.9,M,,0000*66
$GPGSA,M,3,18,30,22,16,21,06,31,25,29,03,,,1.5,0.8,1.3*35
$GPGSV,3,1,12,18,65,091,34,30,63,231,39,22,59,004,39,16,40,217,39*7E
$GPGSV,3,2,12,21,33,153,35,06,23,217,35,31,23,324,39,25,19,031,30*7E
$GPGSV,3,3,12,29,18,094,28,03,13,224,35,14,07,009,,15,00,107,27*70
$GPRMC,183409.998,A,1608.9053,S,06933.7925,W,27.25,124.85,270411,,,A*51
$GPGGA,183411.000,1608.9098,S,06933.7860,W,1,10,0.8,3833.3,M,33.9,M,,0000*64
$GPGSA,M,3,18,30,22,16,21,06,31,25,29,03,,,1.5,0.8,1.3*35
$GPRMC,183411.000,A,1608.9098,S,06933.7860,W,26.79,124.58,270411,,,A*5F
$GPGGA,183412.000,1608.9142,S,06933.7798,W,1,10,0.8,3833.2,M,33.9,M,,0000*68
$GPGSA,M,3,18,30,22,16,21,06,31,25,29,03,,,1.5,0.8,1.3*35
$GPRMC,183412.000,A,1608.9142,S,06933.7798,W,26.83,124.54,270411,,,A*5B
$GPGGA,183413.001,1608.9185,S,06933.7734,W,1,10,0.8,3833.6,M,33.9,M,,0000*61
$GPGSA,M,3,18,30,22,16,21,06,31,25,29,03,,,1.5,0.8,1.3*35
$GPRMC,183413.001,A,1608.9185,S,06933.7734,W,26.96,125.20,270411,,,A*50
$GPGGA,183413.999,1608.9227,S,06933.7670,W,1,09,1.0,3832.9,M,33.9,M,,0000*6C
$GPGSA,M,3,18,30,22,16,21,06,31,25,03,,,,1.8,1.0,1.4*3D
$GPRMC,183413.999,A,1608.9227,S,06933.7670,W,27.05,124.19,270411,,,A*52
$GPGGA,183415.001,1608.9269,S,06933.7605,W,1,09,1.0,3833.7,M,33.9,M,,0000*65
$GPGSA,M,3,18,30,22,16,21,06,31,25,03,,,,1.8,1.0,1.4*3D
$GPGSV,3,1,12,18,65,091,34,30,63,231,37,22,59,004,38,16,40,217,39*71
$GPGSV,3,2,12,21,33,153,34,06,23,217,35,31,23,324,39,25,19,031,30*7F
$GPGSV,3,3,12,29,18,094,,03,13,224,36,14,07,009,,15,00,107,28*76
$GPRMC,183415.001,A,1608.9269,S,06933.7605,W,26.89,124.56,270411,,,A*5A
$GPGGA,183416.001,1608.9311,S,06933.7541,W,1,10,0.8,3833.4,M,33.9,M,,0000*69
$GPGSA,M,3,18,30,22,16,21,06,31,25,29,03,,,1.5,0.8,1.3*35
$GPRMC,183416.001,A,1608.9311,S,06933.7541,W,27.10,124.18,270411,,,A*5F
$GPGGA,183417.002,1608.9353,S,06933.7474,W,1,10,0.8,3833.5,M,33.9,M,,0000*6B
$GPGSA,M,3,18,30,22,16,21,06,31,25,29,03,,,1.5,0.8,1.3*35
$GPRMC,183417.002,A,1608.9353,S,06933.7474,W,27.36,124.15,270411,,,A*55
$GPGGA,183418.001,1608.9396,S,06933.7408,W,1,09,1.0,3834.3,M,33.9,M,,0000*65
$GPGSA,M,3,18,30,22,16,21,06,31,25,03,,,,1.8,1.0,1.4*3D
$GPRMC,183418.001,A,1608.9396,S,06933.7408,W,27.30,124.16,270411,,,A*5E
$GPGGA,183419.002,1608.9438,S,06933.7343,W,1,09,1.0,3833.6,M,33.9,M,,0000*6E
$GPGSA,M,3,18,30,22,16,21,06,31,25,03,,,,1.8,1.0,1.4*3D
$GPRMC,183419.002,A,1608.9438,S,06933.7343,W,27.10,125.04,270411,,,A*57
$GPGGA,183419.998,1608.9481,S,06933.7281,W,1,10,0.8,3833.8,M,33.9,M,,0000*66
$GPGSA,M,3,18,30,22,16,21,06,31,25,29,03,,,1.5,0.8,1.3*35
$GPGSV,3,1,12,18,65,091,35,30,63,231,38,22,59,004,39,16,40,217,38*7F
$GPGSV,3,2,12,21,33,153,35,06,23,217,35,31,23,324,38,25,19,031,30*7F
$GPGSV,3,3,12,29,18,094,28,03,13,224,36,14,07,009,,15,00,107,28*7C
$GPRMC,183419.998,A,1608.9481,S,06933.7281,W,26.85,125.14,270411,,,A*5C
$GPGGA,183421.002,1608.9525,S,06933.7217,W,1,10,0.8,3833.6,M,33.9,M,,0000*69
$GPGSA,M,3,18,30,22,16,21,06,31,25,29,03,,,1.5,0.8,1.3*35
$GPRMC,183421.002,A,1608.9525,S,06933.7217,W,27.58,124.69,270411,,,A*57
$GPGGA,183421.999,1608.9570,S,06933.7150,W,1,09,0.9,3834.3,M,33.9,M,,0000*69
$GPGSA,M,3,18,30,22,16,06,31,25,29,03,,,,1.6,0.9,1.3*34
$GPRMC,183421.999,A,1608.9570,S,06933.7150,W,27.76,124.43,270411,,,A*58
$GPGGA,183423.001,1608.9614,S,06933.7083,W,1,09,0.9,3833.7,M,33.9,M,,0000*6E
$GPGSA,M,3,18,30,22,16,21,06,31,29,03,,,,1.7,0.9,1.4*36
$GPRMC,183423.001,A,1608.9614,S,06933.7083,W,27.51,124.39,270411,,,A*54
$GPGGA,183423.997,1608.9658,S,06933.7018,W,1,10,0.8,3834.0,M,33.9,M,,0000*6B
$GPGSA,M,3,18,30,22,16,21,06,31,25,29,03,,,1.5,0.8,1.3*35
$GPRMC,183423.997,A,1608.9658,S,06933.7018,W,27.19,124.78,270411,,,A*51
$GPGGA,183425.000,1608.9703,S,06933.6953,W,1,10,0.8,3834.2,M,33.9,M,,0000*60
$GPGSA,M,3,18,30,22,16,21,06,31,25,29,03,,,1.5,0.8,1.3*35
$GPGSV,3,1,12,18,65,091,36,30,63,231,39,22,59,004,38,16,40,217,39*7D
$GPGSV,3,2,12,21,33,153,34,06,23,217,36,31,23,324,38,25,19,031,30*7D
$GPGSV,3,3,12,29,18,094,27,03,13,224,35,14,07,009,,15,00,107,*7A
$GPRMC,183425.000,A,1608.9703,S,06933.6953,W,27.48,124.12,270411,,,A*50
$GPGGA,183426.004,1608.9746,S,06933.6886,W,1,10,0.8,3834.0,M,33.9,M,,0000*6D
$GPGSA,M,3,18,30,22,16,21,06,31,25,29,03,,,1.5,0.8,1.3*35
$GPRMC,183426.004,A,1608.9746,S,06933.6886,W,27.84,124.14,270411,,,A*59
$GPGGA,183426.995,1608.9788,S,06933.6823,W,1,09,1.0,3834.9,M,33.9,M,,0000*69
$GPGSA,M,3,18,30,22,16,21,06,31,25,03,,,,1.8,1.0,1.4*3D
$GPRMC,183426.995,A,1608.9788,S,06933.6823,W,26.85,125.25,270411,,,A*56
$GPGGA,183428.002,1608.9832,S,06933.6756,W,1,10,0.8,3833.9,M,33.9,M,,0000*65
$GPGSA,M,3,18,30,22,16,21,06,31,25,29,03,,,1.5,0.8,1.3*35
$GPRMC,183428.002,A,1608.9832,S,06933.6756,W,26.68,125.71,270411,,,A*5E
$GPGGA,183429.001,1608.9875,S,06933.6693,W,1,10,0.8,3833.6,M,33.9,M,,0000*63
$GPGSA,M,3,18,30,22,16,21,06,31,25,29,03,,,1.5,0.8,1.3*35
$GPRMC,183429.001,A,1608.9875,S,06933.6693,W,27.04,124.46,270411,,,A*59
$GPGGA,183430.004,1608.9919,S,06933.6626,W,1,10,0.8,3832.5,M,33.9,M,,0000*69
$GPGSA,M,3,18,30,22,16,21,06,31,25,29,03,,,1.5,0.8,1.3*35
$GPGSV,3,1,12,18,65,091,34,30,63,231,37,22,59,004,39,16,40,217,39*70
$GPGSV,3,2,12,21,33,153,35,06,23,217,35,31,23,324,37,25,19,031,30*70
$GPGSV,3,3,12,29,18,094,26,03,13,224,33,14,07,009,,15,00,107,23*7C
$GPRMC,183430.004,A,1608.9919,S,06933.6626,W,26.62,126.32,270411,,,A*51
$GPGGA,183430.997,1608.9963,S,06933.6559,W,1,10,0.8,3831.5,M,33.9,M,,0000*6F
$GPGSA,M,3,18,30,22,16,21,06,31,25,29,03,,,1.5,0.8,1.3*35
$GPRMC,183430.997,A,1608.9963,S,06933.6559,W,26.91,124.08,270411,,,A*53
$GPGGA,183431.999,1609.0008,S,06933.6490,W,1,10,0.8,3830.8,M,33.9,M,,0000*64
$GPGSA,M,3,18,30,22,16,21,06,31,25,29,03,,,1.5,0.8,1.3*35
$GPRMC,183431.999,A,1609.0008,S,06933.6490,W,26.33,125.34,270411,,,A*52
$GPGGA,183432.998,1609.0052,S,06933.6425,W,1,10,0.8,3829.8,M,33.9,M,,0000*6F
$GPGSA,M,3,18,30,22,16,21,06,31,25,29,03,,,1.5,0.8,1.3*35
$GPRMC,183432.998,A,1609.0052,S,06933.6425,W,26.90,124.72,270411,,,A*5B
$GPGGA,183434.002,1609.0094,S,06933.6360,W,1,09,0.9,3829.8,M,33.9,M,,0000*66
$GPGSA,M,3,18,30,22,16,21,06,31,29,03,,,,1.7,0.9,1.4*36
$GPRMC,183434.002,A,1609.0094,S,06933.6360,W,26.68,124.04,270411,,,A*5D
$GPGGA,183435.001,1609.0135,S,06933.6299,W,1,10,0.8,3830.2,M,33.9,M,,0000*62
$GPGSA,M,3,18,30,22,16,21,06,31,25,29,03,,,1.5,0.8,1.3*35
$GPGSV,3,1,12,18,65,091,35,30,63,231,36,22,59,004,38,16,40,217,38*70
$GPGSV,3,2,12,21,33,153,33,06,23,217,33,31,23,324,39,25,19,031,31*7F
$GPGSV,3,3,12,29,18,094,27,03,13,224,35,14,07,009,24,15,00,107,*7C
$GPRMC,183435.001,A,1609.0135,S,06933.6299,W,26.14,125.53,270411,,,A*5A
$GPGGA,183435.999,1609.0178,S,06933.6235,W,1,10,0.8,3830.9,M,33.9,M,,0000*6E
$GPGSA,M,3,18,30,22,16,21,06,31,25,29,03,,,1.5,0.8,1.3*35
$GPRMC,183435.999,A,1609.0178,S,06933.6235,W,26.81,125.72,270411,,,A*52
$GPGGA,183437.001,1609.0221,S,06933.6174,W,1,10,0.8,3831.3,M,33.9,M,,0000*66
$GPGSA,M,3,18,30,22,16,21,06,31,25,29,03,,,1.5,0.8,1.3*35
$GPRMC,183437.001,A,1609.0221,S,06933.6174,W,27.07,124.83,270411,,,A*51
$GPGGA,183437.999,1609.0265,S,06933.6107,W,1,10,0.8,3830.6,M,33.9,M,,0000*6E
$GPGSA,M,3,18,30,22,16,21,06,31,25,29,03,,,1.5,0.8,1.3*35
$GPRMC,183437.999,A,1609.0265,S,06933.6107,W,27.14,124.59,270411,,,A*58
$GPGGA,183439.001,1609.0309,S,06933.6039,W,1,10,0.8,3829.8,M,33.9,M,,0000*69
$GPGSA,M,3,18,30,22,16,21,06,31,25,29,03,,,1.5,0.8,1.3*35
$GPRMC,183439.001,A,1609.0309,S,06933.6039,W,27.70,124.56,270411,,,A*54
$GPGGA,183440.001,1609.0353,S,06933.5971,W,1,10,0.8,3829.8,M,33.9,M,,0000*6E
$GPGSA,M,3,18,30,22,16,21,06,31,25,29,03,,,1.5,0.8,1.3*35
$GPGSV,3,1,12,18,65,091,34,30,63,231,38,22,59,004,39,16,40,217,39*7F
$GPGSV,3,2,12,21,33,153,34,06,23,217,35,31,23,324,37,25,19,031,31*70
$GPGSV,3,3,12,29,18,094,28,03,13,224,35,14,07,009,,15,00,107,*75
$GPRMC,183440.001,A,1609.0353,S,06933.5971,W,28.17,123.47,270411,,,A*5A
$GPGGA,183441.001,1609.0396,S,06933.5905,W,1,10,0.8,3829.8,M,33.9,M,,0000*65
$GPGSA,M,3,18,30,22,16,21,06,31,25,29,03,,,1.5,0.8,1.3*35
$GPRMC,183441.001,A,1609.0396,S,06933.5905,W,27.41,123.78,270411,,,A*51
$GPGGA,183442.003,1609.0439,S,06933.5838,W,1,09,1.0,3829.9,M,33.9,M,,0000*69
$GPGSA,M,3,18,30,22,16,21,06,31,25,03,,,,1.8,1.0,1.4*3D
$GPRMC,183442.003,A,1609.0439,S,06933.5838,W,27.96,124.55,270411,,,A*5F
$GPGGA,183442.997,1609.0482,S,06933.5773,W,1,10,0.8,3829.5,M,33.9,M,,0000*60
$GPGSA,M,3,18,30,22,16,21,06,31,25,29,03,,,1.5,0.8,1.3*35
$GPRMC,183442.997,A,1609.0482,S,06933.5773,W,27.31,124.22,270411,,,A*56
$GPGGA,183444.001,1609.0525,S,06933.5706,W,1,10,0.8,3831.0,M,33.9,M,,0000*62
$GPGSA,M,3,18,30,22,16,21,06,31,25,29,03,,,1.5,0.8,1.3*35
$GPRMC,183444.001,A,1609.0525,S,06933.5706,W,27.15,124.09,270411,,,A*57
$GPGGA,183445.005,1609.0568,S,06933.5642,W,1,10,0.8,3830.3,M,33.9,M,,0000*6D
$GPGSA,M,3,18,30,22,16,21,06,31,25,29,03,,,1.5,0.8,1.3*35
$GPGSV,3,1,12,18,65,091,35,30,63,231,39,22,59,004,38,16,40,217,38*7F
$GPGSV,3,2,12,21,33,153,34,06,23,217,36,31,23,324,39,25,19,031,29*74
$GPGSV,3,3,12,29,18,094,28,03,13,224,35,14,07,009,,15,00,107,*75
$GPRMC,183445.005,A,1609.0568,S,06933.5642,W,27.27,125.26,270411,,,A*57
$GPGGA,183445.999,1609.0612,S,06933.5579,W,1,10,0.8,3831.0,M,33.9,M,,0000*66
$GPGSA,M,3,18,30,22,16,21,06,31,25,29,03,,,1.5,0.8,1.3*35
$GPRMC,183445.999,A,1609.0612,S,06933.5579,W,27.04,124.11,270411,,,A*5A
$GPGGA,183446.998,1609.0654,S,06933.5515,W,1,09,1.0,3830.6,M,33.9,M,,0000*6A
$GPGSA,M,3,18,30,22,16,21,06,31,25,03,,,,1.8,1.0,1.4*3D
$GPRMC,183446.998,A,1609.0654,S,06933.5515,W,27.24,124.09,270411,,,A*5B
$GPGGA,183448.001,1609.0697,S,06933.5450,W,1,10,0.8,3830.9,M,33.9,M,,0000*6C
$GPGSA,M,3,18,30,22,16,21,06,31,25,29,03,,,1.5,0.8,1.3*35
$GPRMC,183448.001,A,1609.0697,S,06933.5450,W,26.71,124.89,270411,,,A*5A
$GPGGA,183449.002,1609.0739,S,06933.5386,W,1,10,0.8,3831.1,M,33.9,M,,0000*6E
$GPGSA,M,3,18,30,22,16,21,06,31,25,29,03,,,1.5,0.8,1.3*35
$GPRMC,183449.002,A,1609.0739,S,06933.5386,W,26.61,123.27,270411,,,A*53
$GPGGA,183449.999,1609.0779,S,06933.5324,W,1,08,1.4,3830.9,M,33.9,M,,0000*64
$GPGSA,M,3,18,30,22,16,06,31,25,03,,,,,2.0,1.4,1.5*30
$GPGSV,3,1,12,18,65,091,35,30,63,231,38,22,59,004,38,16,40,217,39*7F
$GPGSV,3,2,12,21,33,153,,06,23,217,35,31,23,324,37,25,19,031,31*77
$GPGSV,3,3,12,29,18,094,,03,13,224,36,14,07,009,26,15,00,107,*78
$GPRMC,183449.999,A,1609.0779,S,06933.5324,W,26.51,122.90,270411,,,A*5A
$GPGGA,183450.996,1609.0820,S,06933.5260,W,1,10,0.8,3830.7,M,33.9,M,,0000*6B
$GPGSA,M,3,18,30,22,16,21,06,31,25,29,03,,,1.5,0.8,1.3*35
$GPRMC,183450.996,A,1609.0820,S,06933.5260,W,27.12,123.83,270411,,,A*5A
$GPGGA,183452.003,1609.0862,S,06933.5193,W,1,09,1.0,3830.2,M,33.9,M,,0000*61
$GPGSA,M,3,18,30,22,16,21,06,31,25,03,,,,1.8,1.0,1.4*3D
$GPRMC,183452.003,A,1609.0862,S,06933.5193,W,26.54,123.61,270411,,,A*5B
$GPGGA,183453.001,1609.0902,S,06933.5127,W,1,09,1.0,3829.9,M,33.9,M,,0000*69
$GPGSA,M,3,18,30,22,16,21,06,31,25,03,,,,1.8,1.0,1.4*3D
$GPRMC,183453.001,A,1609.0902,S,06933.5127,W,26.39,123.07,270411,,,A*5B
$GPGGA,183453.997,1609.0944,S,06933.5064,W,1,09,1.0,3829.2,M,33.9,M,,0000*60
$GPGSA,M,3,18,30,22,16,21,06,31,25,03,,,,1.8,1.0,1.4*3D
$GPRMC,183453.997,A,1609.0944,S,06933.5064,W,26.70,124.05,270411,,,A*51
$GPGGA,183455.000,1609.0987,S,06933.4999,W,1,10,0.8,3829.5,M,33.9,M,,0000*62
$GPGSA,M,3,18,30,22,16,21,06,31,25,29,03,,,1.5,0.8,1.3*35
$GPGSV,3,1,12,18,65,091,35,30,63,231,38,22,59,004,38,16,40,217,35*73
$GPGSV,3,2,12,21,33,153,33,06,23,217,33,31,23,324,39,25,19,031,31*7F
$GPGSV,3,3,12,29,18,094,29,03,13,224,33,14,07,009,,15,00,107,*72
$GPRMC,183455.000,A,1609.0987,S,06933.4999,W,26.18,126.23,270411,,,A*5D
$GPGGA,183456.000,1609.1030,S,06933.4938,W,1,09,0.9,3829.3,M,33.9,M,,0000*61
$GPGSA,M,3,18,30,22,16,21,06,31,29,03,,,,1.7,0.9,1.4*36
$GPRMC,183456.000,A,1609.1030,S,06933.4938,W,26.35,127.16,270411,,,A*59
$GPGGA,183457.000,1609.1076,S,06933.4872,W,1,10,0.8,3828.8,M,33.9,M,,0000*6E
$GPGSA,M,3,18,30,22,16,21,06,31,25,29,03,,,1.5,0.8,1.3*35
$GPRMC,183457.000,A,1609.1076,S,06933.4872,W,26.09,125.36,270411,,,A*5A
$GPGGA,183458.001,1609.1117,S,06933.4809,W,1,10,0.8,3829.4,M,33.9,M,,0000*67
$GPGSA,M,3,18,30,22,16,21,06,31,25,29,03,,,1.5,0.8,1.3*35
$GPRMC,183458.001,A,1609.1117,S,06933.4809,W,25.97,123.48,270411,,,A*55
$GPGGA,183459.002,1609.1158,S,06933.4746,W,1,09,1.0,3828.9,M,33.9,M,,0000*67
$GPGSA,M,3,18,30,22,16,21,06,31,25,03,,,,1.8,1.0,1.4*3D
$GPRMC,183459.002,A,1609.1158,S,06933.4746,W,25.58,124.05,270411,,,A*55
$GPGGA,183500.001,1609.1198,S,06933.4681,W,1,09,1.0,3828.4,M,33.9,M,,0000*62
$GPGSA,M,3,18,30,22,16,21,06,31,25,03,,,,1.8,1.0,1.4*3D
$GPGSV,3,1,12,18,65,091,35,30,63,231,38,22,59,004,38,16,40,217,39*7F
$GPGSV,3,2,12,21,33,153,34,06,23,217,35,31,23,324,39,25,19,031,31*7E
$GPGSV,3,3,12,29,18,094,,03,13,224,34,14,07,009,,15,00,107,*7E
$GPRMC,183500.001,A,1609.1198,S,06933.4681,W,26.28,123.84,270411,,,A*57
$GPGGA,183501.003,1609.1239,S,06933.4618,W,1,09,1.0,3828.5,M,33.9,M,,0000*68
$GPGSA,M,3,18,30,22,16,21,06,31,25,03,,,,1.8,1.0,1.4*3D
$GPRMC,183501.003,A,1609.1239,S,06933.4618,W,26.00,124.25,270411,,,A*5A
$GPGGA,183501.996,1609.1279,S,06933.4556,W,1,09,1.0,3828.6,M,33.9,M,,0000*63
$GPGSA,M,3,18,30,22,16,21,06,31,25,03,,,,1.8,1.0,1.4*3D
$GPRMC,183501.996,A,1609.1279,S,06933.4556,W,26.16,124.75,270411,,,A*50
$GPGGA,183503.001,1609.1322,S,06933.4495,W,1,10,0.8,3828.9,M,33.9,M,,0000*69
$GPGSA,M,3,18,30,22,16,21,06,31,25,29,03,,,1.5,0.8,1.3*35
$GPRMC,183503.001,A,1609.1322,S,06933.4495,W,26.46,125.25,270411,,,A*55
$GPGGA,183504.008,1609.1365,S,06933.4431,W,1,09,1.0,3828.7,M,33.9,M,,0000*65
$GPGSA,M,3,18,30,22,16,21,06,31,25,03,,,,1.8,1.0,1.4*3D
$GPRMC,183504.008,A,1609.1365,S,06933.4431,W,26.26,124.05,270411,,,A*53
$GPGGA,183504.996,1609.1406,S,06933.4368,W,1,10,0.8,3829.5,M,33.9,M,,0000*60
$GPGSA,M,3,18,30,22,16,21,06,31,25,29,03,,,1.5,0.8,1.3*35
$GPGSV,3,1,12,18,65,094,34,30,64,233,38,22,60,005,38,16,41,218,40*75
$GPGSV,3,2,12,21,33,153,34,06,24,217,35,31,22,325,39,25,18,031,31*78
$GPGSV,3,3,12,29,18,092,27,03,14,224,28,14,08,010,,15,00,108,*7F
$GPRMC,183504.996,A,1609.1406,S,06933.4368,W,26.67,124.25,270411,,,A*53
$GPGGA,183505.996,1609.1449,S,06933.4305,W,1,10,0.8,3829.3,M,33.9,M,,0000*67
$GPGSA,M,3,18,30,22,16,21,06,31,25,29,03,,,1.5,0.8,1.3*35
$GPRMC,183505.996,A,1609.1449,S,06933.4305,W,26.39,125.17,270411,,,A*59
$GPGGA,183507.000,1609.1494,S,06933.4242,W,1,09,0.9,3829.5,M,33.9,M,,0000*6E
$GPGSA,M,3,18,30,22,16,21,06,31,25,29,,,,1.7,0.9,1.4*32
$GPRMC,183507.000,A,1609.1494,S,06933.4242,W,26.46,124.14,270411,,,A*55
$GPGGA,183508.001,1609.1537,S,06933.4177,W,1,09,0.9,3829.8,M,33.9,M,,0000*60
$GPGSA,M,3,18,30,22,16,21,06,31,25,29,,,,1.7,0.9,1.4*32
$GPRMC,183508.001,A,1609.1537,S,06933.4177,W,26.90,124.19,270411,,,A*50
$GPGGA,183509.000,1609.1578,S,06933.4114,W,1,09,0.9,3829.7,M,33.9,M,,0000*61
$GPGSA,M,3,18,30,22,16,21,06,31,25,29,,,,1.7,0.9,1.4*32
$GPRMC,183509.000,A,1609.1578,S,06933.4114,W,26.37,124.95,270411,,,A*57
$GPGGA,183509.999,1609.1621,S,06933.4050,W,1,09,1.0,3829.2,M,33.9,M,,0000*6B
$GPGSA,M,3,18,30,22,16,21,06,31,25,03,,,,1.8,1.0,1.4*3D
$GPGSV,3,1,12,18,65,094,36,30,64,233,37,22,60,005,38,16,41,218,38*77
$GPGSV,3,2,12,21,33,153,31,06,24,217,33,31,22,325,38,25,18,031,33*78
$GPGSV,3,3,12,29,18,092,,03,14,224,35,14,08,010,25,15,00,108,*71
$GPRMC,183509.999,A,1609.1621,S,06933.4050,W,26.46,125.08,270411,,,A*53
$GPGGA,183511.001,1609.1662,S,06933.3985,W,1,10,0.8,3828.8,M,33.9,M,,0000*61
$GPGSA,M,3,18,30,22,16,21,06,31,25,29,03,,,1.5,0.8,1.3*35
$GPRMC,183511.001,A,1609.1662,S,06933.3985,W,26.45,123.69,270411,,,A*51
$GPGGA,183512.000,1609.1704,S,06933.3922,W,1,09,1.0,3828.7,M,33.9,M,,0000*61
$GPGSA,M,3,18,30,22,16,21,06,31,25,03,,,,1.8,1.0,1.4*3D
$GPRMC,183512.000,A,1609.1704,S,06933.3922,W,26.55,124.56,270411,,,A*55
$GPGGA,183513.001,1609.1746,S,06933.3858,W,1,10,0.8,3828.9,M,33.9,M,,0000*64
$GPGSA,M,3,18,30,22,16,21,06,31,25,29,03,,,1.5,0.8,1.3*35
$GPRMC,183513.001,A,1609.1746,S,06933.3858,W,26.41,125.28,270411,,,A*52
$GPGGA,183514.001,1609.1790,S,06933.3789,W,1,09,1.0,3828.6,M,33.9,M,,0000*65
$GPGSA,M,3,18,30,22,16,21,06,31,25,03,,,,1.8,1.0,1.4*3D
$GPRMC,183514.001,A,1609.1790,S,06933.3789,W,26.82,124.82,270411,,,A*53
$GPGGA,183515.001,1609.1834,S,06933.3726,W,1,10,0.8,3828.6,M,33.9,M,,0000*61
$GPGSA,M,3,18,30,22,16,21,06,31,25,29,03,,,1.5,0.8,1.3*35
$GPGSV,3,1,12,18,65,094,35,30,64,233,39,22,60,005,38,16,41,218,37*75
$GPGSV,3,2,12,21,33,153,34,06,24,217,33,31,22,325,39,25,18,031,32*7D
$GPGSV,3,3,12,29,18,092,28,03,14,224,31,14,08,010,,15,00,108,*78
$GPRMC,183515.001,A,1609.1834,S,06933.3726,W,26.50,124.81,270411,,,A*5A
$GPGGA,183516.001,1609.1878,S,06933.3660,W,1,09,0.9,3828.8,M,33.9,M,,0000*6E
$GPGSA,M,3,18,30,22,16,21,06,31,25,29,,,,1.7,0.9,1.4*32
$GPRMC,183516.001,A,1609.1878,S,06933.3660,W,26.61,123.85,270411,,,A*53
$GPGGA,183517.003,1609.1921,S,06933.3592,W,1,08,1.1,3827.7,M,33.9,M,,0000*66
$GPGSA,M,3,18,30,22,16,21,06,31,25,,,,,1.9,1.1,1.6*3C
$GPRMC,183517.003,A,1609.1921,S,06933.3592,W,26.38,124.62,270411,,,A*51
$GPGGA,183517.997,1609.1966,S,06933.3526,W,1,08,1.1,3827.4,M,33.9,M,,0000*6D
$GPGSA,M,3,18,30,22,16,21,06,31,25,,,,,1.9,1.1,1.6*3C
$GPRMC,183517.997,A,1609.1966,S,06933.3526,W,26.90,124.81,270411,,,A*56
$GPGGA,183519.003,1609.2009,S,06933.3463,W,1,08,1.1,3827.7,M,33.9,M,,0000*67
$GPGSA,M,3,18,30,22,16,21,06,31,25,,,,,1.9,1.1,1.6*3C
$GPRMC,183519.003,A,1609.2009,S,06933.3463,W,27.16,124.00,270411,,,A*59
$GPGGA,183520.001,1609.2054,S,06933.3398,W,1,10,0.8,3827.6,M,33.9,M,,0000*64
$GPGSA,M,3,18,30,22,16,21,06,31,25,29,03,,,1.5,0.8,1.3*35
$GPGSV,3,1,12,18,65,094,35,30,64,233,37,22,60,005,38,16,41,218,37*7B
$GPGSV,3,2,12,21,33,153,33,06,24,217,33,31,22,325,38,25,18,031,29*71
$GPGSV,3,3,12,29,18,092,24,03,14,224,30,14,08,010,,15,00,108,*75
$GPRMC,183520.001,A,1609.2054,S,06933.3398,W,26.67,124.37,270411,,,A*59
$GPGGA,183521.001,1609.2098,S,06933.3335,W,1,10,0.8,3828.3,M,33.9,M,,0000*68
$GPGSA,M,3,18,30,22,16,21,06,31,25,29,03,,,1.5,0.8,1.3*35
$GPRMC,183521.001,A,1609.2098,S,06933.3335,W,26.83,124.83,270411,,,A*5A
$GPGGA,183522.001,1609.2141,S,06933.3272,W,1,10,0.8,3828.5,M,33.9,M,,0000*6A
$GPGSA,M,3,18,30,22,16,21,06,31,25,29,03,,,1.5,0.8,1.3*35
$GPRMC,183522.001,A,1609.2141,S,06933.3272,W,26.61,124.28,270411,,,A*53
$GPGGA,183523.001,1609.2185,S,06933.3209,W,1,10,0.8,3828.6,M,33.9,M,,0000*6C
$GPGSA,M,3,18,30,22,16,21,06,31,25,29,03,,,1.5,0.8,1.3*35
$GPRMC,183523.001,A,1609.2185,S,06933.3209,W,26.63,125.63,270411,,,A*5A
$GPGGA,183523.999,1609.2227,S,06933.3147,W,1,10,0.8,3828.2,M,33.9,M,,0000*62
$GPGSA,M,3,18,30,22,16,21,06,31,25,29,03,,,1.5,0.8,1.3*35
$GPRMC,183523.999,A,1609.2227,S,06933.3147,W,26.46,124.79,270411,,,A*5D
$GPGGA,183525.001,1609.2269,S,06933.3083,W,1,09,1.0,3829.0,M,33.9,M,,0000*6D
$GPGSA,M,3,18,30,22,16,21,06,31,25,03,,,,1.7,1.0,1.4*32
$GPGSV,3,1,12,18,65,094,35,30,64,233,39,22,60,005,37,16,41,218,38*75
$GPGSV,3,2,12,21,33,153,33,06,24,217,35,31,22,325,38,25,18,031,31*7E
$GPGSV,3,3,12,29,18,092,,03,14,224,35,14,08,010,,15,00,108,*76
$GPRMC,183525.001,A,1609.2269,S,06933.3083,W,26.78,123.98,270411,,,A*55
$GPGGA,183526.000,1609.2311,S,06933.3019,W,1,10,0.8,3828.8,M,33.9,M,,0000*6A
$GPGSA,M,3,18,30,22,16,21,06,31,25,29,03,,,1.5,0.8,1.3*35
$GPRMC,183526.000,A,1609.2311,S,06933.3019,W,26.73,124.29,270411,,,A*5C
$GPGGA,183527.002,1609.2352,S,06933.2955,W,1,10,0.8,3829.7,M,33.9,M,,0000*60
$GPGSA,M,3,18,30,22,16,21,06,31,25,29,03,,,1.5,0.8,1.3*35
$GPRMC,183527.002,A,1609.2352,S,06933.2955,W,26.32,125.27,270411,,,A*52
$GPGGA,183527.997,1609.2394,S,06933.2891,W,1,10,0.8,3830.0,M,33.9,M,,0000*69
$GPGSA,M,3,18,30,22,16,21,06,31,25,29,03,,,1.5,0.8,1.3*35
$GPRMC,183527.997,A,1609.2394,S,06933.2891,W,26.60,124.71,270411,,,A*51
$GPGGA,183529.002,1609.2436,S,06933.2827,W,1,10,0.8,3830.1,M,33.9,M,,0000*61
$GPGSA,M,3,18,30,22,16,21,06,31,25,29,03,,,1.5,0.8,1.3*35
$GPRMC,183529.002,A,1609.2436,S,06933.2827,W,27.18,123.67,270411,,,A*56
$GPGGA,183529.996,1609.2478,S,06933.2761,W,1,10,0.8,3830.2,M,33.9,M,,0000*61
$GPGSA,M,3,18,30,22,16,21,06,31,25,29,03,,,1.5,0.8,1.3*35
$GPGSV,3,1,12,18,65,094,35,30,64,233,37,22,60,005,37,16,41,218,37*74
$GPGSV,3,2,12,21,33,153,31,06,24,217,33,31,22,325,38,25,18,031,32*79
$GPGSV,3,3,12,29,18,092,28,03,14,224,30,14,08,010,,15,00,108,*79
$GPRMC,183529.996,A,1609.2478,S,06933.2761,W,26.92,123.79,270411,,,A*59
$GPGGA,183531.002,1609.2521,S,06933.2699,W,1,10,0.8,3829.5,M,33.9,M,,0000*68
$GPGSA,M,3,18,30,22,16,21,06,31,25,29,03,,,1.5,0.8,1.3*35
$GPRMC,183531.002,A,1609.2521,S,06933.2699,W,26.18,124.31,270411,,,A*56
$GPGGA,183532.000,1609.2560,S,06933.2635,W,1,10,0.8,3829.6,M,33.9,M,,0000*69
$GPGSA,M,3,18,30,22,16,21,06,31,25,29,03,,,1.5,0.8,1.3*35
$GPRMC,183532.000,A,1609.2560,S,06933.2635,W,26.50,123.98,270411,,,A*5C
$GPGGA,183532.998,1609.2600,S,06933.2572,W,1,10,0.8,3829.9,M,33.9,M,,0000*6B
$GPGSA,M,3,18,30,22,16,21,06,31,25,29,03,,,1.5,0.8,1.3*35
$GPRMC,183532.998,A,1609.2600,S,06933.2572,W,26.66,124.65,270411,,,A*51
$GPGGA,183534.002,1609.2644,S,06933.2510,W,1,10,0.8,3829.0,M,33.9,M,,0000*6A
$GPGSA,M,3,18,30,22,16,21,06,31,25,29,03,,,1.5,0.8,1.3*35
$GPRMC,183534.002,A,1609.2644,S,06933.2510,W,26.37,125.23,270411,,,A*5E
$GPGGA,183535.000,1609.2686,S,06933.2449,W,1,10,0.8,3829.3,M,33.9,M,,0000*69
$GPGSA,M,3,18,30,22,16,21,06,31,25,29,03,,,1.5,0.8,1.3*35
$GPGSV,3,1,12,18,65,094,35,30,64,233,37,22,60,005,38,16,41,218,37*7B
$GPGSV,3,2,12,21,33,153,34,06,24,217,33,31,22,325,38,25,18,031,29*76
$GPGSV,3,3,12,29,18,092,25,03,14,224,36,14,08,010,25,15,00,108,*75
$GPRMC,183535.000,A,1609.2686,S,06933.2449,W,26.81,124.24,270411,,,A*55
$GPGGA,183536.002,1609.2728,S,06933.2384,W,1,09,1.0,3829.7,M,33.9,M,,0000*6E
$GPGSA,M,3,18,30,22,16,21,06,31,25,03,,,,1.7,1.0,1.4*32
$GPRMC,183536.002,A,1609.2728,S,06933.2384,W,27.10,123.95,270411,,,A*53
$GPGGA,183536.999,1609.2769,S,06933.2317,W,1,10,0.8,3829.8,M,33.9,M,,0000*64
$GPGSA,M,3,18,30,22,16,21,06,31,25,29,03,,,1.5,0.8,1.3*35
$GPRMC,183536.999,A,1609.2769,S,06933.2317,W,27.09,123.54,270411,,,A*52
$GPGGA,183538.002,1609.2808,S,06933.2249,W,1,10,0.8,3829.2,M,33.9,M,,0000*69
$GPGSA,M,3,18,30,22,16,21,06,31,25,29,03,,,1.5,0.8,1.3*35
$GPRMC,183538.002,A,1609.2808,S,06933.2249,W,27.12,123.36,270411,,,A*5B
$GPGGA,183538.998,1609.2851,S,06933.2183,W,1,10,0.8,3830.0,M,33.9,M,,0000*60
$GPGSA,M,3,18,30,22,16,21,06,31,25,29,03,,,1.5,0.8,1.3*35
$GPRMC,183538.998,A,1609.2851,S,06933.2183,W,27.30,124.66,270411,,,A*5A
$GPGGA,183539.998,1609.2896,S,06933.2119,W,1,10,0.8,3830.6,M,33.9,M,,0000*6F
$GPGSA,M,3,18,30,22,16,21,06,31,25,29,03,,,1.5,0.8,1.3*35
$GPGSV,3,1,12,18,65,095,35,30,64,234,39,22,60,005,39,16,41,218,38*7D
$GPGSV,3,2,12,21,33,152,34,06,24,216,34,31,22,325,38,25,18,031,28*70
$GPGSV,3,3,12,29,18,092,29,03,14,224,34,14,08,010,25,15,00,108,*7B
$GPRMC,183539.998,A,1609.2896,S,06933.2119,W,27.30,124.66,270411,,,A*53
$GPGGA,183541.000,1609.2941,S,06933.2054,W,1,10,0.8,3830.7,M,33.9,M,,0000*6A
$GPGSA,M,3,18,30,22,16,21,06,31,25,29,03,,,1.5,0.8,1.3*35
$GPRMC,183541.000,A,1609.2941,S,06933.2054,W,27.40,124.85,270411,,,A*5D
$GPGGA,183542.000,1609.2986,S,06933.1988,W,1,10,0.8,3831.2,M,33.9,M,,0000*6D
$GPGSA,M,3,18,30,22,16,21,06,31,25,29,03,,,1.5,0.8,1.3*35
$GPRMC,183542.000,A,1609.2986,S,06933.1988,W,27.36,124.54,270411,,,A*53
$GPGGA,183543.000,1609.3029,S,06933.1925,W,1,10,0.8,3832.0,M,33.9,M,,0000*67
$GPGSA,M,3,18,30,22,16,21,06,31,25,29,03,,,1.5,0.8,1.3*35
$GPRMC,183543.000,A,1609.3029,S,06933.1925,W,27.61,124.35,270411,,,A*5D
$GPGGA,183544.000,1609.3073,S,06933.1860,W,1,10,0.8,3832.6,M,33.9,M,,0000*69
$GPGSA,M,3,18,30,22,16,21,06,31,25,29,03,,,1.5,0.8,1.3*35
$GPRMC,183544.000,A,1609.3073,S,06933.1860,W,27.59,124.23,270411,,,A*59
$GPGGA,183545.000,1609.3116,S,06933.1794,W,1,10,0.8,3833.0,M,33.9,M,,0000*69
$GPGSA,M,3,18,30,22,16,21,06,31,25,29,03,,,1.5,0.8,1.3*35
$GPGSV,3,1,12,18,65,095,36,30,64,234,41,22,60,005,42,16,41,218,42*70
$GPGSV,3,2,12,21,33,152,34,06,24,216,34,31,22,325,42,25,18,031,31*75
