$GPGGA,154435.000,1348.8389,S,07133.0656,W,1,06,1.2,3228.0,M,31.0,M,,0000*6A
$GPGSA,M,3,21,25,29,12,31,09,,,,,,,2.7,1.2,2.4*39
$GPRMC,154435.000,A,1348.8389,S,07133.0656,W,25.43,231.65,240411,,,A*55
$GPGGA,154436.000,1348.8436,S,07133.0710,W,1,06,1.2,3227.6,M,31.0,M,,0000*60
$GPGSA,M,3,21,25,29,12,31,09,,,,,,,2.7,1.2,2.4*39
$GPRMC,154436.000,A,1348.8436,S,07133.0710,W,25.20,226.57,240411,,,A*54
$GPGGA,154437.000,1348.8485,S,07133.0759,W,1,06,1.2,3226.8,M,31.0,M,,0000*6B
$GPGSA,M,3,21,25,29,12,31,09,,,,,,,2.7,1.2,2.4*39
$GPGSV,3,1,10,21,61,332,39,25,51,150,39,29,41,179,38,12,34,095,34*7E
$GPGSV,3,2,10,31,28,222,36,09,21,022,39,14,17,300,,18,12,355,33*7F
$GPGSV,3,3,10,05,08,110,,27,04,026,*70
$GPRMC,154437.000,A,1348.8485,S,07133.0759,W,23.80,223.56,240411,,,A*58
$GPGGA,154438.000,1348.8540,S,07133.0801,W,1,06,1.2,3226.3,M,31.0,M,,0000*65
$GPGSA,M,3,21,25,29,12,31,09,,,,,,,2.7,1.2,2.4*39
$GPRMC,154438.000,A,1348.8540,S,07133.0801,W,24.47,217.60,240411,,,A*53
$GPGGA,154439.002,1348.8599,S,07133.0840,W,1,06,1.2,3225.6,M,31.0,M,,0000*61
$GPGSA,M,3,21,25,29,12,31,09,,,,,,,2.7,1.2,2.4*39
$GPRMC,154439.002,A,1348.8599,S,07133.0840,W,24.50,213.52,240411,,,A*52
$GPGGA,154439.999,1348.8666,S,07133.0863,W,1,06,1.2,3227.1,M,31.0,M,,0000*6D
$GPGSA,M,3,21,25,29,12,31,09,,,,,,,2.7,1.2,2.4*39
$GPRMC,154439.999,A,1348.8666,S,07133.0863,W,25.90,205.90,240411,,,A*5F
$GPGGA,154441.000,1348.8731,S,07133.0888,W,1,06,1.2,3227.5,M,31.0,M,,0000*69
$GPGSA,M,3,21,25,29,12,31,09,,,,,,,2.7,1.2,2.4*39
$GPRMC,154441.000,A,1348.8731,S,07133.0888,W,25.32,202.34,240411,,,A*5E
$GPGGA,154442.000,1348.8803,S,07133.0904,W,1,06,1.2,3227.6,M,31.0,M,,0000*62
$GPGSA,M,3,21,25,29,12,31,09,,,,,,,2.7,1.2,2.4*39
$GPGSV,3,1,10,21,61,332,39,25,51,150,34,29,41,179,36,12,34,095,39*70
$GPGSV,3,2,10,31,28,222,39,09,21,022,37,14,17,300,,18,12,355,32*7F
$GPGSV,3,3,10,05,08,110,,27,04,026,*70
$GPRMC,154442.000,A,1348.8803,S,07133.0904,W,25.04,198.26,240411,,,A*50
$GPGGA,154443.003,1348.8876,S,07133.0906,W,1,06,1.2,3227.7,M,31.0,M,,0000*61
$GPGSA,M,3,21,25,29,12,31,09,,,,,,,2.7,1.2,2.4*39
$GPRMC,154443.003,A,1348.8876,S,07133.0906,W,25.81,190.89,240411,,,A*52
$GPGGA,154443.996,1348.8953,S,07133.0900,W,1,06,1.2,3227.9,M,31.0,M,,0000*6A
$GPGSA,M,3,21,25,29,12,31,09,,,,,,,2.7,1.2,2.4*39
$GPRMC,154443.996,A,1348.8953,S,07133.0900,W,26.25,182.19,240411,,,A*50
$GPGGA,154445.000,1348.9031,S,07133.0890,W,1,06,1.2,3226.9,M,31.0,M,,0000*6F
$GPGSA,M,3,21,25,29,12,31,09,,,,,,,2.7,1.2,2.4*39
$GPRMC,154445.000,A,1348.9031,S,07133.0890,W,27.01,179.62,240411,,,A*5B
$GPGGA,154446.002,1348.9106,S,07133.0889,W,0,00,,3226.8,M,31.0,M,,0000*48
$GPGSA,M,1,,,,,,,,,,,,,,,*12
$GPRMC,154446.002,V,1348.9106,S,07133.0889,W,,,240411,,,N*70
$GPGGA,154447.000,1348.9182,S,07133.0889,W,0,00,,3226.7,M,31.0,M,,0000*48
$GPGSA,M,1,,,,,,,,,,,,,,,*12
$GPGSV,3,1,10,21,61,332,,25,51,149,11,29,40,179,10,12,34,095,*7A
$GPGSV,3,2,10,31,28,223,10,09,21,022,,14,17,300,,27,03,026,*7B
$GPGSV,3,3,10,18,12,355,12,05,08,110,*7F
$GPRMC,154447.000,V,1348.9182,S,07133.0889,W,,,240411,,,N*7F
$GPGGA,154448.000,1348.9257,S,07133.0888,W,0,00,,3226.6,M,31.0,M,,0000*4C
$GPGSA,M,1,,,,,,,,,,,,,,,*12
$GPRMC,154448.000,V,1348.9257,S,07133.0888,W,,,240411,,,N*7A
$GPGGA,154449.000,1348.9345,S,07133.0870,W,1,04,1.9,3228.5,M,31.0,M,,0000*66
$GPGSA,M,3,25,29,31,09,,,,,,,,,2.1,1.9,1.0*33
$GPRMC,154449.000,A,1348.9345,S,07133.0870,W,28.13,181.04,240411,,,A*52
$GPGGA,154450.000,1348.9426,S,07133.0868,W,1,05,1.5,3227.7,M,31.0,M,,0000*65
$GPGSA,M,3,25,29,31,09,21,,,,,,,,2.9,1.5,2.4*33
$GPRMC,154450.000,A,1348.9426,S,07133.0868,W,28.43,180.00,240411,,,A*51
$GPGGA,154451.000,1348.9504,S,07133.0870,W,1,05,1.5,3228.3,M,31.0,M,,0000*67
$GPGSA,M,3,25,29,31,09,21,,,,,,,,2.9,1.5,2.4*33
$GPRMC,154451.000,A,1348.9504,S,07133.0870,W,28.49,180.73,240411,,,A*56
$GPGGA,154452.000,1348.9583,S,07133.0874,W,1,05,1.5,3228.6,M,31.0,M,,0000*6A
$GPGSA,M,3,25,29,31,09,21,,,,,,,,2.9,1.5,2.4*33
$GPGSV,3,1,10,21,61,332,43,25,51,149,42,29,40,179,39,12,34,095,*70
$GPGSV,3,2,10,31,28,223,43,09,21,022,43,14,17,300,,27,03,026,*7A
$GPGSV,3,3,10,18,12,355,41,05,08,110,*79
$GPRMC,154452.000,A,1348.9583,S,07133.0874,W,28.40,180.67,240411,,,A*52
$GPGGA,154453.000,1348.9663,S,07133.0873,W,1,05,1.5,3228.4,M,31.0,M,,0000*63
$GPGSA,M,3,25,29,31,09,21,,,,,,,,2.9,1.5,2.4*33
$GPRMC,154453.000,A,1348.9663,S,07133.0873,W,28.31,180.39,240411,,,A*54
$GPGGA,154454.000,1348.9741,S,07133.0874,W,1,05,1.5,3228.5,M,31.0,M,,0000*63
$GPGSA,M,3,25,29,31,09,21,,,,,,,,2.9,1.5,2.4*33
$GPRMC,154454.000,A,1348.9741,S,07133.0874,W,28.11,178.72,240411,,,A*5F
$GPGGA,154455.000,1348.9819,S,07133.0871,W,1,05,1.5,3228.5,M,31.0,M,,0000*65
$GPGSA,M,3,25,29,31,09,21,,,,,,,,2.9,1.5,2.4*33
$GPRMC,154455.000,A,1348.9819,S,07133.0871,W,27.97,176.14,240411,,,A*56
$GPGGA,154456.000,1348.9896,S,07133.0863,W,1,05,1.5,3228.6,M,31.0,M,,0000*61
$GPGSA,M,3,25,29,31,09,21,,,,,,,,2.9,1.5,2.4*33
$GPRMC,154456.000,A,1348.9896,S,07133.0863,W,27.74,172.55,240411,,,A*5D
$GPGGA,154457.000,1348.9972,S,07133.0849,W,1,06,1.2,3228.6,M,31.0,M,,0000*67
$GPGSA,M,3,25,29,31,09,21,12,,,,,,,2.7,1.2,2.4*39
$GPGSV,3,1,10,21,61,332,43,25,51,149,43,29,40,179,39,12,34,095,25*76
$GPGSV,3,2,10,31,28,223,43,09,21,022,43,14,17,300,,27,03,026,*7A
$GPGSV,3,3,10,18,12,355,40,05,08,110,*78
$GPRMC,154457.000,A,1348.9972,S,07133.0849,W,27.73,168.81,240411,,,A*5A
$GPGGA,154458.000,1349.0047,S,07133.0830,W,1,05,1.5,3228.3,M,31.0,M,,0000*60
$GPGSA,M,3,25,29,31,09,21,,,,,,,,2.9,1.5,2.4*33
$GPRMC,154458.000,A,1349.0047,S,07133.0830,W,27.74,165.04,240411,,,A*5B
$GPGGA,154459.000,1349.0121,S,07133.0806,W,1,06,1.2,3227.9,M,31.0,M,,0000*64
$GPGSA,M,3,25,29,31,09,21,12,,,,,,,2.7,1.2,2.4*39
$GPRMC,154459.000,A,1349.0121,S,07133.0806,W,27.74,161.16,240411,,,A*59
$GPGGA,154500.003,1349.0194,S,07133.0779,W,1,05,1.5,3227.4,M,31.0,M,,0000*6A
$GPGSA,M,3,21,25,29,31,09,,,,,,,,2.9,1.5,2.4*33
$GPRMC,154500.003,A,1349.0194,S,07133.0779,W,27.80,158.21,240411,,,A*5B
$GPGGA,154501.000,1349.0263,S,07133.0747,W,1,05,1.5,3226.8,M,31.0,M,,0000*63
$GPGSA,M,3,21,25,29,31,09,,,,,,,,2.9,1.5,2.4*33
$GPRMC,154501.000,A,1349.0263,S,07133.0747,W,27.14,153.63,240411,,,A*5F
$GPGGA,154501.997,1349.0331,S,07133.0709,W,1,05,1.5,3226.0,M,31.0,M,,0000*60
$GPGSA,M,3,21,25,29,31,09,,,,,,,,2.9,1.5,2.4*33
$GPGSV,3,1,10,21,61,332,39,25,51,149,38,29,40,179,38,12,34,095,*71
$GPGSV,3,2,10,31,28,223,35,09,21,022,32,14,17,300,,18,12,355,38*7D
$GPGSV,3,3,10,05,08,110,,27,03,026,*77
$GPRMC,154501.997,A,1349.0331,S,07133.0709,W,27.55,150.82,240411,,,A*5D
$GPGGA,154503.000,1349.0398,S,07133.0668,W,1,04,1.9,3225.8,M,31.0,M,,0000*66
$GPGSA,M,3,21,25,29,31,,,,,,,,,2.1,1.9,1.0*39
$GPRMC,154503.000,A,1349.0398,S,07133.0668,W,27.10,148.74,240411,,,A*5C
$GPGGA,154504.001,1349.0459,S,07133.0620,W,1,04,1.9,3225.5,M,31.0,M,,0000*6B
$GPGSA,M,3,21,25,29,31,,,,,,,,,2.1,1.9,1.0*39
$GPRMC,154504.001,A,1349.0459,S,07133.0620,W,27.09,143.26,240411,,,A*58
$GPGGA,154504.999,1349.0516,S,07133.0567,W,1,04,1.9,3225.3,M,31.0,M,,0000*6F
$GPGSA,M,3,21,25,29,31,,,,,,,,,2.1,1.9,1.0*39
$GPRMC,154504.999,A,1349.0516,S,07133.0567,W,26.95,137.16,240411,,,A*5E
$GPGGA,154505.998,1349.0568,S,07133.0506,W,1,04,1.9,3225.5,M,31.0,M,,0000*67
$GPGSA,M,3,21,25,29,31,,,,,,,,,2.1,1.9,1.0*39
$GPRMC,154505.998,A,1349.0568,S,07133.0506,W,27.33,132.24,240411,,,A*59
$GPGGA,154506.999,1349.0618,S,07133.0448,W,1,04,1.9,3225.7,M,31.0,M,,0000*68
$GPGSA,M,3,21,25,29,31,,,,,,,,,2.1,1.9,1.0*39
$GPGSV,3,1,10,21,61,332,38,25,51,149,37,29,40,179,39,12,34,095,*7E
$GPGSV,3,2,10,31,28,223,36,09,21,022,,14,17,300,,18,12,355,*74
$GPGSV,3,3,10,05,08,110,,27,03,026,*77
$GPRMC,154506.999,A,1349.0618,S,07133.0448,W,27.62,132.64,240411,,,A*54
$GPGGA,154507.999,1349.0671,S,07133.0394,W,1,04,1.9,3225.4,M,31.0,M,,0000*63
$GPGSA,M,3,21,25,29,31,,,,,,,,,2.1,1.9,1.0*39
$GPRMC,154507.999,A,1349.0671,S,07133.0394,W,26.87,133.68,240411,,,A*5B
$GPGGA,154509.000,1349.0722,S,07133.0335,W,1,05,1.6,3224.6,M,31.0,M,,0000*65
$GPGSA,M,3,21,25,29,12,31,,,,,,,,4.0,1.6,3.7*37
$GPRMC,154509.000,A,1349.0722,S,07133.0335,W,26.02,133.46,240411,,,A*51
$GPGGA,154509.999,1349.0772,S,07133.0276,W,1,05,1.6,3224.4,M,31.0,M,,0000*6D
$GPGSA,M,3,21,25,29,12,31,,,,,,,,4.0,1.6,3.7*37
$GPRMC,154509.999,A,1349.0772,S,07133.0276,W,25.13,133.82,240411,,,A*50
$GPGGA,154511.000,1349.0817,S,07133.0216,W,1,05,1.6,3223.5,M,31.0,M,,0000*61
$GPGSA,M,3,21,25,29,12,31,,,,,,,,4.0,1.6,3.7*37
$GPRMC,154511.000,A,1349.0817,S,07133.0216,W,24.75,130.44,240411,,,A*52
$GPGGA,154512.001,1349.0862,S,07133.0156,W,1,05,1.6,3222.8,M,31.0,M,,0000*6A
$GPGSA,M,3,21,25,29,12,31,,,,,,,,4.0,1.6,3.7*37
$GPGSV,3,1,10,21,61,332,40,25,51,149,33,29,40,179,39,12,34,095,39*7F
$GPGSV,3,2,10,31,28,223,39,09,21,022,,14,17,300,,18,12,355,*7B
$GPGSV,3,3,10,05,08,110,,27,03,026,*77
$GPRMC,154512.001,A,1349.0862,S,07133.0156,W,25.22,128.85,240411,,,A*52
$GPGGA,154513.000,1349.0906,S,07133.0096,W,1,05,1.6,3222.9,M,31.0,M,,0000*65
$GPGSA,M,3,21,25,29,12,31,,,,,,,,4.0,1.6,3.7*37
$GPRMC,154513.000,A,1349.0906,S,07133.0096,W,26.67,124.48,240411,,,A*53
$GPGGA,154514.000,1349.0939,S,07133.0021,W,1,05,1.6,3221.4,M,31.0,M,,0000*6C
$GPGSA,M,3,21,25,29,12,31,,,,,,,,4.0,1.6,3.7*37
$GPRMC,154514.000,A,1349.0939,S,07133.0021,W,26.72,120.47,240411,,,A*5B
$GPGGA,154514.998,1349.0964,S,07132.9955,W,1,05,1.6,3221.4,M,31.0,M,,0000*6E
$GPGSA,M,3,21,25,29,12,31,,,,,,,,4.0,1.6,3.7*37
$GPRMC,154514.998,A,1349.0964,S,07132.9955,W,26.12,115.93,240411,,,A*50
$GPGGA,154516.000,1349.1004,S,07132.9881,W,1,05,1.6,3221.7,M,31.0,M,,0000*61
$GPGSA,M,3,21,25,29,12,31,,,,,,,,4.0,1.6,3.7*37
$GPRMC,154516.000,A,1349.1004,S,07132.9881,W,28.04,115.81,240411,,,A*56
$GPGGA,154517.000,1349.1028,S,07132.9802,W,1,05,1.6,3221.1,M,31.0,M,,0000*63
$GPGSA,M,3,21,25,29,12,31,,,,,,,,4.0,1.6,3.7*37
$GPGSV,3,1,10,21,61,332,39,25,51,149,39,29,40,179,39,12,34,095,36*74
$GPGSV,3,2,10,31,28,223,38,09,21,022,,14,17,300,,18,12,355,*7A
$GPGSV,3,3,10,05,08,110,,27,03,026,*77
$GPRMC,154517.000,A,1349.1028,S,07132.9802,W,27.56,113.00,240411,,,A*55
$GPGGA,154518.003,1349.0998,S,07132.9721,W,1,05,1.6,3220.9,M,31.0,M,,0000*6B
$GPGSA,M,3,21,25,29,12,31,,,,,,,,4.0,1.6,3.7*37
$GPRMC,154518.003,A,1349.0998,S,07132.9721,W,27.22,98.91,240411,,,A*6D
$GPGGA,154518.998,1349.0976,S,07132.9635,W,1,05,1.6,3219.2,M,31.0,M,,0000*65
$GPGSA,M,3,21,25,29,12,31,,,,,,,,4.0,1.6,3.7*37
$GPRMC,154518.998,A,1349.0976,S,07132.9635,W,27.83,93.15,240411,,,A*6E
$GPGGA,154520.001,1349.0962,S,07132.9555,W,1,05,1.6,3218.0,M,31.0,M,,0000*64
$GPGSA,M,3,21,25,29,12,31,,,,,,,,4.0,1.6,3.7*37
$GPRMC,154520.001,A,1349.0962,S,07132.9555,W,27.23,86.10,240411,,,A*67
$GPGGA,154520.998,1349.0947,S,07132.9480,W,1,05,1.6,3217.6,M,31.0,M,,0000*6A
$GPGSA,M,3,21,25,29,12,31,,,,,,,,4.0,1.6,3.7*37
$GPRMC,154520.998,A,1349.0947,S,07132.9480,W,26.84,85.79,240411,,,A*60
$GPGGA,154522.003,1349.0927,S,07132.9402,W,1,05,1.6,3217.3,M,31.0,M,,0000*6A
$GPGSA,M,3,21,25,29,12,31,,,,,,,,4.0,1.6,3.7*37
$GPGSV,3,1,10,21,61,332,38,25,51,149,39,29,40,179,39,12,34,095,35*76
$GPGSV,3,2,10,31,28,223,39,09,21,022,,14,17,300,,18,12,355,*7B
$GPGSV,3,3,10,05,08,110,,27,03,026,*77
$GPRMC,154522.003,A,1349.0927,S,07132.9402,W,27.66,83.40,240411,,,A*64
$GPGGA,154522.998,1349.0923,S,07132.9325,W,1,05,1.6,3218.0,M,31.0,M,,0000*6B
$GPGSA,M,3,21,25,29,12,31,,,,,,,,4.0,1.6,3.7*37
$GPRMC,154522.998,A,1349.0923,S,07132.9325,W,27.01,84.66,240411,,,A*6B
$GPGGA,154523.999,1349.0915,S,07132.9246,W,1,05,1.6,3217.5,M,31.0,M,,0000*60
$GPGSA,M,3,21,25,29,12,31,,,,,,,,4.0,1.6,3.7*37
$GPRMC,154523.999,A,1349.0915,S,07132.9246,W,27.12,83.86,240411,,,A*61
$GPGGA,154524.999,1349.0898,S,07132.9168,W,1,05,1.6,3218.2,M,31.0,M,,0000*64
$GPGSA,M,3,21,25,29,12,31,,,,,,,,4.0,1.6,3.7*37
$GPRMC,154524.999,A,1349.0898,S,07132.9168,W,27.33,83.15,240411,,,A*64
$GPGGA,154525.999,1349.0883,S,07132.9090,W,1,05,1.6,3219.4,M,31.0,M,,0000*6E
$GPGSA,M,3,21,25,29,12,31,,,,,,,,4.0,1.6,3.7*37
$GPRMC,154525.999,A,1349.0883,S,07132.9090,W,27.65,84.46,240411,,,A*6B
$GPGGA,154526.999,1349.0868,S,07132.9011,W,1,05,1.6,3218.1,M,31.0,M,,0000*65
$GPGSA,M,3,21,25,29,12,31,,,,,,,,4.0,1.6,3.7*37
$GPGSV,3,1,10,21,61,332,39,25,51,149,39,29,40,179,39,12,34,095,37*75
$GPGSV,3,2,10,31,28,223,38,09,21,022,,14,17,300,,18,12,355,*7A
$GPGSV,3,3,10,05,08,110,,27,03,026,*77
$GPRMC,154526.999,A,1349.0868,S,07132.9011,W,26.97,86.36,240411,,,A*6D
$GPGGA,154528.001,1349.0862,S,07132.8937,W,1,05,1.6,3217.4,M,31.0,M,,0000*6F
$GPGSA,M,3,21,25,29,12,31,,,,,,,,4.0,1.6,3.7*37
$GPRMC,154528.001,A,1349.0862,S,07132.8937,W,26.54,86.99,240411,,,A*67
$GPGGA,154528.999,1349.0855,S,07132.8852,W,1,05,1.6,3217.0,M,31.0,M,,0000*65
$GPGSA,M,3,21,25,29,12,31,,,,,,,,4.0,1.6,3.7*37
$GPRMC,154528.999,A,1349.0855,S,07132.8852,W,25.70,88.17,240411,,,A*64
$GPGGA,154529.998,1349.0853,S,07132.8782,W,1,05,1.6,3217.4,M,31.0,M,,0000*65
$GPGSA,M,3,21,25,29,12,31,,,,,,,,4.0,1.6,3.7*37
$GPRMC,154529.998,A,1349.0853,S,07132.8782,W,25.58,89.81,240411,,,A*64
$GPGGA,154531.000,1349.0862,S,07132.8708,W,1,05,1.6,3216.9,M,31.0,M,,0000*68
$GPGSA,M,3,21,25,29,12,31,,,,,,,,4.0,1.6,3.7*37
$GPRMC,154531.000,A,1349.0862,S,07132.8708,W,24.34,91.04,240411,,,A*6A
$GPGGA,154532.000,1349.0862,S,07132.8634,W,1,05,1.6,3217.2,M,31.0,M,,0000*6F
$GPGSA,M,3,21,25,29,12,31,,,,,,,,4.0,1.6,3.7*37
$GPGSV,3,1,10,21,61,332,38,25,51,149,39,29,40,179,39,12,34,095,38*7B
$GPGSV,3,2,10,31,28,223,38,09,21,022,,14,17,300,,18,12,355,*7A
$GPGSV,3,3,10,05,08,110,,27,03,026,*77
$GPRMC,154532.000,A,1349.0862,S,07132.8634,W,23.81,90.11,240411,,,A*6B
$GPGGA,154533.000,1349.0841,S,07132.8572,W,1,05,1.6,3219.7,M,31.0,M,,0000*65
$GPGSA,M,3,21,25,29,12,31,,,,,,,,4.0,1.6,3.7*37
$GPRMC,154533.000,A,1349.0841,S,07132.8572,W,22.99,84.18,240411,,,A*6E
$GPGGA,154534.000,1349.0815,S,07132.8521,W,1,05,1.6,3219.7,M,31.0,M,,0000*65
$GPGSA,M,3,21,25,29,12,31,,,,,,,,4.0,1.6,3.7*37
$GPRMC,154534.000,A,1349.0815,S,07132.8521,W,22.05,76.37,240411,,,A*6B
$GPGGA,154535.001,1349.0770,S,07132.8464,W,1,05,1.6,3221.4,M,31.0,M,,0000*61
$GPGSA,M,3,21,25,29,12,31,,,,,,,,4.0,1.6,3.7*37
$GPRMC,154535.001,A,1349.0770,S,07132.8464,W,23.28,67.13,240411,,,A*6F
$GPGGA,154536.001,1349.0742,S,07132.8402,W,1,05,1.6,3223.6,M,31.0,M,,0000*63
$GPGSA,M,3,21,25,29,12,31,,,,,,,,4.0,1.6,3.7*37
$GPRMC,154536.001,A,1349.0742,S,07132.8402,W,23.19,63.92,240411,,,A*62
$GPGGA,154536.998,1349.0691,S,07132.8348,W,1,05,1.6,3223.6,M,31.0,M,,0000*6C
$GPGSA,M,3,21,25,29,12,31,,,,,,,,4.0,1.6,3.7*37
$GPGSV,3,1,10,21,61,332,39,25,51,149,38,29,40,179,39,12,34,095,36*75
$GPGSV,3,2,10,31,28,223,38,09,21,022,,14,17,300,,18,12,355,*7A
$GPGSV,3,3,10,05,08,110,,27,03,026,*77
$GPRMC,154536.998,A,1349.0691,S,07132.8348,W,23.67,56.13,240411,,,A*6B
$GPGGA,154537.999,1349.0644,S,07132.8286,W,1,05,1.6,3223.1,M,31.0,M,,0000*60
$GPGSA,M,3,21,25,29,12,31,,,,,,,,4.0,1.6,3.7*37
$GPRMC,154537.999,A,1349.0644,S,07132.8286,W,22.97,53.12,240411,,,A*6A
$GPGGA,154539.001,1349.0571,S,07132.8229,W,1,06,1.2,3222.2,M,31.0,M,,0000*63
$GPGSA,M,3,21,25,29,12,31,09,,,,,,,2.7,1.2,2.4*39
$GPRMC,154539.001,A,1349.0571,S,07132.8229,W,24.61,55.09,240411,,,A*6F
$GPGGA,154539.998,1349.0541,S,07132.8169,W,1,05,1.6,3224.0,M,31.0,M,,0000*6D
$GPGSA,M,3,21,25,29,12,31,,,,,,,,4.0,1.6,3.7*37
$GPRMC,154539.998,A,1349.0541,S,07132.8169,W,24.74,53.42,240411,,,A*6F
$GPGGA,154541.001,1349.0491,S,07132.8112,W,1,05,1.6,3220.6,M,31.0,M,,0000*69
$GPGSA,M,3,21,25,29,12,31,,,,,,,,4.0,1.6,3.7*37
$GPRMC,154541.001,A,1349.0491,S,07132.8112,W,24.90,54.19,240411,,,A*6A
$GPGGA,154541.999,1349.0441,S,07132.8055,W,1,05,1.6,3221.9,M,31.0,M,,0000*60
$GPGSA,M,3,21,25,29,12,31,,,,,,,,4.0,1.6,3.7*37
$GPGSV,3,1,10,21,61,332,39,25,51,149,38,29,40,179,39,12,34,095,39*7A
$GPGSV,3,2,10,31,28,223,39,09,21,022,,14,17,300,,18,12,355,*7B
$GPGSV,3,3,10,05,08,110,,27,03,026,*77
$GPRMC,154541.999,A,1349.0441,S,07132.8055,W,24.72,55.00,240411,,,A*68
$GPGGA,154542.999,1349.0379,S,07132.7994,W,1,05,1.6,3222.0,M,31.0,M,,0000*6E
$GPGSA,M,3,21,25,29,12,31,,,,,,,,4.0,1.6,3.7*37
$GPRMC,154542.999,A,1349.0379,S,07132.7994,W,24.59,56.75,240411,,,A*64
$GPGGA,154543.997,1349.0341,S,07132.7931,W,1,05,1.6,3220.1,M,31.0,M,,0000*66
$GPGSA,M,3,21,25,29,12,31,,,,,,,,4.0,1.6,3.7*37
$GPRMC,154543.997,A,1349.0341,S,07132.7931,W,25.33,55.28,240411,,,A*69
$GPGGA,154545.003,1349.0289,S,07132.7876,W,1,05,1.6,3218.7,M,31.0,M,,0000*6E
$GPGSA,M,3,21,25,29,12,31,,,,,,,,4.0,1.6,3.7*37
$GPRMC,154545.003,A,1349.0289,S,07132.7876,W,24.18,53.10,240411,,,A*69
$GPGGA,154546.001,1349.0252,S,07132.7819,W,1,05,1.6,3217.6,M,31.0,M,,0000*6E
$GPGSA,M,3,21,25,29,12,31,,,,,,,,4.0,1.6,3.7*37
$GPRMC,154546.001,A,1349.0252,S,07132.7819,W,24.54,53.08,240411,,,A*66
$GPGGA,154547.001,1349.0217,S,07132.7760,W,1,05,1.6,3218.4,M,31.0,M,,0000*62
$GPGSA,M,3,21,25,29,12,31,,,,,,,,4.0,1.6,3.7*37
$GPGSV,3,1,10,21,61,332,39,25,51,149,40,29,40,179,39,12,34,095,37*7B
$GPGSV,3,2,10,31,28,223,40,09,21,022,,14,17,300,16,18,12,355,*72
$GPGSV,3,3,10,05,08,110,,27,03,026,*77
$GPRMC,154547.001,A,1349.0217,S,07132.7760,W,24.81,54.13,240411,,,A*62
$GPGGA,154547.998,1349.0174,S,07132.7705,W,1,05,1.6,3219.7,M,31.0,M,,0000*6C
$GPGSA,M,3,21,25,29,12,31,,,,,,,,4.0,1.6,3.7*37
$GPRMC,154547.998,A,1349.0174,S,07132.7705,W,25.22,53.24,240411,,,A*65
$GPGGA,154549.001,1349.0126,S,07132.7647,W,1,05,1.6,3219.9,M,31.0,M,,0000*65
$GPGSA,M,3,21,25,29,12,31,,,,,,,,4.0,1.6,3.7*37
$GPRMC,154549.001,A,1349.0126,S,07132.7647,W,25.04,52.97,240411,,,A*6F
$GPGGA,154549.998,1349.0092,S,07132.7592,W,1,05,1.6,3218.0,M,31.0,M,,0000*61
$GPGSA,M,3,21,25,29,12,31,,,,,,,,4.0,1.6,3.7*37
$GPRMC,154549.998,A,1349.0092,S,07132.7592,W,24.79,53.97,240411,,,A*69
$GPGGA,154551.000,1349.0050,S,07132.7530,W,1,05,1.6,3216.4,M,31.0,M,,0000*6C
$GPGSA,M,3,21,25,29,12,31,,,,,,,,4.0,1.6,3.7*37
$GPRMC,154551.000,A,1349.0050,S,07132.7530,W,25.14,55.08,240411,,,A*64
$GPGGA,154552.000,1349.0026,S,07132.7464,W,1,05,1.6,3218.0,M,31.0,M,,0000*64
$GPGSA,M,3,21,25,29,12,31,,,,,,,,4.0,1.6,3.7*37
$GPGSV,3,1,10,21,61,332,38,25,51,149,39,29,40,179,38,12,34,095,38*7A
$GPGSV,3,2,10,31,28,223,39,09,21,022,,14,17,300,,18,12,355,*7B
$GPGSV,3,3,10,05,08,110,,27,03,026,*77
$GPRMC,154552.000,A,1349.0026,S,07132.7464,W,26.23,59.97,240411,,,A*6B
$GPGGA,154553.002,1349.0002,S,07132.7397,W,1,05,1.6,3218.4,M,31.0,M,,0000*6E
$GPGSA,M,3,21,25,29,12,31,,,,,,,,4.0,1.6,3.7*37
$GPRMC,154553.002,A,1349.0002,S,07132.7397,W,27.22,65.02,240411,,,A*66
$GPGGA,154553.999,1348.9962,S,07132.7326,W,1,05,1.6,3219.3,M,31.0,M,,0000*6E
$GPGSA,M,3,21,25,29,12,31,,,,,,,,4.0,1.6,3.7*37
$GPRMC,154553.999,A,1348.9962,S,07132.7326,W,26.65,65.07,240411,,,A*67
$GPGGA,154554.998,1348.9934,S,07132.7256,W,1,05,1.6,3217.9,M,31.0,M,,0000*69
$GPGSA,M,3,21,25,29,12,31,,,,,,,,4.0,1.6,3.7*37
$GPRMC,154554.998,A,1348.9934,S,07132.7256,W,25.35,68.33,240411,,,A*68
$GPGGA,154556.000,1348.9932,S,07132.7179,W,1,05,1.6,3216.5,M,31.0,M,,0000*66
$GPGSA,M,3,21,25,29,12,31,,,,,,,,4.0,1.6,3.7*37
$GPRMC,154556.000,A,1348.9932,S,07132.7179,W,24.19,75.57,240411,,,A*6B
$GPGGA,154557.001,1348.9926,S,07132.7109,W,1,05,1.6,3215.5,M,31.0,M,,0000*67
$GPGSA,M,3,21,25,29,12,31,,,,,,,,4.0,1.6,3.7*37
$GPGSV,3,1,10,21,61,332,38,25,51,149,39,29,40,179,39,12,34,095,36*75
$GPGSV,3,2,10,31,28,223,39,09,21,022,,14,17,300,,18,12,355,*7B
$GPGSV,3,3,10,05,08,110,,27,03,026,*77
$GPRMC,154557.001,A,1348.9926,S,07132.7109,W,24.63,78.73,240411,,,A*6F
$GPGGA,154558.001,1348.9920,S,07132.7029,W,1,05,1.6,3214.8,M,31.0,M,,0000*61
$GPGSA,M,3,21,25,29,12,31,,,,,,,,4.0,1.6,3.7*37
$GPRMC,154558.001,A,1348.9920,S,07132.7029,W,27.11,83.72,240411,,,A*66
$GPGGA,154558.999,1348.9935,S,07132.6940,W,1,05,1.6,3215.1,M,31.0,M,,0000*62
$GPGSA,M,3,21,25,29,12,31,,,,,,,,4.0,1.6,3.7*37
$GPRMC,154558.999,A,1348.9935,S,07132.6940,W,27.38,90.19,240411,,,A*69
$GPGGA,154559.998,1348.9947,S,07132.6858,W,1,05,1.6,3212.7,M,31.0,M,,0000*6E
$GPGSA,M,3,21,25,29,12,31,,,,,,,,4.0,1.6,3.7*37
$GPRMC,154559.998,A,1348.9947,S,07132.6858,W,27.79,93.13,240411,,,A*68
$GPGGA,154601.000,1348.9948,S,07132.6782,W,1,05,1.6,3212.8,M,31.0,M,,0000*60
$GPGSA,M,3,21,25,29,12,31,,,,,,,,4.0,1.6,3.7*37
$GPRMC,154601.000,A,1348.9948,S,07132.6782,W,27.98,93.84,240411,,,A*68
$GPGGA,154602.001,1348.9963,S,07132.6696,W,1,04,2.0,3210.5,M,31.0,M,,0000*64
$GPGSA,M,3,21,29,12,31,,,,,,,,,5.4,2.0,5.1*30
$GPGSV,3,1,10,21,61,332,37,25,51,149,,29,40,179,39,12,34,095,36*70
$GPGSV,3,2,10,31,28,223,38,09,21,022,,14,17,300,,18,12,355,*7A
$GPGSV,3,3,10,05,08,110,21,27,03,026,*74
$GPRMC,154602.001,A,1348.9963,S,07132.6696,W,27.73,95.74,240411,,,A*6B
$GPGGA,154603.000,1348.9963,S,07132.6619,W,1,05,1.6,3208.7,M,31.0,M,,0000*6C
$GPGSA,M,3,21,25,29,12,31,,,,,,,,4.0,1.6,3.7*37
$GPRMC,154603.000,A,1348.9963,S,07132.6619,W,26.73,95.28,240411,,,A*64
$GPGGA,154604.000,1348.9974,S,07132.6544,W,1,05,1.6,3207.8,M,31.0,M,,0000*66
$GPGSA,M,3,21,25,29,12,31,,,,,,,,4.0,1.6,3.7*37
$GPRMC,154604.000,A,1348.9974,S,07132.6544,W,27.26,98.58,240411,,,A*65
$GPGGA,154605.000,1349.0030,S,07132.6481,W,1,05,1.6,3207.2,M,31.0,M,,0000*64
$GPGSA,M,3,21,25,29,12,31,,,,,,,,4.0,1.6,3.7*37
$GPRMC,154605.000,A,1349.0030,S,07132.6481,W,25.98,108.28,240411,,,A*55
$GPGGA,154606.000,1349.0070,S,07132.6425,W,1,05,1.6,3207.8,M,31.0,M,,0000*67
$GPGSA,M,3,21,25,29,12,31,,,,,,,,4.0,1.6,3.7*37
$GPRMC,154606.000,A,1349.0070,S,07132.6425,W,25.13,115.16,240411,,,A*5E
$GPGGA,154606.999,1349.0133,S,07132.6374,W,1,05,1.6,3207.0,M,31.0,M,,0000*63
$GPGSA,M,3,21,25,29,12,31,,,,,,,,4.0,1.6,3.7*37
$GPGSV,3,1,10,21,61,332,39,25,51,149,38,29,40,179,39,12,34,095,32*71
$GPGSV,3,2,10,31,28,223,37,09,21,022,,14,17,300,,18,12,355,*75
$GPGSV,3,3,10,05,08,110,,27,03,026,*77
$GPRMC,154606.999,A,1349.0133,S,07132.6374,W,24.43,123.06,240411,,,A*52
$GPGGA,154608.000,1349.0231,S,07132.6326,W,1,05,1.6,3206.4,M,31.0,M,,0000*67
$GPGSA,M,3,21,25,29,12,31,,,,,,,,4.0,1.6,3.7*37
$GPRMC,154608.000,A,1349.0231,S,07132.6326,W,24.56,134.22,240411,,,A*57
$GPGGA,154609.001,1349.0293,S,07132.6285,W,1,05,1.6,3207.3,M,31.0,M,,0000*61
$GPGSA,M,3,21,25,29,12,31,,,,,,,,4.0,1.6,3.7*37
$GPRMC,154609.001,A,1349.0293,S,07132.6285,W,26.17,139.55,240411,,,A*5D
$GPGGA,154609.999,1349.0353,S,07132.6237,W,1,05,1.6,3203.5,M,31.0,M,,0000*6F
$GPGSA,M,3,21,25,29,12,31,,,,,,,,4.0,1.6,3.7*37
$GPRMC,154609.999,A,1349.0353,S,07132.6237,W,25.79,143.13,240411,,,A*55
$GPGGA,154610.999,1349.0427,S,07132.6193,W,1,05,1.6,3206.1,M,31.0,M,,0000*6F
$GPGSA,M,3,21,25,29,12,31,,,,,,,,4.0,1.6,3.7*37
$GPRMC,154610.999,A,1349.0427,S,07132.6193,W,25.60,144.19,240411,,,A*51
$GPGGA,154611.999,1349.0481,S,07132.6150,W,1,05,1.6,3206.4,M,31.0,M,,0000*68
$GPGSA,M,3,21,25,29,12,31,,,,,,,,4.0,1.6,3.7*37
$GPGSV,3,1,10,21,61,332,39,25,51,149,39,29,40,179,39,12,34,095,35*77
$GPGSV,3,2,10,31,28,223,39,09,21,022,,14,17,300,,18,12,355,*7B
$GPGSV,3,3,10,05,08,110,,27,03,026,*77
$GPRMC,154611.999,A,1349.0481,S,07132.6150,W,25.52,144.49,240411,,,A*57
$GPGGA,154613.001,1349.0538,S,07132.6112,W,1,06,1.2,3207.7,M,31.0,M,,0000*62
$GPGSA,M,3,21,25,29,12,31,14,,,,,,,2.7,1.2,2.4*35
$GPRMC,154613.001,A,1349.0538,S,07132.6112,W,25.07,143.80,240411,,,A*5A
$GPGGA,154613.997,1349.0609,S,07132.6066,W,1,05,1.6,3207.4,M,31.0,M,,0000*63
$GPGSA,M,3,21,25,29,12,31,,,,,,,,4.0,1.6,3.7*37
$GPRMC,154613.997,A,1349.0609,S,07132.6066,W,26.10,143.35,240411,,,A*54
$GPGGA,154615.001,1349.0671,S,07132.6028,W,1,06,1.2,3204.8,M,31.0,M,,0000*6E
$GPGSA,M,3,21,25,29,12,31,14,,,,,,,2.7,1.2,2.4*35
$GPRMC,154615.001,A,1349.0671,S,07132.6028,W,24.09,145.29,240411,,,A*50
$GPGGA,154616.001,1349.0731,S,07132.5991,W,1,06,1.2,3207.3,M,31.0,M,,0000*68
$GPGSA,M,3,21,25,29,12,31,14,,,,,,,2.7,1.2,2.4*35
$GPRMC,154616.001,A,1349.0731,S,07132.5991,W,24.50,145.62,240411,,,A*5D
$GPGGA,154616.997,1349.0789,S,07132.5954,W,1,06,1.2,3206.9,M,31.0,M,,0000*6F
$GPGSA,M,3,21,25,29,12,31,14,,,,,,,2.7,1.2,2.4*35
$GPGSV,3,1,10,21,61,332,39,25,51,149,40,29,40,179,40,12,34,095,35*77
$GPGSV,3,2,10,31,28,223,39,09,21,022,,14,17,300,29,18,12,355,*70
$GPGSV,3,3,10,05,08,110,,27,03,026,*77
$GPRMC,154616.997,A,1349.0789,S,07132.5954,W,23.41,146.37,240411,,,A*55
$GPGGA,154618.002,1349.0852,S,07132.5914,W,1,06,1.2,3208.1,M,31.0,M,,0000*6F
$GPGSA,M,3,21,25,29,12,31,14,,,,,,,2.7,1.2,2.4*35
$GPRMC,154618.002,A,1349.0852,S,07132.5914,W,23.06,146.28,240411,,,A*5E
$GPGGA,154619.000,1349.0905,S,07132.5879,W,1,06,1.2,3207.8,M,31.0,M,,0000*63
$GPGSA,M,3,21,25,29,12,31,14,,,,,,,2.7,1.2,2.4*35
$GPRMC,154619.000,A,1349.0905,S,07132.5879,W,21.48,146.93,240411,,,A*5C
$GPGGA,154619.998,1349.0966,S,07132.5851,W,1,05,1.5,3210.7,M,31.0,M,,0000*69
$GPGSA,M,3,21,25,29,12,14,,,,,,,,2.8,1.5,2.4*3F
$GPRMC,154619.998,A,1349.0966,S,07132.5851,W,19.95,148.07,240411,,,A*53
$GPGGA,154621.000,1349.1004,S,07132.5822,W,1,06,1.2,3211.4,M,31.0,M,,0000*64
$GPGSA,M,3,21,25,29,12,31,14,,,,,,,2.7,1.2,2.4*35
$GPRMC,154621.000,A,1349.1004,S,07132.5822,W,18.76,149.50,240411,,,A*57
$GPGGA,154621.999,1349.1054,S,07132.5793,W,1,06,1.2,3212.5,M,31.0,M,,0000*6F
$GPGSA,M,3,21,25,29,12,31,14,,,,,,,2.7,1.2,2.4*35
$GPGSV,3,1,10,21,61,332,39,25,51,149,39,29,40,179,38,12,34,095,35*76
$GPGSV,3,2,10,31,28,223,36,09,21,022,,14,17,300,36,18,12,355,*71
$GPGSV,3,3,10,05,08,110,,27,03,026,*77
$GPRMC,154621.999,A,1349.1054,S,07132.5793,W,16.63,148.53,240411,,,A*56
$GPGGA,154622.999,1349.1091,S,07132.5772,W,1,06,1.2,3214.3,M,31.0,M,,0000*6A
$GPGSA,M,3,21,25,29,12,31,14,,,,,,,2.7,1.2,2.4*35
$GPRMC,154622.999,A,1349.1091,S,07132.5772,W,15.70,149.01,240411,,,A*54
$GPGGA,154623.999,1349.1120,S,07132.5747,W,1,06,1.2,3212.5,M,31.0,M,,0000*66
$GPGSA,M,3,21,25,29,12,31,14,,,,,,,2.7,1.2,2.4*35
$GPRMC,154623.999,A,1349.1120,S,07132.5747,W,14.43,142.73,240411,,,A*57
$GPGGA,154624.999,1349.1142,S,07132.5737,W,1,06,1.2,3218.0,M,31.0,M,,0000*6D
$GPGSA,M,3,21,25,29,12,31,14,,,,,,,2.7,1.2,2.4*35
$GPRMC,154624.999,A,1349.1142,S,07132.5737,W,11.41,142.77,240411,,,A*50
$GPGGA,154626.000,1349.1150,S,07132.5729,W,1,06,1.2,3216.4,M,31.0,M,,0000*60
$GPGSA,M,3,21,25,29,12,31,14,,,,,,,2.7,1.2,2.4*35
$GPRMC,154626.000,A,1349.1150,S,07132.5729,W,7.40,150.96,240411,,,A*6D
$GPGGA,154626.998,1349.1161,S,07132.5726,W,1,06,1.2,3218.5,M,31.0,M,,0000*6A
$GPGSA,M,3,21,25,29,12,31,14,,,,,,,2.7,1.2,2.4*35
$GPGSV,3,1,10,21,61,332,39,25,51,149,38,29,40,179,37,12,34,095,35*78
$GPGSV,3,2,10,31,28,223,36,09,21,022,,14,17,300,35,18,12,355,*72
$GPGSV,3,3,10,05,08,110,,27,03,026,*77
$GPRMC,154626.998,A,1349.1161,S,07132.5726,W,8.36,146.48,240411,,,A*62
$GPGGA,154628.000,1349.1178,S,07132.5709,W,1,06,1.2,3216.5,M,31.0,M,,0000*67
$GPGSA,M,3,21,25,29,12,31,14,,,,,,,2.7,1.2,2.4*35
$GPRMC,154628.000,A,1349.1178,S,07132.5709,W,8.83,140.11,240411,,,A*65
$GPGGA,154629.001,1349.1194,S,07132.5691,W,1,06,1.2,3215.9,M,31.0,M,,0000*6A
$GPGSA,M,3,21,25,29,12,31,14,,,,,,,2.7,1.2,2.4*35
$GPRMC,154629.001,A,1349.1194,S,07132.5691,W,10.13,145.95,240411,,,A*5E
$GPGGA,154629.999,1349.1218,S,07132.5670,W,1,06,1.2,3214.8,M,31.0,M,,0000*6A
$GPGSA,M,3,21,25,29,12,31,14,,,,,,,2.7,1.2,2.4*35
$GPRMC,154629.999,A,1349.1218,S,07132.5670,W,11.24,144.69,240411,,,A*59
$GPGGA,154630.999,1349.1248,S,07132.5643,W,1,06,1.2,3214.6,M,31.0,M,,0000*69
$GPGSA,M,3,21,25,29,12,31,14,,,,,,,2.7,1.2,2.4*35
$GPRMC,154630.999,A,1349.1248,S,07132.5643,W,12.20,139.74,240411,,,A*55
$GPGGA,154632.000,1349.1267,S,07132.5621,W,1,06,1.2,3215.3,M,31.0,M,,0000*6F
$GPGSA,M,3,21,25,29,12,31,14,,,,,,,2.7,1.2,2.4*35
$GPGSV,3,1,10,21,61,332,39,25,51,149,38,29,40,179,36,12,34,095,36*7A
$GPGSV,3,2,10,31,28,223,35,09,21,022,,14,17,300,38,18,12,355,*7C
$GPGSV,3,3,10,05,08,110,,27,03,026,*77
$GPRMC,154632.000,A,1349.1267,S,07132.5621,W,11.79,138.31,240411,,,A*58
$GPGGA,154633.001,1349.1302,S,07132.5600,W,1,06,1.2,3214.1,M,31.0,M,,0000*6D
$GPGSA,M,3,21,25,29,12,31,14,,,,,,,2.7,1.2,2.4*35
$GPRMC,154633.001,A,1349.1302,S,07132.5600,W,12.74,142.60,240411,,,A*5E
$GPGGA,154634.001,1349.1330,S,07132.5579,W,1,06,1.2,3215.6,M,31.0,M,,0000*60
$GPGSA,M,3,21,25,29,12,31,14,,,,,,,2.7,1.2,2.4*35
$GPRMC,154634.001,A,1349.1330,S,07132.5579,W,13.31,144.58,240411,,,A*58
$GPGGA,154635.000,1349.1361,S,07132.5555,W,1,06,1.2,3215.2,M,31.0,M,,0000*6E
$GPGSA,M,3,21,25,29,12,31,14,,,,,,,2.7,1.2,2.4*35
$GPRMC,154635.000,A,1349.1361,S,07132.5555,W,13.17,152.53,240411,,,A*5A
$GPGGA,154635.998,1349.1392,S,07132.5537,W,1,06,1.2,3217.6,M,31.0,M,,0000*68
$GPGSA,M,3,21,25,29,12,31,14,,,,,,,2.7,1.2,2.4*35
$GPRMC,154635.998,A,1349.1392,S,07132.5537,W,14.90,152.51,240411,,,A*50
$GPGGA,154637.002,1349.1432,S,07132.5517,W,1,05,1.6,3217.4,M,31.0,M,,0000*6A
$GPGSA,M,3,21,25,29,12,31,,,,,,,,4.0,1.6,3.7*37
$GPGSV,3,1,10,21,61,332,39,25,51,149,39,29,40,179,38,12,34,095,39*7A
$GPGSV,3,2,10,31,28,223,39,09,21,022,,14,17,300,,18,12,355,*7B
$GPGSV,3,3,10,05,08,110,,27,03,026,*77
$GPRMC,154637.002,A,1349.1432,S,07132.5517,W,15.97,155.27,240411,,,A*57
$GPGGA,154638.001,1349.1469,S,07132.5499,W,1,06,1.2,3217.2,M,31.0,M,,0000*6E
$GPGSA,M,3,21,25,29,12,31,14,,,,,,,2.7,1.2,2.4*35
$GPRMC,154638.001,A,1349.1469,S,07132.5499,W,16.52,155.06,240411,,,A*5B
$GPGGA,154639.000,1349.1511,S,07132.5484,W,1,06,1.2,3218.0,M,31.0,M,,0000*61
$GPGSA,M,3,21,25,29,12,31,14,,,,,,,2.7,1.2,2.4*35
$GPRMC,154639.000,A,1349.1511,S,07132.5484,W,16.63,158.60,240411,,,A*56
$GPGGA,154640.000,1349.1551,S,07132.5471,W,1,06,1.2,3220.2,M,31.0,M,,0000*68
$GPGSA,M,3,21,25,29,12,31,14,,,,,,,2.7,1.2,2.4*35
$GPRMC,154640.000,A,1349.1551,S,07132.5471,W,16.87,160.44,240411,,,A*51
$GPGGA,154641.000,1349.1593,S,07132.5461,W,1,06,1.2,3220.4,M,31.0,M,,0000*60
$GPGSA,M,3,21,25,29,12,31,14,,,,,,,2.7,1.2,2.4*35
$GPRMC,154641.000,A,1349.1593,S,07132.5461,W,17.40,159.39,240411,,,A*55
$GPGGA,154641.999,1349.1638,S,07132.5445,W,1,06,1.2,3219.8,M,31.0,M,,0000*6B
$GPGSA,M,3,21,25,29,12,31,14,,,,,,,2.7,1.2,2.4*35
$GPGSV,3,1,10,21,61,332,38,25,51,149,39,29,40,179,36,12,34,095,38*74
$GPGSV,3,2,10,31,28,223,34,09,21,022,,14,17,300,25,18,12,355,*71
$GPGSV,3,3,10,05,08,110,,27,03,026,*77
$GPRMC,154641.999,A,1349.1638,S,07132.5445,W,17.43,160.20,240411,,,A*59
$GPGGA,154643.000,1349.1686,S,07132.5428,W,1,06,1.2,3218.6,M,31.0,M,,0000*61
$GPGSA,M,3,21,25,29,12,31,14,,,,,,,2.7,1.2,2.4*35
$GPRMC,154643.000,A,1349.1686,S,07132.5428,W,18.49,159.73,240411,,,A*55
$GPGGA,154644.000,1349.1733,S,07132.5414,W,1,06,1.2,3218.8,M,31.0,M,,0000*68
$GPGSA,M,3,21,25,29,12,31,14,,,,,,,2.7,1.2,2.4*35
$GPRMC,154644.000,A,1349.1733,S,07132.5414,W,19.12,161.06,240411,,,A*54
$GPGGA,154644.999,1349.1786,S,07132.5399,W,1,06,1.2,3218.1,M,31.0,M,,0000*64
$GPGSA,M,3,21,25,29,12,31,14,,,,,,,2.7,1.2,2.4*35
$GPRMC,154644.999,A,1349.1786,S,07132.5399,W,19.83,164.93,240411,,,A*50
$GPGGA,154645.999,1349.1836,S,07132.5389,W,1,06,1.2,3220.1,M,31.0,M,,0000*6B
$GPGSA,M,3,21,25,29,12,31,09,,,,,,,2.6,1.2,2.3*3F
$GPRMC,154645.999,A,1349.1836,S,07132.5389,W,20.23,164.57,240411,,,A*5C
$GPGGA,154647.000,1349.1889,S,07132.5372,W,1,05,1.6,3220.3,M,31.0,M,,0000*65
$GPGSA,M,3,21,25,29,12,31,,,,,,,,4.0,1.6,3.7*37
$GPGSV,3,1,10,21,61,332,39,25,51,149,37,29,40,179,34,12,34,095,37*76
$GPGSV,3,2,10,31,28,223,37,09,21,022,,14,17,300,,18,12,355,*75
$GPGSV,3,3,10,05,08,110,,27,03,026,*77
$GPRMC,154647.000,A,1349.1889,S,07132.5372,W,19.67,160.64,240411,,,A*59
$GPGGA,154648.003,1349.1944,S,07132.5355,W,1,06,1.2,3217.0,M,31.0,M,,0000*6C
$GPGSA,M,3,21,25,29,12,31,14,,,,,,,2.7,1.2,2.4*35
$GPRMC,154648.003,A,1349.1944,S,07132.5355,W,20.03,163.19,240411,,,A*51
$GPGGA,154648.994,1349.1996,S,07132.5345,W,1,07,1.0,3219.0,M,31.0,M,,0000*68
$GPGSA,M,3,21,25,29,12,31,09,14,,,,,,2.4,1.0,2.1*38
$GPRMC,154648.994,A,1349.1996,S,07132.5345,W,20.25,161.70,240411,,,A*51
$GPGGA,154650.002,1349.2047,S,07132.5326,W,1,06,1.2,3217.6,M,31.0,M,,0000*6F
$GPGSA,M,3,21,25,29,12,31,14,,,,,,,2.7,1.2,2.4*35
$GPRMC,154650.002,A,1349.2047,S,07132.5326,W,19.95,162.49,240411,,,A*55
$GPGGA,154651.000,1349.2103,S,07132.5310,W,1,05,1.6,3216.9,M,31.0,M,,0000*61
$GPGSA,M,3,21,25,29,12,31,,,,,,,,4.0,1.6,3.7*37
$GPRMC,154651.000,A,1349.2103,S,07132.5310,W,20.51,163.87,240411,,,A*53
$GPGGA,154652.005,1349.2162,S,07132.5293,W,1,06,1.2,3216.5,M,31.0,M,,0000*61
$GPGSA,M,3,21,25,29,12,31,14,,,,,,,2.7,1.2,2.4*35
$GPGSV,3,1,10,21,62,331,38,25,51,148,39,29,40,178,35,12,34,093,38*71
$GPGSV,3,2,10,31,28,223,39,09,20,022,,14,17,301,39,18,13,356,*73
$GPGSV,3,3,10,05,08,111,,27,03,026,*76
$GPRMC,154652.005,A,1349.2162,S,07132.5293,W,21.15,165.07,240411,,,A*57
$GPGGA,154652.998,1349.2220,S,07132.5274,W,1,06,1.2,3217.0,M,31.0,M,,0000*64
$GPGSA,M,3,21,25,29,12,31,14,,,,,,,2.7,1.2,2.4*35
$GPRMC,154652.998,A,1349.2220,S,07132.5274,W,20.36,162.14,240411,,,A*53
$GPGGA,154653.996,1349.2274,S,07132.5259,W,1,07,1.0,3218.2,M,31.0,M,,0000*6B
$GPGSA,M,3,21,25,29,12,31,09,14,,,,,,2.3,1.0,2.1*3F
$GPRMC,154653.996,A,1349.2274,S,07132.5259,W,20.21,159.79,240411,,,A*57
$GPGGA,154654.999,1349.2327,S,07132.5239,W,1,05,1.6,3217.4,M,31.0,M,,0000*6F
$GPGSA,M,3,21,25,29,12,31,,,,,,,,4.0,1.6,3.7*37
$GPRMC,154654.999,A,1349.2327,S,07132.5239,W,20.32,161.66,240411,,,A*59
$GPGGA,154656.001,1349.2379,S,07132.5222,W,1,06,1.2,3217.2,M,31.0,M,,0000*65
$GPGSA,M,3,21,25,29,12,31,09,,,,,,,2.6,1.2,2.3*3F
$GPRMC,154656.001,A,1349.2379,S,07132.5222,W,20.45,160.70,240411,,,A*54
$GPGGA,154656.998,1349.2430,S,07132.5206,W,1,07,1.0,3218.7,M,31.0,M,,0000*69
$GPGSA,M,3,21,25,29,12,31,09,14,,,,,,2.3,1.0,2.1*3F
$GPGSV,3,1,10,21,62,331,38,25,51,148,39,29,40,178,37,12,34,093,38*73
$GPGSV,3,2,10,31,28,223,38,09,20,022,32,14,17,301,36,18,13,356,*7C
$GPGSV,3,3,10,05,08,111,,27,03,026,*76
$GPRMC,154656.998,A,1349.2430,S,07132.5206,W,19.85,160.29,240411,,,A*5B
$GPGGA,154658.001,1349.2481,S,07132.5192,W,1,07,1.0,3220.2,M,31.0,M,,0000*64
$GPGSA,M,3,21,25,29,12,31,09,14,,,,,,2.3,1.0,2.1*3F
$GPRMC,154658.001,A,1349.2481,S,07132.5192,W,19.85,161.17,240411,,,A*54
$GPGGA,154659.000,1349.2534,S,07132.5174,W,1,07,1.0,3219.7,M,31.0,M,,0000*6C
$GPGSA,M,3,21,25,29,12,31,09,14,,,,,,2.3,1.0,2.1*3F
$GPRMC,154659.000,A,1349.2534,S,07132.5174,W,19.95,163.16,240411,,,A*51
$GPGGA,154659.998,1349.2584,S,07132.5157,W,1,07,1.0,3220.2,M,31.0,M,,0000*61
$GPGSA,M,3,21,25,29,12,31,09,14,,,,,,2.3,1.0,2.1*3F
$GPRMC,154659.998,A,1349.2584,S,07132.5157,W,20.03,160.26,240411,,,A*56
$GPGGA,154701.001,1349.2639,S,07132.5138,W,1,07,1.0,3221.8,M,31.0,M,,0000*63
$GPGSA,M,3,21,25,29,12,31,09,14,,,,,,2.3,1.0,2.1*3F
$GPRMC,154701.001,A,1349.2639,S,07132.5138,W,20.16,161.67,240411,,,A*5F
$GPGGA,154702.000,1349.2692,S,07132.5118,W,1,07,1.0,3220.2,M,31.0,M,,0000*69
$GPGSA,M,3,21,25,29,12,31,09,14,,,,,,2.3,1.0,2.1*3F
$GPGSV,3,1,10,21,62,331,38,25,51,148,37,29,40,178,34,12,34,093,37*71
$GPGSV,3,2,10,31,28,223,31,09,20,022,34,14,17,301,37,18,13,356,*72
$GPGSV,3,3,10,05,08,111,,27,03,026,*76
$GPRMC,154702.000,A,1349.2692,S,07132.5118,W,19.77,160.29,240411,,,A*58
$GPGGA,154703.000,1349.2750,S,07132.5099,W,1,07,1.0,3219.6,M,31.0,M,,0000*61
$GPGSA,M,3,21,25,29,12,31,09,14,,,,,,2.3,1.0,2.1*3F
$GPRMC,154703.000,A,1349.2750,S,07132.5099,W,20.30,162.51,240411,,,A*5A
$GPGGA,154704.002,1349.2807,S,07132.5081,W,1,07,1.0,3218.7,M,31.0,M,,0000*60
$GPGSA,M,3,21,25,29,12,31,09,14,,,,,,2.3,1.0,2.1*3F
$GPRMC,154704.002,A,1349.2807,S,07132.5081,W,20.82,159.15,240411,,,A*5A
$GPGGA,154704.999,1349.2868,S,07132.5064,W,1,07,1.0,3220.3,M,31.0,M,,0000*66
$GPGSA,M,3,21,25,29,12,31,09,14,,,,,,2.3,1.0,2.1*3F
$GPRMC,154704.999,A,1349.2868,S,07132.5064,W,20.41,161.85,240411,,,A*5E
$GPGGA,154705.999,1349.2921,S,07132.5043,W,1,07,1.0,3219.4,M,31.0,M,,0000*63
$GPGSA,M,3,21,25,29,12,31,09,14,,,,,,2.3,1.0,2.1*3F
$GPRMC,154705.999,A,1349.2921,S,07132.5043,W,20.83,161.25,240411,,,A*52
$GPGGA,154707.001,1349.2981,S,07132.5023,W,1,07,1.0,3220.5,M,31.0,M,,0000*6E
$GPGSA,M,3,21,25,29,12,31,09,14,,,,,,2.3,1.0,2.1*3F
$GPGSV,3,1,10,21,62,331,39,25,51,148,39,29,40,178,36,12,34,093,39*72
$GPGSV,3,2,10,31,28,223,30,09,20,022,36,14,17,301,39,18,13,356,28*75
$GPGSV,3,3,10,05,08,111,,27,03,026,*76
$GPRMC,154707.001,A,1349.2981,S,07132.5023,W,20.56,160.78,240411,,,A*55
$GPGGA,154707.997,1349.3036,S,07132.5007,W,1,07,1.0,3222.2,M,31.0,M,,0000*6F
$GPGSA,M,3,21,25,29,12,31,09,14,,,,,,2.3,1.0,2.1*3F
$GPRMC,154707.997,A,1349.3036,S,07132.5007,W,20.93,159.90,240411,,,A*54
$GPGGA,154709.003,1349.3091,S,07132.4985,W,1,07,1.0,3221.6,M,31.0,M,,0000*6D
$GPGSA,M,3,21,25,29,12,31,09,14,,,,,,2.3,1.0,2.1*3F
$GPRMC,154709.003,A,1349.3091,S,07132.4985,W,21.44,161.22,240411,,,A*58
$GPGGA,154709.998,1349.3146,S,07132.4962,W,1,07,1.0,3220.8,M,31.0,M,,0000*6B
$GPGSA,M,3,21,25,29,12,31,09,14,,,,,,2.3,1.0,2.1*3F
$GPRMC,154709.998,A,1349.3146,S,07132.4962,W,20.80,159.62,240411,,,A*57
$GPGGA,154711.000,1349.3202,S,07132.4943,W,1,07,1.0,3220.3,M,31.0,M,,0000*61
$GPGSA,M,3,21,25,29,12,31,09,14,,,,,,2.3,1.0,2.1*3F
$GPRMC,154711.000,A,1349.3202,S,07132.4943,W,21.27,162.35,240411,,,A*50
$GPGGA,154711.998,1349.3259,S,07132.4925,W,1,06,1.2,3220.0,M,31.0,M,,0000*67
$GPGSA,M,3,21,25,29,12,31,09,,,,,,,2.6,1.2,2.3*3F
$GPGSV,3,1,10,21,62,331,39,25,51,148,39,29,40,178,35,12,34,093,39*71
$GPGSV,3,2,10,31,28,223,39,09,20,022,38,14,17,301,,18,13,356,34*75
$GPGSV,3,3,10,05,08,111,,27,03,026,*76
$GPRMC,154711.998,A,1349.3259,S,07132.4925,W,21.58,162.40,240411,,,A*5C
$GPGGA,154713.003,1349.3316,S,07132.4906,W,1,07,1.0,3219.3,M,31.0,M,,0000*6F
$GPGSA,M,3,21,25,29,12,31,09,14,,,,,,2.3,1.0,2.1*3F
$GPRMC,154713.003,A,1349.3316,S,07132.4906,W,21.49,161.29,240411,,,A*52
$GPGGA,154714.001,1349.3377,S,07132.4887,W,1,07,1.0,3221.7,M,31.0,M,,0000*6A
$GPGSA,M,3,21,25,29,12,31,09,14,,,,,,2.3,1.0,2.1*3F
$GPRMC,154714.001,A,1349.3377,S,07132.4887,W,22.00,162.38,240411,,,A*55
$GPGGA,154714.998,1349.3435,S,07132.4870,W,1,07,1.0,3221.2,M,31.0,M,,0000*6F
$GPGSA,M,3,21,25,29,12,31,09,14,,,,,,2.3,1.0,2.1*3F
$GPRMC,154714.998,A,1349.3435,S,07132.4870,W,21.52,162.49,240411,,,A*57
$GPGGA,154715.998,1349.3494,S,07132.4850,W,1,06,1.2,3220.7,M,31.0,M,,0000*60
$GPGSA,M,3,21,25,29,12,31,09,,,,,,,2.6,1.2,2.3*3F
$GPRMC,154715.998,A,1349.3494,S,07132.4850,W,22.03,160.76,240411,,,A*56
$GPGGA,154717.002,1349.3550,S,07132.4832,W,1,06,1.2,3222.3,M,31.0,M,,0000*63
$GPGSA,M,3,21,25,29,12,31,09,,,,,,,2.6,1.2,2.3*3F
$GPGSV,3,1,10,21,62,331,38,25,51,148,39,29,40,178,34,12,34,093,39*71
$GPGSV,3,2,10,31,28,223,34,09,20,022,38,14,17,301,,18,13,356,37*7B
$GPGSV,3,3,10,05,08,111,,27,03,026,*76
$GPRMC,154717.002,A,1349.3550,S,07132.4832,W,21.97,161.61,240411,,,A*5A
$GPGGA,154718.000,1349.3608,S,07132.4811,W,1,05,1.8,3222.0,M,31.0,M,,0000*6B
$GPGSA,M,3,21,25,29,12,09,,,,,,,,3.8,1.8,3.3*39
$GPRMC,154718.000,A,1349.3608,S,07132.4811,W,22.27,161.43,240411,,,A*50
$GPGGA,154718.999,1349.3665,S,07132.4791,W,1,06,1.2,3222.5,M,31.0,M,,0000*62
$GPGSA,M,3,21,25,29,12,31,09,,,,,,,2.6,1.2,2.3*3F
$GPRMC,154718.999,A,1349.3665,S,07132.4791,W,22.22,161.77,240411,,,A*57
$GPGGA,154719.998,1349.3724,S,07132.4768,W,1,06,1.2,3221.6,M,31.0,M,,0000*60
$GPGSA,M,3,21,25,29,12,31,09,,,,,,,2.6,1.2,2.3*3F
$GPRMC,154719.998,A,1349.3724,S,07132.4768,W,21.88,161.06,240411,,,A*50
$GPGGA,154720.999,1349.3784,S,07132.4747,W,1,07,1.0,3220.9,M,31.0,M,,0000*61
$GPGSA,M,3,21,25,29,12,31,09,14,,,,,,2.3,1.0,2.1*3F
$GPRMC,154720.999,A,1349.3784,S,07132.4747,W,21.79,162.18,240411,,,A*5E
$GPGGA,154722.000,1349.3841,S,07132.4730,W,1,07,1.0,3221.4,M,31.0,M,,0000*60
$GPGSA,M,3,21,25,29,12,31,09,14,,,,,,2.3,1.0,2.1*3F
$GPGSV,3,1,10,21,62,331,38,25,51,148,39,29,40,178,36,12,34,093,39*73
$GPGSV,3,2,10,31,28,223,33,09,20,022,37,14,17,301,37,18,13,356,38*78
$GPGSV,3,3,10,05,08,111,,27,03,026,*76
$GPRMC,154722.000,A,1349.3841,S,07132.4730,W,21.79,162.64,240411,,,A*58
$GPGGA,154722.998,1349.3898,S,07132.4713,W,1,07,1.0,3221.1,M,31.0,M,,0000*68
$GPGSA,M,3,21,25,29,12,31,09,14,,,,,,2.3,1.0,2.1*3F
$GPRMC,154722.998,A,1349.3898,S,07132.4713,W,21.30,161.69,240411,,,A*56
$GPGGA,154724.000,1349.3955,S,07132.4692,W,1,07,1.0,3220.7,M,31.0,M,,0000*69
$GPGSA,M,3,21,25,29,12,31,09,14,,,,,,2.3,1.0,2.1*3F
$GPRMC,154724.000,A,1349.3955,S,07132.4692,W,21.22,159.42,240411,,,A*51
$GPGGA,154725.000,1349.4011,S,07132.4672,W,1,07,1.0,3221.0,M,31.0,M,,0000*6E
$GPGSA,M,3,21,25,29,12,31,09,14,,,,,,2.3,1.0,2.1*3F
$GPRMC,154725.000,A,1349.4011,S,07132.4672,W,20.80,160.51,240411,,,A*51
$GPGGA,154726.000,1349.4065,S,07132.4654,W,1,07,1.0,3220.6,M,31.0,M,,0000*6D
$GPGSA,M,3,21,25,29,12,31,09,14,,,,,,2.3,1.0,2.1*3F
$GPRMC,154726.000,A,1349.4065,S,07132.4654,W,20.32,160.39,240411,,,A*52
$GPGGA,154727.000,1349.4112,S,07132.4636,W,1,07,1.0,3221.7,M,31.0,M,,0000*69
$GPGSA,M,3,21,25,29,12,31,09,14,,,,,,2.3,1.0,2.1*3F
$GPGSV,3,1,10,21,62,331,39,25,51,148,38,29,40,178,35,12,34,093,39*70
$GPGSV,3,2,10,31,28,223,37,09,20,022,35,14,17,301,39,18,13,356,37*7F
$GPGSV,3,3,10,05,08,111,,27,03,026,*76
$GPRMC,154727.000,A,1349.4112,S,07132.4636,W,19.59,162.25,240411,,,A*5E
$GPGGA,154728.003,1349.4165,S,07132.4625,W,1,07,1.0,3220.7,M,31.0,M,,0000*66
$GPGSA,M,3,21,25,29,12,31,09,14,,,,,,2.3,1.0,2.1*3F
$GPRMC,154728.003,A,1349.4165,S,07132.4625,W,19.10,162.92,240411,,,A*51
$GPGGA,154728.999,1349.4214,S,07132.4613,W,1,07,1.0,3220.9,M,31.0,M,,0000*62
$GPGSA,M,3,21,25,29,12,31,09,14,,,,,,2.3,1.0,2.1*3F
$GPRMC,154728.999,A,1349.4214,S,07132.4613,W,18.22,163.45,240411,,,A*50
$GPGGA,154729.997,1349.4262,S,07132.4600,W,1,07,1.0,3220.8,M,31.0,M,,0000*6F
$GPGSA,M,3,21,25,29,12,31,09,14,,,,,,2.3,1.0,2.1*3F
$GPRMC,154729.997,A,1349.4262,S,07132.4600,W,18.24,163.79,240411,,,A*55
$GPGGA,154731.000,1349.4307,S,07132.4586,W,1,07,1.0,3219.7,M,31.0,M,,0000*6B
$GPGSA,M,3,21,25,29,12,31,09,14,,,,,,2.3,1.0,2.1*3F
$GPRMC,154731.000,A,1349.4307,S,07132.4586,W,17.91,164.32,240411,,,A*5D
$GPGGA,154732.001,1349.4356,S,07132.4571,W,1,07,1.0,3218.7,M,31.0,M,,0000*64
$GPGSA,M,3,21,25,29,12,31,09,14,,,,,,2.3,1.0,2.1*3F
$GPGSV,3,1,10,21,62,331,39,25,51,148,38,29,40,178,36,12,34,093,38*72
$GPGSV,3,2,10,31,28,223,27,09,20,022,34,14,17,301,23,18,13,356,37*74
$GPGSV,3,3,10,05,08,111,,27,03,026,*76
$GPRMC,154732.001,A,1349.4356,S,07132.4571,W,17.92,161.88,240411,,,A*54
$GPGGA,154733.001,1349.4398,S,07132.4552,W,1,06,1.2,3218.5,M,31.0,M,,0000*67
$GPGSA,M,3,21,25,29,12,31,09,,,,,,,2.6,1.2,2.3*3F
$GPRMC,154733.001,A,1349.4398,S,07132.4552,W,17.67,157.91,240411,,,A*51
$GPGGA,154734.001,1349.4442,S,07132.4535,W,1,07,1.0,3218.4,M,31.0,M,,0000*63
$GPGSA,M,3,21,25,29,12,31,09,14,,,,,,2.3,1.0,2.1*3F
$GPRMC,154734.001,A,1349.4442,S,07132.4535,W,17.43,158.91,240411,,,A*5E
$GPGGA,154734.997,1349.4487,S,07132.4516,W,1,07,1.0,3218.3,M,31.0,M,,0000*6A
$GPGSA,M,3,21,25,29,12,31,09,14,,,,,,2.3,1.0,2.1*3F
$GPRMC,154734.997,A,1349.4487,S,07132.4516,W,16.09,154.35,240411,,,A*5D
$GPGGA,154736.002,1349.4530,S,07132.4495,W,1,06,1.2,3217.2,M,31.0,M,,0000*67
$GPGSA,M,3,21,25,29,12,31,09,,,,,,,2.6,1.2,2.3*3F
$GPRMC,154736.002,A,1349.4530,S,07132.4495,W,18.06,156.50,240411,,,A*5D
$GPGGA,154737.002,1349.4579,S,07132.4482,W,1,07,1.0,3218.6,M,31.0,M,,0000*65
$GPGSA,M,3,21,25,29,12,31,09,14,,,,,,2.3,1.0,2.1*3F
$GPGSV,3,1,10,21,62,331,39,25,51,148,39,29,40,178,35,12,34,093,39*71
$GPGSV,3,2,10,31,28,223,30,09,20,022,36,14,17,301,33,18,13,356,39*7F
$GPGSV,3,3,10,05,08,111,,27,03,026,*76
$GPRMC,154737.002,A,1349.4579,S,07132.4482,W,18.34,163.75,240411,,,A*57
$GPGGA,154737.998,1349.4630,S,07132.4469,W,1,06,1.2,3217.9,M,31.0,M,,0000*67
$GPGSA,M,3,21,25,29,12,31,09,,,,,,,2.6,1.2,2.3*3F
$GPRMC,154737.998,A,1349.4630,S,07132.4469,W,18.89,162.27,240411,,,A*56
$GPGGA,154739.002,1349.4680,S,07132.4455,W,1,07,1.0,3217.1,M,31.0,M,,0000*6C
$GPGSA,M,3,21,25,29,12,31,09,14,,,,,,2.3,1.0,2.1*3F
$GPRMC,154739.002,A,1349.4680,S,07132.4455,W,18.83,163.09,240411,,,A*51
$GPGGA,154740.000,1349.4731,S,07132.4440,W,1,07,1.0,3217.2,M,31.0,M,,0000*6C
$GPGSA,M,3,21,25,29,12,31,09,14,,,,,,2.3,1.0,2.1*3F
$GPRMC,154740.000,A,1349.4731,S,07132.4440,W,19.51,161.72,240411,,,A*52
$GPGGA,154740.999,1349.4783,S,07132.4424,W,1,06,1.2,3217.9,M,31.0,M,,0000*66
$GPGSA,M,3,21,25,29,12,31,09,,,,,,,2.6,1.2,2.3*3F
$GPRMC,154740.999,A,1349.4783,S,07132.4424,W,19.94,162.90,240411,,,A*56
$GPGGA,154741.999,1349.4838,S,07132.4408,W,1,07,1.0,3217.3,M,31.0,M,,0000*6F
$GPGSA,M,3,21,25,29,12,31,09,14,,,,,,2.3,1.0,2.1*3F
$GPGSV,3,1,10,21,62,331,39,25,51,148,39,29,40,178,37,12,34,093,39*73
$GPGSV,3,2,10,31,28,223,37,09,20,022,38,14,17,301,39,18,13,356,37*72
$GPGSV,3,3,10,05,08,111,,27,03,026,*76
$GPRMC,154741.999,A,1349.4838,S,07132.4408,W,20.09,161.74,240411,,,A*51
$GPGGA,154742.999,1349.4893,S,07132.4388,W,1,06,1.2,3216.7,M,31.0,M,,0000*64
$GPGSA,M,3,21,25,29,12,31,14,,,,,,,2.7,1.2,2.4*35
$GPRMC,154742.999,A,1349.4893,S,07132.4388,W,20.23,161.75,240411,,,A*55
$GPGGA,154744.000,1349.4941,S,07132.4370,W,1,07,1.0,3219.0,M,31.0,M,,0000*69
$GPGSA,M,3,21,25,29,12,31,09,14,,,,,,2.3,1.0,2.1*3F
$GPRMC,154744.000,A,1349.4941,S,07132.4370,W,20.19,161.22,240411,,,A*58
$GPGGA,154744.996,1349.4996,S,07132.4352,W,1,07,1.0,3219.0,M,31.0,M,,0000*65
$GPGSA,M,3,21,25,29,12,31,09,14,,,,,,2.3,1.0,2.1*3F
$GPRMC,154744.996,A,1349.4996,S,07132.4352,W,20.29,161.85,240411,,,A*5A
$GPGGA,154746.003,1349.5050,S,07132.4339,W,1,07,1.0,3221.0,M,31.0,M,,0000*66
$GPGSA,M,3,21,25,29,12,31,09,14,,,,,,2.3,1.0,2.1*3F
$GPRMC,154746.003,A,1349.5050,S,07132.4339,W,20.62,162.79,240411,,,A*5D
$GPGGA,154747.002,1349.5104,S,07132.4321,W,1,07,1.0,3220.7,M,31.0,M,,0000*69
$GPGSA,M,3,21,25,29,12,31,09,14,,,,,,2.3,1.0,2.1*3F
$GPGSV,3,1,10,21,62,331,39,25,51,148,38,29,40,178,36,12,34,093,37*7D
$GPGSV,3,2,10,31,28,223,36,09,20,022,39,14,17,301,30,18,13,356,38*74
$GPGSV,3,3,10,05,08,111,,27,03,026,*76
$GPRMC,154747.002,A,1349.5104,S,07132.4321,W,20.96,164.31,240411,,,A*55
$GPGGA,154748.000,1349.5159,S,07132.4303,W,1,07,1.0,3223.1,M,31.0,M,,0000*69
$GPGSA,M,3,21,25,29,12,31,09,14,,,,,,2.3,1.0,2.1*3F
$GPRMC,154748.000,A,1349.5159,S,07132.4303,W,21.26,163.61,240411,,,A*58
$GPGGA,154748.998,1349.5219,S,07132.4286,W,1,07,1.0,3223.0,M,31.0,M,,0000*6B
$GPGSA,M,3,21,25,29,12,31,09,14,,,,,,2.3,1.0,2.1*3F
$GPRMC,154748.998,A,1349.5219,S,07132.4286,W,21.46,162.47,240411,,,A*58
$GPGGA,154750.000,1349.5276,S,07132.4264,W,1,07,1.0,3224.1,M,31.0,M,,0000*69
$GPGSA,M,3,21,25,29,12,31,09,14,,,,,,2.3,1.0,2.1*3F
$GPRMC,154750.000,A,1349.5276,S,07132.4264,W,21.45,160.83,240411,,,A*55
$GPGGA,154751.001,1349.5333,S,07132.4244,W,1,07,1.0,3224.5,M,31.0,M,,0000*6F
$GPGSA,M,3,21,25,29,12,31,09,14,,,,,,2.3,1.0,2.1*3F
$GPRMC,154751.001,A,1349.5333,S,07132.4244,W,21.53,161.02,240411,,,A*58
$GPGGA,154752.000,1349.5391,S,07132.4223,W,1,07,1.0,3225.4,M,31.0,M,,0000*64
$GPGSA,M,3,21,25,29,12,31,09,14,,,,,,2.3,1.0,2.1*3F
$GPGSV,3,1,10,21,62,331,38,25,51,148,38,29,40,178,36,12,34,093,38*73
$GPGSV,3,2,10,31,28,223,34,09,20,022,37,14,17,301,36,18,13,356,38*7E
$GPGSV,3,3,10,05,08,111,,27,03,026,*76
$GPRMC,154752.000,A,1349.5391,S,07132.4223,W,21.45,161.25,240411,,,A*51
$GPGGA,154753.000,1349.5448,S,07132.4203,W,1,07,1.0,3224.8,M,31.0,M,,0000*69
$GPGSA,M,3,21,25,29,12,31,09,14,,,,,,2.3,1.0,2.1*3F
$GPRMC,154753.000,A,1349.5448,S,07132.4203,W,21.49,162.33,240411,,,A*59
$GPGGA,154754.000,1349.5504,S,07132.4185,W,1,07,1.0,3224.1,M,31.0,M,,0000*63
$GPGSA,M,3,21,25,29,12,31,09,14,,,,,,2.3,1.0,2.1*3F
$GPRMC,154754.000,A,1349.5504,S,07132.4185,W,21.04,163.28,240411,,,A*58
$GPGGA,154754.998,1349.5561,S,07132.4167,W,1,06,1.2,3224.1,M,31.0,M,,0000*67
$GPGSA,M,3,21,25,29,12,31,09,,,,,,,2.6,1.2,2.3*3F
$GPRMC,154754.998,A,1349.5561,S,07132.4167,W,21.47,162.12,240411,,,A*50
$GPGGA,154756.000,1349.5619,S,07132.4148,W,1,06,1.2,3223.4,M,31.0,M,,0000*6E
$GPGSA,M,3,21,25,29,12,31,09,,,,,,,2.6,1.2,2.3*3F
$GPRMC,154756.000,A,1349.5619,S,07132.4148,W,21.16,162.72,240411,,,A*59
$GPGGA,154756.998,1349.5675,S,07132.4130,W,1,07,1.0,3223.7,M,31.0,M,,0000*63
$GPGSA,M,3,21,25,29,12,31,09,14,,,,,,2.3,1.0,2.1*3F
$GPGSV,3,1,10,21,62,331,38,25,51,148,38,29,40,178,37,12,34,093,39*73
$GPGSV,3,2,10,31,28,223,28,09,20,022,38,14,17,301,31,18,13,356,39*7A
$GPGSV,3,3,10,05,08,111,,27,03,026,18*7F
$GPRMC,154756.998,A,1349.5675,S,07132.4130,W,20.99,161.62,240411,,,A*50
$GPGGA,154758.004,1349.5733,S,07132.4109,W,1,07,1.0,3223.6,M,31.0,M,,0000*69
$GPGSA,M,3,21,25,29,12,31,09,14,,,,,,2.3,1.0,2.1*3F
$GPRMC,154758.004,A,1349.5733,S,07132.4109,W,19.86,160.61,240411,,,A*5D
$GPGGA,154758.998,1349.5783,S,07132.4091,W,1,06,1.2,3222.9,M,31.0,M,,0000*63
$GPGSA,M,3,21,25,29,12,31,09,,,,,,,2.6,1.2,2.3*3F
$GPRMC,154758.998,A,1349.5783,S,07132.4091,W,18.62,159.04,240411,,,A*58
$GPGGA,154759.999,1349.5828,S,07132.4075,W,1,06,1.2,3223.2,M,31.0,M,,0000*6D
$GPGSA,M,3,21,25,29,12,31,09,,,,,,,2.6,1.2,2.3*3F
$GPRMC,154759.999,A,1349.5828,S,07132.4075,W,16.16,161.49,240411,,,A*53
$GPGGA,154801.001,1349.5868,S,07132.4061,W,1,07,1.0,3223.3,M,31.0,M,,0000*64
$GPGSA,M,3,21,25,29,12,31,09,14,,,,,,2.3,1.0,2.1*3F
$GPRMC,154801.001,A,1349.5868,S,07132.4061,W,14.27,161.85,240411,,,A*58
$GPGGA,154802.001,1349.5903,S,07132.4053,W,1,07,1.0,3223.6,M,31.0,M,,0000*6F
$GPGSA,M,3,21,25,29,12,31,09,14,,,,,,2.3,1.0,2.1*3F
$GPGSV,3,1,10,21,62,331,39,25,51,148,39,29,40,178,34,12,34,093,38*71
$GPGSV,3,2,10,31,28,223,36,09,20,022,39,14,17,301,38,18,13,356,39*7D
$GPGSV,3,3,10,05,08,111,,27,03,026,*76
$GPRMC,154802.001,A,1349.5903,S,07132.4053,W,12.18,162.58,240411,,,A*5F
$GPGGA,154802.999,1349.5930,S,07132.4044,W,1,07,1.0,3223.2,M,31.0,M,,0000*65
$GPGSA,M,3,21,25,29,12,31,09,14,,,,,,2.3,1.0,2.1*3F
$GPRMC,154802.999,A,1349.5930,S,07132.4044,W,10.22,163.51,240411,,,A*52
$GPGGA,154803.998,1349.5956,S,07132.4040,W,1,07,1.0,3225.5,M,31.0,M,,0000*60
$GPGSA,M,3,21,25,29,12,31,09,14,,,,,,2.3,1.0,2.1*3F
$GPRMC,154803.998,A,1349.5956,S,07132.4040,W,10.48,167.05,240411,,,A*5F
$GPGGA,154805.000,1349.5987,S,07132.4033,W,1,07,1.0,3227.7,M,31.0,M,,0000*66
$GPGSA,M,3,21,25,29,12,31,09,14,,,,,,2.3,1.0,2.1*3F
$GPRMC,154805.000,A,1349.5987,S,07132.4033,W,11.51,164.39,240411,,,A*5C
$GPGGA,154806.000,1349.6018,S,07132.4025,W,1,07,1.0,3227.5,M,31.0,M,,0000*6C
$GPGSA,M,3,21,25,29,12,31,09,14,,,,,,2.3,1.0,2.1*3F
$GPRMC,154806.000,A,1349.6018,S,07132.4025,W,12.19,165.59,240411,,,A*5C
$GPGGA,154807.000,1349.6052,S,07132.4015,W,1,07,1.0,3228.7,M,31.0,M,,0000*6D
$GPGSA,M,3,21,25,29,12,31,09,14,,,,,,2.3,1.0,2.1*3F
$GPGSV,3,1,10,21,62,331,39,25,51,148,39,29,40,178,39,12,34,093,38*7C
$GPGSV,3,2,10,31,28,223,38,09,20,022,39,14,17,301,37,18,13,356,38*7D
$GPGSV,3,3,10,05,08,111,,27,03,026,*76
$GPRMC,154807.000,A,1349.6052,S,07132.4015,W,12.72,163.22,240411,,,A*57
$GPGGA,154808.002,1349.6086,S,07132.4002,W,1,07,1.0,3229.4,M,31.0,M,,0000*6D
$GPGSA,M,3,21,25,29,12,31,09,14,,,,,,2.3,1.0,2.1*3F
$GPRMC,154808.002,A,1349.6086,S,07132.4002,W,13.89,161.76,240411,,,A*53
$GPGGA,154809.001,1349.6122,S,07132.3989,W,1,07,1.0,3230.1,M,31.0,M,,0000*60
$GPGSA,M,3,21,25,29,12,31,09,14,,,,,,2.3,1.0,2.1*3F
$GPRMC,154809.001,A,1349.6122,S,07132.3989,W,14.56,161.56,240411,,,A*54
$GPGGA,154809.998,1349.6164,S,07132.3976,W,1,07,1.0,3229.6,M,31.0,M,,0000*64
$GPGSA,M,3,21,25,29,12,31,09,14,,,,,,2.3,1.0,2.1*3F
$GPRMC,154809.998,A,1349.6164,S,07132.3976,W,15.48,161.91,240411,,,A*5A
$GPGGA,154811.000,1349.6205,S,07132.3964,W,1,07,1.0,3230.4,M,31.0,M,,0000*68
$GPGSA,M,3,21,25,29,12,31,09,14,,,,,,2.3,1.0,2.1*3F
$GPRMC,154811.000,A,1349.6205,S,07132.3964,W,16.10,162.04,240411,,,A*5D
$GPGGA,154812.000,1349.6248,S,07132.3947,W,1,07,1.0,3229.3,M,31.0,M,,0000*6C
$GPGSA,M,3,21,25,29,12,31,09,14,,,,,,2.3,1.0,2.1*3F
$GPGSV,3,1,10,21,62,331,39,25,51,148,38,29,40,178,35,12,34,093,39*70
$GPGSV,3,2,10,31,28,223,37,09,20,022,39,14,17,301,37,18,13,356,37*7D
$GPGSV,3,3,10,05,08,111,,27,03,026,*76
$GPRMC,154812.000,A,1349.6248,S,07132.3947,W,16.66,161.31,240411,,,A*52
$GPGGA,154813.000,1349.6293,S,07132.3933,W,1,07,1.0,3228.8,M,31.0,M,,0000*62
$GPGSA,M,3,21,25,29,12,31,09,14,,,,,,2.3,1.0,2.1*3F
$GPRMC,154813.000,A,1349.6293,S,07132.3933,W,18.12,161.50,240411,,,A*5C
$GPGGA,154814.000,1349.6342,S,07132.3918,W,1,07,1.0,3229.5,M,31.0,M,,0000*6D
$GPGSA,M,3,21,25,29,12,31,09,14,,,,,,2.3,1.0,2.1*3F
$GPRMC,154814.000,A,1349.6342,S,07132.3918,W,18.62,162.62,240411,,,A*5A
$GPGGA,154815.000,1349.6393,S,07132.3901,W,1,07,1.0,3229.8,M,31.0,M,,0000*65
$GPGSA,M,3,21,25,29,12,31,09,14,,,,,,2.3,1.0,2.1*3F
$GPRMC,154815.000,A,1349.6393,S,07132.3901,W,19.30,161.80,240411,,,A*56
$GPGGA,154815.999,1349.6444,S,07132.3884,W,1,07,1.0,3231.1,M,31.0,M,,0000*6D
$GPGSA,M,3,21,25,29,12,31,09,14,,,,,,2.3,1.0,2.1*3F
$GPRMC,154815.999,A,1349.6444,S,07132.3884,W,19.57,162.41,240411,,,A*51
$GPGGA,154817.000,1349.6497,S,07132.3867,W,1,07,1.0,3231.7,M,31.0,M,,0000*63
$GPGSA,M,3,21,25,29,12,31,09,14,,,,,,2.3,1.0,2.1*3F
$GPGSV,3,1,10,21,62,331,39,25,51,148,39,29,40,178,35,12,34,093,38*70
$GPGSV,3,2,10,31,28,223,35,09,20,022,36,14,17,301,38,18,13,356,37*7F
$GPGSV,3,3,10,05,08,111,,27,03,026,*76
$GPRMC,154817.000,A,1349.6497,S,07132.3867,W,20.15,163.97,240411,,,A*5F
$GPGGA,154818.000,1349.6552,S,07132.3849,W,1,07,1.0,3230.6,M,31.0,M,,0000*68
$GPGSA,M,3,21,25,29,12,31,09,14,,,,,,2.3,1.0,2.1*3F
$GPRMC,154818.000,A,1349.6552,S,07132.3849,W,20.57,162.00,240411,,,A*5D
$GPGGA,154818.999,1349.6610,S,07132.3831,W,1,07,1.0,3229.8,M,31.0,M,,0000*6D
$GPGSA,M,3,21,25,29,12,31,09,14,,,,,,2.3,1.0,2.1*3F
$GPRMC,154818.999,A,1349.6610,S,07132.3831,W,21.40,159.28,240411,,,A*5B
$GPGGA,154819.999,1349.6666,S,07132.3809,W,1,07,1.0,3231.0,M,31.0,M,,0000*67
$GPGSA,M,3,21,25,29,12,31,09,14,,,,,,2.3,1.0,2.1*3F
$GPRMC,154819.999,A,1349.6666,S,07132.3809,W,22.08,158.41,240411,,,A*51
$GPGGA,154821.000,1349.6724,S,07132.3783,W,1,07,1.0,3230.2,M,31.0,M,,0000*6C
$GPGSA,M,3,21,25,29,12,31,09,14,,,,,,2.3,1.0,2.1*3F
$GPRMC,154821.000,A,1349.6724,S,07132.3783,W,23.18,156.29,240411,,,A*59
$GPGGA,154822.001,1349.6783,S,07132.3754,W,1,07,1.0,3231.6,M,31.0,M,,0000*6C
$GPGSA,M,3,21,25,29,12,31,09,14,,,,,,2.3,1.0,2.1*3F
$GPGSV,3,1,10,21,62,331,39,25,51,148,38,29,40,178,38,12,34,093,38*7C
$GPGSV,3,2,10,31,28,223,39,09,20,022,35,14,17,301,38,18,13,356,36*71
$GPGSV,3,3,10,05,08,111,,27,03,026,*76
$GPRMC,154822.001,A,1349.6783,S,07132.3754,W,23.74,155.45,240411,,,A*5F
$GPGGA,154822.998,1349.6846,S,07132.3724,W,1,07,1.0,3231.2,M,31.0,M,,0000*60
$GPGSA,M,3,21,25,29,12,31,09,14,,,,,,2.3,1.0,2.1*3F
$GPRMC,154822.998,A,1349.6846,S,07132.3724,W,23.58,153.52,240411,,,A*59
$GPGGA,154824.000,1349.6906,S,07132.3690,W,1,07,1.0,3231.4,M,31.0,M,,0000*63
$GPGSA,M,3,21,25,29,12,31,09,14,,,,,,2.3,1.0,2.1*3F
$GPRMC,154824.000,A,1349.6906,S,07132.3690,W,23.92,151.76,240411,,,A*5E
$GPGGA,154825.002,1349.6964,S,07132.3655,W,1,07,1.0,3230.4,M,31.0,M,,0000*6C
$GPGSA,M,3,21,25,29,12,31,09,14,,,,,,2.3,1.0,2.1*3F
$GPRMC,154825.002,A,1349.6964,S,07132.3655,W,24.38,148.42,240411,,,A*58
$GPGGA,154826.000,1349.7022,S,07132.3616,W,1,07,1.0,3230.1,M,31.0,M,,0000*65
$GPGSA,M,3,21,25,29,12,31,09,14,,,,,,2.3,1.0,2.1*3F
$GPRMC,154826.000,A,1349.7022,S,07132.3616,W,24.60,147.34,240411,,,A*57
$GPGGA,154827.000,1349.7082,S,07132.3576,W,1,07,1.0,3229.8,M,31.0,M,,0000*6A
$GPGSA,M,3,21,25,29,12,31,09,14,,,,,,2.3,1.0,2.1*3F
$GPGSV,3,1,10,21,62,331,38,25,51,148,39,29,40,178,38,12,34,093,35*71
$GPGSV,3,2,10,31,28,223,36,09,20,022,31,14,17,301,39,18,13,356,38*75
$GPGSV,3,3,10,05,08,111,,27,03,026,*76
$GPRMC,154827.000,A,1349.7082,S,07132.3576,W,25.16,146.88,240411,,,A*5F
$GPGGA,154828.000,1349.7141,S,07132.3538,W,1,07,1.0,3230.5,M,31.0,M,,0000*64
$GPGSA,M,3,21,25,29,12,31,09,14,,,,,,2.3,1.0,2.1*3F
$GPRMC,154828.000,A,1349.7141,S,07132.3538,W,25.35,146.41,240411,,,A*50
$GPGGA,154828.999,1349.7201,S,07132.3496,W,1,07,1.0,3229.9,M,31.0,M,,0000*6B
$GPGSA,M,3,21,25,29,12,31,09,14,,,,,,2.3,1.0,2.1*3F
$GPRMC,154828.999,A,1349.7201,S,07132.3496,W,26.07,146.38,240411,,,A*57
$GPGGA,154829.997,1349.7263,S,07132.3449,W,1,07,1.0,3229.4,M,31.0,M,,0000*6F
$GPGSA,M,3,21,25,29,12,31,09,14,,,,,,2.3,1.0,2.1*3F
$GPRMC,154829.997,A,1349.7263,S,07132.3449,W,26.72,145.75,240411,,,A*56
$GPGGA,154831.001,1349.7326,S,07132.3404,W,1,07,1.0,3229.6,M,31.0,M,,0000*6B
$GPGSA,M,3,21,25,29,12,31,09,14,,,,,,2.3,1.0,2.1*3F
$GPRMC,154831.001,A,1349.7326,S,07132.3404,W,26.93,145.81,240411,,,A*54
$GPGGA,154832.001,1349.7390,S,07132.3360,W,1,07,1.0,3231.0,M,31.0,M,,0000*6F
$GPGSA,M,3,21,25,29,12,31,09,14,,,,,,2.3,1.0,2.1*3F
$GPGSV,3,1,10,21,62,331,38,25,51,148,38,29,40,178,39,12,34,093,35*71
$GPGSV,3,2,10,31,28,223,37,09,20,022,35,14,17,301,39,18,13,356,39*71
$GPGSV,3,3,10,05,08,111,,27,03,026,*76
$GPRMC,154832.001,A,1349.7390,S,07132.3360,W,27.32,147.01,240411,,,A*5F
$GPGGA,154833.000,1349.7453,S,07132.3317,W,1,07,1.0,3230.9,M,31.0,M,,0000*6F
$GPGSA,M,3,21,25,29,12,31,09,14,,,,,,2.3,1.0,2.1*3F
$GPRMC,154833.000,A,1349.7453,S,07132.3317,W,27.70,146.87,240411,,,A*5E
$GPGGA,154833.999,1349.7518,S,07132.3275,W,1,07,1.0,3231.1,M,31.0,M,,0000*64
$GPGSA,M,3,21,25,29,12,31,09,14,,,,,,2.3,1.0,2.1*3F
$GPRMC,154833.999,A,1349.7518,S,07132.3275,W,28.07,146.35,240411,,,A*5A
$GPGGA,154834.998,1349.7582,S,07132.3228,W,1,07,1.0,3232.3,M,31.0,M,,0000*68
$GPGSA,M,3,21,25,29,12,31,09,14,,,,,,2.3,1.0,2.1*3F
$GPRMC,154834.998,A,1349.7582,S,07132.3228,W,28.75,144.76,240411,,,A*57
$GPGGA,154836.002,1349.7649,S,07132.3182,W,1,07,1.0,3231.8,M,31.0,M,,0000*6F
$GPGSA,M,3,21,25,29,12,31,09,14,,,,,,2.3,1.0,2.1*3F
$GPRMC,154836.002,A,1349.7649,S,07132.3182,W,28.93,144.79,240411,,,A*5F
$GPGGA,154837.001,1349.7716,S,07132.3136,W,1,07,1.0,3232.8,M,31.0,M,,0000*6A
$GPGSA,M,3,21,25,29,12,31,09,14,,,,,,2.3,1.0,2.1*3F
$GPGSV,3,1,10,21,62,331,39,25,51,148,39,29,40,178,39,12,34,093,35*71
$GPGSV,3,2,10,31,28,223,39,09,20,022,36,14,17,301,39,18,13,356,38*7D
$GPGSV,3,3,10,05,08,111,,27,03,026,*76
$GPRMC,154837.001,A,1349.7716,S,07132.3136,W,29.27,145.24,240411,,,A*5E
$GPGGA,154838.000,1349.7782,S,07132.3088,W,1,07,1.0,3232.7,M,31.0,M,,0000*62
$GPGSA,M,3,21,25,29,12,31,09,14,,,,,,2.3,1.0,2.1*3F
$GPRMC,154838.000,A,1349.7782,S,07132.3088,W,29.07,145.40,240411,,,A*59
$GPGGA,154838.999,1349.7852,S,07132.3043,W,1,07,1.0,3234.2,M,31.0,M,,0000*6D
$GPGSA,M,3,21,25,29,12,31,09,14,,,,,,2.3,1.0,2.1*3F
$GPRMC,154838.999,A,1349.7852,S,07132.3043,W,29.89,144.53,240411,,,A*50
$GPGGA,154839.998,1349.7919,S,07132.2996,W,1,07,1.0,3233.5,M,31.0,M,,0000*63
$GPGSA,M,3,21,25,29,12,31,09,14,,,,,,2.3,1.0,2.1*3F
$GPRMC,154839.998,A,1349.7919,S,07132.2996,W,29.08,146.04,240411,,,A*57
$GPGGA,154840.999,1349.7987,S,07132.2947,W,1,07,1.0,3233.9,M,31.0,M,,0000*6B
$GPGSA,M,3,21,25,29,12,31,09,14,,,,,,2.3,1.0,2.1*3F
$GPRMC,154840.999,A,1349.7987,S,07132.2947,W,29.08,145.25,240411,,,A*53
$GPGGA,154842.000,1349.8054,S,07132.2900,W,1,07,1.0,3234.3,M,31.0,M,,0000*66
$GPGSA,M,3,21,25,29,12,31,09,14,,,,,,2.3,1.0,2.1*3F
$GPGSV,3,1,10,21,62,331,38,25,51,148,39,29,40,178,39,12,34,093,34*71
$GPGSV,3,2,10,31,28,223,39,09,20,022,35,14,17,301,39,18,13,356,39*7F
$GPGSV,3,3,10,05,08,111,,27,03,026,*76
$GPRMC,154842.000,A,1349.8054,S,07132.2900,W,29.36,146.48,240411,,,A*56
$GPGGA,154843.001,1349.8121,S,07132.2853,W,1,07,1.0,3234.5,M,31.0,M,,0000*64
$GPGSA,M,3,21,25,29,12,31,09,14,,,,,,2.3,1.0,2.1*3F
$GPRMC,154843.001,A,1349.8121,S,07132.2853,W,29.34,144.48,240411,,,A*52
$GPGGA,154843.998,1349.8188,S,07132.2804,W,1,07,1.0,3235.5,M,31.0,M,,0000*6D
$GPGSA,M,3,21,25,29,12,31,09,14,,,,,,2.3,1.0,2.1*3F
$GPRMC,154843.998,A,1349.8188,S,07132.2804,W,29.04,146.13,240411,,,A*55
$GPGGA,154845.000,1349.8254,S,07132.2758,W,1,07,1.0,3235.6,M,31.0,M,,0000*64
$GPGSA,M,3,21,25,29,12,31,09,14,,,,,,2.3,1.0,2.1*3F
$GPRMC,154845.000,A,1349.8254,S,07132.2758,W,29.04,145.37,240411,,,A*5A
$GPGGA,154846.001,1349.8319,S,07132.2710,W,1,07,1.0,3237.5,M,31.0,M,,0000*63
$GPGSA,M,3,21,25,29,12,31,09,14,,,,,,2.3,1.0,2.1*3F
$GPRMC,154846.001,A,1349.8319,S,07132.2710,W,28.98,145.40,240411,,,A*58
$GPGGA,154846.999,1349.8385,S,07132.2662,W,1,07,1.0,3237.4,M,31.0,M,,0000*6B
$GPGSA,M,3,21,25,29,12,31,09,14,,,,,,2.3,1.0,2.1*3F
$GPGSV,3,1,10,21,62,331,38,25,51,148,39,29,40,178,39,12,34,093,34*71
$GPGSV,3,2,10,31,28,223,39,09,20,022,36,14,17,301,38,18,13,356,39*7D
$GPGSV,3,3,10,05,08,111,,27,03,026,*76
$GPRMC,154846.999,A,1349.8385,S,07132.2662,W,28.76,145.95,240411,,,A*59
$GPGGA,154848.000,1349.8452,S,07132.2617,W,1,07,1.0,3237.5,M,31.0,M,,0000*62
$GPGSA,M,3,21,25,29,12,31,09,14,,,,,,2.3,1.0,2.1*3F
$GPRMC,154848.000,A,1349.8452,S,07132.2617,W,28.94,146.38,240411,,,A*59
$GPGGA,154849.000,1349.8518,S,07132.2570,W,1,07,1.0,3239.0,M,31.0,M,,0000*65
$GPGSA,M,3,21,25,29,12,31,09,14,,,,,,2.3,1.0,2.1*3F
$GPRMC,154849.000,A,1349.8518,S,07132.2570,W,29.07,145.63,240411,,,A*53
$GPGGA,154849.999,1349.8585,S,07132.2521,W,1,07,1.0,3238.8,M,31.0,M,,0000*65
$GPGSA,M,3,21,25,29,12,31,09,14,,,,,,2.3,1.0,2.1*3F
$GPRMC,154849.999,A,1349.8585,S,07132.2521,W,28.71,145.58,240411,,,A*52
$GPGGA,154851.000,1349.8651,S,07132.2475,W,1,07,1.0,3239.0,M,31.0,M,,0000*66
$GPGSA,M,3,21,25,29,12,31,09,14,,,,,,2.3,1.0,2.1*3F
$GPRMC,154851.000,A,1349.8651,S,07132.2475,W,29.32,146.01,240411,,,A*51
$GPGGA,154852.000,1349.8718,S,07132.2427,W,1,07,1.0,3238.9,M,31.0,M,,0000*66
