$GPGGA,202033.000,1443.5975,S,07045.0182,W,1,06,2.0,3937.2,M,32.9,M,,0000*62
$GPGSA,M,3,22,16,30,06,03,18,,,,,,,4.3,2.0,3.8*38
$GPRMC,202033.000,A,1443.5975,S,07045.0182,W,24.14,184.08,240411,,,A*54
$GPGGA,202033.998,1443.6042,S,07045.0188,W,1,06,2.0,3937.2,M,32.9,M,,0000*6E
$GPGSA,M,3,22,16,30,06,03,18,,,,,,,4.3,2.0,3.8*38
$GPRMC,202033.998,A,1443.6042,S,07045.0188,W,24.52,186.44,240411,,,A*50
$GPGGA,202035.000,1443.6110,S,07045.0195,W,1,06,2.0,3936.8,M,32.9,M,,0000*61
$GPGSA,M,3,22,16,30,06,03,18,,,,,,,4.3,2.0,3.8*38
$GPRMC,202035.000,A,1443.6110,S,07045.0195,W,24.12,184.81,240411,,,A*5B
$GPGGA,202036.001,1443.6175,S,07045.0199,W,1,06,2.0,3936.8,M,32.9,M,,0000*6C
$GPGSA,M,3,22,16,30,06,03,18,,,,,,,4.3,2.0,3.8*38
$GPRMC,202036.001,A,1443.6175,S,07045.0199,W,23.40,182.89,240411,,,A*58
$GPGGA,202037.000,1443.6241,S,07045.0204,W,1,06,2.0,3936.3,M,32.9,M,,0000*64
$GPGSA,M,3,22,16,30,06,03,18,,,,,,,4.3,2.0,3.8*38
$GPGSV,3,1,12,22,66,149,39,16,63,290,39,30,54,335,39,06,53,183,39*70
$GPGSV,3,2,12,03,43,201,36,14,31,047,32,18,30,143,38,19,16,215,31*70
$GPGSV,3,3,12,32,09,322,35,21,08,121,35,31,06,000,26,11,00,258,*77
$GPRMC,202037.000,A,1443.6241,S,07045.0204,W,24.05,185.48,240411,,,A*57
$GPGGA,202038.002,1443.6307,S,07045.0208,W,1,06,2.0,3936.1,M,32.9,M,,0000*64
$GPGSA,M,3,22,16,30,06,03,18,,,,,,,4.3,2.0,3.8*38
$GPRMC,202038.002,A,1443.6307,S,07045.0208,W,24.15,184.39,240411,,,A*53
$GPGGA,202038.999,1443.6372,S,07045.0213,W,1,06,2.0,3936.0,M,32.9,M,,0000*66
$GPGSA,M,3,22,16,30,06,03,18,,,,,,,4.3,2.0,3.8*38
$GPRMC,202038.999,A,1443.6372,S,07045.0213,W,23.86,185.33,240411,,,A*56
$GPGGA,202040.005,1443.6438,S,07045.0218,W,1,06,2.0,3935.9,M,32.9,M,,0000*6D
$GPGSA,M,3,22,16,30,06,03,18,,,,,,,4.3,2.0,3.8*38
$GPRMC,202040.005,A,1443.6438,S,07045.0218,W,23.50,184.29,240411,,,A*56
$GPGGA,202040.992,1443.6502,S,07045.0225,W,1,06,2.0,3935.8,M,32.9,M,,0000*6D
$GPGSA,M,3,22,16,30,06,03,18,,,,,,,4.3,2.0,3.8*38
$GPRMC,202040.992,A,1443.6502,S,07045.0225,W,23.78,186.04,240411,,,A*50
$GPGGA,202041.998,1443.6568,S,07045.0228,W,1,06,2.0,3936.4,M,32.9,M,,0000*68
$GPGSA,M,3,22,16,30,06,03,18,,,,,,,4.3,2.0,3.8*38
$GPGSV,3,1,12,22,66,149,39,16,63,290,39,30,54,335,39,06,53,183,40*7E
$GPGSV,3,2,12,03,43,201,36,14,31,047,31,18,30,143,38,19,16,215,31*73
$GPGSV,3,3,12,32,09,322,35,21,08,121,29,31,06,000,26,11,00,258,*7A
$GPRMC,202041.998,A,1443.6568,S,07045.0228,W,23.87,183.79,240411,,,A*55
$GPGGA,202043.008,1443.6635,S,07045.0233,W,1,06,2.0,3936.1,M,32.9,M,,0000*6E
$GPGSA,M,3,22,16,30,06,03,18,,,,,,,4.3,2.0,3.8*38
$GPRMC,202043.008,A,1443.6635,S,07045.0233,W,23.93,183.61,240411,,,A*5A
$GPGGA,202043.998,1443.6701,S,07045.0238,W,1,06,2.0,3935.8,M,32.9,M,,0000*69
$GPGSA,M,3,22,16,30,06,03,18,,,,,,,4.3,2.0,3.8*38
$GPRMC,202043.998,A,1443.6701,S,07045.0238,W,23.98,183.54,240411,,,A*5A
$GPGGA,202044.999,1443.6771,S,07045.0247,W,1,06,2.0,3936.8,M,32.9,M,,0000*63
$GPGSA,M,3,22,16,30,06,03,18,,,,,,,4.3,2.0,3.8*38
$GPRMC,202044.999,A,1443.6771,S,07045.0247,W,23.77,184.08,240411,,,A*5C
$GPGGA,202045.995,1443.6837,S,07045.0253,W,1,06,2.0,3936.4,M,32.9,M,,0000*6A
$GPGSA,M,3,22,16,30,06,03,18,,,,,,,4.3,2.0,3.8*38
$GPRMC,202045.995,A,1443.6837,S,07045.0253,W,24.41,184.84,240411,,,A*5F
$GPGGA,202047.009,1443.6904,S,07045.0254,W,1,06,2.0,3936.2,M,32.9,M,,0000*64
$GPGSA,M,3,22,16,30,06,03,18,,,,,,,4.3,2.0,3.8*38
$GPGSV,3,1,12,22,66,149,38,16,63,290,37,30,54,335,38,06,53,183,37*70
$GPGSV,3,2,12,03,43,201,34,14,31,047,27,18,30,143,37,19,16,215,*7B
$GPGSV,3,3,12,32,09,322,32,21,08,121,,31,06,000,,11,00,258,*72
$GPRMC,202047.009,A,1443.6904,S,07045.0254,W,24.25,182.13,240411,,,A*5D
$GPGGA,202047.992,1443.6971,S,07045.0257,W,1,05,2.1,3934.9,M,32.9,M,,0000*65
$GPGSA,M,3,22,16,30,03,18,,,,,,,,4.5,2.1,4.0*36
$GPRMC,202047.992,A,1443.6971,S,07045.0257,W,24.92,184.32,240411,,,A*5E
$GPGGA,202049.003,1443.7037,S,07045.0262,W,1,06,2.0,3933.7,M,32.9,M,,0000*6D
$GPGSA,M,3,22,16,30,06,03,18,,,,,,,4.3,2.0,3.8*38
$GPRMC,202049.003,A,1443.7037,S,07045.0262,W,23.67,184.75,240411,,,A*53
$GPGGA,202049.997,1443.7102,S,07045.0264,W,1,06,2.0,3934.0,M,32.9,M,,0000*68
$GPGSA,M,3,22,16,30,06,03,18,,,,,,,4.3,2.0,3.8*38
$GPRMC,202049.997,A,1443.7102,S,07045.0264,W,23.87,184.86,240411,,,A*54
$GPGGA,202051.011,1443.7171,S,07045.0271,W,1,06,2.0,3934.4,M,32.9,M,,0000*62
$GPGSA,M,3,22,16,30,06,03,18,,,,,,,4.3,2.0,3.8*38
$GPRMC,202051.011,A,1443.7171,S,07045.0271,W,23.50,185.19,240411,,,A*57
$GPGGA,202051.997,1443.7236,S,07045.0279,W,1,06,2.0,3933.3,M,32.9,M,,0000*6D
$GPGSA,M,3,22,16,30,06,03,18,,,,,,,4.3,2.0,3.8*38
$GPGSV,3,1,12,22,66,149,39,16,63,290,39,30,54,335,39,06,53,183,38*71
$GPGSV,3,2,12,03,43,201,36,14,31,047,31,18,30,143,36,19,16,215,34*78
$GPGSV,3,3,12,32,09,322,33,21,08,121,,31,06,000,29,11,00,258,*78
$GPRMC,202051.997,A,1443.7236,S,07045.0279,W,23.80,186.05,240411,,,A*5B
$GPGGA,202052.994,1443.7300,S,07045.0287,W,1,06,2.0,3933.1,M,32.9,M,,0000*6A
$GPGSA,M,3,22,16,30,06,03,18,,,,,,,4.3,2.0,3.8*38
$GPRMC,202052.994,A,1443.7300,S,07045.0287,W,23.47,184.83,240411,,,A*59
$GPGGA,202054.000,1443.7367,S,07045.0293,W,1,06,2.0,3933.1,M,32.9,M,,0000*6C
$GPGSA,M,3,22,16,30,06,03,18,,,,,,,4.3,2.0,3.8*38
$GPRMC,202054.000,A,1443.7367,S,07045.0293,W,23.72,185.60,240411,,,A*55
$GPGGA,202055.001,1443.7431,S,07045.0300,W,1,06,2.0,3930.8,M,32.9,M,,0000*69
$GPGSA,M,3,22,16,30,06,03,18,,,,,,,4.3,2.0,3.8*38
$GPRMC,202055.001,A,1443.7431,S,07045.0300,W,23.21,184.83,240411,,,A*50
$GPGGA,202056.002,1443.7493,S,07045.0308,W,1,06,2.0,3929.8,M,32.9,M,,0000*61
$GPGSA,M,3,22,16,30,06,03,18,,,,,,,4.3,2.0,3.8*38
$GPRMC,202056.002,A,1443.7493,S,07045.0308,W,23.24,187.18,240411,,,A*54
$GPGGA,202056.996,1443.7558,S,07045.0314,W,1,06,2.0,3929.1,M,32.9,M,,0000*67
$GPGSA,M,3,22,16,30,06,03,18,,,,,,,4.3,2.0,3.8*38
$GPGSV,3,1,12,22,66,149,37,16,63,290,37,30,54,335,37,06,53,183,37*70
$GPGSV,3,2,12,03,43,201,35,14,31,047,29,18,30,143,36,19,16,215,33*75
$GPGSV,3,3,12,32,09,322,31,21,08,121,,31,06,000,,11,00,258,*71
$GPRMC,202056.996,A,1443.7558,S,07045.0314,W,23.00,184.58,240411,,,A*5A
$GPGGA,202058.003,1443.7624,S,07045.0322,W,1,06,2.0,3928.2,M,32.9,M,,0000*63
$GPGSA,M,3,22,16,30,06,03,18,,,,,,,4.3,2.0,3.8*38
$GPRMC,202058.003,A,1443.7624,S,07045.0322,W,22.90,184.07,240411,,,A*5E
$GPGGA,202059.001,1443.7687,S,07045.0322,W,1,06,2.0,3928.6,M,32.9,M,,0000*6D
$GPGSA,M,3,22,16,30,06,03,18,,,,,,,4.3,2.0,3.8*38
$GPRMC,202059.001,A,1443.7687,S,07045.0322,W,22.71,183.80,240411,,,A*53
$GPGGA,202059.999,1443.7753,S,07045.0330,W,1,06,2.0,3928.4,M,32.9,M,,0000*6C
$GPGSA,M,3,22,16,30,06,03,18,,,,,,,4.3,2.0,3.8*38
$GPRMC,202059.999,A,1443.7753,S,07045.0330,W,23.06,185.65,240411,,,A*5C
$GPGGA,202100.999,1443.7817,S,07045.0334,W,1,06,2.0,3930.2,M,32.9,M,,0000*65
$GPGSA,M,3,22,16,30,06,03,18,,,,,,,4.3,2.0,3.8*38
$GPRMC,202100.999,A,1443.7817,S,07045.0334,W,22.72,185.32,240411,,,A*5A
$GPGGA,202101.997,1443.7879,S,07045.0338,W,1,06,2.0,3930.1,M,32.9,M,,0000*6D
$GPGSA,M,3,22,16,30,06,03,18,,,,,,,4.3,2.0,3.8*38
$GPGSV,3,1,12,22,66,149,39,16,63,290,38,30,54,335,40,06,53,183,39*7F
$GPGSV,3,2,12,03,43,201,37,14,31,047,31,18,30,143,37,19,16,215,32*7E
$GPGSV,3,3,12,32,09,322,36,21,08,121,,31,06,000,,11,00,258,24*70
$GPRMC,202101.997,A,1443.7879,S,07045.0338,W,23.04,185.37,240411,,,A*54
$GPGGA,202103.010,1443.7945,S,07045.0342,W,1,06,2.0,3929.8,M,32.9,M,,0000*6B
$GPGSA,M,3,22,16,30,06,03,18,,,,,,,4.3,2.0,3.8*38
$GPRMC,202103.010,A,1443.7945,S,07045.0342,W,22.86,183.40,240411,,,A*5E
$GPGGA,202103.993,1443.8009,S,07045.0348,W,1,06,2.0,3927.9,M,32.9,M,,0000*62
$GPGSA,M,3,22,16,30,06,03,18,,,,,,,4.3,2.0,3.8*38
$GPRMC,202103.993,A,1443.8009,S,07045.0348,W,23.20,185.32,240411,,,A*56
$GPGGA,202104.997,1443.8074,S,07045.0354,W,1,06,2.0,3929.1,M,32.9,M,,0000*60
$GPGSA,M,3,22,16,30,06,03,18,,,,,,,4.3,2.0,3.8*38
$GPRMC,202104.997,A,1443.8074,S,07045.0354,W,23.08,184.71,240411,,,A*5E
$GPGGA,202105.998,1443.8137,S,07045.0359,W,1,06,2.0,3927.5,M,32.9,M,,0000*6F
$GPGSA,M,3,22,16,30,06,03,18,,,,,,,4.3,2.0,3.8*38
$GPRMC,202105.998,A,1443.8137,S,07045.0359,W,23.47,184.14,240411,,,A*53
$GPGGA,202106.997,1443.8198,S,07045.0354,W,1,06,2.0,3928.4,M,32.9,M,,0000*65
$GPGSA,M,3,22,16,30,06,03,18,,,,,,,4.3,2.0,3.8*38
$GPGSV,3,1,12,22,66,149,39,16,63,290,39,30,54,335,38,06,53,183,39*71
$GPGSV,3,2,12,03,43,201,34,14,31,047,31,18,30,143,38,19,16,215,31*71
$GPGSV,3,3,12,32,09,322,37,21,08,121,,31,06,000,33,11,00,258,24*71
$GPRMC,202106.997,A,1443.8198,S,07045.0354,W,22.43,183.75,240411,,,A*52
$GPGGA,202108.006,1443.8261,S,07045.0359,W,1,06,2.0,3929.0,M,32.9,M,,0000*67
$GPGSA,M,3,22,16,30,06,03,18,,,,,,,4.3,2.0,3.8*38
$GPRMC,202108.006,A,1443.8261,S,07045.0359,W,22.74,184.96,240411,,,A*5B
$GPGGA,202108.996,1443.8323,S,07045.0366,W,1,06,2.0,3928.0,M,32.9,M,,0000*6D
$GPGSA,M,3,22,16,30,06,03,18,,,,,,,4.3,2.0,3.8*38
$GPRMC,202108.996,A,1443.8323,S,07045.0366,W,22.46,184.77,240411,,,A*5E
$GPGGA,202110.002,1443.8386,S,07045.0371,W,1,06,2.0,3927.0,M,32.9,M,,0000*66
$GPGSA,M,3,22,16,30,06,03,18,,,,,,,4.3,2.0,3.8*38
$GPRMC,202110.002,A,1443.8386,S,07045.0371,W,22.52,185.13,240411,,,A*5C
$GPGGA,202110.995,1443.8450,S,07045.0375,W,1,06,2.0,3929.8,M,32.9,M,,0000*6F
$GPGSA,M,3,22,16,30,06,03,18,,,,,,,4.3,2.0,3.8*38
$GPRMC,202110.995,A,1443.8450,S,07045.0375,W,21.81,183.54,240411,,,A*5B
$GPGGA,202112.011,1443.8514,S,07045.0381,W,1,06,2.0,3929.7,M,32.9,M,,0000*6D
$GPGSA,M,3,22,16,30,06,03,18,,,,,,,4.3,2.0,3.8*38
$GPGSV,3,1,12,22,66,149,38,16,63,290,38,30,54,335,38,06,53,183,38*70
$GPGSV,3,2,12,03,43,201,35,14,31,047,,18,30,143,34,19,16,215,31*7E
$GPGSV,3,3,12,32,09,322,30,21,08,121,,31,06,000,25,11,00,258,*77
$GPRMC,202112.011,A,1443.8514,S,07045.0381,W,21.63,184.57,240411,,,A*5E
$GPGGA,202112.997,1443.8570,S,07045.0386,W,1,05,3.1,3929.4,M,32.9,M,,0000*6F
$GPGSA,M,3,22,16,30,06,03,,,,,,,,8.2,3.1,7.6*36
$GPRMC,202112.997,A,1443.8570,S,07045.0386,W,20.93,184.87,240411,,,A*5F
$GPGGA,202113.997,1443.8627,S,07045.0391,W,1,06,2.0,3930.2,M,32.9,M,,0000*64
$GPGSA,M,3,22,16,30,06,03,18,,,,,,,4.3,2.0,3.8*38
$GPRMC,202113.997,A,1443.8627,S,07045.0391,W,20.96,184.81,240411,,,A*5A
$GPGGA,202115.003,1443.8684,S,07045.0394,W,1,06,2.0,3929.4,M,32.9,M,,0000*64
$GPGSA,M,3,22,16,30,06,03,18,,,,,,,4.3,2.0,3.8*38
$GPRMC,202115.003,A,1443.8684,S,07045.0394,W,21.18,184.51,240411,,,A*5E
$GPGGA,202115.997,1443.8740,S,07045.0400,W,1,06,2.0,3927.0,M,32.9,M,,0000*69
$GPGSA,M,3,22,16,30,06,03,18,,,,,,,4.3,2.0,3.8*38
$GPRMC,202115.997,A,1443.8740,S,07045.0400,W,21.16,187.26,240411,,,A*54
$GPGGA,202117.001,1443.8801,S,07045.0405,W,1,06,2.0,3927.9,M,32.9,M,,0000*6B
$GPGSA,M,3,22,16,30,06,03,18,,,,,,,4.3,2.0,3.8*38
$GPGSV,3,1,12,22,66,149,39,16,63,290,38,30,54,335,38,06,53,183,39*70
$GPGSV,3,2,12,03,43,201,36,14,31,047,29,18,30,143,38,19,16,215,34*7F
$GPGSV,3,3,12,32,09,322,36,21,08,121,,31,06,000,32,11,00,258,*77
$GPRMC,202117.001,A,1443.8801,S,07045.0405,W,21.14,187.31,240411,,,A*5B
$GPGGA,202117.999,1443.8859,S,07045.0414,W,1,06,2.0,3925.6,M,32.9,M,,0000*63
$GPGSA,M,3,22,16,30,06,03,18,,,,,,,4.3,2.0,3.8*38
$GPRMC,202117.999,A,1443.8859,S,07045.0414,W,20.84,186.69,240411,,,A*5A
$GPGGA,202119.002,1443.8917,S,07045.0418,W,1,06,2.0,3924.8,M,32.9,M,,0000*6E
$GPGSA,M,3,22,16,30,06,03,18,,,,,,,4.3,2.0,3.8*38
$GPRMC,202119.002,A,1443.8917,S,07045.0418,W,20.57,185.39,240411,,,A*50
$GPGGA,202120.000,1443.8972,S,07045.0418,W,1,06,2.0,3924.6,M,32.9,M,,0000*6B
$GPGSA,M,3,22,16,30,06,03,18,,,,,,,4.3,2.0,3.8*38
$GPRMC,202120.000,A,1443.8972,S,07045.0418,W,20.41,185.22,240411,,,A*56
$GPGGA,202120.999,1443.9027,S,07045.0421,W,1,06,2.0,3924.4,M,32.9,M,,0000*62
$GPGSA,M,3,22,16,30,06,03,18,,,,,,,4.3,2.0,3.8*38
$GPRMC,202120.999,A,1443.9027,S,07045.0421,W,19.92,182.71,240411,,,A*58
$GPGGA,202121.995,1443.9079,S,07045.0423,W,1,06,2.0,3923.1,M,32.9,M,,0000*64
$GPGSA,M,3,22,16,30,06,03,18,,,,,,,4.3,2.0,3.7*37
$GPGSV,3,1,12,22,66,149,39,16,63,290,39,30,54,335,39,06,53,183,38*71
$GPGSV,3,2,12,03,43,201,36,14,31,047,29,18,30,143,39,19,16,215,33*79
$GPGSV,3,3,12,32,09,322,35,21,08,121,,31,06,000,31,11,00,258,*77
$GPRMC,202121.995,A,1443.9079,S,07045.0423,W,19.85,183.94,240411,,,A*50
$GPGGA,202123.006,1443.9135,S,07045.0427,W,1,06,2.0,3923.8,M,32.9,M,,0000*61
$GPGSA,M,3,22,16,30,06,03,18,,,,,,,4.3,2.0,3.7*37
$GPRMC,202123.006,A,1443.9135,S,07045.0427,W,20.11,184.00,240411,,,A*51
$GPGGA,202123.997,1443.9191,S,07045.0433,W,1,06,2.0,3924.5,M,32.9,M,,0000*61
$GPGSA,M,3,22,16,30,06,03,18,,,,,,,4.3,2.0,3.7*37
$GPRMC,202123.997,A,1443.9191,S,07045.0433,W,19.77,185.12,240411,,,A*53
$GPGGA,202125.001,1443.9247,S,07045.0438,W,1,06,2.0,3924.1,M,32.9,M,,0000*66
$GPGSA,M,3,22,16,30,06,03,18,,,,,,,4.3,2.0,3.7*37
$GPRMC,202125.001,A,1443.9247,S,07045.0438,W,19.57,184.53,240411,,,A*56
$GPGGA,202125.994,1443.9301,S,07045.0447,W,1,06,2.0,3924.5,M,32.9,M,,0000*6C
$GPGSA,M,3,22,16,30,06,03,18,,,,,,,4.3,2.0,3.7*37
$GPRMC,202125.994,A,1443.9301,S,07045.0447,W,19.10,184.10,240411,,,A*5C
$GPGGA,202127.007,1443.9355,S,07045.0456,W,1,06,2.0,3922.3,M,32.9,M,,0000*6C
$GPGSA,M,3,22,16,30,06,03,18,,,,,,,4.3,2.0,3.7*37
$GPGSV,3,1,12,22,66,149,36,16,63,290,37,30,54,335,37,06,53,183,37*71
$GPGSV,3,2,12,03,43,201,34,14,31,047,,18,30,143,35,19,16,215,30*7F
$GPGSV,3,3,12,32,09,322,31,21,08,121,,31,06,000,,11,00,258,*71
$GPRMC,202127.007,A,1443.9355,S,07045.0456,W,19.70,187.48,240411,,,A*54
$GPGGA,202127.995,1443.9408,S,07045.0468,W,1,06,2.0,3920.9,M,32.9,M,,0000*64
$GPGSA,M,3,22,16,30,06,03,18,,,,,,,4.3,2.0,3.7*37
$GPRMC,202127.995,A,1443.9408,S,07045.0468,W,19.12,184.20,240411,,,A*5D
$GPGGA,202129.003,1443.9464,S,07045.0473,W,1,06,2.0,3920.6,M,32.9,M,,0000*63
$GPGSA,M,3,22,16,30,06,03,18,,,,,,,4.3,2.0,3.7*37
$GPRMC,202129.003,A,1443.9464,S,07045.0473,W,19.39,184.80,240411,,,A*56
$GPGGA,202129.993,1443.9525,S,07045.0484,W,1,06,2.0,3920.2,M,32.9,M,,0000*6B
$GPGSA,M,3,22,16,30,06,03,18,,,,,,,4.3,2.0,3.7*37
$GPRMC,202129.993,A,1443.9525,S,07045.0484,W,19.28,183.06,240411,,,A*53
$GPGGA,202131.012,1443.9579,S,07045.0485,W,1,06,2.0,3920.7,M,32.9,M,,0000*6F
$GPGSA,M,3,22,16,30,06,03,18,,,,,,,4.3,2.0,3.7*37
$GPRMC,202131.012,A,1443.9579,S,07045.0485,W,19.55,183.72,240411,,,A*5B
$GPGGA,202132.002,1443.9631,S,07045.0489,W,1,06,2.0,3919.9,M,32.9,M,,0000*6A
$GPGSA,M,3,22,16,30,06,03,18,,,,,,,4.3,2.0,3.7*37
$GPGSV,3,1,12,22,66,149,38,16,63,290,39,30,54,335,39,06,53,183,39*71
$GPGSV,3,2,12,03,43,201,37,14,31,047,31,18,30,143,37,19,16,215,36*7A
$GPGSV,3,3,12,32,09,322,35,21,08,121,,31,06,000,28,11,00,258,*7F
$GPRMC,202132.002,A,1443.9631,S,07045.0489,W,19.26,184.86,240411,,,A*52
$GPGGA,202132.996,1443.9685,S,07045.0495,W,1,06,2.0,3919.9,M,32.9,M,,0000*6C
$GPGSA,M,3,22,16,30,06,03,18,,,,,,,4.3,2.0,3.7*37
$GPRMC,202132.996,A,1443.9685,S,07045.0495,W,19.22,183.41,240411,,,A*5C
$GPGGA,202133.997,1443.9735,S,07045.0495,W,1,06,2.0,3918.2,M,32.9,M,,0000*6C
$GPGSA,M,3,22,16,30,06,03,18,,,,,,,4.3,2.0,3.7*37
$GPRMC,202133.997,A,1443.9735,S,07045.0495,W,19.24,183.35,240411,,,A*53
$GPGGA,202135.002,1443.9793,S,07045.0505,W,1,06,2.0,3916.7,M,32.9,M,,0000*60
$GPGSA,M,3,22,16,30,06,03,18,,,,,,,4.3,2.0,3.7*37
$GPRMC,202135.002,A,1443.9793,S,07045.0505,W,19.41,179.16,240411,,,A*53
$GPGGA,202135.998,1443.9846,S,07045.0501,W,1,06,2.0,3917.2,M,32.9,M,,0000*6D
$GPGSA,M,3,22,16,30,06,03,18,,,,,,,4.3,2.0,3.7*37
$GPRMC,202135.998,A,1443.9846,S,07045.0501,W,19.29,174.64,240411,,,A*5C
$GPGGA,202137.004,1443.9900,S,07045.0497,W,1,06,2.0,3918.6,M,32.9,M,,0000*65
$GPGSA,M,3,22,16,30,06,03,18,,,,,,,4.3,2.0,3.7*37
$GPGSV,3,1,12,22,66,149,37,16,63,290,37,30,54,335,37,06,53,183,39*7E
$GPGSV,3,2,12,03,43,201,38,14,31,047,,18,30,143,34,19,16,215,35*77
$GPGSV,3,3,12,32,09,322,35,21,08,121,,31,06,000,32,11,00,258,*74
$GPRMC,202137.004,A,1443.9900,S,07045.0497,W,19.67,175.92,240411,,,A*5D
$GPGGA,202138.000,1443.9952,S,07045.0490,W,1,06,2.0,3918.3,M,32.9,M,,0000*6B
$GPGSA,M,3,22,16,30,06,03,18,,,,,,,4.3,2.0,3.7*37
$GPRMC,202138.000,A,1443.9952,S,07045.0490,W,19.57,174.95,240411,,,A*53
$GPGGA,202138.998,1444.0009,S,07045.0487,W,1,06,2.0,3919.4,M,32.9,M,,0000*6A
$GPGSA,M,3,22,16,30,06,03,18,,,,,,,4.3,2.0,3.7*37
$GPRMC,202138.998,A,1444.0009,S,07045.0487,W,19.96,175.46,240411,,,A*56
$GPGGA,202140.002,1444.0062,S,07045.0479,W,1,06,2.0,3918.4,M,32.9,M,,0000*62
$GPGSA,M,3,22,16,30,06,03,18,,,,,,,4.3,2.0,3.7*37
$GPRMC,202140.002,A,1444.0062,S,07045.0479,W,20.09,168.58,240411,,,A*50
$GPGGA,202140.993,1444.0118,S,07045.0465,W,1,06,2.0,3918.3,M,32.9,M,,0000*65
$GPGSA,M,3,22,16,30,06,03,18,,,,,,,4.3,2.0,3.7*37
$GPRMC,202140.993,A,1444.0118,S,07045.0465,W,20.40,162.38,240411,,,A*51
$GPGGA,202142.001,1444.0173,S,07045.0443,W,1,06,2.0,3915.2,M,32.9,M,,0000*60
$GPGSA,M,3,22,16,30,06,03,18,,,,,,,4.3,2.0,3.7*37
$GPGSV,3,1,12,22,66,149,39,16,63,290,39,30,54,335,37,06,53,183,38*7F
$GPGSV,3,2,12,03,43,201,39,14,31,047,30,18,30,143,37,19,16,215,39*7A
$GPGSV,3,3,12,32,09,322,38,21,08,121,35,31,06,000,34,11,00,258,*79
$GPRMC,202142.001,A,1444.0173,S,07045.0443,W,21.89,161.43,240411,,,A*53
$GPGGA,202143.006,1444.0232,S,07045.0424,W,1,06,2.0,3913.6,M,32.9,M,,0000*63
$GPGSA,M,3,22,16,30,06,03,18,,,,,,,4.3,2.0,3.7*37
$GPRMC,202143.006,A,1444.0232,S,07045.0424,W,21.67,159.78,240411,,,A*51
$GPGGA,202143.999,1444.0284,S,07045.0399,W,1,06,2.0,3912.6,M,32.9,M,,0000*61
$GPGSA,M,3,22,16,30,06,03,18,,,,,,,4.3,2.0,3.7*37
$GPRMC,202143.999,A,1444.0284,S,07045.0399,W,21.21,156.94,240411,,,A*5D
$GPGGA,202144.999,1444.0340,S,07045.0374,W,1,06,2.0,3914.4,M,32.9,M,,0000*68
$GPGSA,M,3,22,16,30,06,03,18,,,,,,,4.3,2.0,3.7*37
$GPRMC,202144.999,A,1444.0340,S,07045.0374,W,21.66,158.41,240411,,,A*55
$GPGGA,202146.000,1444.0394,S,07045.0343,W,1,06,2.0,3913.7,M,32.9,M,,0000*6A
$GPGSA,M,3,22,16,30,06,03,18,,,,,,,4.3,2.0,3.7*37
$GPRMC,202146.000,A,1444.0394,S,07045.0343,W,22.51,153.99,240411,,,A*5A
$GPGGA,202146.993,1444.0445,S,07045.0312,W,1,06,2.0,3911.5,M,32.9,M,,0000*66
$GPGSA,M,3,22,16,30,06,03,18,,,,,,,4.3,2.0,3.7*37
$GPGSV,3,1,12,22,66,149,38,16,63,290,39,30,54,335,35,06,53,183,39*7D
$GPGSV,3,2,12,03,43,201,39,14,31,047,31,18,30,143,32,19,16,215,38*7F
$GPGSV,3,3,12,32,09,322,35,21,08,121,36,31,06,000,,11,00,258,*70
$GPRMC,202146.993,A,1444.0445,S,07045.0312,W,22.68,151.16,240411,,,A*59
$GPGGA,202148.006,1444.0503,S,07045.0281,W,1,06,2.0,3915.1,M,32.9,M,,0000*65
$GPGSA,M,3,22,16,30,06,03,18,,,,,,,4.3,2.0,3.7*37
$GPRMC,202148.006,A,1444.0503,S,07045.0281,W,23.32,152.17,240411,,,A*56
$GPGGA,202148.997,1444.0557,S,07045.0247,W,1,06,2.0,3913.6,M,32.9,M,,0000*6E
$GPGSA,M,3,22,16,30,06,03,18,,,,,,,4.3,2.0,3.7*37
$GPRMC,202148.997,A,1444.0557,S,07045.0247,W,24.00,148.47,240411,,,A*54
$GPGGA,202150.000,1444.0613,S,07045.0211,W,1,06,2.0,3912.0,M,32.9,M,,0000*67
$GPGSA,M,3,22,16,30,06,03,18,,,,,,,4.3,2.0,3.7*37
$GPRMC,202150.000,A,1444.0613,S,07045.0211,W,24.59,148.18,240411,,,A*5C
$GPGGA,202150.996,1444.0672,S,07045.0174,W,1,06,2.0,3910.1,M,32.9,M,,0000*65
$GPGSA,M,3,22,16,30,06,03,18,,,,,,,4.3,2.0,3.7*37
$GPRMC,202150.996,A,1444.0672,S,07045.0174,W,25.35,146.87,240411,,,A*5E
$GPGGA,202152.009,1444.0732,S,07045.0128,W,1,06,2.0,3911.9,M,32.9,M,,0000*6D
$GPGSA,M,3,22,16,30,06,03,18,,,,,,,4.3,2.0,3.7*37
$GPGSV,3,1,12,22,66,149,37,16,63,290,33,30,54,335,30,06,53,183,38*7C
$GPGSV,3,2,12,03,43,201,38,14,31,047,29,18,30,143,28,19,16,215,38*7C
$GPGSV,3,3,12,32,09,322,34,21,08,121,34,31,06,000,,11,00,258,*73
$GPRMC,202152.009,A,1444.0732,S,07045.0128,W,25.61,145.73,240411,,,A*56
$GPGGA,202152.999,1444.0789,S,07045.0085,W,1,06,2.0,3911.2,M,32.9,M,,0000*60
$GPGSA,M,3,22,16,30,06,03,18,,,,,,,4.3,2.0,3.7*37
$GPRMC,202152.999,A,1444.0789,S,07045.0085,W,25.75,146.71,240411,,,A*54
$GPGGA,202153.997,1444.0848,S,07045.0039,W,1,06,2.0,3911.6,M,32.9,M,,0000*6E
$GPGSA,M,3,22,16,30,06,03,18,,,,,,,4.3,2.0,3.7*37
$GPRMC,202153.997,A,1444.0848,S,07045.0039,W,26.77,148.53,240411,,,A*51
$GPGGA,202155.001,1444.0913,S,07045.0003,W,1,06,2.0,3909.0,M,32.9,M,,0000*67
$GPGSA,M,3,22,16,30,06,03,18,,,,,,,4.3,2.0,3.7*37
$GPRMC,202155.001,A,1444.0913,S,07045.0003,W,27.14,146.96,240411,,,A*54
$GPGGA,202155.998,1444.0976,S,07044.9967,W,1,06,2.0,3905.4,M,32.9,M,,0000*66
$GPGSA,M,3,22,16,30,06,03,18,,,,,,,4.3,2.0,3.7*37
$GPRMC,202155.998,A,1444.0976,S,07044.9967,W,27.02,148.22,240411,,,A*5B
$GPGGA,202157.001,1444.1038,S,07044.9929,W,1,06,2.0,3903.9,M,32.9,M,,0000*6E
$GPGSA,M,3,22,16,30,06,03,18,,,,,,,4.3,2.0,3.7*37
$GPGSV,3,1,12,22,66,149,39,16,63,290,36,30,54,335,34,06,53,183,38*73
$GPGSV,3,2,12,03,43,201,40,14,31,047,33,18,30,143,35,19,16,215,39*75
$GPGSV,3,3,12,32,09,322,36,21,08,121,36,31,06,000,,11,00,258,*73
$GPRMC,202157.001,A,1444.1038,S,07044.9929,W,26.91,149.48,240411,,,A*5E
$GPGGA,202158.001,1444.1104,S,07044.9889,W,1,06,2.0,3902.7,M,32.9,M,,0000*6B
$GPGSA,M,3,22,16,30,06,03,18,,,,,,,4.3,2.0,3.7*37
$GPRMC,202158.001,A,1444.1104,S,07044.9889,W,28.49,148.24,240411,,,A*54
$GPGGA,202159.000,1444.1169,S,07044.9846,W,1,06,2.0,3899.4,M,32.9,M,,0000*63
$GPGSA,M,3,22,16,30,06,03,18,,,,,,,4.3,2.0,3.7*37
$GPRMC,202159.000,A,1444.1169,S,07044.9846,W,28.17,148.25,240411,,,A*56
$GPGGA,202159.999,1444.1232,S,07044.9800,W,1,06,2.0,3898.8,M,32.9,M,,0000*68
$GPGSA,M,3,22,16,30,06,03,18,,,,,,,4.3,2.0,3.7*37
$GPRMC,202159.999,A,1444.1232,S,07044.9800,W,28.28,146.50,240411,,,A*50
$GPGGA,202200.995,1444.1295,S,07044.9756,W,1,06,2.0,3895.1,M,32.9,M,,0000*6E
$GPGSA,M,3,22,16,30,06,03,18,,,,,,,4.3,2.0,3.7*37
$GPRMC,202200.995,A,1444.1295,S,07044.9756,W,28.40,146.85,240411,,,A*54
$GPGGA,202201.998,1444.1363,S,07044.9709,W,1,06,2.0,3897.3,M,32.9,M,,0000*60
$GPGSA,M,3,22,16,30,06,03,18,,,,,,,4.3,2.0,3.7*37
$GPGSV,3,1,12,22,66,149,39,16,63,290,38,30,54,335,32,06,53,183,39*7A
$GPGSV,3,2,12,03,43,201,39,14,31,047,32,18,30,143,33,19,16,215,40*72
$GPGSV,3,3,12,32,09,322,36,21,08,121,36,31,06,000,,11,00,258,*73
$GPRMC,202201.998,A,1444.1363,S,07044.9709,W,28.69,146.38,240411,,,A*57
$GPGGA,202203.006,1444.1428,S,07044.9659,W,1,06,2.0,3898.0,M,32.9,M,,0000*6C
$GPGSA,M,3,22,16,30,06,03,18,,,,,,,4.3,2.0,3.7*37
$GPRMC,202203.006,A,1444.1428,S,07044.9659,W,28.60,147.57,240411,,,A*56
$GPGGA,202203.997,1444.1491,S,07044.9619,W,1,06,2.0,3895.6,M,32.9,M,,0000*60
$GPGSA,M,3,22,16,30,06,03,18,,,,,,,4.3,2.0,3.7*37
$GPRMC,202203.997,A,1444.1491,S,07044.9619,W,28.29,149.70,240411,,,A*57
$GPGGA,202204.997,1444.1560,S,07044.9577,W,1,06,2.1,3896.8,M,32.9,M,,0000*6F
$GPGSA,M,3,22,16,30,06,03,18,,,,,,,4.3,2.1,3.7*36
$GPRMC,202204.997,A,1444.1560,S,07044.9577,W,28.41,148.98,240411,,,A*5D
$GPGGA,202206.004,1444.1628,S,07044.9537,W,1,06,2.1,3896.8,M,32.9,M,,0000*65
$GPGSA,M,3,22,16,30,06,03,18,,,,,,,4.3,2.1,3.7*36
$GPRMC,202206.004,A,1444.1628,S,07044.9537,W,28.12,149.50,240411,,,A*54
$GPGGA,202206.998,1444.1698,S,07044.9492,W,1,06,2.1,3897.3,M,32.9,M,,0000*66
$GPGSA,M,3,22,16,30,06,03,18,,,,,,,4.3,2.1,3.7*36
$GPGSV,3,1,12,22,66,149,37,16,63,290,36,30,54,335,29,06,53,183,38*71
$GPGSV,3,2,12,03,43,201,38,14,31,047,28,18,30,143,30,19,16,215,38*74
$GPGSV,3,3,12,32,09,322,34,21,08,121,31,31,06,000,,11,00,258,*76
$GPRMC,202206.998,A,1444.1698,S,07044.9492,W,29.69,148.79,240411,,,A*5A
$GPGGA,202207.996,1444.1766,S,07044.9448,W,1,06,2.1,3896.5,M,32.9,M,,0000*69
$GPGSA,M,3,22,16,30,06,03,18,,,,,,,4.3,2.1,3.7*36
$GPRMC,202207.996,A,1444.1766,S,07044.9448,W,28.75,146.57,240411,,,A*5C
$GPGGA,202209.003,1444.1832,S,07044.9398,W,1,06,2.1,3899.8,M,32.9,M,,0000*64
$GPGSA,M,3,22,16,30,06,03,18,,,,,,,4.3,2.1,3.7*36
$GPRMC,202209.003,A,1444.1832,S,07044.9398,W,28.18,147.74,240411,,,A*58
$GPGGA,202209.995,1444.1896,S,07044.9358,W,1,06,2.1,3896.5,M,32.9,M,,0000*62
$GPGSA,M,3,22,16,30,06,03,18,,,,,,,4.3,2.1,3.7*36
$GPRMC,202209.995,A,1444.1896,S,07044.9358,W,28.65,148.82,240411,,,A*50
$GPGGA,202211.008,1444.1963,S,07044.9315,W,1,06,2.1,3896.0,M,32.9,M,,0000*61
$GPGSA,M,3,22,16,30,06,03,18,,,,,,,4.3,2.1,3.7*36
$GPRMC,202211.008,A,1444.1963,S,07044.9315,W,28.29,147.29,240411,,,A*50
$GPGGA,202212.003,1444.2031,S,07044.9273,W,1,06,2.1,3894.8,M,32.9,M,,0000*6F
$GPGSA,M,3,22,16,30,06,03,18,,,,,,,4.3,2.1,3.7*36
$GPGSV,3,1,12,22,66,149,39,16,63,290,37,30,54,335,34,06,53,183,38*72
$GPGSV,3,2,12,03,43,201,38,14,31,047,31,18,30,143,34,19,16,215,39*79
$GPGSV,3,3,12,32,09,322,35,21,08,121,35,31,06,000,,11,00,258,*73
$GPRMC,202212.003,A,1444.2031,S,07044.9273,W,29.21,148.78,240411,,,A*56
$GPGGA,202212.999,1444.2110,S,07044.9235,W,1,06,2.1,3895.6,M,32.9,M,,0000*6A
$GPGSA,M,3,22,16,30,06,03,18,,,,,,,4.3,2.1,3.7*36
$GPRMC,202212.999,A,1444.2110,S,07044.9235,W,29.42,148.25,240411,,,A*51
$GPGGA,202213.998,1444.2178,S,07044.9191,W,1,06,2.1,3895.8,M,32.9,M,,0000*67
$GPGSA,M,3,22,16,30,06,03,18,,,,,,,4.3,2.1,3.7*36
$GPRMC,202213.998,A,1444.2178,S,07044.9191,W,28.87,146.72,240411,,,A*56
$GPGGA,202215.001,1444.2246,S,07044.9145,W,1,06,2.1,3896.4,M,32.9,M,,0000*60
$GPGSA,M,3,22,16,30,06,03,18,,,,,,,4.3,2.1,3.7*36
$GPRMC,202215.001,A,1444.2246,S,07044.9145,W,29.21,148.48,240411,,,A*54
$GPGGA,202216.000,1444.2313,S,07044.9099,W,1,06,2.1,3894.7,M,32.9,M,,0000*62
$GPGSA,M,3,22,16,30,06,03,18,,,,,,,4.3,2.1,3.7*36
$GPRMC,202216.000,A,1444.2313,S,07044.9099,W,29.05,147.23,240411,,,A*53
$GPGGA,202216.998,1444.2380,S,07044.9054,W,1,06,2.1,3894.7,M,32.9,M,,0000*61
$GPGSA,M,3,22,16,30,06,03,18,,,,,,,4.3,2.1,3.7*36
$GPGSV,3,1,12,22,66,149,36,16,63,290,36,30,54,335,30,06,53,183,38*78
$GPGSV,3,2,12,03,43,201,39,14,31,047,28,18,30,143,30,19,16,215,39*74
$GPGSV,3,3,12,32,09,322,32,21,08,121,31,31,06,000,,11,00,258,*70
$GPRMC,202216.998,A,1444.2380,S,07044.9054,W,29.30,146.59,240411,,,A*5A
$GPGGA,202217.998,1444.2444,S,07044.9006,W,1,06,2.1,3893.6,M,32.9,M,,0000*6E
$GPGSA,M,3,22,16,30,06,03,18,,,,,,,4.3,2.1,3.7*36
$GPRMC,202217.998,A,1444.2444,S,07044.9006,W,29.06,147.56,240411,,,A*58
$GPGGA,202219.004,1444.2511,S,07044.8961,W,1,06,2.1,3893.0,M,32.9,M,,0000*62
$GPGSA,M,3,22,16,30,06,03,18,,,,,,,4.3,2.1,3.7*36
$GPRMC,202219.004,A,1444.2511,S,07044.8961,W,28.88,149.54,240411,,,A*59
$GPGGA,202219.999,1444.2579,S,07044.8919,W,1,06,2.1,3893.3,M,32.9,M,,0000*6D
$GPGSA,M,3,22,16,30,06,03,18,,,,,,,4.3,2.1,3.7*36
$GPRMC,202219.999,A,1444.2579,S,07044.8919,W,29.10,148.70,240411,,,A*52
$GPGGA,202221.001,1444.2644,S,07044.8871,W,1,06,2.1,3890.9,M,32.9,M,,0000*65
$GPGSA,M,3,22,16,30,06,03,18,,,,,,,4.3,2.1,3.7*36
$GPRMC,202221.001,A,1444.2644,S,07044.8871,W,29.66,147.67,240411,,,A*5B
$GPGGA,202221.999,1444.2711,S,07044.8820,W,1,06,2.1,3894.2,M,32.9,M,,0000*67
$GPGSA,M,3,22,16,30,06,03,18,,,,,,,4.3,2.1,3.7*36
$GPGSV,3,1,12,22,66,149,39,16,63,290,39,30,54,335,34,06,53,183,39*7D
$GPGSV,3,2,12,03,43,201,39,14,31,047,34,18,30,143,34,19,16,215,39*7D
$GPGSV,3,3,12,32,09,322,35,21,08,121,35,31,06,000,,11,00,258,*73
$GPRMC,202221.999,A,1444.2711,S,07044.8820,W,28.96,146.85,240411,,,A*55
$GPGGA,202223.000,1444.2778,S,07044.8773,W,1,06,2.1,3893.7,M,32.9,M,,0000*68
$GPGSA,M,3,22,16,30,06,03,18,,,,,,,4.3,2.1,3.7*36
$GPRMC,202223.000,A,1444.2778,S,07044.8773,W,29.51,146.21,240411,,,A*5C
$GPGGA,202224.000,1444.2849,S,07044.8733,W,1,06,2.1,3891.5,M,32.9,M,,0000*66
$GPGSA,M,3,22,16,30,06,03,18,,,,,,,4.3,2.1,3.7*36
$GPRMC,202224.000,A,1444.2849,S,07044.8733,W,29.03,148.29,240411,,,A*53
$GPGGA,202224.998,1444.2920,S,07044.8692,W,1,06,2.1,3893.1,M,32.9,M,,0000*6C
$GPGSA,M,3,22,16,30,06,03,18,,,,,,,4.3,2.1,3.7*36
$GPRMC,202224.998,A,1444.2920,S,07044.8692,W,29.18,147.65,240411,,,A*52
$GPGGA,202225.997,1444.2989,S,07044.8655,W,1,06,2.1,3890.9,M,32.9,M,,0000*61
$GPGSA,M,3,22,16,30,06,03,18,,,,,,,4.3,2.1,3.7*36
$GPRMC,202225.997,A,1444.2989,S,07044.8655,W,28.75,146.76,240411,,,A*5D
$GPGGA,202226.995,1444.3059,S,07044.8608,W,1,06,2.1,3894.2,M,32.9,M,,0000*62
$GPGSA,M,3,22,16,30,06,03,18,,,,,,,4.3,2.1,3.7*36
$GPGSV,3,1,12,22,66,149,39,16,63,290,37,30,54,335,34,06,53,183,39*73
$GPGSV,3,2,12,03,43,201,39,14,31,047,32,18,30,143,34,19,16,215,39*7B
$GPGSV,3,3,12,32,09,322,36,21,08,121,35,31,06,000,28,11,00,258,*7A
$GPRMC,202226.995,A,1444.3059,S,07044.8608,W,29.08,147.79,240411,,,A*54
$GPGGA,202228.011,1444.3131,S,07044.8567,W,1,06,2.1,3893.6,M,32.9,M,,0000*6F
$GPGSA,M,3,22,16,30,06,03,18,,,,,,,4.3,2.1,3.7*36
$GPRMC,202228.011,A,1444.3131,S,07044.8567,W,29.19,147.71,240411,,,A*52
$GPGGA,202228.992,1444.3196,S,07044.8520,W,1,06,2.1,3894.0,M,32.9,M,,0000*62
$GPGSA,M,3,22,16,30,06,03,18,,,,,,,4.3,2.1,3.7*36
$GPRMC,202228.992,A,1444.3196,S,07044.8520,W,28.84,148.82,240411,,,A*58
$GPGGA,202230.005,1444.3264,S,07044.8477,W,1,06,2.1,3892.2,M,32.9,M,,0000*65
$GPGSA,M,3,22,16,30,06,03,18,,,,,,,4.3,2.1,3.7*36
$GPRMC,202230.005,A,1444.3264,S,07044.8477,W,28.88,150.12,240411,,,A*57
$GPGGA,202230.994,1444.3329,S,07044.8439,W,1,06,2.1,3890.4,M,32.9,M,,0000*62
$GPGSA,M,3,22,16,30,06,03,18,,,,,,,4.3,2.1,3.7*36
$GPRMC,202230.994,A,1444.3329,S,07044.8439,W,28.73,148.47,240411,,,A*59
$GPGGA,202232.002,1444.3399,S,07044.8394,W,1,06,2.1,3892.2,M,32.9,M,,0000*69
$GPGSA,M,3,22,16,30,06,03,18,,,,,,,4.3,2.1,3.7*36
$GPGSV,3,1,12,22,66,149,37,16,63,290,35,30,54,335,29,06,53,183,38*72
$GPGSV,3,2,12,03,43,201,37,14,31,047,29,18,30,143,28,19,16,215,38*73
$GPGSV,3,3,12,32,09,322,32,21,08,121,30,31,06,000,,11,00,258,*71
$GPRMC,202232.002,A,1444.3399,S,07044.8394,W,29.01,148.10,240411,,,A*50
$GPGGA,202233.003,1444.3465,S,07044.8347,W,1,06,2.1,3889.7,M,32.9,M,,0000*6C
$GPGSA,M,3,22,16,30,06,03,18,,,,,,,4.3,2.1,3.7*36
$GPRMC,202233.003,A,1444.3465,S,07044.8347,W,29.19,147.69,240411,,,A*52
$GPGGA,202233.997,1444.3536,S,07044.8306,W,1,06,2.1,3891.3,M,32.9,M,,0000*67
$GPGSA,M,3,22,16,30,06,03,18,,,,,,,4.3,2.1,3.7*36
$GPRMC,202233.997,A,1444.3536,S,07044.8306,W,28.30,146.21,240411,,,A*53
$GPGGA,202234.999,1444.3602,S,07044.8264,W,1,06,2.1,3888.9,M,32.9,M,,0000*6D
$GPGSA,M,3,22,16,30,06,03,18,,,,,,,4.3,2.1,3.7*36
$GPRMC,202234.999,A,1444.3602,S,07044.8264,W,29.05,148.08,240411,,,A*59
$GPGGA,202236.003,1444.3668,S,07044.8213,W,1,06,2.1,3888.6,M,32.9,M,,0000*66
$GPGSA,M,3,22,16,30,06,03,18,,,,,,,4.3,2.1,3.7*36
$GPRMC,202236.003,A,1444.3668,S,07044.8213,W,29.18,148.51,240411,,,A*5D
$GPGGA,202236.997,1444.3738,S,07044.8173,W,1,06,2.1,3889.4,M,32.9,M,,0000*60
$GPGSA,M,3,22,16,30,06,03,18,,,,,,,4.3,2.1,3.7*36
$GPGSV,3,1,12,22,66,149,38,16,63,290,38,30,54,335,34,06,53,183,39*7D
$GPGSV,3,2,12,03,43,201,39,14,31,047,32,18,30,143,35,19,16,215,39*7A
$GPGSV,3,3,12,32,09,322,36,21,08,121,36,31,06,000,30,11,00,258,*70
$GPRMC,202236.997,A,1444.3738,S,07044.8173,W,28.80,147.16,240411,,,A*54
$GPGGA,202237.998,1444.3809,S,07044.8127,W,1,06,2.1,3891.2,M,32.9,M,,0000*6D
$GPGSA,M,3,22,16,30,06,03,18,,,,,,,4.2,2.1,3.7*37
$GPRMC,202237.998,A,1444.3809,S,07044.8127,W,29.04,148.15,240411,,,A*57
$GPGGA,202239.005,1444.3873,S,07044.8083,W,1,06,2.1,3889.0,M,32.9,M,,0000*67
$GPGSA,M,3,22,16,30,06,03,18,,,,,,,4.2,2.1,3.7*37
$GPRMC,202239.005,A,1444.3873,S,07044.8083,W,27.69,145.85,240411,,,A*57
$GPGGA,202239.997,1444.3937,S,07044.8041,W,1,06,2.1,3887.1,M,32.9,M,,0000*65
$GPGSA,M,3,22,16,30,06,03,18,,,,,,,4.2,2.1,3.7*37
$GPRMC,202239.997,A,1444.3937,S,07044.8041,W,28.47,147.00,240411,,,A*56
$GPGGA,202241.001,1444.4001,S,07044.7997,W,1,06,2.1,3884.9,M,32.9,M,,0000*61
$GPGSA,M,3,22,16,30,06,03,18,,,,,,,4.2,2.1,3.7*37
$GPRMC,202241.001,A,1444.4001,S,07044.7997,W,28.77,149.30,240411,,,A*57
$GPGGA,202241.994,1444.4071,S,07044.7952,W,1,06,2.1,3885.5,M,32.9,M,,0000*67
$GPGSA,M,3,22,16,30,06,03,18,,,,,,,4.2,2.1,3.7*37
$GPGSV,3,1,12,22,66,149,39,16,63,290,38,30,54,335,34,06,53,183,39*7C
$GPGSV,3,2,12,03,43,201,39,14,31,047,32,18,30,143,35,19,16,215,41*75
$GPGSV,3,3,12,32,09,322,36,21,08,121,36,31,06,000,28,11,00,258,*79
$GPRMC,202241.994,A,1444.4071,S,07044.7952,W,28.38,149.77,240411,,,A*54
$GPGGA,202243.007,1444.4141,S,07044.7907,W,1,06,2.1,3888.1,M,32.9,M,,0000*6D
$GPGSA,M,3,22,16,30,06,03,18,,,,,,,4.2,2.1,3.7*37
$GPRMC,202243.007,A,1444.4141,S,07044.7907,W,29.41,147.94,240411,,,A*5B
$GPGGA,202243.999,1444.4211,S,07044.7862,W,1,06,2.1,3888.0,M,32.9,M,,0000*66
$GPGSA,M,3,22,16,30,06,03,18,,,,,,,4.2,2.1,3.7*37
$GPRMC,202243.999,A,1444.4211,S,07044.7862,W,29.12,148.12,240411,,,A*56
$GPGGA,202244.996,1444.4278,S,07044.7816,W,1,06,2.1,3887.6,M,32.9,M,,0000*6B
$GPGSA,M,3,22,16,30,06,03,18,,,,,,,4.2,2.1,3.7*37
$GPRMC,202244.996,A,1444.4278,S,07044.7816,W,29.11,146.89,240411,,,A*5D
$GPGGA,202245.997,1444.4347,S,07044.7768,W,1,06,2.1,3887.6,M,32.9,M,,0000*60
$GPGSA,M,3,22,16,30,06,03,18,,,,,,,4.2,2.1,3.7*37
$GPRMC,202245.997,A,1444.4347,S,07044.7768,W,29.37,148.25,240411,,,A*5A
$GPGGA,202247.008,1444.4412,S,07044.7722,W,1,06,2.1,3884.6,M,32.9,M,,0000*67
$GPGSA,M,3,22,16,30,06,03,18,,,,,,,4.2,2.1,3.7*37
$GPGSV,3,1,12,22,66,149,36,16,63,290,35,30,54,335,29,06,53,183,38*73
$GPGSV,3,2,12,03,43,201,38,14,31,047,29,18,30,143,30,19,16,215,37*7A
$GPGSV,3,3,12,32,09,322,31,21,08,121,32,31,06,000,,11,00,258,*70
$GPRMC,202247.008,A,1444.4412,S,07044.7722,W,29.02,147.46,240411,,,A*52
$GPGGA,202247.992,1444.4485,S,07044.7677,W,1,06,2.1,3885.4,M,32.9,M,,0000*61
$GPGSA,M,3,22,16,30,06,03,18,,,,,,,4.2,2.1,3.7*37
$GPRMC,202247.992,A,1444.4485,S,07044.7677,W,28.86,148.74,240411,,,A*54
$GPGGA,202249.003,1444.4551,S,07044.7634,W,1,06,2.1,3882.4,M,32.9,M,,0000*66
$GPGSA,M,3,22,16,30,06,03,18,,,,,,,4.2,2.1,3.7*37
$GPRMC,202249.003,A,1444.4551,S,07044.7634,W,28.28,147.71,240411,,,A*5A
$GPGGA,202249.997,1444.4620,S,07044.7601,W,1,06,2.1,3883.3,M,32.9,M,,0000*67
$GPGSA,M,3,22,16,30,06,03,18,,,,,,,4.2,2.1,3.7*37
$GPRMC,202249.997,A,1444.4620,S,07044.7601,W,28.44,149.52,240411,,,A*58
$GPGGA,202251.006,1444.4683,S,07044.7550,W,1,06,2.1,3882.9,M,32.9,M,,0000*6A
$GPGSA,M,3,22,16,30,06,03,18,,,,,,,4.2,2.1,3.7*37
$GPRMC,202251.006,A,1444.4683,S,07044.7550,W,28.91,147.93,240411,,,A*55
$GPGGA,202252.002,1444.4749,S,07044.7507,W,1,06,2.1,3881.4,M,32.9,M,,0000*66
$GPGSA,M,3,22,16,30,06,03,18,,,,,,,4.2,2.1,3.7*37
$GPGSV,3,1,12,22,66,149,39,16,63,290,37,30,54,335,34,06,53,183,39*73
$GPGSV,3,2,12,03,43,201,38,14,31,047,32,18,30,143,34,19,16,215,38*7B
$GPGSV,3,3,12,32,09,322,35,21,08,121,35,31,06,000,30,11,00,258,*70
$GPRMC,202252.002,A,1444.4749,S,07044.7507,W,28.81,148.22,240411,,,A*53
$GPGGA,202252.995,1444.4820,S,07044.7465,W,1,06,2.1,3881.6,M,32.9,M,,0000*66
$GPGSA,M,3,22,16,30,06,03,18,,,,,,,4.2,2.1,3.7*37
$GPRMC,202252.995,A,1444.4820,S,07044.7465,W,29.59,147.44,240411,,,A*5A
$GPGGA,202254.000,1444.4891,S,07044.7420,W,1,06,2.1,3881.4,M,32.9,M,,0000*6C
$GPGSA,M,3,22,16,30,06,03,18,,,,,,,4.2,2.1,3.7*37
$GPRMC,202254.000,A,1444.4891,S,07044.7420,W,29.18,149.71,240411,,,A*5F
$GPGGA,202255.000,1444.4965,S,07044.7379,W,1,06,2.1,3883.8,M,32.9,M,,0000*62
$GPGSA,M,3,22,16,30,06,03,18,,,,,,,4.2,2.1,3.7*37
$GPRMC,202255.000,A,1444.4965,S,07044.7379,W,28.74,147.72,240411,,,A*59
$GPGGA,202256.002,1444.5031,S,07044.7334,W,1,06,2.1,3881.1,M,32.9,M,,0000*68
$GPGSA,M,3,22,16,30,06,03,18,,,,,,,4.2,2.1,3.7*37
$GPRMC,202256.002,A,1444.5031,S,07044.7334,W,28.76,149.22,240411,,,A*51
$GPGGA,202257.000,1444.5101,S,07044.7297,W,1,06,2.1,3879.2,M,32.9,M,,0000*65
$GPGSA,M,3,22,16,30,06,03,18,,,,,,,4.2,2.1,3.7*37
$GPGSV,3,1,12,22,66,149,37,16,63,290,37,30,54,335,30,06,53,183,39*79
$GPGSV,3,2,12,03,43,201,38,14,31,047,29,18,30,143,28,19,16,215,38*7C
$GPGSV,3,3,12,32,09,322,32,21,08,121,32,31,06,000,,11,00,258,*73
$GPRMC,202257.000,A,1444.5101,S,07044.7297,W,29.09,148.73,240411,,,A*54
$GPGGA,202257.999,1444.5166,S,07044.7248,W,1,06,2.1,3878.2,M,32.9,M,,0000*6E
$GPGSA,M,3,22,16,30,06,03,18,,,,,,,4.2,2.1,3.7*37
$GPRMC,202257.999,A,1444.5166,S,07044.7248,W,29.13,147.76,240411,,,A*5F
$GPGGA,202258.996,1444.5240,S,07044.7204,W,1,06,2.1,3881.2,M,32.9,M,,0000*67
$GPGSA,M,3,22,16,30,06,03,18,,,,,,,4.2,2.1,3.7*37
$GPRMC,202258.996,A,1444.5240,S,07044.7204,W,29.46,148.19,240411,,,A*56
$GPGGA,202300.002,1444.5304,S,07044.7158,W,1,06,2.1,3879.7,M,32.9,M,,0000*66
$GPGSA,M,3,22,16,30,06,03,18,,,,,,,4.2,2.1,3.7*37
$GPRMC,202300.002,A,1444.5304,S,07044.7158,W,28.46,147.13,240411,,,A*51
$GPGGA,202301.005,1444.5372,S,07044.7111,W,1,06,2.1,3881.3,M,32.9,M,,0000*6F
$GPGSA,M,3,22,16,30,06,03,18,,,,,,,4.2,2.1,3.7*37
$GPRMC,202301.005,A,1444.5372,S,07044.7111,W,28.62,150.25,240411,,,A*5E
$GPGGA,202301.997,1444.5440,S,07044.7069,W,1,06,2.1,3880.2,M,32.9,M,,0000*65
$GPGSA,M,3,22,16,30,06,03,18,,,,,,,4.2,2.1,3.7*37
$GPGSV,3,1,12,22,66,149,39,16,63,290,37,30,54,335,34,06,53,183,39*73
$GPGSV,3,2,12,03,43,201,39,14,31,047,32,18,30,143,34,19,16,215,38*7A
$GPGSV,3,3,12,32,09,322,36,21,08,121,36,31,06,000,30,11,00,258,*70
$GPRMC,202301.997,A,1444.5440,S,07044.7069,W,29.16,147.50,240411,,,A*52
$GPGGA,202303.004,1444.5513,S,07044.7026,W,1,06,2.1,3882.3,M,32.9,M,,0000*6B
$GPGSA,M,3,22,16,06,30,03,18,,,,,,,4.2,2.1,3.7*37
$GPRMC,202303.004,A,1444.5513,S,07044.7026,W,29.59,148.46,240411,,,A*5C
$GPGGA,202303.999,1444.5578,S,07044.6978,W,1,06,2.1,3881.6,M,32.9,M,,0000*6E
$GPGSA,M,3,22,16,06,30,03,18,,,,,,,4.2,2.1,3.7*37
$GPRMC,202303.999,A,1444.5578,S,07044.6978,W,29.32,146.09,240411,,,A*57
$GPGGA,202304.996,1444.5642,S,07044.6929,W,1,06,2.1,3882.8,M,32.9,M,,0000*65
$GPGSA,M,3,22,16,06,30,03,18,,,,,,,4.2,2.1,3.7*37
$GPRMC,202304.996,A,1444.5642,S,07044.6929,W,28.94,145.58,240411,,,A*5B
$GPGGA,202306.000,1444.5707,S,07044.6880,W,1,06,2.1,3881.1,M,32.9,M,,0000*69
$GPGSA,M,3,22,16,06,30,03,18,,,,,,,4.2,2.1,3.7*37
$GPRMC,202306.000,A,1444.5707,S,07044.6880,W,28.35,148.26,240411,,,A*52
$GPGGA,202306.994,1444.5779,S,07044.6847,W,1,06,2.1,3880.3,M,32.9,M,,0000*6C
$GPGSA,M,3,22,16,06,30,03,18,,,,,,,4.2,2.1,3.7*37
$GPGSV,3,1,12,22,64,150,39,16,62,294,38,06,55,181,38,30,52,336,35*72
$GPGSV,3,2,12,03,44,200,39,14,31,048,34,18,29,143,35,19,17,215,41*73
$GPGSV,3,3,12,32,10,322,36,21,07,120,36,31,05,001,30,11,00,257,*7B
$GPRMC,202306.994,A,1444.5779,S,07044.6847,W,28.42,148.86,240411,,,A*5E
$GPGGA,202308.014,1444.5846,S,07044.6804,W,1,06,2.1,3878.2,M,32.9,M,,0000*61
$GPGSA,M,3,22,16,06,30,03,18,,,,,,,4.2,2.1,3.7*37
$GPRMC,202308.014,A,1444.5846,S,07044.6804,W,29.26,148.27,240411,,,A*5D
$GPGGA,202308.991,1444.5912,S,07044.6763,W,1,06,2.1,3878.5,M,32.9,M,,0000*6C
$GPGSA,M,3,22,16,06,30,03,18,,,,,,,4.2,2.1,3.7*37
$GPRMC,202308.991,A,1444.5912,S,07044.6763,W,29.03,147.29,240411,,,A*51
$GPGGA,202310.000,1444.5979,S,07044.6723,W,1,06,2.1,3877.4,M,32.9,M,,0000*63
$GPGSA,M,3,22,16,06,30,03,18,,,,,,,4.2,2.1,3.7*37
$GPRMC,202310.000,A,1444.5979,S,07044.6723,W,28.49,149.28,240411,,,A*50
$GPGGA,202310.995,1444.6045,S,07044.6681,W,1,06,2.1,3878.1,M,32.9,M,,0000*60
$GPGSA,M,3,22,16,06,30,03,18,,,,,,,4.2,2.1,3.7*37
$GPRMC,202310.995,A,1444.6045,S,07044.6681,W,28.83,147.64,240411,,,A*59
$GPGGA,202312.008,1444.6116,S,07044.6635,W,1,06,2.1,3879.1,M,32.9,M,,0000*66
$GPGSA,M,3,22,16,06,30,03,18,,,,,,,4.2,2.1,3.7*37
$GPGSV,3,1,12,22,64,150,38,16,62,294,34,06,55,181,37,30,52,336,30*75
$GPGSV,3,2,12,03,44,200,38,14,31,048,29,18,29,143,30,19,17,215,40*7A
$GPGSV,3,3,12,32,10,322,31,21,07,120,31,31,05,001,24,11,00,257,*7E
$GPRMC,202312.008,A,1444.6116,S,07044.6635,W,29.13,147.66,240411,,,A*54
$GPGGA,202312.996,1444.6181,S,07044.6593,W,1,06,2.1,3878.7,M,32.9,M,,0000*6E
$GPGSA,M,3,22,16,06,30,03,18,,,,,,,4.2,2.1,3.7*37
$GPRMC,202312.996,A,1444.6181,S,07044.6593,W,28.46,148.74,240411,,,A*56
$GPGGA,202313.998,1444.6248,S,07044.6550,W,1,06,2.1,3877.6,M,32.9,M,,0000*66
$GPGSA,M,3,22,16,06,30,03,18,,,,,,,4.2,2.1,3.7*37
$GPRMC,202313.998,A,1444.6248,S,07044.6550,W,28.71,147.64,240411,,,A*5A
$GPGGA,202315.000,1444.6315,S,07044.6499,W,1,06,2.1,3876.9,M,32.9,M,,0000*6B
$GPGSA,M,3,22,16,06,30,03,18,,,,,,,4.2,2.1,3.7*37
$GPRMC,202315.000,A,1444.6315,S,07044.6499,W,28.45,149.30,240411,,,A*51
$GPGGA,202316.004,1444.6380,S,07044.6457,W,1,06,2.1,3875.6,M,32.9,M,,0000*6E
$GPGSA,M,3,22,16,06,30,03,18,,,,,,,4.2,2.1,3.7*37
$GPRMC,202316.004,A,1444.6380,S,07044.6457,W,29.67,149.35,240411,,,A*5C
$GPGGA,202316.999,1444.6447,S,07044.6410,W,1,06,2.1,3873.3,M,32.9,M,,0000*6F
$GPGSA,M,3,22,16,06,30,03,18,,,,,,,4.2,2.1,3.7*37
$GPGSV,3,1,12,22,64,150,39,16,62,294,37,06,55,181,38,30,52,336,33*7B
$GPGSV,3,2,12,03,44,200,40,14,31,048,33,18,29,143,33,19,17,215,39*73
$GPGSV,3,3,12,32,10,322,35,21,07,120,36,31,05,001,29,11,00,257,*70
$GPRMC,202316.999,A,1444.6447,S,07044.6410,W,28.60,147.90,240411,,,A*59
$GPGGA,202318.002,1444.6524,S,07044.6377,W,1,06,2.1,3876.5,M,32.9,M,,0000*6B
$GPGSA,M,3,22,16,06,30,03,18,,,,,,,4.2,2.1,3.7*37
$GPRMC,202318.002,A,1444.6524,S,07044.6377,W,29.29,147.19,240411,,,A*53
$GPGGA,202318.999,1444.6590,S,07044.6333,W,1,06,2.1,3874.1,M,32.9,M,,0000*69
$GPGSA,M,3,22,16,06,30,03,18,,,,,,,4.2,2.1,3.7*37
$GPRMC,202318.999,A,1444.6590,S,07044.6333,W,28.82,148.07,240411,,,A*57
$GPGGA,202320.000,1444.6662,S,07044.6285,W,1,06,2.1,3876.3,M,32.9,M,,0000*69
$GPGSA,M,3,22,16,06,30,03,18,,,,,,,4.2,2.1,3.7*37
$GPRMC,202320.000,A,1444.6662,S,07044.6285,W,29.56,148.17,240411,,,A*5E
$GPGGA,202320.998,1444.6729,S,07044.6241,W,1,06,2.1,3874.3,M,32.9,M,,0000*65
$GPGSA,M,3,22,16,06,30,03,18,,,,,,,4.2,2.1,3.7*37
$GPRMC,202320.998,A,1444.6729,S,07044.6241,W,29.35,147.60,240411,,,A*5A
$GPGGA,202321.994,1444.6794,S,07044.6194,W,1,06,2.1,3874.3,M,32.9,M,,0000*65
$GPGSA,M,3,22,16,06,30,03,18,,,,,,,4.2,2.1,3.7*37
$GPGSV,3,1,12,22,64,150,39,16,62,294,37,06,55,181,39,30,52,336,34*7D
$GPGSV,3,2,12,03,44,200,39,14,31,048,32,18,29,143,33,19,17,215,41*73
$GPGSV,3,3,12,32,10,322,35,21,07,120,36,31,05,001,27,11,00,257,*7E
$GPRMC,202321.994,A,1444.6794,S,07044.6194,W,28.89,146.67,240411,,,A*5A
$GPGGA,202323.010,1444.6865,S,07044.6146,W,1,06,2.1,3874.6,M,32.9,M,,0000*69
$GPGSA,M,3,22,16,06,30,03,18,,,,,,,4.2,2.1,3.7*37
$GPRMC,202323.010,A,1444.6865,S,07044.6146,W,29.14,147.84,240411,,,A*5A
$GPGGA,202323.993,1444.6933,S,07044.6108,W,1,06,2.1,3874.3,M,32.9,M,,0000*66
$GPGSA,M,3,22,16,06,30,03,18,,,,,,,4.2,2.1,3.7*37
$GPRMC,202323.993,A,1444.6933,S,07044.6108,W,28.55,149.16,240411,,,A*51
$GPGGA,202325.002,1444.6999,S,07044.6063,W,1,06,2.1,3875.2,M,32.9,M,,0000*6D
$GPGSA,M,3,22,16,06,30,03,18,,,,,,,4.2,2.1,3.7*37
$GPRMC,202325.002,A,1444.6999,S,07044.6063,W,28.65,148.85,240411,,,A*52
$GPGGA,202325.995,1444.7069,S,07044.6020,W,1,06,2.1,3876.6,M,32.9,M,,0000*6D
$GPGSA,M,3,22,16,06,30,03,18,,,,,,,4.2,2.1,3.7*37
$GPRMC,202325.995,A,1444.7069,S,07044.6020,W,28.86,147.90,240411,,,A*53
$GPGGA,202327.009,1444.7137,S,07044.5975,W,1,06,2.1,3874.7,M,32.9,M,,0000*60
$GPGSA,M,3,22,16,06,30,03,18,,,,,,,4.2,2.1,3.7*37
$GPGSV,3,1,12,22,64,150,38,16,62,294,35,06,55,181,37,30,52,336,30*74
$GPGSV,3,2,12,03,44,200,38,14,31,048,29,18,29,143,30,19,17,215,39*74
$GPGSV,3,3,12,32,10,322,31,21,07,120,32,31,05,001,,11,00,257,*7B
$GPRMC,202327.009,A,1444.7137,S,07044.5975,W,28.56,148.21,240411,,,A*55
$GPGGA,202327.994,1444.7199,S,07044.5930,W,1,06,2.1,3874.9,M,32.9,M,,0000*66
$GPGSA,M,3,22,16,06,30,03,18,,,,,,,4.2,2.1,3.7*37
$GPRMC,202327.994,A,1444.7199,S,07044.5930,W,28.84,147.12,240411,,,A*5D
$GPGGA,202329.000,1444.7268,S,07044.5886,W,1,06,2.1,3874.7,M,32.9,M,,0000*63
$GPGSA,M,3,22,16,06,30,03,18,,,,,,,4.2,2.1,3.7*37
$GPRMC,202329.000,A,1444.7268,S,07044.5886,W,28.32,148.09,240411,,,A*5E
$GPGGA,202329.996,1444.7336,S,07044.5843,W,1,06,2.1,3876.6,M,32.9,M,,0000*65
$GPGSA,M,3,22,16,06,30,03,18,,,,,,,4.2,2.1,3.7*37
$GPRMC,202329.996,A,1444.7336,S,07044.5843,W,28.14,147.82,240411,,,A*53
$GPGGA,202331.007,1444.7405,S,07044.5802,W,1,06,2.1,3876.4,M,32.9,M,,0000*6D
$GPGSA,M,3,22,16,06,30,03,18,,,,,,,4.2,2.1,3.7*37
$GPRMC,202331.007,A,1444.7405,S,07044.5802,W,28.55,149.21,240411,,,A*5B
$GPGGA,202332.000,1444.7473,S,07044.5758,W,1,06,2.1,3875.9,M,32.9,M,,0000*66
$GPGSA,M,3,22,16,06,30,03,18,,,,,,,4.2,2.1,3.7*37
$GPGSV,3,1,12,22,64,150,40,16,62,294,36,06,55,181,39,30,52,336,34*72
$GPGSV,3,2,12,03,44,200,40,14,31,048,33,18,29,143,34,19,17,215,39*74
$GPGSV,3,3,12,32,10,322,35,21,07,120,35,31,05,001,30,11,00,257,*7B
$GPRMC,202332.000,A,1444.7473,S,07044.5758,W,27.43,150.82,240411,,,A*57
$GPGGA,202332.999,1444.7540,S,07044.5713,W,1,06,2.1,3875.7,M,32.9,M,,0000*6F
$GPGSA,M,3,22,16,06,30,03,18,,,,,,,4.2,2.1,3.7*37
$GPRMC,202332.999,A,1444.7540,S,07044.5713,W,28.47,147.86,240411,,,A*59
$GPGGA,202333.999,1444.7605,S,07044.5668,W,1,06,2.1,3874.7,M,32.9,M,,0000*60
$GPGSA,M,3,22,16,06,30,03,18,,,,,,,4.2,2.1,3.7*37
$GPRMC,202333.999,A,1444.7605,S,07044.5668,W,28.62,146.88,240411,,,A*5F
$GPGGA,202335.000,1444.7669,S,07044.5621,W,1,06,2.1,3872.0,M,32.9,M,,0000*69
$GPGSA,M,3,22,16,06,30,03,18,,,,,,,4.2,2.1,3.7*37
$GPRMC,202335.000,A,1444.7669,S,07044.5621,W,28.51,147.27,240411,,,A*53
$GPGGA,202336.001,1444.7730,S,07044.5573,W,1,06,2.1,3871.1,M,32.9,M,,0000*60
$GPGSA,M,3,22,16,06,30,03,18,,,,,,,4.2,2.1,3.7*37
$GPRMC,202336.001,A,1444.7730,S,07044.5573,W,28.15,144.71,240411,,,A*58
$GPGGA,202336.996,1444.7797,S,07044.5525,W,1,06,2.1,3874.9,M,32.9,M,,0000*64
$GPGSA,M,3,22,16,06,30,03,18,,,,,,,4.2,2.1,3.7*37
$GPGSV,3,1,12,22,64,150,37,16,62,294,35,06,55,181,38,30,52,336,30*74
$GPGSV,3,2,12,03,44,200,39,14,31,048,29,18,29,143,28,19,17,215,39*7C
$GPGSV,3,3,12,32,10,322,31,21,07,120,32,31,05,001,26,11,00,257,*7F
$GPRMC,202336.996,A,1444.7797,S,07044.5525,W,29.03,147.58,240411,,,A*5F
$GPGGA,202337.999,1444.7861,S,07044.5480,W,1,06,2.1,3874.4,M,32.9,M,,0000*6F
$GPGSA,M,3,22,16,06,30,03,18,,,,,,,4.2,2.1,3.7*37
$GPRMC,202337.999,A,1444.7861,S,07044.5480,W,28.36,146.85,240411,,,A*5F
$GPGGA,202339.010,1444.7926,S,07044.5436,W,1,06,2.1,3873.3,M,32.9,M,,0000*66
$GPGSA,M,3,22,16,06,30,03,18,,,,,,,4.2,2.1,3.7*37
$GPRMC,202339.010,A,1444.7926,S,07044.5436,W,27.93,148.05,240411,,,A*50
$GPGGA,202339.994,1444.7989,S,07044.5396,W,1,06,2.1,3873.7,M,32.9,M,,0000*6F
$GPGSA,M,3,22,16,06,30,03,18,,,,,,,4.2,2.1,3.7*37
$GPRMC,202339.994,A,1444.7989,S,07044.5396,W,27.61,147.70,240411,,,A*5D
$GPGGA,202341.001,1444.8059,S,07044.5358,W,1,06,2.1,3874.6,M,32.9,M,,0000*6A
$GPGSA,M,3,22,16,06,30,03,18,,,,,,,4.2,2.1,3.7*37
$GPRMC,202341.001,A,1444.8059,S,07044.5358,W,28.28,146.77,240411,,,A*5A
$GPGGA,202342.001,1444.8122,S,07044.5311,W,1,06,2.1,3873.8,M,32.9,M,,0000*60
$GPGSA,M,3,22,16,06,30,03,18,,,,,,,4.2,2.1,3.7*37
$GPGSV,3,1,12,22,64,150,40,16,62,294,36,06,55,181,40,30,52,336,34*7C
$GPGSV,3,2,12,03,44,200,39,14,31,048,33,18,29,143,34,19,17,215,39*7A
$GPGSV,3,3,12,32,10,322,35,21,07,120,34,31,05,001,30,11,00,257,*7A
$GPRMC,202342.001,A,1444.8122,S,07044.5311,W,27.92,146.91,240411,,,A*5F
$GPGGA,202343.001,1444.8189,S,07044.5260,W,1,06,2.1,3872.3,M,32.9,M,,0000*6D
$GPGSA,M,3,22,16,06,30,03,18,,,,,,,4.2,2.1,3.7*37
$GPRMC,202343.001,A,1444.8189,S,07044.5260,W,28.90,148.14,240411,,,A*56
$GPGGA,202343.996,1444.8257,S,07044.5217,W,1,06,2.1,3872.8,M,32.9,M,,0000*61
$GPGSA,M,3,22,16,06,30,03,18,,,,,,,4.2,2.1,3.7*37
$GPRMC,202343.996,A,1444.8257,S,07044.5217,W,28.26,147.34,240411,,,A*51
$GPGGA,202345.006,1444.8333,S,07044.5175,W,1,06,2.1,3875.3,M,32.9,M,,0000*6F
$GPGSA,M,3,22,16,06,30,03,18,,,,,,,4.2,2.1,3.7*37
$GPRMC,202345.006,A,1444.8333,S,07044.5175,W,29.39,146.08,240411,,,A*52
$GPGGA,202345.993,1444.8402,S,07044.5133,W,1,06,2.1,3875.1,M,32.9,M,,0000*6F
$GPGSA,M,3,22,16,06,30,03,18,,,,,,,4.2,2.1,3.7*37
$GPRMC,202345.993,A,1444.8402,S,07044.5133,W,28.80,146.93,240411,,,A*51
$GPGGA,202346.994,1444.8469,S,07044.5090,W,1,06,2.1,3872.0,M,32.9,M,,0000*68
$GPGSA,M,3,22,16,06,30,03,18,,,,,,,4.2,2.1,3.7*37
$GPGSV,3,1,12,22,64,150,39,16,62,294,36,06,55,181,39,30,52,336,35*7D
$GPGSV,3,2,12,03,44,200,39,14,31,048,32,18,29,143,34,19,17,215,40*75
$GPGSV,3,3,12,32,10,322,35,21,07,120,35,31,05,001,28,11,00,257,*72
$GPRMC,202346.994,A,1444.8469,S,07044.5090,W,28.75,147.34,240411,,,A*56
$GPGGA,202348.011,1444.8542,S,07044.5049,W,1,06,2.1,3873.1,M,32.9,M,,0000*6E
$GPGSA,M,3,22,16,06,30,03,18,,,,,,,4.2,2.1,3.7*37
$GPRMC,202348.011,A,1444.8542,S,07044.5049,W,28.84,147.44,240411,,,A*59
$GPGGA,202348.994,1444.8611,S,07044.5007,W,1,06,2.1,3873.3,M,32.9,M,,0000*67
$GPGSA,M,3,22,16,06,30,03,18,,,,,,,4.2,2.1,3.7*37
$GPRMC,202348.994,A,1444.8611,S,07044.5007,W,28.86,148.65,240411,,,A*5C
$GPGGA,202350.000,1444.8677,S,07044.4966,W,1,06,2.1,3871.1,M,32.9,M,,0000*65
$GPGSA,M,3,22,16,06,30,03,18,,,,,,,4.2,2.1,3.7*37
$GPRMC,202350.000,A,1444.8677,S,07044.4966,W,28.34,149.68,240411,,,A*5B
$GPGGA,202350.995,1444.8750,S,07044.4925,W,1,06,2.1,3873.5,M,32.9,M,,0000*65
$GPGSA,M,3,22,16,06,30,03,18,,,,,,,4.2,2.1,3.7*37
$GPRMC,202350.995,A,1444.8750,S,07044.4925,W,28.70,147.43,240411,,,A*5A
$GPGGA,202352.010,1444.8812,S,07044.4872,W,1,06,2.1,3870.4,M,32.9,M,,0000*6B
$GPGSA,M,3,22,16,06,30,03,18,,,,,,,4.2,2.1,3.7*37
$GPGSV,3,1,12,22,64,150,37,16,62,294,34,06,55,181,38,30,52,336,28*7C
$GPGSV,3,2,12,03,44,200,39,14,31,048,28,18,29,143,25,19,17,215,38*71
$GPGSV,3,3,12,32,10,322,31,21,07,120,31,31,05,001,,11,00,257,*78
$GPRMC,202352.010,A,1444.8812,S,07044.4872,W,28.25,146.61,240411,,,A*57
$GPGGA,202352.995,1444.8877,S,07044.4826,W,1,06,2.1,3871.0,M,32.9,M,,0000*68
$GPGSA,M,3,22,16,06,30,03,18,,,,,,,4.2,2.1,3.7*37
$GPRMC,202352.995,A,1444.8877,S,07044.4826,W,29.11,147.57,240411,,,A*53
$GPGGA,202353.997,1444.8942,S,07044.4783,W,1,06,2.1,3870.6,M,32.9,M,,0000*6B
$GPGSA,M,3,22,16,06,30,03,18,,,,,,,4.2,2.1,3.7*37
$GPRMC,202353.997,A,1444.8942,S,07044.4783,W,28.46,148.03,240411,,,A*5A
$GPGGA,202355.000,1444.9016,S,07044.4746,W,1,06,2.1,3871.8,M,32.9,M,,0000*65
$GPGSA,M,3,22,16,06,30,03,18,,,,,,,4.2,2.1,3.7*37
$GPRMC,202355.000,A,1444.9016,S,07044.4746,W,27.81,150.15,240411,,,A*51
$GPGGA,202356.003,1444.9078,S,07044.4698,W,1,06,2.1,3871.0,M,32.9,M,,0000*67
$GPGSA,M,3,22,16,06,30,03,18,,,,,,,4.2,2.1,3.7*37
$GPRMC,202356.003,A,1444.9078,S,07044.4698,W,27.99,148.31,240411,,,A*5D
$GPGGA,202357.002,1444.9144,S,07044.4658,W,1,06,2.1,3869.1,M,32.9,M,,0000*6D
$GPGSA,M,3,22,16,06,30,03,18,,,,,,,4.2,2.1,3.7*37
$GPGSV,3,1,12,22,64,150,40,16,62,294,37,06,55,181,40,30,52,336,32*7B
$GPGSV,3,2,12,03,44,200,39,14,31,048,33,18,29,143,30,19,17,215,39*7E
$GPGSV,3,3,12,32,10,322,35,21,07,120,35,31,05,001,28,11,00,257,*72
$GPRMC,202357.002,A,1444.9144,S,07044.4658,W,27.57,146.45,240411,,,A*50
$GPGGA,202357.995,1444.9206,S,07044.4617,W,1,06,2.1,3868.4,M,32.9,M,,0000*60
$GPGSA,M,3,22,16,06,30,03,18,,,,,,,4.2,2.1,3.7*37
$GPRMC,202357.995,A,1444.9206,S,07044.4617,W,27.53,147.60,240411,,,A*5B
$GPGGA,202359.002,1444.9268,S,07044.4576,W,1,06,2.1,3866.6,M,32.9,M,,0000*69
$GPGSA,M,3,22,16,06,30,03,18,,,,,,,4.2,2.1,3.7*37
$GPRMC,202359.002,A,1444.9268,S,07044.4576,W,27.20,147.98,240411,,,A*5D
$GPGGA,202400.002,1444.9335,S,07044.4542,W,1,06,2.1,3868.8,M,32.9,M,,0000*6C
$GPGSA,M,3,22,16,06,30,03,18,,,,,,,4.2,2.1,3.7*37
$GPRMC,202400.002,A,1444.9335,S,07044.4542,W,27.18,150.75,240411,,,A*56
$GPGGA,202401.001,1444.9399,S,07044.4505,W,1,06,2.1,3866.3,M,32.9,M,,0000*6E
$GPGSA,M,3,22,16,06,30,03,18,,,,,,,4.2,2.1,3.7*37
$GPRMC,202401.001,A,1444.9399,S,07044.4505,W,27.51,150.64,240411,,,A*5C
$GPGGA,202401.992,1444.9468,S,07044.4461,W,1,06,2.1,3871.2,M,32.9,M,,0000*60
$GPGSA,M,3,22,16,06,30,03,18,,,,,,,4.2,2.1,3.7*37
$GPGSV,3,1,12,22,64,150,38,16,62,294,36,06,55,181,39,30,52,336,35*7C
$GPGSV,3,2,12,03,44,200,39,14,31,048,34,18,29,143,33,19,17,215,40*74
$GPGSV,3,3,12,32,10,322,36,21,07,120,35,31,05,001,29,11,00,257,*70
$GPRMC,202401.992,A,1444.9468,S,07044.4461,W,27.75,147.36,240411,,,A*52
$GPGGA,202403.014,1444.9536,S,07044.4414,W,1,06,2.1,3871.0,M,32.9,M,,0000*6F
$GPGSA,M,3,22,16,06,30,03,18,,,,,,,4.2,2.1,3.7*37
$GPRMC,202403.014,A,1444.9536,S,07044.4414,W,27.89,148.08,240411,,,A*5E
$GPGGA,202403.990,1444.9603,S,07044.4374,W,1,06,2.1,3871.6,M,32.9,M,,0000*68
$GPGSA,M,3,22,16,06,30,03,18,,,,,,,4.2,2.1,3.7*37
$GPRMC,202403.990,A,1444.9603,S,07044.4374,W,28.12,148.16,240411,,,A*5D
$GPGGA,202405.000,1444.9667,S,07044.4334,W,1,06,2.1,3869.5,M,32.9,M,,0000*62
$GPGSA,M,3,22,16,06,30,03,18,,,,,,,4.2,2.1,3.7*37
$GPRMC,202405.000,A,1444.9667,S,07044.4334,W,27.04,151.48,240411,,,A*56
$GPGGA,202405.998,1444.9740,S,07044.4299,W,1,06,2.1,3873.3,M,32.9,M,,0000*65
$GPGSA,M,3,22,16,06,30,03,18,,,,,,,4.2,2.1,3.7*37
$GPRMC,202405.998,A,1444.9740,S,07044.4299,W,27.09,148.32,240411,,,A*54
$GPGGA,202407.007,1444.9806,S,07044.4261,W,1,05,2.7,3872.9,M,32.9,M,,0000*6C
$GPGSA,M,3,22,16,06,03,18,,,,,,,,4.9,2.7,4.1*38
$GPGSV,3,1,12,22,64,150,36,16,62,294,33,06,55,181,38,30,52,336,*70
$GPGSV,3,2,12,03,44,200,38,14,31,048,28,18,29,143,28,19,17,215,38*7D
$GPGSV,3,3,12,32,10,322,30,21,07,120,30,31,05,001,,11,00,257,*78
$GPRMC,202407.007,A,1444.9806,S,07044.4261,W,27.53,149.46,240411,,,A*5E
$GPGGA,202407.996,1444.9870,S,07044.4213,W,1,06,2.1,3873.1,M,32.9,M,,0000*65
$GPGSA,M,3,22,16,06,30,03,18,,,,,,,4.2,2.1,3.7*37
$GPRMC,202407.996,A,1444.9870,S,07044.4213,W,27.80,146.86,240411,,,A*56
$GPGGA,202409.002,1444.9935,S,07044.4173,W,1,06,2.1,3873.2,M,32.9,M,,0000*69
$GPGSA,M,3,22,16,06,30,03,18,,,,,,,4.2,2.1,3.7*37
$GPRMC,202409.002,A,1444.9935,S,07044.4173,W,26.71,148.45,240411,,,A*57
$GPGGA,202409.993,1445.0005,S,07044.4132,W,1,06,2.1,3876.3,M,32.9,M,,0000*6B
$GPGSA,M,3,22,16,06,30,03,18,,,,,,,4.2,2.1,3.7*37
$GPRMC,202409.993,A,1445.0005,S,07044.4132,W,27.35,147.67,240411,,,A*5F
$GPGGA,202411.010,1445.0066,S,07044.4089,W,1,06,2.1,3874.3,M,32.9,M,,0000*66
$GPGSA,M,3,22,16,06,30,03,18,,,,,,,4.2,2.1,3.7*37
$GPRMC,202411.010,A,1445.0066,S,07044.4089,W,27.65,147.68,240411,,,A*5A
$GPGGA,202411.998,1445.0129,S,07044.4048,W,1,06,2.1,3872.3,M,32.9,M,,0000*6E
$GPGSA,M,3,22,16,06,30,03,18,,,,,,,4.2,2.1,3.7*37
$GPGSV,3,1,12,22,64,150,38,16,62,294,36,06,55,181,39,30,52,336,34*7D
$GPGSV,3,2,12,03,44,200,40,14,31,048,34,18,29,143,33,19,17,215,39*74
$GPGSV,3,3,12,32,10,322,36,21,07,120,35,31,05,001,29,11,00,257,*70
$GPRMC,202411.998,A,1445.0129,S,07044.4048,W,27.47,147.21,240411,,,A*59
$GPGGA,202413.001,1445.0198,S,07044.4004,W,1,06,2.1,3872.7,M,32.9,M,,0000*63
$GPGSA,M,3,22,16,06,30,03,18,,,,,,,4.2,2.1,3.7*37
$GPRMC,202413.001,A,1445.0198,S,07044.4004,W,28.05,147.97,240411,,,A*54
$GPGGA,202413.998,1445.0259,S,07044.3962,W,1,06,2.1,3869.8,M,32.9,M,,0000*6F
$GPGSA,M,3,22,16,06,30,03,18,,,,,,,4.2,2.1,3.7*37
$GPRMC,202413.998,A,1445.0259,S,07044.3962,W,27.17,145.76,240411,,,A*5C
$GPGGA,202415.001,1445.0323,S,07044.3914,W,1,06,2.1,3871.9,M,32.9,M,,0000*65
$GPGSA,M,3,22,16,06,30,03,18,,,,,,,4.2,2.1,3.7*37
$GPRMC,202415.001,A,1445.0323,S,07044.3914,W,26.90,145.67,240411,,,A*50
$GPGGA,202415.999,1445.0386,S,07044.3875,W,1,06,2.1,3871.9,M,32.9,M,,0000*64
$GPGSA,M,3,22,16,06,30,03,18,,,,,,,4.2,2.1,3.7*37
$GPRMC,202415.999,A,1445.0386,S,07044.3875,W,26.79,147.73,240411,,,A*51
$GPGGA,202416.998,1445.0455,S,07044.3838,W,1,06,2.1,3873.0,M,32.9,M,,0000*6D
$GPGSA,M,3,22,16,06,30,03,18,,,,,,,4.2,2.1,3.7*37
$GPGSV,3,1,12,22,64,150,38,16,62,294,36,06,55,181,37,30,52,336,31*76
$GPGSV,3,2,12,03,44,200,38,14,31,048,29,18,29,143,30,19,17,215,40*7A
$GPGSV,3,3,12,32,10,322,27,21,07,120,32,31,05,001,,11,00,257,*7C
$GPRMC,202416.998,A,1445.0455,S,07044.3838,W,27.45,147.31,240411,,,A*5B
$GPGGA,202417.998,1445.0520,S,07044.3796,W,1,06,2.1,3872.3,M,32.9,M,,0000*66
$GPGSA,M,3,22,16,06,30,03,18,,,,,,,4.2,2.1,3.7*37
$GPRMC,202417.998,A,1445.0520,S,07044.3796,W,27.06,149.00,240411,,,A*59
$GPGGA,202419.004,1445.0578,S,07044.3754,W,1,06,2.1,3869.3,M,32.9,M,,0000*6D
$GPGSA,M,3,22,16,06,30,03,18,,,,,,,4.2,2.1,3.7*37
$GPRMC,202419.004,A,1445.0578,S,07044.3754,W,26.77,148.04,240411,,,A*5A
$GPGGA,202419.998,1445.0641,S,07044.3715,W,1,06,2.1,3870.3,M,32.9,M,,0000*65
$GPGSA,M,3,22,16,06,30,03,18,,,,,,,4.2,2.1,3.7*37
$GPRMC,202419.998,A,1445.0641,S,07044.3715,W,27.08,147.76,240411,,,A*59
$GPGGA,202421.002,1445.0706,S,07044.3675,W,1,06,2.1,3867.6,M,32.9,M,,0000*62
$GPGSA,M,3,22,16,06,30,03,18,,,,,,,4.2,2.1,3.7*37
$GPRMC,202421.002,A,1445.0706,S,07044.3675,W,26.85,147.33,240411,,,A*58
$GPGGA,202421.998,1445.0765,S,07044.3636,W,1,06,2.1,3867.6,M,32.9,M,,0000*6A
$GPGSA,M,3,22,16,06,30,03,18,,,,,,,4.2,2.1,3.7*37
$GPGSV,3,1,12,22,64,150,39,16,62,294,36,06,55,181,38,30,52,336,34*7D
$GPGSV,3,2,12,03,44,200,39,14,31,048,33,18,29,143,32,19,17,215,39*7C
$GPGSV,3,3,12,32,10,322,34,21,07,120,34,31,05,001,29,11,00,257,*73
$GPRMC,202421.998,A,1445.0765,S,07044.3636,W,27.12,147.18,240411,,,A*56
$GPGGA,202423.000,1445.0823,S,07044.3589,W,1,06,2.1,3866.5,M,32.9,M,,0000*68
$GPGSA,M,3,22,16,06,30,03,18,,,,,,,4.2,2.1,3.7*37
$GPRMC,202423.000,A,1445.0823,S,07044.3589,W,26.56,148.82,240411,,,A*5B
$GPGGA,202423.997,1445.0891,S,07044.3551,W,1,06,2.1,3866.7,M,32.9,M,,0000*61
$GPGSA,M,3,22,16,06,30,03,18,,,,,,,4.2,2.1,3.7*37
$GPRMC,202423.997,A,1445.0891,S,07044.3551,W,26.44,148.13,240411,,,A*5B
$GPGGA,202425.000,1445.0956,S,07044.3510,W,1,06,2.1,3868.7,M,32.9,M,,0000*61
$GPGSA,M,3,22,16,06,30,03,18,,,,,,,4.2,2.1,3.7*37
$GPRMC,202425.000,A,1445.0956,S,07044.3510,W,26.59,150.16,240411,,,A*55
$GPGGA,202426.001,1445.1017,S,07044.3469,W,1,06,2.1,3866.9,M,32.9,M,,0000*61
$GPGSA,M,3,22,16,06,30,03,18,,,,,,,4.2,2.1,3.7*37
$GPRMC,202426.001,A,1445.1017,S,07044.3469,W,26.78,148.13,240411,,,A*5A
$GPGGA,202426.995,1445.1079,S,07044.3426,W,1,06,2.1,3869.3,M,32.9,M,,0000*63
$GPGSA,M,3,22,16,06,30,03,18,,,,,,,4.2,2.1,3.7*37
$GPGSV,3,1,12,22,64,150,39,16,62,294,36,06,55,181,38,30,52,336,34*7D
$GPGSV,3,2,12,03,44,200,38,14,31,048,33,18,29,143,33,19,17,215,39*7C
$GPGSV,3,3,12,32,10,322,34,21,07,120,35,31,05,001,29,11,00,257,*72
$GPRMC,202426.995,A,1445.1079,S,07044.3426,W,26.49,147.32,240411,,,A*53
$GPGGA,202428.008,1445.1143,S,07044.3379,W,1,06,2.1,3867.8,M,32.9,M,,0000*60
$GPGSA,M,3,22,16,06,30,03,18,,,,,,,4.2,2.1,3.7*37
$GPRMC,202428.008,A,1445.1143,S,07044.3379,W,27.26,147.64,240411,,,A*5E
$GPGGA,202428.997,1445.1206,S,07044.3339,W,1,06,2.1,3867.7,M,32.9,M,,0000*66
$GPGSA,M,3,22,16,06,30,03,18,,,,,,,4.2,2.1,3.7*37
$GPRMC,202428.997,A,1445.1206,S,07044.3339,W,27.42,147.82,240411,,,A*5D
$GPGGA,202430.006,1445.1268,S,07044.3297,W,1,06,2.1,3866.6,M,32.9,M,,0000*63
$GPGSA,M,3,22,16,06,30,03,18,,,,,,,4.2,2.1,3.7*37
$GPRMC,202430.006,A,1445.1268,S,07044.3297,W,26.76,146.84,240411,,,A*59
$GPGGA,202430.988,1445.1331,S,07044.3249,W,1,06,2.1,3869.6,M,32.9,M,,0000*6D
$GPGSA,M,3,22,16,06,30,03,18,,,,,,,4.2,2.1,3.7*37
$GPRMC,202430.988,A,1445.1331,S,07044.3249,W,26.95,147.96,240411,,,A*57
$GPGGA,202432.007,1445.1396,S,07044.3213,W,1,06,2.1,3866.8,M,32.9,M,,0000*62
$GPGSA,M,3,22,16,06,30,03,18,,,,,,,4.2,2.1,3.7*37
$GPGSV,3,1,12,22,64,150,37,16,62,294,35,06,55,181,38,30,52,336,30*74
$GPGSV,3,2,12,03,44,200,38,14,31,048,29,18,29,143,27,19,17,215,39*72
$GPGSV,3,3,12,32,10,322,30,21,07,120,31,31,05,001,,11,00,257,*79
$GPRMC,202432.007,A,1445.1396,S,07044.3213,W,27.71,149.35,240411,,,A*55
$GPGGA,202433.000,1445.1462,S,07044.3168,W,1,06,2.1,3866.1,M,32.9,M,,0000*6E
$GPGSA,M,3,22,16,06,30,03,18,,,,,,,4.2,2.1,3.7*37
$GPRMC,202433.000,A,1445.1462,S,07044.3168,W,27.53,148.65,240411,,,A*54
$GPGGA,202433.995,1445.1527,S,07044.3129,W,1,06,2.1,3864.1,M,32.9,M,,0000*6C
$GPGSA,M,3,22,16,06,30,03,18,,,,,,,4.2,2.1,3.7*37
$GPRMC,202433.995,A,1445.1527,S,07044.3129,W,27.46,148.68,240411,,,A*5D
$GPGGA,202435.001,1445.1598,S,07044.3084,W,1,06,2.1,3867.1,M,32.9,M,,0000*6F
$GPGSA,M,3,22,16,06,30,03,18,,,,,,,4.2,2.1,3.7*37
$GPRMC,202435.001,A,1445.1598,S,07044.3084,W,27.81,148.05,240411,,,A*5D
$GPGGA,202436.023,1445.1665,S,07044.3041,W,0,00,,3866.9,M,32.9,M,,0000*47
$GPGSA,M,1,,,,,,,,,,,,,,,*12
$GPRMC,202436.023,V,1445.1665,S,07044.3041,W,,,240411,,,N*7A
$GPGGA,202436.729,1445.1712,S,07044.3011,W,0,00,,3866.8,M,32.9,M,,0000*4F
$GPGSA,M,1,,,,,,,,,,,,,,,*12
$GPGSV,3,1,12,22,63,151,,16,62,295,,06,55,181,,30,52,337,*78
$GPGSV,3,2,12,03,45,200,,18,28,144,,21,07,120,,31,05,001,*78
$GPGSV,3,3,12,14,32,049,,19,18,214,,32,11,322,,11,01,257,*76
$GPRMC,202436.729,V,1445.1712,S,07044.3011,W,,,240411,,,N*73
$GPGGA,202437.000,1445.1730,S,07044.3000,W,0,00,,3866.8,M,32.9,M,,0000*42
$GPGSA,M,1,,,,,,,,,,,,,,,*12
$GPRMC,202437.000,V,1445.1730,S,07044.3000,W,,,240411,,,N*7E
$GPGGA,202438.000,1445.1795,S,07044.2958,W,0,00,,3866.7,M,32.9,M,,0000*48
$GPGSA,M,1,,,,,,,,,,,,,,,*12
$GPRMC,202438.000,V,1445.1795,S,07044.2958,W,,,240411,,,N*7B
$GPGGA,202439.000,1445.1863,S,07044.2918,W,1,06,2.1,3868.3,M,32.9,M,,0000*6B
$GPGSA,M,3,18,22,16,30,03,06,,,,,,,4.2,2.1,3.7*37
$GPRMC,202439.000,A,1445.1863,S,07044.2918,W,27.67,148.12,240411,,,A*5A
$GPGGA,202440.000,1445.1939,S,07044.2894,W,1,06,2.1,3875.6,M,32.9,M,,0000*67
$GPGSA,M,3,18,22,16,30,03,06,,,,,,,4.2,2.1,3.7*37
$GPRMC,202440.000,A,1445.1939,S,07044.2894,W,27.51,148.58,240411,,,A*54
$GPGGA,202441.000,1445.2023,S,07044.2870,W,1,06,2.1,3889.4,M,32.9,M,,0000*6C
$GPGSA,M,3,18,22,16,30,03,06,,,,,,,4.2,2.1,3.7*37
$GPGSV,3,1,12,22,63,151,39,16,62,295,36,06,55,181,40,30,52,337,30*70
$GPGSV,3,2,12,03,45,200,42,18,28,144,29,21,07,120,32,31,05,001,26*70
$GPGSV,3,3,12,14,32,049,31,19,18,214,43,32,11,322,30,11,01,257,*70
$GPRMC,202441.000,A,1445.2023,S,07044.2870,W,27.52,148.04,240411,,,A*54
$GPGGA,202442.000,1445.2104,S,07044.2830,W,1,06,2.1,3897.4,M,32.9,M,,0000*60
$GPGSA,M,3,18,22,16,30,03,06,,,,,,,4.2,2.1,3.7*37
$GPGSV,3,1,12,22,63,151,41,16,62,295,37,06,55,181,41,30,52,337,32*7D
