$GPGGA,204832.000,1633.8277,S,06902.3658,W,1,06,1.6,3849.5,M,33.7,M,,0000*61
$GPGSA,M,3,16,22,14,03,18,06,,,,,,,2.9,1.6,2.4*3A
$GPRMC,204832.000,A,1633.8277,S,06902.3658,W,1.06,213.56,270411,,,A*63
$GPGGA,204833.000,1633.8277,S,06902.3651,W,1,06,1.6,3851.3,M,33.7,M,,0000*66
$GPGSA,M,3,16,22,14,03,18,06,,,,,,,2.9,1.6,2.4*3A
$GPRMC,204833.000,A,1633.8277,S,06902.3651,W,0.23,131.56,270411,,,A*6E
$GPGGA,204834.000,1633.8278,S,06902.3650,W,1,06,1.6,3853.6,M,33.7,M,,0000*68
$GPGSA,M,3,16,22,14,03,18,06,,,,,,,2.9,1.6,2.4*3A
$GPGSV,3,1,12,06,72,160,34,03,62,199,25,22,49,154,25,16,47,322,20*75
$GPGSV,3,2,12,14,41,065,14,30,34,347,,19,31,208,,32,21,313,17*7C
$GPGSV,3,3,12,18,16,142,16,11,06,244,,24,04,260,,21,03,106,*71
$GPRMC,204834.000,A,1633.8278,S,06902.3650,W,0.36,189.67,270411,,,A*62
$GPGGA,204835.000,1633.8286,S,06902.3652,W,1,05,4.3,3856.3,M,33.7,M,,0000*69
$GPGSA,M,3,16,22,03,18,06,,,,,,,,5.1,4.3,2.8*3C
$GPRMC,204835.000,A,1633.8286,S,06902.3652,W,1.36,214.49,270411,,,A*6A
$GPGGA,204836.000,1633.8290,S,06902.3650,W,1,05,4.3,3858.8,M,33.7,M,,0000*6A
$GPGSA,M,3,16,22,03,18,06,,,,,,,,5.1,4.3,2.8*3C
$GPRMC,204836.000,A,1633.8290,S,06902.3650,W,0.92,199.24,270411,,,A*6E
$GPGGA,204837.000,1633.8292,S,06902.3650,W,1,04,5.7,3860.0,M,33.7,M,,0000*6E
$GPGSA,M,3,22,03,18,06,,,,,,,,,5.8,5.7,1.0*3C
$GPRMC,204837.000,A,1633.8292,S,06902.3650,W,0.81,172.36,270411,,,A*69
$GPGGA,204838.000,1633.8293,S,06902.3656,W,1,05,4.6,3858.4,M,33.7,M,,0000*68
$GPGSA,M,3,32,22,03,18,06,,,,,,,,5.0,4.6,2.0*36
$GPRMC,204838.000,A,1633.8293,S,06902.3656,W,1.84,173.89,270411,,,A*60
$GPGGA,204839.000,1633.8294,S,06902.3658,W,1,05,4.6,3859.2,M,33.7,M,,0000*67
$GPGSA,M,3,32,22,03,18,06,,,,,,,,5.0,4.6,2.0*36
$GPGSV,3,1,12,06,72,160,33,03,62,199,25,22,49,154,26,16,47,322,*73
$GPGSV,3,2,12,14,41,065,,30,34,347,15,19,31,208,,32,21,313,17*7D
$GPGSV,3,3,12,18,16,142,15,11,06,244,,24,04,260,,21,03,106,*72
$GPRMC,204839.000,A,1633.8294,S,06902.3658,W,1.88,189.16,270411,,,A*67
$GPGGA,204840.000,1633.8295,S,06902.3660,W,1,05,4.6,3859.1,M,33.7,M,,0000*60
$GPGSA,M,3,32,22,03,18,06,,,,,,,,5.0,4.6,2.0*36
$GPRMC,204840.000,A,1633.8295,S,06902.3660,W,1.89,205.02,270411,,,A*60
$GPGGA,204841.000,1633.8280,S,06902.3649,W,1,05,2.7,3857.3,M,33.7,M,,0000*65
$GPGSA,M,3,32,22,30,03,06,,,,,,,,4.9,2.7,4.1*34
$GPRMC,204841.000,A,1633.8280,S,06902.3649,W,0.28,253.05,270411,,,A*60
$GPGGA,204842.000,1633.8281,S,06902.3654,W,1,05,2.2,3857.1,M,33.7,M,,0000*6C
$GPGSA,M,3,22,14,30,03,06,,,,,,,,6.1,2.2,5.7*38
$GPRMC,204842.000,A,1633.8281,S,06902.3654,W,1.26,354.86,270411,,,A*6C
$GPGGA,204843.000,1633.8276,S,06902.3658,W,1,06,1.8,3856.4,M,33.7,M,,0000*67
$GPGSA,M,3,32,06,22,14,30,03,,,,,,,4.2,1.8,3.9*39
$GPRMC,204843.000,A,1633.8276,S,06902.3658,W,1.49,346.99,270411,,,A*6D
$GPGGA,204844.000,1633.8278,S,06902.3671,W,1,06,1.8,3855.1,M,33.7,M,,0000*63
$GPGSA,M,3,32,06,22,14,30,03,,,,,,,4.2,1.8,3.9*39
$GPGSV,3,1,12,06,72,160,33,03,62,199,34,22,49,154,26,16,47,322,*73
$GPGSV,3,2,12,14,41,065,20,30,34,347,15,19,31,208,,32,21,313,17*7F
$GPGSV,3,3,12,18,16,142,,11,06,244,,24,04,260,,21,03,106,*76
$GPRMC,204844.000,A,1633.8278,S,06902.3671,W,0.96,356.37,270411,,,A*69
$GPGGA,204845.000,1633.8279,S,06902.3679,W,1,06,1.8,3854.3,M,33.7,M,,0000*68
$GPGSA,M,3,32,06,22,14,30,03,,,,,,,4.2,1.8,3.9*39
$GPRMC,204845.000,A,1633.8279,S,06902.3679,W,1.20,18.80,270411,,,A*58
$GPGGA,204846.000,1633.8277,S,06902.3685,W,1,06,1.8,3853.6,M,33.7,M,,0000*64
$GPGSA,M,3,32,06,22,14,30,03,,,,,,,4.2,1.8,3.9*39
$GPRMC,204846.000,A,1633.8277,S,06902.3685,W,1.16,14.83,270411,,,A*5C
$GPGGA,204847.000,1633.8277,S,06902.3689,W,1,06,1.8,3853.2,M,33.7,M,,0000*6D
$GPGSA,M,3,32,06,22,14,30,03,,,,,,,4.2,1.8,3.9*39
$GPRMC,204847.000,A,1633.8277,S,06902.3689,W,1.14,280.92,270411,,,A*6C
$GPGGA,204848.000,1633.8274,S,06902.3692,W,1,05,2.1,3853.6,M,33.7,M,,0000*66
$GPGSA,M,3,06,22,14,03,16,,,,,,,,6.8,2.1,6.5*37
$GPRMC,204848.000,A,1633.8274,S,06902.3692,W,0.20,286.50,270411,,,A*64
$GPGGA,204849.000,1633.8259,S,06902.3700,W,1,07,1.5,3857.8,M,33.7,M,,0000*6D
$GPGSA,M,3,32,06,22,14,30,03,16,,,,,,3.5,1.5,3.2*38
$GPGSV,3,1,12,06,72,160,26,03,62,199,26,22,49,154,27,16,47,322,27*70
$GPGSV,3,2,12,14,41,065,19,30,34,347,16,19,31,208,,32,21,313,17*76
$GPGSV,3,3,12,18,16,142,,11,06,244,,24,04,260,,21,03,106,*76
$GPRMC,204849.000,A,1633.8259,S,06902.3700,W,1.17,19.20,270411,,,A*56
$GPGGA,204850.000,1633.8253,S,06902.3693,W,1,04,4.2,3858.5,M,33.7,M,,0000*67
$GPGSA,M,3,32,14,30,16,,,,,,,,,5.8,4.2,4.1*30
$GPRMC,204850.000,A,1633.8253,S,06902.3693,W,1.13,54.98,270411,,,A*51
$GPGGA,204851.000,1633.8249,S,06902.3685,W,1,07,1.2,3860.0,M,33.7,M,,0000*62
$GPGSA,M,3,32,22,14,30,03,19,16,,,,,,3.1,1.2,2.8*3E
$GPRMC,204851.000,A,1633.8249,S,06902.3685,W,0.82,54.28,270411,,,A*5E
$GPGGA,204852.000,1633.8247,S,06902.3688,W,1,06,1.4,3858.8,M,33.7,M,,0000*66
$GPGSA,M,3,32,22,14,30,03,19,,,,,,,3.8,1.4,3.5*3A
$GPRMC,204852.000,A,1633.8247,S,06902.3688,W,0.31,52.21,270411,,,A*59
$GPGGA,204853.000,1633.8245,S,06902.3690,W,1,04,3.2,3860.2,M,33.7,M,,0000*6B
$GPGSA,M,3,22,14,03,19,,,,,,,,,5.0,3.2,3.8*3F
$GPRMC,204853.000,A,1633.8245,S,06902.3690,W,0.57,288.29,270411,,,A*6E
$GPGGA,204854.000,1633.8239,S,06902.3692,W,1,05,2.4,3860.5,M,33.7,M,,0000*64
$GPGSA,M,3,32,22,30,03,19,,,,,,,,4.7,2.4,4.1*37
$GPGSV,3,1,12,06,72,160,,03,62,199,15,22,49,154,14,16,47,322,*71
$GPGSV,3,2,12,14,41,065,19,30,34,347,15,19,31,208,18,32,21,313,15*7E
$GPGSV,3,3,12,18,16,142,,11,06,244,,24,04,260,,21,03,106,*76
$GPRMC,204854.000,A,1633.8239,S,06902.3692,W,1.45,335.93,270411,,,A*64
$GPGGA,204855.000,1633.8231,S,06902.3688,W,1,04,2.5,3863.2,M,33.7,M,,0000*62
$GPGSA,M,3,22,30,03,19,,,,,,,,,4.9,2.5,4.2*3A
$GPRMC,204855.000,A,1633.8231,S,06902.3688,W,1.33,28.70,270411,,,A*55
$GPGGA,204856.000,1633.8228,S,06902.3686,W,0,00,,3863.8,M,33.7,M,,0000*41
$GPGSA,M,1,,,,,,,,,,,,,,,*12
$GPRMC,204856.000,V,1633.8228,S,06902.3686,W,,,270411,,,N*74
$GPGGA,204857.000,1633.8225,S,06902.3684,W,0,00,,3864.4,M,33.7,M,,0000*44
$GPGSA,M,1,,,,,,,,,,,,,,,*12
$GPRMC,204857.000,V,1633.8225,S,06902.3684,W,,,270411,,,N*7A
$GPGGA,204858.000,1633.8221,S,06902.3682,W,0,00,,3865.0,M,33.7,M,,0000*4C
$GPGSA,M,1,,,,,,,,,,,,,,,*12
$GPRMC,204858.000,V,1633.8221,S,06902.3682,W,,,270411,,,N*77
$GPGGA,204859.000,1633.8218,S,06902.3680,W,0,00,,3865.7,M,33.7,M,,0000*42
$GPGSA,M,1,,,,,,,,,,,,,,,*12
$GPGSV,3,1,12,06,72,160,,03,62,199,,22,49,154,,16,47,322,*70
$GPGSV,3,2,12,14,41,065,,30,34,347,,19,31,208,19,32,21,313,*77
$GPGSV,3,3,12,18,16,142,,11,06,244,,24,04,260,,21,03,106,*76
$GPRMC,204859.000,V,1633.8218,S,06902.3680,W,,,270411,,,N*7E
$GPGGA,204900.000,,,,,0,00,,,M,0.0,M,,0000*59
$GPGSA,M,1,,,,,,,,,,,,,,,*12
$GPRMC,204900.000,V,,,,,,,270411,,,N*43
$GPGGA,204901.000,,,,,0,00,,,M,0.0,M,,0000*58
$GPGSA,M,1,,,,,,,,,,,,,,,*12
$GPRMC,204901.000,V,,,,,,,270411,,,N*42
$GPGGA,204902.000,,,,,0,00,,,M,0.0,M,,0000*5B
$GPGSA,M,1,,,,,,,,,,,,,,,*12
$GPRMC,204902.000,V,,,,,,,270411,,,N*41
$GPGGA,204903.000,,,,,0,00,,,M,0.0,M,,0000*5A
$GPGSA,M,1,,,,,,,,,,,,,,,*12
$GPRMC,204903.000,V,,,,,,,270411,,,N*40
$GPGGA,204904.000,,,,,0,00,,,M,0.0,M,,0000*5D
$GPGSA,M,1,,,,,,,,,,,,,,,*12
$GPGSV,3,1,12,06,72,160,,03,62,199,,22,49,154,,16,47,322,*70
$GPGSV,3,2,12,14,41,065,,30,34,347,,19,31,208,,32,21,313,*7F
$GPGSV,3,3,12,18,16,142,,11,06,244,,24,04,260,,21,03,106,*76
$GPRMC,204904.000,V,,,,,,,270411,,,N*47
$GPGGA,204905.000,,,,,0,00,,,M,0.0,M,,0000*5C
$GPGSA,M,1,,,,,,,,,,,,,,,*12
$GPRMC,204905.000,V,,,,,,,270411,,,N*46
$GPGGA,204906.000,,,,,0,00,,,M,0.0,M,,0000*5F
$GPGSA,M,1,,,,,,,,,,,,,,,*12
$GPRMC,204906.000,V,,,,,,,270411,,,N*45
$GPGGA,204907.000,,,,,0,00,,,M,0.0,M,,0000*5E
$GPGSA,M,1,,,,,,,,,,,,,,,*12
$GPRMC,204907.000,V,,,,,,,270411,,,N*44
$GPGGA,204908.000,,,,,0,00,,,M,0.0,M,,0000*51
$GPGSA,M,1,,,,,,,,,,,,,,,*12
$GPRMC,204908.000,V,,,,,,,270411,,,N*4B
$GPGGA,204909.000,,,,,0,00,,,M,0.0,M,,0000*50
$GPGSA,M,1,,,,,,,,,,,,,,,*12
$GPGSV,3,1,12,06,72,160,,03,62,199,,22,49,154,,16,47,322,*70
$GPGSV,3,2,12,14,41,065,,30,34,347,,19,31,208,,32,21,313,*7F
$GPGSV,3,3,12,18,16,142,,11,06,244,,24,04,260,,21,03,106,*76
$GPRMC,204909.000,V,,,,,,,270411,,,N*4A
$GPGGA,204910.000,,,,,0,00,,,M,0.0,M,,0000*58
$GPGSA,M,1,,,,,,,,,,,,,,,*12
$GPRMC,204910.000,V,,,,,,,270411,,,N*42
$GPGGA,204911.000,,,,,0,00,,,M,0.0,M,,0000*59
$GPGSA,M,1,,,,,,,,,,,,,,,*12
$GPRMC,204911.000,V,,,,,,,270411,,,N*43
$GPGGA,204912.000,,,,,0,00,,,M,0.0,M,,0000*5A
$GPGSA,M,1,,,,,,,,,,,,,,,*12
$GPRMC,204912.000,V,,,,,,,270411,,,N*40
$GPGGA,204913.000,,,,,0,00,,,M,0.0,M,,0000*5B
$GPGSA,M,1,,,,,,,,,,,,,,,*12
$GPRMC,204913.000,V,,,,,,,270411,,,N*41
$GPGGA,204914.000,,,,,0,00,,,M,0.0,M,,0000*5C
$GPGSA,M,1,,,,,,,,,,,,,,,*12
$GPGSV,3,1,12,06,72,160,,03,62,199,,22,49,154,,16,47,322,*70
$GPGSV,3,2,12,14,41,065,,30,34,347,,19,31,208,,32,21,313,*7F
$GPGSV,3,3,12,18,16,142,,11,06,244,,24,04,260,,21,03,106,*76
$GPRMC,204914.000,V,,,,,,,270411,,,N*46
$GPGGA,204915.000,,,,,0,00,,,M,0.0,M,,0000*5D
$GPGSA,M,1,,,,,,,,,,,,,,,*12
$GPRMC,204915.000,V,,,,,,,270411,,,N*47
$GPGGA,204916.000,,,,,0,00,,,M,0.0,M,,0000*5E
$GPGSA,M,1,,,,,,,,,,,,,,,*12
$GPRMC,204916.000,V,,,,,,,270411,,,N*44
$GPGGA,204917.000,,,,,0,00,,,M,0.0,M,,0000*5F
$GPGSA,M,1,,,,,,,,,,,,,,,*12
$GPRMC,204917.000,V,,,,,,,270411,,,N*45
$GPGGA,204918.000,,,,,0,00,,,M,0.0,M,,0000*50
$GPGSA,M,1,,,,,,,,,,,,,,,*12
$GPRMC,204918.000,V,,,,,,,270411,,,N*4A
$GPGGA,204919.000,,,,,0,00,,,M,0.0,M,,0000*51
$GPGSA,M,1,,,,,,,,,,,,,,,*12
$GPGSV,3,1,12,06,72,160,,03,62,199,,22,49,154,,16,47,322,*70
$GPGSV,3,2,12,14,41,065,,30,34,347,,19,31,208,,32,21,313,*7F
$GPGSV,3,3,12,18,16,142,,11,06,244,,24,04,260,,21,03,106,*76
$GPRMC,204919.000,V,,,,,,,270411,,,N*4B
$GPGGA,204920.000,,,,,0,00,,,M,0.0,M,,0000*5B
$GPGSA,M,1,,,,,,,,,,,,,,,*12
$GPRMC,204920.000,V,,,,,,,270411,,,N*41
$GPGGA,204921.000,,,,,0,00,,,M,0.0,M,,0000*5A
$GPGSA,M,1,,,,,,,,,,,,,,,*12
$GPRMC,204921.000,V,,,,,,,270411,,,N*40
$GPGGA,204922.000,,,,,0,00,,,M,0.0,M,,0000*59
$GPGSA,M,1,,,,,,,,,,,,,,,*12
$GPRMC,204922.000,V,,,,,,,270411,,,N*43
$GPGGA,204923.000,,,,,0,00,,,M,0.0,M,,0000*58
$GPGSA,M,1,,,,,,,,,,,,,,,*12
$GPRMC,204923.000,V,,,,,,,270411,,,N*42
$GPGGA,204924.000,,,,,0,00,,,M,0.0,M,,0000*5F
$GPGSA,M,1,,,,,,,,,,,,,,,*12
$GPGSV,3,1,12,06,72,160,,03,62,199,,22,49,154,,16,47,322,*70
$GPGSV,3,2,12,14,41,065,,30,34,347,,19,31,208,,32,21,313,*7F
$GPGSV,3,3,12,18,16,142,,11,06,244,,24,04,260,,21,03,106,*76
$GPRMC,204924.000,V,,,,,,,270411,,,N*45
$GPGGA,204925.000,,,,,0,00,,,M,0.0,M,,0000*5E
$GPGSA,M,1,,,,,,,,,,,,,,,*12
$GPRMC,204925.000,V,,,,,,,270411,,,N*44
$GPGGA,204926.000,,,,,0,00,,,M,0.0,M,,0000*5D
$GPGSA,M,1,,,,,,,,,,,,,,,*12
$GPRMC,204926.000,V,,,,,,,270411,,,N*47
$GPGGA,204927.000,,,,,0,00,,,M,0.0,M,,0000*5C
$GPGSA,M,1,,,,,,,,,,,,,,,*12
$GPRMC,204927.000,V,,,,,,,270411,,,N*46
$GPGGA,204928.000,,,,,0,00,,,M,0.0,M,,0000*53
$GPGSA,M,1,,,,,,,,,,,,,,,*12
$GPRMC,204928.000,V,,,,,,,270411,,,N*49
$GPGGA,204929.000,,,,,0,00,,,M,0.0,M,,0000*52
$GPGSA,M,1,,,,,,,,,,,,,,,*12
$GPGSV,3,1,12,06,72,160,,03,62,199,,22,49,154,,16,47,322,*70
$GPGSV,3,2,12,14,41,065,,30,34,347,,19,31,208,,32,21,313,*7F
$GPGSV,3,3,12,18,16,142,,11,06,244,,24,04,260,,21,03,106,*76
$GPRMC,204929.000,V,,,,,,,270411,,,N*48
$GPGGA,204930.000,,,,,0,00,,,M,0.0,M,,0000*5A
$GPGSA,M,1,,,,,,,,,,,,,,,*12
$GPRMC,204930.000,V,,,,,,,270411,,,N*40
$GPGGA,204931.000,,,,,0,00,,,M,0.0,M,,0000*5B
$GPGSA,M,1,,,,,,,,,,,,,,,*12
$GPRMC,204931.000,V,,,,,,,270411,,,N*41
$GPGGA,204932.000,,,,,0,00,,,M,0.0,M,,0000*58
$GPGSA,M,1,,,,,,,,,,,,,,,*12
$GPRMC,204932.000,V,,,,,,,270411,,,N*42
$GPGGA,204933.000,,,,,0,00,,,M,0.0,M,,0000*59
$GPGSA,M,1,,,,,,,,,,,,,,,*12
$GPRMC,204933.000,V,,,,,,,270411,,,N*43
$GPGGA,204934.000,,,,,0,00,,,M,0.0,M,,0000*5E
$GPGSA,M,1,,,,,,,,,,,,,,,*12
$GPGSV,3,1,12,06,72,160,,03,62,199,,22,49,154,,16,47,322,*70
$GPGSV,3,2,12,14,41,065,,30,34,347,,19,31,208,,32,21,313,*7F
$GPGSV,3,3,12,18,16,142,,11,06,244,,24,04,260,,21,03,106,*76
$GPRMC,204934.000,V,,,,,,,270411,,,N*44
$GPGGA,204935.000,,,,,0,00,,,M,0.0,M,,0000*5F
$GPGSA,M,1,,,,,,,,,,,,,,,*12
$GPRMC,204935.000,V,,,,,,,270411,,,N*45
$GPGGA,204936.000,,,,,0,00,,,M,0.0,M,,0000*5C
$GPGSA,M,1,,,,,,,,,,,,,,,*12
$GPRMC,204936.000,V,,,,,,,270411,,,N*46
$GPGGA,204937.000,,,,,0,00,,,M,0.0,M,,0000*5D
$GPGSA,M,1,,,,,,,,,,,,,,,*12
$GPRMC,204937.000,V,,,,,,,270411,,,N*47
$GPGGA,204938.000,,,,,0,00,,,M,0.0,M,,0000*52
$GPGSA,M,1,,,,,,,,,,,,,,,*12
$GPRMC,204938.000,V,,,,,,,270411,,,N*48
$GPGGA,204939.000,,,,,0,00,,,M,0.0,M,,0000*53
$GPGSA,M,1,,,,,,,,,,,,,,,*12
$GPGSV,3,1,12,06,72,160,,03,62,199,,22,49,154,,16,47,322,*70
$GPGSV,3,2,12,14,41,065,,30,34,347,,19,31,208,,32,21,313,*7F
$GPGSV,3,3,12,18,16,142,,11,06,244,,24,04,260,,21,03,106,*76
$GPRMC,204939.000,V,,,,,,,270411,,,N*49
$GPGGA,204940.000,,,,,0,00,,,M,0.0,M,,0000*5D
$GPGSA,M,1,,,,,,,,,,,,,,,*12
$GPRMC,204940.000,V,,,,,,,270411,,,N*47
$GPGGA,204941.000,,,,,0,00,,,M,0.0,M,,0000*5C
$GPGSA,M,1,,,,,,,,,,,,,,,*12
$GPRMC,204941.000,V,,,,,,,270411,,,N*46
$GPGGA,204942.000,,,,,0,00,,,M,0.0,M,,0000*5F
$GPGSA,M,1,,,,,,,,,,,,,,,*12
$GPRMC,204942.000,V,,,,,,,270411,,,N*45
$GPGGA,204943.000,,,,,0,00,,,M,0.0,M,,0000*5E
$GPGSA,M,1,,,,,,,,,,,,,,,*12
$GPRMC,204943.000,V,,,,,,,270411,,,N*44
$GPGGA,204944.000,,,,,0,00,,,M,0.0,M,,0000*59
$GPGSA,M,1,,,,,,,,,,,,,,,*12
$GPGSV,3,1,12,06,72,160,,03,62,199,,22,49,154,,16,47,322,*70
$GPGSV,3,2,12,14,41,065,,30,34,347,,19,31,208,,32,21,313,*7F
$GPGSV,3,3,12,18,16,142,,11,06,244,,24,04,260,,21,03,106,*76
$GPRMC,204944.000,V,,,,,,,270411,,,N*43
$GPGGA,204945.000,,,,,0,00,,,M,0.0,M,,0000*58
$GPGSA,M,1,,,,,,,,,,,,,,,*12
$GPRMC,204945.000,V,,,,,,,270411,,,N*42
$GPGGA,204946.000,,,,,0,00,,,M,0.0,M,,0000*5B
$GPGSA,M,1,,,,,,,,,,,,,,,*12
$GPRMC,204946.000,V,,,,,,,270411,,,N*41
$GPGGA,204947.000,,,,,0,00,,,M,0.0,M,,0000*5A
$GPGSA,M,1,,,,,,,,,,,,,,,*12
$GPRMC,204947.000,V,,,,,,,270411,,,N*40
$GPGGA,204948.000,,,,,0,00,,,M,0.0,M,,0000*55
$GPGSA,M,1,,,,,,,,,,,,,,,*12
$GPRMC,204948.000,V,,,,,,,270411,,,N*4F
$GPGGA,204949.000,,,,,0,00,,,M,0.0,M,,0000*54
$GPGSA,M,1,,,,,,,,,,,,,,,*12
$GPGSV,3,1,12,06,72,160,,03,62,199,,22,49,154,,16,47,322,*70
$GPGSV,3,2,12,14,41,065,,30,34,347,,19,31,208,,32,21,313,*7F
$GPGSV,3,3,12,18,16,142,,11,06,244,,24,04,260,,21,03,106,*76
$GPRMC,204949.000,V,,,,,,,270411,,,N*4E
$GPGGA,204950.000,,,,,0,00,,,M,0.0,M,,0000*5C
$GPGSA,M,1,,,,,,,,,,,,,,,*12
$GPRMC,204950.000,V,,,,,,,270411,,,N*46
$GPGGA,204951.000,,,,,0,00,,,M,0.0,M,,0000*5D
$GPGSA,M,1,,,,,,,,,,,,,,,*12
$GPRMC,204951.000,V,,,,,,,270411,,,N*47
$GPGGA,204952.000,,,,,0,00,,,M,0.0,M,,0000*5E
$GPGSA,M,1,,,,,,,,,,,,,,,*12
$GPRMC,204952.000,V,,,,,,,270411,,,N*44
$GPGGA,204953.000,,,,,0,00,,,M,0.0,M,,0000*5F
$GPGSA,M,1,,,,,,,,,,,,,,,*12
$GPRMC,204953.000,V,,,,,,,270411,,,N*45
$GPGGA,204954.000,,,,,0,00,,,M,0.0,M,,0000*58
$GPGSA,M,1,,,,,,,,,,,,,,,*12
$GPGSV,3,1,12,06,72,160,,03,62,199,,22,49,154,,16,47,322,*70
$GPGSV,3,2,12,14,41,065,,30,34,347,,19,31,208,,32,21,313,*7F
$GPGSV,3,3,12,18,16,142,,11,06,244,,24,04,260,,21,03,106,*76
$GPRMC,204954.000,V,,,,,,,270411,,,N*42
$GPGGA,204955.000,,,,,0,00,,,M,0.0,M,,0000*59
$GPGSA,M,1,,,,,,,,,,,,,,,*12
$GPRMC,204955.000,V,,,,,,,270411,,,N*43
$GPGGA,204956.000,,,,,0,00,,,M,0.0,M,,0000*5A
$GPGSA,M,1,,,,,,,,,,,,,,,*12
$GPRMC,204956.000,V,,,,,,,270411,,,N*40
$GPGGA,204957.000,,,,,0,00,,,M,0.0,M,,0000*5B
$GPGSA,M,1,,,,,,,,,,,,,,,*12
$GPRMC,204957.000,V,,,,,,,270411,,,N*41
$GPGGA,204958.000,,,,,0,00,,,M,0.0,M,,0000*54
$GPGSA,M,1,,,,,,,,,,,,,,,*12
$GPRMC,204958.000,V,,,,,,,270411,,,N*4E
$GPGGA,204959.000,,,,,0,00,,,M,0.0,M,,0000*55
$GPGSA,M,1,,,,,,,,,,,,,,,*12
$GPGSV,3,1,12,06,72,160,,03,62,199,,22,49,154,,16,47,322,*70
$GPGSV,3,2,12,14,41,065,,30,34,347,,19,31,208,,32,21,313,*7F
$GPGSV,3,3,12,18,16,142,,11,06,244,,24,04,260,,21,03,106,*76
$GPRMC,204959.000,V,,,,,,,270411,,,N*4F
$GPGGA,205000.000,,,,,0,00,,,M,0.0,M,,0000*51
$GPGSA,M,1,,,,,,,,,,,,,,,*12
$GPRMC,205000.000,V,,,,,,,270411,,,N*4B
$GPGGA,205001.000,,,,,0,00,,,M,0.0,M,,0000*50
$GPGSA,M,1,,,,,,,,,,,,,,,*12
$GPRMC,205001.000,V,,,,,,,270411,,,N*4A
$GPGGA,205002.000,,,,,0,00,,,M,0.0,M,,0000*53
$GPGSA,M,1,,,,,,,,,,,,,,,*12
$GPRMC,205002.000,V,,,,,,,270411,,,N*49
$GPGGA,205003.000,,,,,0,00,,,M,0.0,M,,0000*52
$GPGSA,M,1,,,,,,,,,,,,,,,*12
$GPRMC,205003.000,V,,,,,,,270411,,,N*48
$GPGGA,205004.000,,,,,0,00,,,M,0.0,M,,0000*55
$GPGSA,M,1,,,,,,,,,,,,,,,*12
$GPGSV,3,1,12,06,72,160,,03,62,199,,22,49,154,,16,47,322,*70
$GPGSV,3,2,12,14,41,065,,30,34,347,,19,31,208,,32,21,313,*7F
$GPGSV,3,3,12,18,16,142,,11,06,244,,24,04,260,,21,03,106,*76
$GPRMC,205004.000,V,,,,,,,270411,,,N*4F
$GPGGA,205005.000,,,,,0,00,,,M,0.0,M,,0000*54
$GPGSA,M,1,,,,,,,,,,,,,,,*12
$GPRMC,205005.000,V,,,,,,,270411,,,N*4E
$GPGGA,205006.000,,,,,0,00,,,M,0.0,M,,0000*57
$GPGSA,M,1,,,,,,,,,,,,,,,*12
$GPRMC,205006.000,V,,,,,,,270411,,,N*4D
$GPGGA,205007.000,,,,,0,00,,,M,0.0,M,,0000*56
$GPGSA,M,1,,,,,,,,,,,,,,,*12
$GPRMC,205007.000,V,,,,,,,270411,,,N*4C
$GPGGA,205008.000,,,,,0,00,,,M,0.0,M,,0000*59
$GPGSA,M,1,,,,,,,,,,,,,,,*12
$GPRMC,205008.000,V,,,,,,,270411,,,N*43
$GPGGA,205009.000,,,,,0,00,,,M,0.0,M,,0000*58
$GPGSA,M,1,,,,,,,,,,,,,,,*12
$GPGSV,3,1,12,06,72,160,,03,62,199,,22,49,154,,16,47,322,*70
$GPGSV,3,2,12,14,41,065,,30,34,347,,19,31,208,,32,21,313,*7F
$GPGSV,3,3,12,18,16,142,,11,06,244,,24,04,260,,21,03,106,*76
$GPRMC,205009.000,V,,,,,,,270411,,,N*42
$GPGGA,205010.000,,,,,0,00,,,M,0.0,M,,0000*50
$GPGSA,M,1,,,,,,,,,,,,,,,*12
$GPRMC,205010.000,V,,,,,,,270411,,,N*4A
$GPGGA,205011.000,,,,,0,00,,,M,0.0,M,,0000*51
$GPGSA,M,1,,,,,,,,,,,,,,,*12
$GPRMC,205011.000,V,,,,,,,270411,,,N*4B
$GPGGA,205012.000,,,,,0,00,,,M,0.0,M,,0000*52
$GPGSA,M,1,,,,,,,,,,,,,,,*12
$GPRMC,205012.000,V,,,,,,,270411,,,N*48
$GPGGA,205013.000,,,,,0,00,,,M,0.0,M,,0000*53
$GPGSA,M,1,,,,,,,,,,,,,,,*12
$GPRMC,205013.000,V,,,,,,,270411,,,N*49
$GPGGA,205014.000,,,,,0,00,,,M,0.0,M,,0000*54
$GPGSA,M,1,,,,,,,,,,,,,,,*12
$GPGSV,3,1,12,06,72,160,,03,62,199,,22,49,154,,16,47,322,*70
$GPGSV,3,2,12,14,41,065,,30,34,347,,19,31,208,,32,21,313,*7F
$GPGSV,3,3,12,18,16,142,,11,06,244,,24,04,260,,21,03,106,*76
$GPRMC,205014.000,V,,,,,,,270411,,,N*4E
$GPGGA,205015.000,,,,,0,00,,,M,0.0,M,,0000*55
$GPGSA,M,1,,,,,,,,,,,,,,,*12
$GPRMC,205015.000,V,,,,,,,270411,,,N*4F
$GPGGA,205016.000,,,,,0,00,,,M,0.0,M,,0000*56
$GPGSA,M,1,,,,,,,,,,,,,,,*12
$GPRMC,205016.000,V,,,,,,,270411,,,N*4C
$GPGGA,205017.000,,,,,0,00,,,M,0.0,M,,0000*57
$GPGSA,M,1,,,,,,,,,,,,,,,*12
$GPRMC,205017.000,V,,,,,,,270411,,,N*4D
$GPGGA,205018.000,,,,,0,00,,,M,0.0,M,,0000*58
$GPGSA,M,1,,,,,,,,,,,,,,,*12
$GPRMC,205018.000,V,,,,,,,270411,,,N*42
$GPGGA,205019.000,,,,,0,00,,,M,0.0,M,,0000*59
$GPGSA,M,1,,,,,,,,,,,,,,,*12
$GPGSV,3,1,12,06,72,160,,03,62,199,,22,49,154,,16,47,322,*70
$GPGSV,3,2,12,14,41,065,,30,34,347,,19,31,208,,32,21,313,*7F
$GPGSV,3,3,12,18,16,142,,11,06,244,,24,04,260,,21,03,106,*76
$GPRMC,205019.000,V,,,,,,,270411,,,N*43
$GPGGA,205020.000,,,,,0,00,,,M,0.0,M,,0000*53
$GPGSA,M,1,,,,,,,,,,,,,,,*12
$GPRMC,205020.000,V,,,,,,,270411,,,N*49
$GPGGA,205021.000,,,,,0,00,,,M,0.0,M,,0000*52
$GPGSA,M,1,,,,,,,,,,,,,,,*12
$GPRMC,205021.000,V,,,,,,,270411,,,N*48
$GPGGA,205022.000,,,,,0,00,,,M,0.0,M,,0000*51
$GPGSA,M,1,,,,,,,,,,,,,,,*12
$GPRMC,205022.000,V,,,,,,,270411,,,N*4B
$GPGGA,205023.000,,,,,0,00,,,M,0.0,M,,0000*50
$GPGSA,M,1,,,,,,,,,,,,,,,*12
$GPRMC,205023.000,V,,,,,,,270411,,,N*4A
$GPGGA,205024.000,,,,,0,00,,,M,0.0,M,,0000*57
$GPGSA,M,1,,,,,,,,,,,,,,,*12
$GPGSV,3,1,12,06,72,160,,03,62,199,,22,49,154,,16,47,322,*70
$GPGSV,3,2,12,14,41,065,,30,34,347,,19,31,208,,32,21,313,*7F
$GPGSV,3,3,12,18,16,142,,11,06,244,,24,04,260,,21,03,106,*76
$GPRMC,205024.000,V,,,,,,,270411,,,N*4D
$GPGGA,205025.000,,,,,0,00,,,M,0.0,M,,0000*56
$GPGSA,M,1,,,,,,,,,,,,,,,*12
$GPRMC,205025.000,V,,,,,,,270411,,,N*4C
$GPGGA,205026.000,,,,,0,00,,,M,0.0,M,,0000*55
$GPGSA,M,1,,,,,,,,,,,,,,,*12
$GPRMC,205026.000,V,,,,,,,270411,,,N*4F
$GPGGA,205027.000,,,,,0,00,,,M,0.0,M,,0000*54
$GPGSA,M,1,,,,,,,,,,,,,,,*12
$GPRMC,205027.000,V,,,,,,,270411,,,N*4E
$GPGGA,205028.000,,,,,0,00,,,M,0.0,M,,0000*5B
$GPGSA,M,1,,,,,,,,,,,,,,,*12
$GPRMC,205028.000,V,,,,,,,270411,,,N*41
$GPGGA,205029.000,,,,,0,00,,,M,0.0,M,,0000*5A
$GPGSA,M,1,,,,,,,,,,,,,,,*12
$GPGSV,3,1,12,06,72,160,,03,62,199,,22,49,154,,16,47,322,*70
$GPGSV,3,2,12,14,41,065,,30,34,347,,19,31,208,,32,21,313,*7F
$GPGSV,3,3,12,18,16,142,,11,06,244,,24,04,260,,21,03,106,*76
$GPRMC,205029.000,V,,,,,,,270411,,,N*40
$GPGGA,205030.000,,,,,0,00,,,M,0.0,M,,0000*52
$GPGSA,M,1,,,,,,,,,,,,,,,*12
$GPRMC,205030.000,V,,,,,,,270411,,,N*48
$GPGGA,205031.000,,,,,0,00,,,M,0.0,M,,0000*53
$GPGSA,M,1,,,,,,,,,,,,,,,*12
$GPRMC,205031.000,V,,,,,,,270411,,,N*49
$GPGGA,205032.000,,,,,0,00,,,M,0.0,M,,0000*50
$GPGSA,M,1,,,,,,,,,,,,,,,*12
$GPRMC,205032.000,V,,,,,,,270411,,,N*4A
$GPGGA,205033.000,,,,,0,00,,,M,0.0,M,,0000*51
$GPGSA,M,1,,,,,,,,,,,,,,,*12
$GPRMC,205033.000,V,,,,,,,270411,,,N*4B
$GPGGA,205034.000,,,,,0,00,,,M,0.0,M,,0000*56
$GPGSA,M,1,,,,,,,,,,,,,,,*12
$GPGSV,3,1,12,06,72,160,,03,62,199,,22,49,154,,16,47,322,*70
$GPGSV,3,2,12,14,41,065,,30,34,347,,19,31,208,,32,21,313,*7F
$GPGSV,3,3,12,18,16,142,,11,06,244,,24,04,260,,21,03,106,*76
$GPRMC,205034.000,V,,,,,,,270411,,,N*4C
$GPGGA,205035.000,,,,,0,00,,,M,0.0,M,,0000*57
$GPGSA,M,1,,,,,,,,,,,,,,,*12
$GPRMC,205035.000,V,,,,,,,270411,,,N*4D
$GPGGA,205036.000,,,,,0,00,,,M,0.0,M,,0000*54
$GPGSA,M,1,,,,,,,,,,,,,,,*12
$GPRMC,205036.000,V,,,,,,,270411,,,N*4E
$GPGGA,205037.000,,,,,0,00,,,M,0.0,M,,0000*55
$GPGSA,M,1,,,,,,,,,,,,,,,*12
$GPRMC,205037.000,V,,,,,,,270411,,,N*4F
$GPGGA,205038.000,,,,,0,00,,,M,0.0,M,,0000*5A
$GPGSA,M,1,,,,,,,,,,,,,,,*12
$GPRMC,205038.000,V,,,,,,,270411,,,N*40
$GPGGA,205039.000,,,,,0,00,,,M,0.0,M,,0000*5B
$GPGSA,M,1,,,,,,,,,,,,,,,*12
$GPGSV,3,1,12,06,72,160,,03,62,199,,22,49,154,,16,47,322,*70
$GPGSV,3,2,12,14,41,065,,30,34,347,,19,31,208,,32,21,313,*7F
$GPGSV,3,3,12,18,16,142,,11,06,244,,24,04,260,,21,03,106,*76
$GPRMC,205039.000,V,,,,,,,270411,,,N*41
$GPGGA,205040.000,,,,,0,00,,,M,0.0,M,,0000*55
$GPGSA,M,1,,,,,,,,,,,,,,,*12
$GPRMC,205040.000,V,,,,,,,270411,,,N*4F
$GPGGA,205041.000,,,,,0,00,,,M,0.0,M,,0000*54
$GPGSA,M,1,,,,,,,,,,,,,,,*12
$GPRMC,205041.000,V,,,,,,,270411,,,N*4E
$GPGGA,205042.000,,,,,0,00,,,M,0.0,M,,0000*57
$GPGSA,M,1,,,,,,,,,,,,,,,*12
$GPRMC,205042.000,V,,,,,,,270411,,,N*4D
$GPGGA,205043.000,,,,,0,00,,,M,0.0,M,,0000*56
$GPGSA,M,1,,,,,,,,,,,,,,,*12
$GPRMC,205043.000,V,,,,,,,270411,,,N*4C
$GPGGA,205044.000,,,,,0,00,,,M,0.0,M,,0000*51
$GPGSA,M,1,,,,,,,,,,,,,,,*12
$GPGSV,3,1,12,06,72,160,,03,62,199,,22,49,154,,16,47,322,*70
$GPGSV,3,2,12,14,41,065,,30,34,347,,19,31,208,16,32,21,313,*78
$GPGSV,3,3,12,18,16,142,,11,06,244,,24,04,260,,21,03,106,*76
$GPRMC,205044.000,V,,,,,,,270411,,,N*4B
$GPGGA,205045.000,,,,,0,00,,,M,0.0,M,,0000*50
$GPGSA,M,1,,,,,,,,,,,,,,,*12
$GPRMC,205045.000,V,,,,,,,270411,,,N*4A
$GPGGA,205046.000,,,,,0,00,,,M,0.0,M,,0000*53
$GPGSA,M,1,,,,,,,,,,,,,,,*12
$GPRMC,205046.000,V,,,,,,,270411,,,N*49
$GPGGA,205047.000,,,,,0,00,,,M,0.0,M,,0000*52
$GPGSA,M,1,,,,,,,,,,,,,,,*12
$GPRMC,205047.000,V,,,,,,,270411,,,N*48
$GPGGA,205048.000,,,,,0,00,,,M,0.0,M,,0000*5D
$GPGSA,M,1,,,,,,,,,,,,,,,*12
$GPRMC,205048.000,V,,,,,,,270411,,,N*47
$GPGGA,205049.000,,,,,0,00,,,M,0.0,M,,0000*5C
$GPGSA,M,1,,,,,,,,,,,,,,,*12
$GPGSV,3,1,12,06,72,160,,03,62,199,,22,49,154,,16,47,322,*70
$GPGSV,3,2,12,14,41,065,16,30,34,347,,19,31,208,15,32,21,313,*7C
$GPGSV,3,3,12,18,16,142,,11,06,244,,24,04,260,,21,03,106,*76
$GPRMC,205049.000,V,,,,,,,270411,,,N*46
$GPGGA,205050.000,,,,,0,00,,,M,0.0,M,,0000*54
$GPGSA,M,1,,,,,,,,,,,,,,,*12
$GPRMC,205050.000,V,,,,,,,270411,,,N*4E
$GPGGA,205051.000,,,,,0,00,,,M,0.0,M,,0000*55
$GPGSA,M,1,,,,,,,,,,,,,,,*12
$GPRMC,205051.000,V,,,,,,,270411,,,N*4F
$GPGGA,205052.000,,,,,0,00,,,M,0.0,M,,0000*56
$GPGSA,M,1,,,,,,,,,,,,,,,*12
$GPRMC,205052.000,V,,,,,,,270411,,,N*4C
$GPGGA,205053.000,,,,,0,00,,,M,0.0,M,,0000*57
$GPGSA,M,1,,,,,,,,,,,,,,,*12
$GPRMC,205053.000,V,,,,,,,270411,,,N*4D
$GPGGA,205054.000,,,,,0,00,,,M,0.0,M,,0000*50
$GPGSA,M,1,,,,,,,,,,,,,,,*12
$GPGSV,3,1,12,06,72,160,,03,62,199,,22,49,154,,16,47,322,*70
$GPGSV,3,2,12,14,41,065,15,30,34,347,,19,31,208,15,32,21,313,*7F
$GPGSV,3,3,12,18,16,142,,11,06,244,,24,04,260,,21,03,106,*76
$GPRMC,205054.000,V,,,,,,,270411,,,N*4A
$GPGGA,205055.000,,,,,0,00,,,M,0.0,M,,0000*51
$GPGSA,M,1,,,,,,,,,,,,,,,*12
$GPRMC,205055.000,V,,,,,,,270411,,,N*4B
$GPGGA,205056.000,,,,,0,00,,,M,0.0,M,,0000*52
$GPGSA,M,1,,,,,,,,,,,,,,,*12
$GPRMC,205056.000,V,,,,,,,270411,,,N*48
$GPGGA,205057.000,,,,,0,00,,,M,0.0,M,,0000*53
$GPGSA,M,1,,,,,,,,,,,,,,,*12
$GPRMC,205057.000,V,,,,,,,270411,,,N*49
$GPGGA,205058.000,,,,,0,00,,,M,0.0,M,,0000*5C
$GPGSA,M,1,,,,,,,,,,,,,,,*12
$GPRMC,205058.000,V,,,,,,,270411,,,N*46
$GPGGA,205127.995,,,,,0,00,,,M,0.0,M,,0000*50
$GPGSA,M,1,,,,,,,,,,,,,,,*12
$GPRMC,205127.995,V,,,,,,,270411,,,N*4A
$GPGGA,205128.701,,,,,0,00,,,M,0.0,M,,0000*5C
$GPGSA,M,1,,,,,,,,,,,,,,,*12
$GPRMC,205128.701,V,,,,,,,270411,,,N*46
$GPGGA,205129.012,,,,,0,00,,,M,0.0,M,,0000*58
$GPGSA,M,1,,,,,,,,,,,,,,,*12
$GPGSV,3,1,12,06,74,156,,03,64,199,,22,48,153,,16,46,324,*74
$GPGSV,3,2,12,14,42,067,,19,32,208,,30,32,348,,32,22,312,*76
$GPGSV,3,3,12,18,15,142,,21,03,104,,31,02,015,,11,06,243,*72
$GPRMC,205129.012,V,,,,,,,270411,,,N*42
$GPGGA,205130.012,,,,,0,00,,,M,0.0,M,,0000*50
$GPGSA,M,1,,,,,,,,,,,,,,,*12
$GPRMC,205130.012,V,,,,,,,270411,,,N*4A
$GPGGA,205131.012,,,,,0,00,,,M,0.0,M,,0000*51
$GPGSA,M,1,,,,,,,,,,,,,,,*12
$GPRMC,205131.012,V,,,,,,,270411,,,N*4B
$GPGGA,205132.012,,,,,0,00,,,M,0.0,M,,0000*52
$GPGSA,M,1,,,,,,,,,,,,,,,*12
$GPRMC,205132.012,V,,,,,,,270411,,,N*48
$GPGGA,205133.012,,,,,0,00,,,M,0.0,M,,0000*53
$GPGSA,M,1,,,,,,,,,,,,,,,*12
$GPRMC,205133.012,V,,,,,,,270411,,,N*49
$GPGGA,205134.012,,,,,0,00,,,M,0.0,M,,0000*54
$GPGSA,M,1,,,,,,,,,,,,,,,*12
$GPGSV,3,1,12,06,74,156,,03,64,199,,22,48,153,,16,46,324,*74
$GPGSV,3,2,12,14,42,067,,19,32,208,20,30,32,348,27,32,22,312,*71
$GPGSV,3,3,12,18,15,142,,21,03,104,,31,02,015,,11,06,243,*72
$GPRMC,205134.012,V,,,,,,,270411,,,N*4E
$GPGGA,205135.012,,,,,0,00,,,M,0.0,M,,0000*55
$GPGSA,M,1,,,,,,,,,,,,,,,*12
$GPRMC,205135.012,V,,,,,,,270411,,,N*4F
$GPGGA,205136.012,,,,,0,00,,,M,0.0,M,,0000*56
$GPGSA,M,1,,,,,,,,,,,,,,,*12
$GPRMC,205136.012,V,,,,,,,270411,,,N*4C
$GPGGA,205137.000,,,,,0,00,,,M,0.0,M,,0000*54
$GPGSA,M,1,,,,,,,,,,,,,,,*12
$GPRMC,205137.000,V,,,,,,,270411,,,N*4E
$GPGGA,205138.000,,,,,0,00,,,M,0.0,M,,0000*5B
$GPGSA,M,1,,,,,,,,,,,,,,,*12
$GPRMC,205138.000,V,,,,,,,270411,,,N*41
$GPGGA,205139.000,1633.8148,S,06902.3520,W,1,04,1.7,3912.8,M,33.7,M,,0000*60
$GPGSA,M,3,03,16,14,30,,,,,,,,,1.9,1.7,1.0*33
$GPGSV,3,1,12,06,74,156,,03,64,199,16,22,48,153,,16,46,324,17*75
$GPGSV,3,2,12,14,42,067,21,19,32,208,20,30,32,348,21,32,22,312,*74
$GPGSV,3,3,12,18,15,142,,21,03,104,,31,02,015,,11,06,243,*72
$GPRMC,205139.000,A,1633.8148,S,06902.3520,W,0.39,349.72,270411,,,A*66
$GPGGA,205140.000,1633.8247,S,06902.3615,W,1,05,1.4,3848.0,M,33.7,M,,0000*63
$GPGSA,M,3,19,03,16,14,30,,,,,,,,3.7,1.4,3.4*32
$GPRMC,205140.000,A,1633.8247,S,06902.3615,W,1.75,268.00,270411,,,A*6F
$GPGGA,205141.000,1633.8238,S,06902.3627,W,1,05,1.4,3821.2,M,33.7,M,,0000*66
$GPGSA,M,3,19,03,16,14,30,,,,,,,,3.7,1.4,3.4*32
$GPRMC,205141.000,A,1633.8238,S,06902.3627,W,1.33,304.50,270411,,,A*6B
$GPGGA,205142.000,1633.8237,S,06902.3639,W,1,05,1.4,3820.9,M,33.7,M,,0000*6F
$GPGSA,M,3,19,03,16,14,30,,,,,,,,3.7,1.4,3.4*32
$GPRMC,205142.000,A,1633.8237,S,06902.3639,W,1.56,288.62,270411,,,A*6F
$GPGGA,205143.000,1633.8232,S,06902.3652,W,1,05,1.4,3822.7,M,33.7,M,,0000*6A
$GPGSA,M,3,19,03,16,14,30,,,,,,,,3.7,1.4,3.4*32
$GPRMC,205143.000,A,1633.8232,S,06902.3652,W,0.94,283.90,270411,,,A*6F
$GPGGA,205144.000,1633.8238,S,06902.3661,W,1,05,1.4,3827.6,M,33.7,M,,0000*63
$GPGSA,M,3,19,03,16,14,30,,,,,,,,3.7,1.4,3.4*32
$GPGSV,3,1,12,06,74,156,,03,64,199,21,22,48,153,,16,46,324,17*71
$GPGSV,3,2,12,14,42,068,20,19,33,208,23,30,32,348,20,32,22,312,*79
$GPGSV,3,3,12,18,15,142,,11,07,243,,24,04,259,,21,03,104,*7B
$GPRMC,205144.000,A,1633.8238,S,06902.3661,W,2.37,243.41,270411,,,A*69
$GPGGA,205145.000,1633.8244,S,06902.3668,W,1,05,1.4,3831.3,M,33.7,M,,0000*62
$GPGSA,M,3,19,03,16,14,30,,,,,,,,3.7,1.4,3.4*32
$GPRMC,205145.000,A,1633.8244,S,06902.3668,W,1.72,236.31,270411,,,A*6D
$GPGGA,205146.000,1633.8246,S,06902.3673,W,1,05,1.4,3830.8,M,33.7,M,,0000*63
$GPGSA,M,3,19,03,16,14,30,,,,,,,,3.7,1.4,3.4*32
$GPRMC,205146.000,A,1633.8246,S,06902.3673,W,1.13,217.47,270411,,,A*63
$GPGGA,205147.000,1633.8241,S,06902.3676,W,1,05,1.4,3833.4,M,33.7,M,,0000*6F
$GPGSA,M,3,19,03,16,14,30,,,,,,,,3.7,1.4,3.4*32
$GPRMC,205147.000,A,1633.8241,S,06902.3676,W,0.77,264.56,270411,,,A*67
$GPGGA,205148.000,1633.8246,S,06902.3678,W,1,06,1.4,3830.2,M,33.7,M,,0000*6F
$GPGSA,M,3,19,03,16,14,30,06,,,,,,,3.1,1.4,2.7*30
$GPRMC,205148.000,A,1633.8246,S,06902.3678,W,1.15,183.81,270411,,,A*64
$GPGGA,205149.000,1633.8244,S,06902.3668,W,1,06,1.4,3828.2,M,33.7,M,,0000*64
$GPGSA,M,3,19,03,16,14,30,06,,,,,,,3.1,1.4,2.7*30
$GPGSV,3,1,12,06,74,156,18,03,64,199,19,22,48,153,,16,46,324,25*72
$GPGSV,3,2,12,14,42,068,22,19,33,208,23,30,32,348,25,32,22,312,*7E
$GPGSV,3,3,12,18,15,142,,11,07,243,,24,04,259,,21,03,104,*7B
$GPRMC,205149.000,A,1633.8244,S,06902.3668,W,0.91,147.23,270411,,,A*6B
$GPGGA,205150.000,1633.8240,S,06902.3661,W,1,06,1.4,3827.4,M,33.7,M,,0000*68
$GPGSA,M,3,19,03,16,14,30,06,,,,,,,3.1,1.4,2.7*30
$GPRMC,205150.000,A,1633.8240,S,06902.3661,W,0.99,165.21,270411,,,A*64
$GPGGA,205151.000,1633.8244,S,06902.3652,W,1,04,1.6,3829.8,M,33.7,M,,0000*6F
$GPGSA,M,3,19,16,14,06,,,,,,,,,3.7,1.6,3.4*36
$GPRMC,205151.000,A,1633.8244,S,06902.3652,W,1.11,186.87,270411,,,A*61
$GPGGA,205152.000,1633.8245,S,06902.3659,W,1,08,1.2,3829.8,M,33.7,M,,0000*6E
$GPGSA,M,3,19,03,16,14,30,32,06,22,,,,,2.7,1.2,2.4*33
$GPRMC,205152.000,A,1633.8245,S,06902.3659,W,1.51,217.98,270411,,,A*69
$GPGGA,205153.000,1633.8249,S,06902.3660,W,1,08,1.2,3827.7,M,33.7,M,,0000*68
$GPGSA,M,3,19,03,16,14,30,32,06,22,,,,,2.7,1.2,2.4*33
$GPRMC,205153.000,A,1633.8249,S,06902.3660,W,0.83,197.85,270411,,,A*67
$GPGGA,205154.000,1633.8251,S,06902.3654,W,1,07,1.3,3827.6,M,33.7,M,,0000*6E
$GPGSA,M,3,19,03,16,14,30,32,06,,,,,,2.8,1.3,2.5*3C
$GPGSV,3,1,12,06,74,156,18,03,64,199,18,22,48,153,,16,46,324,23*75
$GPGSV,3,2,12,14,42,068,22,19,33,208,23,30,32,348,21,32,22,312,26*7E
$GPGSV,3,3,12,18,15,142,,11,07,243,,24,04,259,,21,03,104,*7B
$GPRMC,205154.000,A,1633.8251,S,06902.3654,W,1.18,109.07,270411,,,A*60
$GPGGA,205155.000,1633.8250,S,06902.3660,W,1,05,2.5,3832.0,M,33.7,M,,0000*6C
$GPGSA,M,3,16,14,30,32,06,,,,,,,,4.9,2.5,4.2*34
$GPRMC,205155.000,A,1633.8250,S,06902.3660,W,0.95,126.35,270411,,,A*6F
$GPGGA,205156.000,1633.8247,S,06902.3667,W,1,05,2.0,3834.5,M,33.7,M,,0000*68
$GPGSA,M,3,03,16,14,30,32,,,,,,,,4.8,2.0,4.3*34
$GPRMC,205156.000,A,1633.8247,S,06902.3667,W,0.68,254.13,270411,,,A*6D
$GPGGA,205157.000,1633.8248,S,06902.3674,W,1,05,2.0,3835.0,M,33.7,M,,0000*60
$GPGSA,M,3,03,16,14,30,32,,,,,,,,4.8,2.0,4.3*34
$GPRMC,205157.000,A,1633.8248,S,06902.3674,W,2.23,232.69,270411,,,A*61
$GPGGA,205158.000,1633.8248,S,06902.3688,W,1,05,2.0,3835.6,M,33.7,M,,0000*6A
$GPGSA,M,3,03,16,14,30,32,,,,,,,,4.8,2.0,4.3*34
$GPRMC,205158.000,A,1633.8248,S,06902.3688,W,1.53,247.13,270411,,,A*66
$GPGGA,205159.000,1633.8248,S,06902.3688,W,1,07,1.5,3836.4,M,33.7,M,,0000*6E
$GPGSA,M,3,03,16,14,30,32,22,06,,,,,,3.5,1.5,3.1*3B
$GPGSV,3,1,12,06,74,156,21,03,64,199,23,22,48,153,21,16,46,324,27*70
$GPGSV,3,2,12,14,42,068,22,19,33,208,,30,32,348,36,32,22,312,28*77
$GPGSV,3,3,12,18,15,142,,11,07,243,17,24,04,259,,21,03,104,*7D
$GPRMC,205159.000,A,1633.8248,S,06902.3688,W,0.54,255.82,270411,,,A*6A
$GPGGA,205200.000,1633.8250,S,06902.3697,W,1,07,1.5,3839.3,M,33.7,M,,0000*6E
$GPGSA,M,3,03,16,14,30,32,22,06,,,,,,3.5,1.5,3.1*3B
$GPRMC,205200.000,A,1633.8250,S,06902.3697,W,1.29,262.81,270411,,,A*6E
$GPGGA,205201.000,1633.8248,S,06902.3703,W,1,07,1.5,3842.6,M,33.7,M,,0000*63
$GPGSA,M,3,03,16,14,30,32,22,06,,,,,,3.5,1.5,3.1*3B
$GPRMC,205201.000,A,1633.8248,S,06902.3703,W,1.25,270.38,270411,,,A*67
$GPGGA,205202.000,1633.8245,S,06902.3706,W,1,08,1.2,3846.4,M,33.7,M,,0000*66
$GPGSA,M,3,03,16,14,30,32,19,22,06,,,,,2.7,1.2,2.4*33
$GPRMC,205202.000,A,1633.8245,S,06902.3706,W,0.72,275.04,270411,,,A*65
$GPGGA,205203.000,1633.8244,S,06902.3708,W,1,07,1.3,3847.7,M,33.7,M,,0000*64
$GPGSA,M,3,03,16,14,30,19,22,06,,,,,,3.0,1.3,2.7*36
$GPRMC,205203.000,A,1633.8244,S,06902.3708,W,0.85,312.38,270411,,,A*6C
$GPGGA,205204.000,1633.8247,S,06902.3714,W,1,08,1.2,3849.2,M,33.7,M,,0000*68
$GPGSA,M,3,03,16,14,30,32,19,22,06,,,,,2.7,1.2,2.4*33
$GPGSV,3,1,12,06,74,156,25,03,64,199,24,22,48,153,21,16,46,324,22*76
$GPGSV,3,2,12,14,42,068,17,19,33,208,14,30,32,348,22,32,22,312,15*7F
$GPGSV,3,3,12,18,15,142,,11,07,243,10,24,04,259,,21,03,104,*7A
$GPRMC,205204.000,A,1633.8247,S,06902.3714,W,1.82,259.51,270411,,,A*62
$GPGGA,205205.000,1633.8251,S,06902.3727,W,1,07,1.3,3852.2,M,33.7,M,,0000*6A
$GPGSA,M,3,03,16,14,30,19,22,06,,,,,,3.0,1.3,2.7*36
$GPRMC,205205.000,A,1633.8251,S,06902.3727,W,3.48,238.23,270411,,,A*62
$GPGGA,205206.000,1633.8262,S,06902.3752,W,1,08,1.2,3856.7,M,33.7,M,,0000*64
$GPGSA,M,3,03,16,14,30,32,19,22,06,,,,,2.7,1.2,2.4*33
$GPRMC,205206.000,A,1633.8262,S,06902.3752,W,6.33,236.49,270411,,,A*68
$GPGGA,205207.000,1633.8272,S,06902.3767,W,0,00,,3858.1,M,33.7,M,,0000*4E
$GPGSA,M,1,,,,,,,,,,,,,,,*12
$GPRMC,205207.000,V,1633.8272,S,06902.3767,W,,,270411,,,N*7A
$GPGGA,205208.000,1633.8279,S,06902.3787,W,1,05,2.6,3859.1,M,33.7,M,,0000*6B
$GPGSA,M,3,03,16,19,22,06,,,,,,,,4.9,2.6,4.1*38
$GPRMC,205208.000,A,1633.8279,S,06902.3787,W,6.83,257.05,270411,,,A*60
$GPGGA,205209.000,1633.8297,S,06902.3781,W,1,05,2.5,3859.9,M,33.7,M,,0000*67
$GPGSA,M,3,03,16,32,19,22,,,,,,,,4.2,2.5,3.4*35
$GPGSV,3,1,12,06,74,156,10,03,64,199,27,22,48,153,20,16,46,324,21*71
$GPGSV,3,2,12,14,42,068,14,19,33,208,22,30,32,348,18,32,22,312,12*77
$GPGSV,3,3,12,18,15,142,,11,07,243,27,24,04,259,,21,03,104,*7E
$GPRMC,205209.000,A,1633.8297,S,06902.3781,W,3.97,254.28,270411,,,A*6B
$GPGGA,205210.000,1633.8301,S,06902.3808,W,1,06,1.3,3864.2,M,33.7,M,,0000*6C
$GPGSA,M,3,03,16,14,32,19,22,,,,,,,3.2,1.3,2.9*3E
$GPRMC,205210.000,A,1633.8301,S,06902.3808,W,5.68,265.41,270411,,,A*68
$GPGGA,205211.000,1633.8300,S,06902.3834,W,1,07,1.2,3870.1,M,33.7,M,,0000*65
$GPGSA,M,3,03,16,14,30,32,19,22,,,,,,3.2,1.2,2.9*3C
$GPRMC,205211.000,A,1633.8300,S,06902.3834,W,5.31,268.33,270411,,,A*63
$GPGGA,205212.000,1633.8303,S,06902.3840,W,1,07,1.2,3873.0,M,33.7,M,,0000*64
$GPGSA,M,3,03,16,14,30,32,19,22,,,,,,3.2,1.2,2.9*3C
$GPRMC,205212.000,A,1633.8303,S,06902.3840,W,3.43,272.60,270411,,,A*6E
$GPGGA,205213.000,1633.8301,S,06902.3829,W,1,06,1.3,3873.3,M,33.7,M,,0000*6B
$GPGSA,M,3,03,16,14,30,19,22,,,,,,,3.7,1.3,3.4*35
$GPRMC,205213.000,A,1633.8301,S,06902.3829,W,2.57,274.05,270411,,,A*63
$GPGGA,205214.000,1633.8300,S,06902.3819,W,1,04,3.2,3871.5,M,33.7,M,,0000*6B
$GPGSA,M,3,03,16,30,22,,,,,,,,,3.3,3.2,1.0*39
$GPGSV,3,1,12,06,74,156,13,03,64,199,20,22,48,153,20,16,46,324,20*74
$GPGSV,3,2,12,14,42,068,,19,33,208,18,30,32,348,26,32,22,312,12*76
$GPGSV,3,3,12,18,15,142,,11,07,243,18,24,04,259,,21,03,104,*72
$GPRMC,205214.000,A,1633.8300,S,06902.3819,W,1.33,286.62,270411,,,A*6B
$GPGGA,205215.000,1633.8297,S,06902.3818,W,1,04,3.2,3871.3,M,33.7,M,,0000*62
$GPGSA,M,3,03,16,30,22,,,,,,,,,3.3,3.2,1.0*39
$GPRMC,205215.000,A,1633.8297,S,06902.3818,W,0.36,18.75,270411,,,A*53
$GPGGA,205216.000,1633.8296,S,06902.3817,W,0,00,,3872.4,M,33.7,M,,0000*41
$GPGSA,M,1,,,,,,,,,,,,,,,*12
$GPRMC,205216.000,V,1633.8296,S,06902.3817,W,,,270411,,,N*78
$GPGGA,205217.000,1633.8285,S,06902.3796,W,1,05,3.4,3873.6,M,33.7,M,,0000*6A
$GPGSA,M,3,03,16,30,19,06,,,,,,,,5.0,3.4,3.7*31
$GPRMC,205217.000,A,1633.8285,S,06902.3796,W,1.69,59.64,270411,,,A*55
$GPGGA,205218.000,1633.8281,S,06902.3790,W,1,04,3.7,3872.3,M,33.7,M,,0000*61
$GPGSA,M,3,03,16,30,06,,,,,,,,,3.8,3.7,1.0*31
$GPRMC,205218.000,A,1633.8281,S,06902.3790,W,1.67,54.24,270411,,,A*5F
$GPGGA,205219.000,1633.8277,S,06902.3761,W,1,07,1.3,3868.9,M,33.7,M,,0000*63
$GPGSA,M,3,03,16,14,30,19,22,06,,,,,,3.0,1.3,2.7*36
$GPGSV,3,1,12,06,74,156,21,03,64,199,22,22,48,153,20,16,46,324,21*76
$GPGSV,3,2,12,14,42,068,20,19,33,208,18,30,32,348,21,32,22,312,11*70
$GPGSV,3,3,12,18,15,142,,11,07,243,15,24,04,259,,21,03,104,*7F
$GPRMC,205219.000,A,1633.8277,S,06902.3761,W,1.65,79.54,270411,,,A*53
$GPGGA,205220.000,1633.8279,S,06902.3733,W,1,07,1.3,3868.0,M,33.7,M,,0000*69
$GPGSA,M,3,03,16,14,30,19,22,06,,,,,,3.0,1.3,2.7*36
$GPRMC,205220.000,A,1633.8279,S,06902.3733,W,2.43,132.71,270411,,,A*6E
$GPGGA,205221.000,1633.8287,S,06902.3699,W,1,06,1.9,3868.3,M,33.7,M,,0000*60
$GPGSA,M,3,03,16,14,30,22,06,,,,,,,5.1,1.9,4.8*3A
$GPRMC,205221.000,A,1633.8287,S,06902.3699,W,4.68,135.96,270411,,,A*6E
$GPGGA,205222.000,1633.8293,S,06902.3680,W,1,08,1.1,3867.0,M,33.7,M,,0000*64
$GPGSA,M,3,03,16,14,30,19,22,06,18,,,,,2.1,1.1,1.8*31
$GPRMC,205222.000,A,1633.8293,S,06902.3680,W,2.86,107.85,270411,,,A*65
$GPGGA,205223.000,1633.8309,S,06902.3686,W,1,08,1.1,3859.0,M,33.7,M,,0000*6C
$GPGSA,M,3,03,16,14,30,19,22,06,18,,,,,2.1,1.1,1.8*31
$GPRMC,205223.000,A,1633.8309,S,06902.3686,W,0.42,147.63,270411,,,A*66
$GPGGA,205224.000,1633.8320,S,06902.3693,W,1,08,1.1,3855.1,M,33.7,M,,0000*69
$GPGSA,M,3,03,16,14,30,19,22,06,18,,,,,2.1,1.1,1.8*31
$GPGSV,3,1,12,06,74,156,22,03,64,199,21,22,48,153,29,16,46,324,21*7F
$GPGSV,3,2,12,14,42,068,20,19,33,208,25,30,32,348,20,32,22,312,12*7C
$GPGSV,3,3,12,18,15,142,30,11,07,243,13,24,04,259,,21,03,104,*7A
$GPRMC,205224.000,A,1633.8320,S,06902.3693,W,0.88,245.74,270411,,,A*6F
$GPGGA,205225.000,1633.8320,S,06902.3692,W,1,07,1.2,3855.6,M,33.7,M,,0000*62
$GPGSA,M,3,16,14,30,19,22,06,18,,,,,,2.3,1.2,1.9*32
$GPRMC,205225.000,A,1633.8320,S,06902.3692,W,1.09,229.82,270411,,,A*64
$GPGGA,205226.000,1633.8317,S,06902.3691,W,1,07,1.2,3855.1,M,33.7,M,,0000*61
$GPGSA,M,3,16,14,30,19,22,06,18,,,,,,2.3,1.2,1.9*32
$GPRMC,205226.000,A,1633.8317,S,06902.3691,W,0.58,225.37,270411,,,A*67
$GPGGA,205227.000,1633.8315,S,06902.3679,W,1,08,1.1,3855.8,M,33.7,M,,0000*61
$GPGSA,M,3,16,14,30,32,19,22,06,18,,,,,2.0,1.1,1.7*3D
$GPRMC,205227.000,A,1633.8315,S,06902.3679,W,0.34,36.76,270411,,,A*5D
$GPGGA,205228.000,1633.8311,S,06902.3673,W,1,08,1.1,3855.5,M,33.7,M,,0000*6D
$GPGSA,M,3,16,14,30,32,19,22,06,18,,,,,2.0,1.1,1.7*3D
$GPRMC,205228.000,A,1633.8311,S,06902.3673,W,0.83,82.76,270411,,,A*5F
$GPGGA,205229.000,1633.8309,S,06902.3665,W,1,08,1.1,3855.1,M,33.7,M,,0000*66
$GPGSA,M,3,16,14,30,32,19,22,06,18,,,,,2.0,1.1,1.7*3D
$GPGSV,3,1,12,06,74,156,20,03,64,199,,22,48,153,26,16,46,324,21*71
$GPGSV,3,2,12,14,42,068,16,19,33,208,23,30,32,348,18,32,22,312,12*74
$GPGSV,3,3,12,18,15,142,27,11,07,243,,24,04,259,,21,03,104,*7E
$GPRMC,205229.000,A,1633.8309,S,06902.3665,W,1.24,67.89,270411,,,A*57
$GPGGA,205230.000,1633.8305,S,06902.3656,W,1,08,1.1,3855.3,M,33.7,M,,0000*60
$GPGSA,M,3,16,14,30,32,19,22,06,18,,,,,2.0,1.1,1.7*3D
$GPRMC,205230.000,A,1633.8305,S,06902.3656,W,1.30,57.60,270411,,,A*52
$GPGGA,205231.000,1633.8298,S,06902.3651,W,1,08,1.1,3855.5,M,33.7,M,,0000*65
$GPGSA,M,3,16,14,30,32,19,22,06,18,,,,,2.0,1.1,1.7*3D
$GPRMC,205231.000,A,1633.8298,S,06902.3651,W,0.84,51.49,270411,,,A*52
$GPGGA,205232.000,1633.8300,S,06902.3648,W,1,08,1.1,3855.5,M,33.7,M,,0000*6E
$GPGSA,M,3,16,14,30,32,19,22,06,18,,,,,2.0,1.1,1.7*3D
$GPRMC,205232.000,A,1633.8300,S,06902.3648,W,0.65,141.91,270411,,,A*63
$GPGGA,205233.000,1633.8303,S,06902.3649,W,1,08,1.1,3855.3,M,33.7,M,,0000*6B
$GPGSA,M,3,16,14,30,32,19,22,06,18,,,,,2.0,1.1,1.7*3D
$GPRMC,205233.000,A,1633.8303,S,06902.3649,W,1.37,175.60,270411,,,A*6F
$GPGGA,205234.000,1633.8305,S,06902.3650,W,1,08,1.1,3856.2,M,33.7,M,,0000*60
$GPGSA,M,3,16,14,30,32,19,22,06,18,,,,,2.0,1.1,1.7*3D
$GPGSV,3,1,12,06,74,156,20,03,64,199,,22,48,153,26,16,46,324,20*70
$GPGSV,3,2,12,14,42,068,15,19,33,208,23,30,32,348,17,32,22,312,14*7E
$GPGSV,3,3,12,18,15,142,27,11,07,243,,24,04,259,,21,03,104,*7E
$GPRMC,205234.000,A,1633.8305,S,06902.3650,W,1.01,174.24,270411,,,A*62
$GPGGA,205235.000,1633.8307,S,06902.3653,W,1,08,1.1,3856.7,M,33.7,M,,0000*65
$GPGSA,M,3,16,14,30,32,19,22,06,18,,,,,2.0,1.1,1.7*3D
$GPRMC,205235.000,A,1633.8307,S,06902.3653,W,0.87,171.99,270411,,,A*6E
$GPGGA,205236.000,1633.8310,S,06902.3651,W,1,08,1.1,3857.6,M,33.7,M,,0000*62
$GPGSA,M,3,16,14,30,32,19,22,06,18,,,,,2.0,1.1,1.7*3D
$GPRMC,205236.000,A,1633.8310,S,06902.3651,W,1.03,154.42,270411,,,A*65
$GPGGA,205237.000,1633.8308,S,06902.3650,W,1,08,1.1,3858.3,M,33.7,M,,0000*61
$GPGSA,M,3,16,14,30,32,19,22,06,18,,,,,2.0,1.1,1.7*3D
$GPRMC,205237.000,A,1633.8308,S,06902.3650,W,0.89,142.41,270411,,,A*6B
$GPGGA,205238.000,1633.8310,S,06902.3649,W,1,08,1.1,3857.9,M,33.7,M,,0000*6A
$GPGSA,M,3,16,14,30,32,19,22,06,18,,,,,2.0,1.1,1.7*3D
$GPRMC,205238.000,A,1633.8310,S,06902.3649,W,1.12,224.23,270411,,,A*61
$GPGGA,205239.000,1633.8317,S,06902.3657,W,1,08,1.1,3855.1,M,33.7,M,,0000*69
$GPGSA,M,3,16,14,30,32,19,22,06,18,,,,,2.0,1.1,1.7*3D
$GPGSV,3,1,12,06,74,156,20,03,64,199,,22,48,153,26,16,46,324,20*70
$GPGSV,3,2,12,14,42,068,14,19,33,208,22,30,32,348,16,32,22,312,15*7E
$GPGSV,3,3,12,18,15,142,27,11,07,243,,24,04,259,,21,03,104,*7E
$GPRMC,205239.000,A,1633.8317,S,06902.3657,W,1.70,218.41,270411,,,A*67
$GPGGA,205240.000,1633.8321,S,06902.3658,W,1,08,1.1,3854.4,M,33.7,M,,0000*69
$GPGSA,M,3,16,14,30,32,19,22,06,18,,,,,2.0,1.1,1.7*3D
$GPRMC,205240.000,A,1633.8321,S,06902.3658,W,1.52,201.77,270411,,,A*6E
$GPGGA,205241.000,1633.8324,S,06902.3659,W,1,08,1.1,3852.4,M,33.7,M,,0000*6A
$GPGSA,M,3,16,14,30,32,19,22,06,18,,,,,2.0,1.1,1.7*3D
$GPRMC,205241.000,A,1633.8324,S,06902.3659,W,1.37,186.05,270411,,,A*61
$GPGGA,205242.000,1633.8332,S,06902.3663,W,1,08,1.1,3851.3,M,33.7,M,,0000*63
$GPGSA,M,3,16,14,30,32,19,22,06,18,,,,,2.0,1.1,1.7*3D
$GPRMC,205242.000,A,1633.8332,S,06902.3663,W,1.79,177.91,270411,,,A*65
$GPGGA,205243.000,1633.8334,S,06902.3662,W,1,08,1.1,3851.4,M,33.7,M,,0000*62
$GPGSA,M,3,16,14,30,32,19,22,06,18,,,,,2.0,1.1,1.7*3D
$GPRMC,205243.000,A,1633.8334,S,06902.3662,W,1.62,185.60,270411,,,A*6A
$GPGGA,205244.000,1633.8333,S,06902.3659,W,1,08,1.1,3852.4,M,33.7,M,,0000*69
$GPGSA,M,3,16,14,30,32,19,22,06,18,,,,,2.0,1.1,1.7*3D
$GPGSV,3,1,12,06,74,156,21,03,64,199,,22,48,153,26,16,46,324,20*71
$GPGSV,3,2,12,14,42,068,13,19,33,208,22,30,32,348,15,32,22,312,16*79
$GPGSV,3,3,12,18,15,142,27,11,07,243,,24,04,259,,21,03,104,*7E
$GPRMC,205244.000,A,1633.8333,S,06902.3659,W,1.17,198.24,270411,,,A*6C
$GPGGA,205245.000,1633.8333,S,06902.3661,W,1,08,1.1,3852.9,M,33.7,M,,0000*6E
$GPGSA,M,3,16,14,30,32,19,22,06,18,,,,,2.0,1.1,1.7*3D
$GPRMC,205245.000,A,1633.8333,S,06902.3661,W,2.03,221.83,270411,,,A*6C
$GPGGA,205246.000,1633.8333,S,06902.3662,W,1,09,1.0,3853.9,M,33.7,M,,0000*6F
$GPGSA,M,3,03,16,14,30,32,19,22,06,18,,,,1.9,1.0,1.5*37
$GPRMC,205246.000,A,1633.8333,S,06902.3662,W,2.82,221.67,270411,,,A*6F
$GPGGA,205247.000,1633.8338,S,06902.3665,W,1,09,1.0,3853.9,M,33.7,M,,0000*62
$GPGSA,M,3,03,16,14,30,32,19,22,06,18,,,,1.9,1.0,1.5*37
$GPRMC,205247.000,A,1633.8338,S,06902.3665,W,2.85,229.87,270411,,,A*63
$GPGGA,205248.000,1633.8340,S,06902.3671,W,1,09,1.0,3852.7,M,33.7,M,,0000*68
$GPGSA,M,3,03,16,14,30,32,19,22,06,18,,,,1.9,1.0,1.5*37
$GPRMC,205248.000,A,1633.8340,S,06902.3671,W,2.75,233.33,270411,,,A*6D
$GPGGA,205249.000,1633.8345,S,06902.3680,W,1,09,1.0,3850.4,M,33.7,M,,0000*63
$GPGSA,M,3,03,16,14,30,32,19,22,06,18,,,,1.9,1.0,1.5*37
$GPGSV,3,1,12,06,74,156,22,03,64,199,16,22,48,153,26,16,46,324,20*75
$GPGSV,3,2,12,14,42,068,12,19,33,208,21,30,32,348,16,32,22,312,16*78
$GPGSV,3,3,12,18,15,142,27,11,07,243,,24,04,259,,21,03,104,*7E
$GPRMC,205249.000,A,1633.8345,S,06902.3680,W,2.47,237.29,270411,,,A*69
$GPGGA,205250.000,1633.8343,S,06902.3682,W,1,09,1.0,3850.6,M,33.7,M,,0000*6D
$GPGSA,M,3,03,16,14,30,32,19,22,06,18,,,,1.9,1.0,1.5*37
$GPRMC,205250.000,A,1633.8343,S,06902.3682,W,2.18,248.12,270411,,,A*6F
$GPGGA,205251.000,1633.8342,S,06902.3684,W,1,08,1.1,3848.1,M,33.7,M,,0000*65
$GPGSA,M,3,03,16,14,30,19,22,06,18,,,,,2.1,1.1,1.8*31
$GPRMC,205251.000,A,1633.8342,S,06902.3684,W,1.88,250.50,270411,,,A*6C
$GPGGA,205252.000,1633.8341,S,06902.3683,W,1,08,1.4,3847.1,M,33.7,M,,0000*68
$GPGSA,M,3,03,16,30,32,19,22,06,18,,,,,2.1,1.4,1.6*3E
$GPRMC,205252.000,A,1633.8341,S,06902.3683,W,0.90,245.77,270411,,,A*62
$GPGGA,205253.000,1633.8336,S,06902.3680,W,1,08,1.4,3846.0,M,33.7,M,,0000*6A
$GPGSA,M,3,03,16,30,32,19,22,06,18,,,,,2.1,1.4,1.6*3E
$GPRMC,205253.000,A,1633.8336,S,06902.3680,W,1.00,65.03,270411,,,A*5B
$GPGGA,205254.000,1633.8329,S,06902.3672,W,1,07,1.4,3845.4,M,33.7,M,,0000*66
$GPGSA,M,3,16,30,32,19,22,06,18,,,,,,2.2,1.4,1.7*3F
$GPGSV,3,1,12,06,74,156,22,03,64,199,17,22,48,153,27,16,46,324,20*75
$GPGSV,3,2,12,14,42,068,12,19,33,208,21,30,32,348,16,32,22,312,16*78
$GPGSV,3,3,12,18,15,142,27,11,07,243,,24,04,259,,21,03,104,*7E
$GPRMC,205254.000,A,1633.8329,S,06902.3672,W,2.59,56.27,270411,,,A*56
$GPGGA,205255.000,1633.8329,S,06902.3676,W,1,07,1.4,3844.2,M,33.7,M,,0000*64
$GPGSA,M,3,16,30,32,19,22,06,18,,,,,,2.2,1.4,1.7*3F
$GPRMC,205255.000,A,1633.8329,S,06902.3676,W,1.16,72.99,270411,,,A*58
$GPGGA,205256.000,1633.8330,S,06902.3683,W,1,08,1.4,3843.5,M,33.7,M,,0000*6A
$GPGSA,M,3,03,16,30,32,19,22,06,18,,,,,2.1,1.4,1.6*3E
$GPRMC,205256.000,A,1633.8330,S,06902.3683,W,0.68,86.94,270411,,,A*57
$GPGGA,205257.000,1633.8331,S,06902.3679,W,1,08,1.4,3843.9,M,33.7,M,,0000*63
$GPGSA,M,3,03,16,30,32,19,22,06,18,,,,,2.1,1.4,1.6*3E
$GPRMC,205257.000,A,1633.8331,S,06902.3679,W,0.67,155.07,270411,,,A*68
$GPGGA,205258.000,1633.8334,S,06902.3682,W,1,08,1.4,3843.6,M,33.7,M,,0000*62
$GPGSA,M,3,03,16,30,32,19,22,06,18,,,,,2.1,1.4,1.6*3E
$GPRMC,205258.000,A,1633.8334,S,06902.3682,W,1.60,200.97,270411,,,A*6A
$GPGGA,205259.000,1633.8330,S,06902.3675,W,1,08,1.4,3843.5,M,33.7,M,,0000*6C
$GPGSA,M,3,03,16,30,32,19,22,06,18,,,,,2.1,1.4,1.6*3E
$GPGSV,3,1,12,06,74,156,22,03,64,199,17,22,48,153,27,16,46,324,20*75
$GPGSV,3,2,12,14,42,068,,19,33,208,20,30,32,348,17,32,22,312,17*7A
$GPGSV,3,3,12,18,15,142,26,11,07,243,,24,04,259,,21,03,104,*7F
$GPRMC,205259.000,A,1633.8330,S,06902.3675,W,0.93,114.17,270411,,,A*64
$GPGGA,205300.000,1633.8322,S,06902.3663,W,1,08,1.4,3844.0,M,33.7,M,,0000*67
$GPGSA,M,3,03,16,30,32,19,22,06,18,,,,,2.1,1.4,1.6*3E
$GPRMC,205300.000,A,1633.8322,S,06902.3663,W,2.40,77.19,270411,,,A*5B
$GPGGA,205301.000,1633.8316,S,06902.3655,W,1,08,1.4,3844.3,M,33.7,M,,0000*67
$GPGSA,M,3,03,16,30,32,19,22,06,18,,,,,2.1,1.4,1.6*3E
$GPRMC,205301.000,A,1633.8316,S,06902.3655,W,2.34,69.36,270411,,,A*59
$GPGGA,205302.000,1633.8319,S,06902.3654,W,1,07,1.6,3845.8,M,33.7,M,,0000*6D
$GPGSA,M,3,03,16,32,19,22,06,18,,,,,,2.2,1.6,1.6*3C
$GPRMC,205302.000,A,1633.8319,S,06902.3654,W,1.08,76.79,270411,,,A*5D
$GPGGA,205303.000,1633.8311,S,06902.3647,W,1,08,1.4,3845.7,M,33.7,M,,0000*64
$GPGSA,M,3,03,16,30,32,19,22,06,18,,,,,2.1,1.4,1.6*3E
$GPRMC,205303.000,A,1633.8311,S,06902.3647,W,1.02,74.27,270411,,,A*55
$GPGGA,205304.000,1633.8311,S,06902.3647,W,1,07,1.6,3845.6,M,33.7,M,,0000*6F
$GPGSA,M,3,03,16,32,19,22,06,18,,,,,,2.2,1.6,1.6*3C
$GPGSV,3,1,12,06,74,156,22,03,64,199,18,22,48,153,27,16,46,324,21*7B
$GPGSV,3,2,12,14,42,068,,19,33,208,20,30,32,348,18,32,22,312,17*75
$GPGSV,3,3,12,18,15,142,26,11,07,243,,24,04,259,,21,03,104,*7F
$GPRMC,205304.000,A,1633.8311,S,06902.3647,W,0.29,275.18,270411,,,A*65
$GPGGA,205305.000,1633.8309,S,06902.3636,W,1,08,1.4,3845.0,M,33.7,M,,0000*6A
$GPGSA,M,3,03,16,30,32,19,22,06,18,,,,,2.1,1.4,1.6*3E
$GPRMC,205305.000,A,1633.8309,S,06902.3636,W,0.91,47.18,270411,,,A*5B
$GPGGA,205306.000,1633.8312,S,06902.3637,W,1,08,1.4,3844.2,M,33.7,M,,0000*61
$GPGSA,M,3,03,16,30,32,19,22,06,18,,,,,2.1,1.4,1.6*3E
$GPRMC,205306.000,A,1633.8312,S,06902.3637,W,0.86,45.60,270411,,,A*58
$GPGGA,205307.000,1633.8312,S,06902.3639,W,1,08,1.4,3843.8,M,33.7,M,,0000*63
$GPGSA,M,3,03,16,30,32,19,22,06,18,,,,,2.1,1.4,1.6*3E
$GPRMC,205307.000,A,1633.8312,S,06902.3639,W,0.44,11.42,270411,,,A*58
$GPGGA,205308.000,1633.8316,S,06902.3646,W,1,06,1.7,3844.5,M,33.7,M,,0000*67
$GPGSA,M,3,16,32,19,22,06,18,,,,,,,2.4,1.7,1.7*39
$GPRMC,205308.000,A,1633.8316,S,06902.3646,W,0.42,250.29,270411,,,A*67
$GPGGA,205309.000,1633.8322,S,06902.3652,W,1,08,1.4,3844.2,M,33.7,M,,0000*6E
$GPGSA,M,3,03,16,30,32,19,22,06,18,,,,,2.1,1.4,1.6*3E
$GPGSV,3,1,12,06,74,156,23,03,64,199,19,22,48,153,27,16,46,324,21*7B
$GPGSV,3,2,12,14,42,068,,19,33,208,19,30,32,348,19,32,22,312,18*71
$GPGSV,3,3,12,18,15,142,26,11,07,243,,24,04,259,,21,03,104,*7F
$GPRMC,205309.000,A,1633.8322,S,06902.3652,W,0.29,212.34,270411,,,A*63
$GPGGA,205310.000,1633.8319,S,06902.3647,W,1,08,1.4,3845.5,M,33.7,M,,0000*6C
$GPGSA,M,3,03,16,30,32,19,22,06,18,,,,,2.1,1.4,1.6*3E
$GPRMC,205310.000,A,1633.8319,S,06902.3647,W,0.24,161.84,270411,,,A*66
$GPGGA,205311.000,1633.8324,S,06902.3651,W,1,08,1.4,3845.9,M,33.7,M,,0000*68
$GPGSA,M,3,03,16,30,32,19,22,06,18,,,,,2.1,1.4,1.6*3E
$GPRMC,205311.000,A,1633.8324,S,06902.3651,W,0.56,202.12,270411,,,A*62
$GPGGA,205312.000,1633.8329,S,06902.3663,W,1,08,1.4,3845.9,M,33.7,M,,0000*67
$GPGSA,M,3,03,16,30,32,19,22,06,18,,,,,2.1,1.4,1.6*3E
$GPRMC,205312.000,A,1633.8329,S,06902.3663,W,1.60,251.21,270411,,,A*6F
$GPGGA,205313.000,1633.8331,S,06902.3668,W,1,08,1.4,3844.8,M,33.7,M,,0000*64
$GPGSA,M,3,03,16,30,32,19,22,06,18,,,,,2.1,1.4,1.6*3E
$GPRMC,205313.000,A,1633.8331,S,06902.3668,W,1.74,242.45,270411,,,A*69
$GPGGA,205314.000,1633.8337,S,06902.3667,W,1,07,2.2,3846.0,M,33.7,M,,0000*6A
$GPGSA,M,3,03,16,30,32,22,06,18,,,,,,2.7,2.2,1.7*34
$GPGSV,3,1,12,06,74,156,23,03,64,199,19,22,48,153,27,16,46,324,21*7B
$GPGSV,3,2,12,14,42,068,,19,33,208,19,30,32,348,19,32,22,312,17*7E
$GPGSV,3,3,12,18,15,142,26,11,07,243,,24,04,259,,21,03,104,*7F
$GPRMC,205314.000,A,1633.8337,S,06902.3667,W,0.38,141.25,270411,,,A*68
$GPGGA,205315.000,1633.8338,S,06902.3671,W,1,08,1.4,3844.7,M,33.7,M,,0000*6C
$GPGSA,M,3,03,16,30,32,19,22,06,18,,,,,2.1,1.4,1.6*3E
$GPRMC,205315.000,A,1633.8338,S,06902.3671,W,0.63,83.08,270411,,,A*5F
$GPGGA,205316.000,1633.8341,S,06902.3672,W,1,08,1.4,3844.9,M,33.7,M,,0000*6C
$GPGSA,M,3,03,16,30,32,19,22,06,18,,,,,2.1,1.4,1.6*3E
$GPRMC,205316.000,A,1633.8341,S,06902.3672,W,1.04,74.33,270411,,,A*51
$GPGGA,205317.000,1633.8343,S,06902.3669,W,1,08,1.4,3844.5,M,33.7,M,,0000*69
$GPGSA,M,3,03,16,30,32,19,22,06,18,,,,,2.1,1.4,1.6*3E
$GPRMC,205317.000,A,1633.8343,S,06902.3669,W,0.74,88.74,270411,,,A*5E
$GPGGA,205318.000,1633.8344,S,06902.3671,W,1,08,1.4,3842.8,M,33.7,M,,0000*63
$GPGSA,M,3,03,16,30,32,19,22,06,18,,,,,2.1,1.4,1.6*3E
$GPRMC,205318.000,A,1633.8344,S,06902.3671,W,0.26,51.39,270411,,,A*55
$GPGGA,205319.000,1633.8342,S,06902.3663,W,1,08,1.4,3843.8,M,33.7,M,,0000*66
$GPGSA,M,3,03,16,30,32,19,22,06,18,,,,,2.1,1.4,1.6*3E
$GPGSV,3,1,12,06,74,156,23,03,64,199,19,22,48,153,27,16,46,324,21*7B
$GPGSV,3,2,12,14,42,068,,19,33,208,19,30,32,348,19,32,22,312,18*71
$GPGSV,3,3,12,18,15,142,26,11,07,243,,24,04,259,,21,03,104,*7F
$GPRMC,205319.000,A,1633.8342,S,06902.3663,W,1.19,58.00,270411,,,A*5F
$GPGGA,205320.000,1633.8336,S,06902.3658,W,1,08,1.4,3844.4,M,33.7,M,,0000*6C
$GPGSA,M,3,03,16,30,32,19,22,06,18,,,,,2.1,1.4,1.6*3E
$GPRMC,205320.000,A,1633.8336,S,06902.3658,W,1.56,41.97,270411,,,A*53
$GPGGA,205321.000,1633.8337,S,06902.3657,W,1,08,1.4,3844.2,M,33.7,M,,0000*65
$GPGSA,M,3,03,16,30,32,19,22,06,18,,,,,2.1,1.4,1.6*3E
$GPRMC,205321.000,A,1633.8337,S,06902.3657,W,1.38,42.30,270411,,,A*5A
$GPGGA,205322.000,1633.8331,S,06902.3653,W,1,09,1.0,3843.6,M,33.7,M,,0000*62
$GPGSA,M,3,03,14,16,30,32,19,22,06,18,,,,1.9,1.0,1.5*37
$GPRMC,205322.000,A,1633.8331,S,06902.3653,W,1.50,55.44,270411,,,A*50
$GPGGA,205323.000,1633.8327,S,06902.3646,W,1,09,1.0,3844.6,M,33.7,M,,0000*67
$GPGSA,M,3,03,14,16,30,32,19,22,06,18,,,,1.9,1.0,1.5*37
$GPRMC,205323.000,A,1633.8327,S,06902.3646,W,1.70,49.03,270411,,,A*5E
$GPGGA,205324.000,1633.8319,S,06902.3638,W,1,09,1.0,3843.8,M,33.7,M,,0000*6D
$GPGSA,M,3,03,14,16,30,32,19,22,06,18,,,,1.9,1.0,1.5*37
$GPGSV,3,1,12,06,74,156,22,03,64,199,19,22,48,153,26,16,46,324,20*7A
$GPGSV,3,2,12,14,42,068,16,19,33,208,19,30,32,348,19,32,22,312,17*79
$GPGSV,3,3,12,18,15,142,25,11,07,243,,24,04,259,,21,03,104,*7C
$GPRMC,205324.000,A,1633.8319,S,06902.3638,W,1.00,41.36,270411,,,A*54
$GPGGA,205325.000,1633.8316,S,06902.3639,W,1,09,1.0,3844.4,M,33.7,M,,0000*69
$GPGSA,M,3,03,14,16,30,32,19,22,06,18,,,,1.9,1.0,1.5*37
$GPRMC,205325.000,A,1633.8316,S,06902.3639,W,0.92,43.49,270411,,,A*5B
$GPGGA,205326.000,1633.8314,S,06902.3638,W,1,09,1.0,3845.2,M,33.7,M,,0000*6E
$GPGSA,M,3,03,14,16,30,32,19,22,06,18,,,,1.9,1.0,1.5*37
$GPRMC,205326.000,A,1633.8314,S,06902.3638,W,0.67,57.87,270411,,,A*56
$GPGGA,205327.000,1633.8318,S,06902.3641,W,1,09,1.0,3844.9,M,33.7,M,,0000*67
$GPGSA,M,3,03,14,16,30,32,19,22,06,18,,,,1.9,1.0,1.5*37
$GPRMC,205327.000,A,1633.8318,S,06902.3641,W,0.58,161.90,270411,,,A*6B
$GPGGA,205328.000,1633.8319,S,06902.3642,W,1,07,1.5,3843.5,M,33.7,M,,0000*6A
$GPGSA,M,3,03,16,30,19,22,06,18,,,,,,2.4,1.5,1.8*35
$GPRMC,205328.000,A,1633.8319,S,06902.3642,W,1.46,221.20,270411,,,A*64
$GPGGA,205329.000,1633.8325,S,06902.3648,W,1,09,1.0,3843.2,M,33.7,M,,0000*62
$GPGSA,M,3,03,14,16,30,32,19,22,06,18,,,,1.9,1.0,1.5*37
$GPGSV,3,1,12,06,74,156,22,03,64,199,19,22,48,153,26,16,46,324,20*7A
$GPGSV,3,2,12,14,42,068,17,19,33,208,19,30,32,348,19,32,22,312,16*79
$GPGSV,3,3,12,18,15,142,25,11,07,243,,24,04,259,,21,03,104,*7C
$GPRMC,205329.000,A,1633.8325,S,06902.3648,W,1.63,224.50,270411,,,A*65
$GPGGA,205330.000,1633.8324,S,06902.3649,W,1,09,1.0,3843.0,M,33.7,M,,0000*68
$GPGSA,M,3,03,14,16,30,32,19,22,06,18,,,,1.9,1.0,1.5*37
$GPRMC,205330.000,A,1633.8324,S,06902.3649,W,1.70,228.02,270411,,,A*64
$GPGGA,205331.000,1633.8329,S,06902.3653,W,1,09,1.0,3842.7,M,33.7,M,,0000*69
$GPGSA,M,3,03,14,16,30,32,19,22,06,18,,,,1.9,1.0,1.5*37
$GPRMC,205331.000,A,1633.8329,S,06902.3653,W,2.39,214.21,270411,,,A*63
$GPGGA,205332.000,1633.8329,S,06902.3653,W,1,09,1.0,3842.5,M,33.7,M,,0000*68
$GPGSA,M,3,03,14,16,30,32,19,22,06,18,,,,1.9,1.0,1.5*37
$GPRMC,205332.000,A,1633.8329,S,06902.3653,W,0.88,242.48,270411,,,A*64
$GPGGA,205333.000,1633.8325,S,06902.3651,W,1,09,1.0,3841.6,M,33.7,M,,0000*67
$GPGSA,M,3,03,14,16,30,32,19,22,06,18,,,,1.9,1.0,1.5*37
$GPRMC,205333.000,A,1633.8325,S,06902.3651,W,0.12,22.80,270411,,,A*58
$GPGGA,205334.000,1633.8323,S,06902.3652,W,1,09,1.0,3842.2,M,33.7,M,,0000*62
$GPGSA,M,3,03,14,16,30,32,19,22,06,18,,,,1.9,1.0,1.5*37
$GPGSV,3,1,12,06,74,156,21,03,64,199,19,22,48,153,25,16,46,324,21*7B
$GPGSV,3,2,12,14,42,068,17,19,33,208,19,30,32,348,19,32,22,312,16*79
$GPGSV,3,3,12,18,15,142,25,11,07,243,,24,04,259,,21,03,104,*7C
$GPRMC,205334.000,A,1633.8323,S,06902.3652,W,0.22,47.29,270411,,,A*59
$GPGGA,205335.000,1633.8321,S,06902.3655,W,1,09,1.0,3841.4,M,33.7,M,,0000*63
$GPGSA,M,3,03,14,16,30,32,19,22,06,18,,,,1.9,1.0,1.5*37
$GPRMC,205335.000,A,1633.8321,S,06902.3655,W,0.34,57.34,270411,,,A*57
$GPGGA,205336.000,1633.8318,S,06902.3654,W,1,09,1.0,3841.2,M,33.7,M,,0000*6D
$GPGSA,M,3,03,14,16,30,32,19,22,06,18,,,,1.9,1.0,1.5*37
$GPRMC,205336.000,A,1633.8318,S,06902.3654,W,0.39,260.38,270411,,,A*68
$GPGGA,205337.000,1633.8315,S,06902.3655,W,1,06,1.7,3840.4,M,33.7,M,,0000*6F
$GPGSA,M,3,03,16,19,22,06,18,,,,,,,2.6,1.7,2.0*3D
$GPRMC,205337.000,A,1633.8315,S,06902.3655,W,0.35,330.06,270411,,,A*60
$GPGGA,205338.000,1633.8314,S,06902.3658,W,1,09,1.0,3839.7,M,33.7,M,,0000*69
$GPGSA,M,3,03,14,16,30,32,19,22,06,18,,,,1.9,1.0,1.5*37
$GPRMC,205338.000,A,1633.8314,S,06902.3658,W,0.73,38.96,270411,,,A*53
$GPGGA,205339.000,1633.8314,S,06902.3660,W,1,09,1.0,3839.2,M,33.7,M,,0000*66
$GPGSA,M,3,03,14,16,30,32,19,22,06,18,,,,1.9,1.0,1.5*37
$GPGSV,3,1,12,06,74,156,20,03,64,199,19,22,48,153,25,16,46,324,21*7A
$GPGSV,3,2,12,14,42,068,17,19,33,208,19,30,32,348,19,32,22,312,16*79
$GPGSV,3,3,12,18,15,142,25,11,07,243,,24,04,259,,21,03,104,*7C
$GPRMC,205339.000,A,1633.8314,S,06902.3660,W,1.27,59.48,270411,,,A*5D
$GPGGA,205340.000,1633.8310,S,06902.3657,W,1,09,1.0,3838.9,M,33.7,M,,0000*62
$GPGSA,M,3,03,14,16,30,32,19,22,06,18,,,,1.9,1.0,1.5*37
$GPRMC,205340.000,A,1633.8310,S,06902.3657,W,2.16,54.36,270411,,,A*56
$GPGGA,205341.000,1633.8304,S,06902.3654,W,1,09,1.0,3839.2,M,33.7,M,,0000*6F
$GPGSA,M,3,03,14,16,30,32,19,22,06,18,,,,1.9,1.0,1.5*37
$GPRMC,205341.000,A,1633.8304,S,06902.3654,W,1.64,62.71,270411,,,A*51
$GPGGA,205342.000,1633.8301,S,06902.3650,W,1,09,1.0,3839.4,M,33.7,M,,0000*6B
$GPGSA,M,3,03,14,16,30,32,19,22,06,18,,,,1.9,1.0,1.5*37
$GPRMC,205342.000,A,1633.8301,S,06902.3650,W,0.69,49.60,270411,,,A*56
$GPGGA,205343.000,1633.8298,S,06902.3643,W,1,09,1.0,3840.0,M,33.7,M,,0000*63
$GPGSA,M,3,03,14,16,30,32,19,22,06,18,,,,1.9,1.0,1.5*37
$GPRMC,205343.000,A,1633.8298,S,06902.3643,W,1.14,98.59,270411,,,A*59
$GPGGA,205344.000,1633.8294,S,06902.3634,W,1,09,1.0,3841.1,M,33.7,M,,0000*68
$GPGSA,M,3,03,14,16,30,32,19,22,06,18,,,,1.9,1.0,1.5*37
$GPGSV,3,1,12,06,74,156,16,03,64,199,19,22,48,153,23,16,46,324,21*79
$GPGSV,3,2,12,14,42,068,17,19,33,208,20,30,32,348,18,32,22,312,16*72
$GPGSV,3,3,12,18,15,142,25,11,07,243,,24,04,259,,21,03,104,*7C
$GPRMC,205344.000,A,1633.8294,S,06902.3634,W,1.58,82.81,270411,,,A*54
$GPGGA,205345.000,1633.8290,S,06902.3631,W,1,09,1.0,3842.5,M,33.7,M,,0000*6F
$GPGSA,M,3,03,14,16,30,32,19,22,06,18,,,,1.9,1.0,1.5*37
$GPRMC,205345.000,A,1633.8290,S,06902.3631,W,0.83,76.44,270411,,,A*51
$GPGGA,205346.000,1633.8287,S,06902.3630,W,1,09,1.0,3843.1,M,33.7,M,,0000*6E
$GPGSA,M,3,03,14,16,30,32,19,22,06,18,,,,1.9,1.0,1.5*37
$GPRMC,205346.000,A,1633.8287,S,06902.3630,W,0.24,166.15,270411,,,A*6C
$GPGGA,205347.000,1633.8287,S,06902.3631,W,1,07,1.6,3840.7,M,33.7,M,,0000*63
$GPGSA,M,3,03,16,32,19,22,06,18,,,,,,2.2,1.6,1.6*3C
$GPRMC,205347.000,A,1633.8287,S,06902.3631,W,0.12,316.20,270411,,,A*6A
$GPGGA,205348.000,1633.8289,S,06902.3635,W,1,09,1.0,3840.7,M,33.7,M,,0000*6E
$GPGSA,M,3,03,14,16,30,32,19,22,06,18,,,,1.9,1.0,1.5*37
$GPRMC,205348.000,A,1633.8289,S,06902.3635,W,0.21,303.02,270411,,,A*6B
$GPGGA,205349.000,1633.8285,S,06902.3636,W,1,09,1.0,3840.8,M,33.7,M,,0000*6F
$GPGSA,M,3,03,14,16,30,32,19,22,06,18,,,,1.9,1.0,1.5*37
$GPGSV,3,1,12,06,74,156,15,03,64,199,19,22,48,153,22,16,46,324,21*7B
$GPGSV,3,2,12,14,42,068,16,19,33,208,19,30,32,348,17,32,22,312,15*75
$GPGSV,3,3,12,18,15,142,25,11,07,243,,24,04,259,,21,03,104,*7C
$GPRMC,205349.000,A,1633.8285,S,06902.3636,W,0.85,284.12,270411,,,A*64
$GPGGA,205350.000,1633.8282,S,06902.3633,W,1,09,1.0,3841.5,M,33.7,M,,0000*69
$GPGSA,M,3,03,14,16,30,32,19,22,06,18,,,,1.9,1.0,1.5*37
$GPRMC,205350.000,A,1633.8282,S,06902.3633,W,0.36,334.27,270411,,,A*6A
$GPGGA,205351.000,1633.8284,S,06902.3630,W,1,09,1.0,3842.0,M,33.7,M,,0000*6B
$GPGSA,M,3,03,14,16,30,32,19,22,06,18,,,,1.9,1.0,1.5*37
$GPRMC,205351.000,A,1633.8284,S,06902.3630,W,1.05,93.04,270411,,,A*50
$GPGGA,205352.000,1633.8286,S,06902.3620,W,1,09,1.0,3844.6,M,33.7,M,,0000*6B
$GPGSA,M,3,03,14,16,30,32,19,22,06,18,,,,1.9,1.0,1.5*37
$GPRMC,205352.000,A,1633.8286,S,06902.3620,W,2.09,88.79,270411,,,A*5F
$GPGGA,205353.000,1633.8285,S,06902.3614,W,1,08,1.1,3843.8,M,33.7,M,,0000*67
$GPGSA,M,3,03,14,16,32,19,22,06,18,,,,,1.9,1.1,1.6*36
$GPRMC,205353.000,A,1633.8285,S,06902.3614,W,1.92,83.72,270411,,,A*5B
$GPGGA,205354.000,1633.8285,S,06902.3607,W,1,09,1.0,3845.3,M,33.7,M,,0000*6F
$GPGSA,M,3,03,14,16,30,32,19,22,06,18,,,,1.9,1.0,1.5*37
$GPGSV,3,1,12,06,74,156,15,03,64,199,19,22,48,153,21,16,46,324,22*7B
$GPGSV,3,2,12,14,42,068,15,19,33,208,20,30,32,348,17,32,22,312,14*7D
$GPGSV,3,3,12,18,15,142,25,11,07,243,,24,04,259,,21,03,104,*7C
$GPRMC,205354.000,A,1633.8285,S,06902.3607,W,1.93,94.87,270411,,,A*53
$GPGGA,205355.000,1633.8290,S,06902.3608,W,1,08,1.1,3845.5,M,33.7,M,,0000*63
$GPGSA,M,3,03,14,16,32,19,22,06,18,,,,,1.9,1.1,1.6*36
$GPRMC,205355.000,A,1633.8290,S,06902.3608,W,1.36,103.45,270411,,,A*67
$GPGGA,205356.000,1633.8289,S,06902.3601,W,1,08,1.1,3844.9,M,33.7,M,,0000*6C
$GPGSA,M,3,03,14,16,32,19,22,06,18,,,,,1.9,1.1,1.6*36
$GPRMC,205356.000,A,1633.8289,S,06902.3601,W,0.96,88.35,270411,,,A*5B
$GPGGA,205357.000,1633.8287,S,06902.3597,W,1,05,1.9,3846.8,M,33.7,M,,0000*69
$GPGSA,M,3,03,16,19,22,18,,,,,,,,3.1,1.9,2.4*37
$GPRMC,205357.000,A,1633.8287,S,06902.3597,W,1.15,63.50,270411,,,A*54
$GPGGA,205358.000,1633.8283,S,06902.3595,W,1,08,1.1,3847.9,M,33.7,M,,0000*65
$GPGSA,M,3,03,14,16,32,19,22,06,18,,,,,1.9,1.1,1.6*36
$GPRMC,205358.000,A,1633.8283,S,06902.3595,W,1.05,43.30,270411,,,A*58
$GPGGA,205359.000,1633.8286,S,06902.3595,W,1,09,1.0,3848.7,M,33.7,M,,0000*60
$GPGSA,M,3,03,14,16,30,32,19,22,06,18,,,,1.9,1.0,1.5*37
$GPGSV,3,1,12,06,74,156,15,03,64,199,19,22,48,153,18,16,46,324,23*70
