$GPGGA,184422.002,1456.0587,S,07352.5626,W,1,10,0.9,3880.8,M,24.4,M,,0000*61
$GPGSA,M,3,18,30,22,21,16,31,25,06,29,03,,,1.7,0.9,1.5*30
$GPRMC,184422.002,A,1456.0587,S,07352.5626,W,15.02,305.95,190411,,,A*52
$GPGGA,184422.999,1456.0566,S,07352.5659,W,1,10,0.9,3881.3,M,24.4,M,,0000*67
$GPGSA,M,3,18,30,22,21,16,31,25,06,29,03,,,1.7,0.9,1.5*30
$GPRMC,184422.999,A,1456.0566,S,07352.5659,W,14.24,303.80,190411,,,A*59
$GPGGA,184423.996,1456.0542,S,07352.5695,W,1,10,0.9,3882.4,M,24.4,M,,0000*6B
$GPGSA,M,3,18,30,22,21,16,31,25,06,29,03,,,1.7,0.9,1.5*30
$GPRMC,184423.996,A,1456.0542,S,07352.5695,W,14.55,306.85,190411,,,A*57
$GPGGA,184425.002,1456.0518,S,07352.5726,W,1,10,0.9,3882.2,M,24.4,M,,0000*69
$GPGSA,M,3,18,30,22,21,16,31,25,06,29,03,,,1.7,0.9,1.5*30
$GPGSV,3,1,11,18,59,071,41,30,57,212,38,22,49,009,39,21,38,157,37*77
$GPGSV,3,2,11,16,33,211,38,31,33,319,36,25,26,040,40,06,20,224,32*78
$GPGSV,3,3,11,29,16,104,39,03,11,230,24,14,06,004,26*4D
$GPRMC,184425.002,A,1456.0518,S,07352.5726,W,13.34,306.79,190411,,,A*50
$GPGGA,184425.998,1456.0492,S,07352.5757,W,1,10,0.9,3883.1,M,24.4,M,,0000*64
$GPGSA,M,3,18,30,22,21,16,31,25,06,29,03,,,1.7,0.9,1.5*30
$GPRMC,184425.998,A,1456.0492,S,07352.5757,W,14.61,315.13,190411,,,A*56
$GPGGA,184427.003,1456.0463,S,07352.5785,W,1,10,0.9,3883.3,M,24.4,M,,0000*6E
$GPGSA,M,3,18,30,22,21,16,31,25,06,29,03,,,1.7,0.9,1.5*30
$GPRMC,184427.003,A,1456.0463,S,07352.5785,W,14.02,318.26,190411,,,A*50
$GPGGA,184427.998,1456.0433,S,07352.5812,W,1,10,0.9,3883.5,M,24.4,M,,0000*67
$GPGSA,M,3,18,30,22,21,16,31,25,06,29,03,,,1.7,0.9,1.5*30
$GPRMC,184427.998,A,1456.0433,S,07352.5812,W,15.01,318.56,190411,,,A*5A
$GPGGA,184429.002,1456.0399,S,07352.5840,W,1,09,0.9,3883.0,M,24.4,M,,0000*6E
$GPGSA,M,3,18,30,22,21,16,31,25,29,03,,,,1.8,0.9,1.5*39
$GPRMC,184429.002,A,1456.0399,S,07352.5840,W,15.43,321.40,190411,,,A*55
$GPGGA,184429.998,1456.0365,S,07352.5871,W,1,10,0.9,3884.1,M,24.4,M,,0000*6B
$GPGSA,M,3,18,30,22,21,16,31,25,06,29,03,,,1.7,0.9,1.5*30
$GPGSV,3,1,11,18,59,071,41,30,57,212,41,22,49,009,40,21,38,157,40*77
$GPGSV,3,2,11,16,33,211,34,31,33,319,35,25,26,040,41,06,20,224,33*77
$GPGSV,3,3,11,29,16,104,37,03,11,230,36,14,06,004,30*47
$GPRMC,184429.998,A,1456.0365,S,07352.5871,W,15.30,314.57,190411,,,A*5A
$GPGGA,184431.000,1456.0335,S,07352.5902,W,1,10,0.9,3884.0,M,24.4,M,,0000*6B
$GPGSA,M,3,18,30,22,21,16,31,25,06,29,03,,,1.7,0.9,1.5*30
$GPRMC,184431.000,A,1456.0335,S,07352.5902,W,15.08,314.04,190411,,,A*56
$GPGGA,184432.000,1456.0306,S,07352.5936,W,1,10,0.9,3883.5,M,24.4,M,,0000*6D
$GPGSA,M,3,18,30,22,21,16,31,25,06,29,03,,,1.7,0.9,1.5*30
$GPRMC,184432.000,A,1456.0306,S,07352.5936,W,15.63,308.62,190411,,,A*52
$GPGGA,184433.000,1456.0280,S,07352.5971,W,1,10,0.9,3884.6,M,24.4,M,,0000*64
$GPGSA,M,3,18,30,22,21,16,31,25,06,29,03,,,1.7,0.9,1.5*30
$GPRMC,184433.000,A,1456.0280,S,07352.5971,W,15.17,301.90,190411,,,A*58
$GPGGA,184434.000,1456.0258,S,07352.6007,W,1,10,0.9,3884.2,M,24.4,M,,0000*69
$GPGSA,M,3,18,30,22,21,16,31,25,06,29,03,,,1.7,0.9,1.5*30
$GPRMC,184434.000,A,1456.0258,S,07352.6007,W,14.92,302.57,190411,,,A*55
$GPGGA,184435.000,1456.0238,S,07352.6041,W,1,10,0.9,3885.0,M,24.4,M,,0000*6F
$GPGSA,M,3,18,30,22,21,16,31,25,06,29,03,,,1.7,0.9,1.5*30
$GPGSV,3,1,11,18,59,071,40,30,57,212,36,22,49,009,40,21,38,157,32*73
$GPGSV,3,2,11,16,33,211,29,31,33,319,36,25,26,040,40,06,20,224,30*7A
$GPGSV,3,3,11,29,16,104,33,03,11,230,28,14,06,004,30*4C
$GPRMC,184435.000,A,1456.0238,S,07352.6041,W,14.40,303.14,190411,,,A*59
$GPGGA,184436.002,1456.0217,S,07352.6079,W,1,09,0.9,3884.7,M,24.4,M,,0000*66
$GPGSA,M,3,18,30,22,21,16,31,25,29,03,,,,1.8,0.9,1.5*39
$GPRMC,184436.002,A,1456.0217,S,07352.6079,W,14.67,297.95,190411,,,A*5E
$GPGGA,184437.000,1456.0199,S,07352.6114,W,1,09,0.9,3886.3,M,24.4,M,,0000*6C
$GPGSA,M,3,18,30,22,21,16,31,25,06,29,,,,2.0,0.9,1.7*35
$GPRMC,184437.000,A,1456.0199,S,07352.6114,W,14.46,299.65,190411,,,A*50
$GPGGA,184438.000,1456.0180,S,07352.6151,W,1,09,0.9,3886.7,M,24.4,M,,0000*6E
$GPGSA,M,3,18,30,22,21,16,31,25,06,29,,,,2.0,0.9,1.7*35
$GPRMC,184438.000,A,1456.0180,S,07352.6151,W,15.39,298.17,190411,,,A*5B
$GPGGA,184439.000,1456.0160,S,07352.6189,W,1,09,0.9,3887.4,M,24.4,M,,0000*66
$GPGSA,M,3,18,30,22,21,16,31,25,06,29,,,,2.0,0.9,1.7*35
$GPRMC,184439.000,A,1456.0160,S,07352.6189,W,15.09,298.59,190411,,,A*58
$GPGGA,184439.998,1456.0137,S,07352.6228,W,1,09,0.9,3888.0,M,24.4,M,,0000*6F
$GPGSA,M,3,18,30,22,21,16,31,25,06,29,,,,2.0,0.9,1.7*35
$GPGSV,3,1,11,18,59,071,40,30,57,212,35,22,49,009,40,21,38,157,34*76
$GPGSV,3,2,11,16,33,211,29,31,33,319,37,25,26,040,39,06,20,224,30*75
$GPGSV,3,3,11,29,16,104,37,03,11,230,,14,06,004,*41
$GPRMC,184439.998,A,1456.0137,S,07352.6228,W,15.96,299.82,190411,,,A*5B
$GPGGA,184441.000,1456.0114,S,07352.6270,W,1,09,0.9,3887.8,M,24.4,M,,0000*63
$GPGSA,M,3,18,30,22,21,16,31,25,06,29,,,,2.0,0.9,1.7*35
$GPRMC,184441.000,A,1456.0114,S,07352.6270,W,15.85,300.74,190411,,,A*5A
$GPGGA,184442.000,1456.0093,S,07352.6310,W,1,09,0.9,3887.7,M,24.4,M,,0000*66
$GPGSA,M,3,18,30,22,21,16,31,25,06,29,,,,2.0,0.9,1.7*35
$GPRMC,184442.000,A,1456.0093,S,07352.6310,W,16.21,301.09,190411,,,A*56
$GPGGA,184443.002,1456.0069,S,07352.6352,W,1,09,0.9,3887.7,M,24.4,M,,0000*66
$GPGSA,M,3,18,30,22,21,16,31,25,06,29,,,,2.0,0.9,1.7*35
$GPRMC,184443.002,A,1456.0069,S,07352.6352,W,15.84,301.22,190411,,,A*53
$GPGGA,184444.000,1456.0048,S,07352.6388,W,1,10,0.9,3888.2,M,24.4,M,,0000*65
$GPGSA,M,3,18,30,22,21,16,31,25,06,29,03,,,1.7,0.9,1.5*30
$GPRMC,184444.000,A,1456.0048,S,07352.6388,W,15.13,300.63,190411,,,A*58
$GPGGA,184444.998,1456.0029,S,07352.6429,W,1,09,0.9,3888.7,M,24.4,M,,0000*6B
$GPGSA,M,3,18,30,22,21,16,31,25,06,29,,,,2.0,0.9,1.7*35
$GPGSV,3,1,11,18,59,071,40,30,57,212,36,22,49,009,40,21,38,157,35*74
$GPGSV,3,2,11,16,33,211,36,31,33,319,37,25,26,040,40,06,20,224,31*74
$GPGSV,3,3,11,29,16,104,36,03,11,230,,14,06,004,*40
$GPRMC,184444.998,A,1456.0029,S,07352.6429,W,14.79,297.66,190411,,,A*5C
$GPGGA,184446.002,1456.0011,S,07352.6468,W,1,10,0.9,3888.4,M,24.4,M,,0000*66
$GPGSA,M,3,18,30,22,21,16,31,25,06,29,03,,,1.7,0.9,1.5*30
$GPRMC,184446.002,A,1456.0011,S,07352.6468,W,14.93,291.77,190411,,,A*58
$GPGGA,184447.001,1455.9996,S,07352.6511,W,1,10,0.9,3888.9,M,24.4,M,,0000*6A
$GPGSA,M,3,18,30,22,21,16,31,25,06,29,03,,,1.7,0.9,1.5*30
$GPRMC,184447.001,A,1455.9996,S,07352.6511,W,14.73,289.39,190411,,,A*54
$GPGGA,184447.996,1455.9982,S,07352.6550,W,1,10,0.9,3888.8,M,24.4,M,,0000*6C
$GPGSA,M,3,18,30,22,21,16,31,25,06,29,03,,,1.7,0.9,1.5*30
$GPRMC,184447.996,A,1455.9982,S,07352.6550,W,14.17,285.33,190411,,,A*57
$GPGGA,184449.000,1455.9973,S,07352.6588,W,1,10,0.9,3888.4,M,24.4,M,,0000*63
$GPGSA,M,3,18,30,22,21,16,31,25,06,29,03,,,1.7,0.9,1.5*30
$GPRMC,184449.000,A,1455.9973,S,07352.6588,W,14.03,281.99,190411,,,A*55
$GPGGA,184450.004,1455.9964,S,07352.6629,W,1,10,0.9,3887.6,M,24.4,M,,0000*6C
$GPGSA,M,3,18,30,22,21,16,31,25,06,29,03,,,1.7,0.9,1.5*30
$GPGSV,3,1,11,18,59,071,41,30,57,212,38,22,49,009,38,21,38,157,36*77
$GPGSV,3,2,11,16,33,211,34,31,33,319,36,25,26,040,38,06,20,224,35*7C
$GPGSV,3,3,11,29,16,104,36,03,11,230,24,14,06,004,*46
$GPRMC,184450.004,A,1455.9964,S,07352.6629,W,14.60,283.55,190411,,,A*50
$GPGGA,184450.997,1455.9954,S,07352.6671,W,1,10,0.9,3887.7,M,24.4,M,,0000*60
$GPGSA,M,3,18,30,22,21,16,31,25,06,29,03,,,1.7,0.9,1.5*30
$GPRMC,184450.997,A,1455.9954,S,07352.6671,W,14.52,288.30,190411,,,A*54
$GPGGA,184451.999,1455.9937,S,07352.6709,W,1,09,0.9,3887.0,M,24.4,M,,0000*6B
$GPGSA,M,3,18,30,22,21,16,31,25,29,03,,,,1.8,0.9,1.5*39
$GPRMC,184451.999,A,1455.9937,S,07352.6709,W,14.80,293.47,190411,,,A*55
$GPGGA,184453.003,1455.9920,S,07352.6748,W,1,10,0.9,3886.9,M,24.4,M,,0000*60
$GPGSA,M,3,18,30,22,21,16,31,25,06,29,03,,,1.7,0.9,1.5*30
$GPRMC,184453.003,A,1455.9920,S,07352.6748,W,15.11,296.84,190411,,,A*5D
$GPGGA,184454.000,1455.9901,S,07352.6786,W,1,09,0.9,3886.7,M,24.4,M,,0000*63
$GPGSA,M,3,18,30,22,21,16,31,25,06,29,,,,2.0,0.9,1.7*35
$GPRMC,184454.000,A,1455.9901,S,07352.6786,W,14.23,301.53,190411,,,A*5D
$GPGGA,184455.000,1455.9879,S,07352.6822,W,1,09,0.9,3887.1,M,24.4,M,,0000*6A
$GPGSA,M,3,18,30,22,21,16,31,25,06,29,,,,2.0,0.9,1.7*35
$GPGSV,3,1,11,18,59,071,40,30,57,212,33,22,49,009,39,21,38,157,38*72
$GPGSV,3,2,11,16,33,211,34,31,33,319,34,25,26,040,40,06,20,224,35*71
$GPGSV,3,3,11,29,16,104,32,03,11,230,,14,06,004,35*42
$GPRMC,184455.000,A,1455.9879,S,07352.6822,W,13.89,303.91,190411,,,A*58
$GPGGA,184455.998,1455.9856,S,07352.6854,W,1,10,0.9,3887.0,M,24.4,M,,0000*67
$GPGSA,M,3,18,30,22,21,16,31,25,06,29,03,,,1.7,0.9,1.5*30
$GPRMC,184455.998,A,1455.9856,S,07352.6854,W,14.40,306.78,190411,,,A*5C
$GPGGA,184457.002,1455.9830,S,07352.6887,W,1,09,0.9,3887.2,M,24.4,M,,0000*6B
$GPGSA,M,3,18,30,22,21,16,31,25,06,29,,,,2.0,0.9,1.7*35
$GPRMC,184457.002,A,1455.9830,S,07352.6887,W,14.22,309.81,190411,,,A*57
$GPGGA,184458.001,1455.9803,S,07352.6918,W,1,09,0.9,3886.8,M,24.4,M,,0000*6B
$GPGSA,M,3,18,30,22,21,16,31,25,06,29,,,,2.0,0.9,1.7*35
$GPRMC,184458.001,A,1455.9803,S,07352.6918,W,14.39,311.19,190411,,,A*5E
$GPGGA,184459.001,1455.9778,S,07352.6950,W,1,09,0.9,3887.0,M,24.4,M,,0000*6C
$GPGSA,M,3,18,30,22,21,16,31,25,06,29,,,,2.0,0.9,1.7*35
$GPRMC,184459.001,A,1455.9778,S,07352.6950,W,14.36,310.70,190411,,,A*51
$GPGGA,184459.999,1455.9753,S,07352.6982,W,1,10,0.9,3886.9,M,24.4,M,,0000*62
$GPGSA,M,3,18,30,22,21,16,31,25,06,29,03,,,1.7,0.9,1.5*30
$GPGSV,3,1,11,18,59,071,40,30,57,212,37,22,49,009,41,21,38,157,37*76
$GPGSV,3,2,11,16,33,211,36,31,33,319,34,25,26,040,39,06,20,224,34*7C
$GPGSV,3,3,11,29,16,104,37,03,11,230,29,14,06,004,31*48
$GPRMC,184459.999,A,1455.9753,S,07352.6982,W,14.48,309.39,190411,,,A*53
$GPGGA,184501.000,1455.9727,S,07352.7014,W,1,10,0.9,3887.4,M,24.4,M,,0000*6F
$GPGSA,M,3,18,30,22,21,16,31,25,06,29,03,,,1.7,0.9,1.5*30
$GPRMC,184501.000,A,1455.9727,S,07352.7014,W,14.30,310.06,190411,,,A*59
$GPGGA,184501.999,1455.9700,S,07352.7046,W,1,10,0.9,3886.9,M,24.4,M,,0000*68
$GPGSA,M,3,18,30,22,21,16,31,25,06,29,03,,,1.7,0.9,1.5*30
$GPRMC,184501.999,A,1455.9700,S,07352.7046,W,14.54,310.64,190411,,,A*54
$GPGGA,184503.000,1455.9673,S,07352.7076,W,1,10,0.9,3886.3,M,24.4,M,,0000*6F
$GPGSA,M,3,18,30,22,21,16,31,25,06,29,03,,,1.7,0.9,1.5*30
$GPRMC,184503.000,A,1455.9673,S,07352.7076,W,14.89,314.05,190411,,,A*5A
$GPGGA,184504.003,1455.9646,S,07352.7106,W,1,09,1.1,3886.6,M,24.4,M,,0000*6F
$GPGSA,M,3,18,30,22,21,16,25,06,29,03,,,,1.8,1.1,1.5*34
$GPRMC,184504.003,A,1455.9646,S,07352.7106,W,14.46,314.72,190411,,,A*5D
$GPGGA,184504.998,1455.9617,S,07352.7138,W,1,10,0.9,3886.5,M,24.4,M,,0000*6F
$GPGSA,M,3,18,30,22,21,16,31,25,06,29,03,,,1.7,0.9,1.5*30
$GPGSV,3,1,11,18,59,071,40,30,57,212,39,22,49,009,40,21,38,157,37*79
$GPGSV,3,2,11,16,33,211,34,31,33,319,29,25,26,040,40,06,20,224,36*7E
$GPGSV,3,3,11,29,16,104,38,03,11,230,26,14,06,004,36*4F
$GPRMC,184504.998,A,1455.9617,S,07352.7138,W,15.31,311.82,190411,,,A*54
$GPGGA,184506.999,1455.9560,S,07352.7205,W,1,10,0.9,3886.8,M,24.4,M,,0000*6F
$GPGSA,M,3,18,30,22,21,16,31,25,06,29,03,,,1.7,0.9,1.5*30
$GPRMC,184506.999,A,1455.9560,S,07352.7205,W,15.48,310.86,190411,,,A*52
$GPGGA,184507.999,1455.9532,S,07352.7237,W,1,09,1.1,3886.7,M,24.4,M,,0000*66
$GPGSA,M,3,18,30,22,21,16,31,25,06,03,,,,2.1,1.1,1.8*3A
$GPRMC,184507.999,A,1455.9532,S,07352.7237,W,14.95,310.01,190411,,,A*5B
$GPGGA,184509.002,1455.9504,S,07352.7270,W,1,10,0.9,3885.4,M,24.4,M,,0000*64
$GPGSA,M,3,18,30,22,21,16,31,25,06,29,03,,,1.7,0.9,1.5*30
$GPRMC,184509.002,A,1455.9504,S,07352.7270,W,15.33,312.89,190411,,,A*57
$GPGGA,184510.000,1455.9475,S,07352.7300,W,1,10,0.9,3885.0,M,24.4,M,,0000*6B
$GPGSA,M,3,18,30,22,21,16,31,25,06,29,03,,,1.7,0.9,1.5*30
$GPGSV,3,1,11,18,59,071,40,30,57,212,39,22,49,009,38,21,38,157,40*76
$GPGSV,3,2,11,16,33,211,25,31,33,319,29,25,26,040,38,06,20,224,27*71
$GPGSV,3,3,11,29,16,104,40,03,11,230,33,14,06,004,35*47
$GPRMC,184510.000,A,1455.9475,S,07352.7300,W,14.20,319.00,190411,,,A*55
$GPGGA,184510.998,1455.9445,S,07352.7325,W,1,09,0.9,3885.3,M,24.4,M,,0000*6C
$GPGSA,M,3,18,30,22,21,16,31,25,29,03,,,,1.8,0.9,1.5*39
$GPRMC,184510.998,A,1455.9445,S,07352.7325,W,12.69,326.08,190411,,,A*56
$GPGGA,184512.002,1455.9415,S,07352.7343,W,1,10,0.9,3884.7,M,24.4,M,,0000*6C
$GPGSA,M,3,18,30,22,21,16,31,25,06,29,03,,,1.7,0.9,1.5*30
$GPRMC,184512.002,A,1455.9415,S,07352.7343,W,12.23,334.23,190411,,,A*5F
$GPGGA,184512.999,1455.9383,S,07352.7356,W,1,08,1.0,3885.0,M,24.4,M,,0000*6C
$GPGSA,M,3,18,30,22,21,16,31,25,29,,,,,2.2,1.0,2.0*3D
$GPRMC,184512.999,A,1455.9383,S,07352.7356,W,11.82,338.51,190411,,,A*59
$GPGGA,184513.999,1455.9350,S,07352.7359,W,1,10,0.9,3884.7,M,24.4,M,,0000*6B
$GPGSA,M,3,18,30,22,21,16,31,25,06,29,03,,,1.7,0.9,1.5*30
$GPRMC,184513.999,A,1455.9350,S,07352.7359,W,11.66,354.27,190411,,,A*58
$GPGGA,184515.001,1455.9318,S,07352.7360,W,1,10,0.9,3884.7,M,24.4,M,,0000*63
$GPGSA,M,3,18,30,22,21,16,31,25,06,29,03,,,1.7,0.9,1.5*30
$GPGSV,3,1,11,18,59,071,39,30,57,212,39,22,49,009,41,21,38,157,40*76
$GPGSV,3,2,11,16,33,211,38,31,33,319,37,25,26,040,38,06,20,224,29*7C
$GPGSV,3,3,11,29,16,104,39,03,11,230,32,14,06,004,*4E
$GPRMC,184515.001,A,1455.9318,S,07352.7360,W,10.54,0.90,190411,,,A*5E
$GPGGA,184516.002,1455.9287,S,07352.7349,W,1,10,0.9,3884.6,M,24.4,M,,0000*6E
$GPGSA,M,3,18,30,22,21,16,31,25,06,29,03,,,1.7,0.9,1.5*30
$GPRMC,184516.002,A,1455.9287,S,07352.7349,W,10.43,14.60,190411,,,A*6E
$GPGGA,184516.999,1455.9254,S,07352.7318,W,1,10,0.9,3883.8,M,24.4,M,,0000*66
$GPGSA,M,3,18,30,22,21,16,31,25,06,29,03,,,1.7,0.9,1.5*30
$GPRMC,184516.999,A,1455.9254,S,07352.7318,W,13.53,34.31,190411,,,A*6B
$GPGGA,184518.000,1455.9219,S,07352.7288,W,1,10,0.9,3883.6,M,24.4,M,,0000*6E
$GPGSA,M,3,18,30,22,21,16,31,25,06,29,03,,,1.7,0.9,1.5*30
$GPRMC,184518.000,A,1455.9219,S,07352.7288,W,14.29,37.17,190411,,,A*60
$GPGGA,184518.999,1455.9185,S,07352.7258,W,1,10,0.9,3882.9,M,24.4,M,,0000*62
$GPGSA,M,3,18,30,22,21,16,31,25,06,29,03,,,1.7,0.9,1.5*30
$GPRMC,184518.999,A,1455.9185,S,07352.7258,W,14.76,35.41,190411,,,A*69
$GPGGA,184520.001,1455.9149,S,07352.7226,W,1,10,0.9,3882.5,M,24.4,M,,0000*64
$GPGSA,M,3,18,30,22,21,16,31,25,06,29,03,,,1.7,0.9,1.5*30
$GPGSV,3,1,11,18,59,071,39,30,57,212,41,22,49,009,35,21,38,157,41*7B
$GPGSV,3,2,11,16,33,211,40,31,33,319,39,25,26,040,33,06,20,224,37*79
$GPGSV,3,3,11,29,16,104,35,03,11,230,38,14,06,004,25*4F
$GPRMC,184520.001,A,1455.9149,S,07352.7226,W,14.87,35.82,190411,,,A*62
$GPGGA,184521.000,1455.9112,S,07352.7198,W,1,10,0.9,3882.4,M,24.4,M,,0000*6D
$GPGSA,M,3,18,30,22,21,16,31,25,06,29,03,,,1.7,0.9,1.5*30
$GPRMC,184521.000,A,1455.9112,S,07352.7198,W,15.20,35.46,190411,,,A*6E
$GPGGA,184522.004,1455.9074,S,07352.7171,W,1,10,0.9,3882.4,M,24.4,M,,0000*6C
$GPGSA,M,3,18,30,22,21,16,31,25,06,29,03,,,1.7,0.9,1.5*30
$GPRMC,184522.004,A,1455.9074,S,07352.7171,W,15.41,37.50,190411,,,A*6D
$GPGGA,184522.999,1455.9038,S,07352.7142,W,1,10,0.9,3882.2,M,24.4,M,,0000*6F
$GPGSA,M,3,18,30,22,21,16,31,25,06,29,03,,,1.7,0.9,1.5*30
$GPRMC,184522.999,A,1455.9038,S,07352.7142,W,15.57,36.03,190411,,,A*68
$GPGGA,184524.000,1455.9001,S,07352.7114,W,1,10,0.9,3882.7,M,24.4,M,,0000*6C
$GPGSA,M,3,18,30,22,21,16,31,25,06,29,03,,,1.7,0.9,1.5*30
$GPRMC,184524.000,A,1455.9001,S,07352.7114,W,16.01,36.72,190411,,,A*68
$GPGGA,184525.002,1455.8964,S,07352.7082,W,1,10,0.9,3882.4,M,24.4,M,,0000*69
$GPGSA,M,3,18,30,22,21,16,31,25,06,29,03,,,1.7,0.9,1.5*30
$GPGSV,3,1,11,18,59,071,38,30,57,212,39,22,49,009,35,21,38,157,40*74
$GPGSV,3,2,11,16,33,211,40,31,33,319,39,25,26,040,27,06,20,224,37*7C
$GPGSV,3,3,11,29,16,104,32,03,11,230,38,14,06,004,*4F
$GPRMC,184525.002,A,1455.8964,S,07352.7082,W,16.51,36.51,190411,,,A*6A
$GPGGA,184525.996,1455.8928,S,07352.7056,W,1,10,0.9,3882.6,M,24.4,M,,0000*6E
$GPGSA,M,3,18,30,22,21,16,31,25,06,29,03,,,1.7,0.9,1.5*30
$GPRMC,184525.996,A,1455.8928,S,07352.7056,W,15.39,35.45,190411,,,A*64
$GPGGA,184527.002,1455.8896,S,07352.7031,W,1,10,0.9,3882.5,M,24.4,M,,0000*6E
$GPGSA,M,3,18,30,22,21,16,31,25,06,29,03,,,1.7,0.9,1.5*30
$GPRMC,184527.002,A,1455.8896,S,07352.7031,W,13.31,34.40,190411,,,A*6D
$GPGGA,184528.000,1455.8867,S,07352.7012,W,1,10,0.9,3881.6,M,24.4,M,,0000*6C
$GPGSA,M,3,18,30,22,21,16,31,25,06,29,03,,,1.7,0.9,1.5*30
$GPRMC,184528.000,A,1455.8867,S,07352.7012,W,11.35,35.97,190411,,,A*62
$GPGGA,184528.998,1455.8847,S,07352.6997,W,1,10,0.9,3880.8,M,24.4,M,,0000*6C
$GPGSA,M,3,18,30,22,21,16,31,25,06,29,03,,,1.7,0.9,1.5*30
$GPRMC,184528.998,A,1455.8847,S,07352.6997,W,8.80,31.04,190411,,,A*55
$GPGGA,184530.000,1455.8827,S,07352.6982,W,1,10,0.9,3880.7,M,24.4,M,,0000*60
$GPGSA,M,3,18,30,22,21,16,31,25,06,29,03,,,1.7,0.9,1.5*30
$GPGSV,3,1,11,18,59,071,39,30,57,212,40,22,49,009,31,21,38,157,40*7F
$GPGSV,3,2,11,16,33,211,39,31,33,319,36,25,26,040,33,06,20,224,37*78
$GPGSV,3,3,11,29,16,104,38,03,11,230,36,14,06,004,25*4C
$GPRMC,184530.000,A,1455.8827,S,07352.6982,W,7.51,29.71,190411,,,A*5E
$GPGGA,184531.002,1455.8808,S,07352.6974,W,1,10,0.9,3880.5,M,24.4,M,,0000*65
$GPGSA,M,3,18,30,22,21,16,31,25,06,29,03,,,1.7,0.9,1.5*30
$GPRMC,184531.002,A,1455.8808,S,07352.6974,W,6.03,24.32,190411,,,A*55
$GPGGA,184531.998,1455.8794,S,07352.6968,W,1,09,0.9,3879.9,M,24.4,M,,0000*6A
$GPGSA,M,3,18,30,22,21,31,25,06,29,03,,,,1.7,0.9,1.5*37
$GPRMC,184531.998,A,1455.8794,S,07352.6968,W,5.69,25.71,190411,,,A*51
$GPGGA,184533.000,1455.8780,S,07352.6958,W,1,10,0.9,3879.8,M,24.4,M,,0000*6F
$GPGSA,M,3,18,30,22,21,16,31,25,06,29,03,,,1.7,0.9,1.5*30
$GPRMC,184533.000,A,1455.8780,S,07352.6958,W,6.16,30.99,190411,,,A*54
$GPGGA,184534.002,1455.8766,S,07352.6949,W,1,09,1.1,3879.2,M,24.4,M,,0000*69
$GPGSA,M,3,18,30,22,21,16,31,25,06,03,,,,2.1,1.1,1.8*3A
$GPRMC,184534.002,A,1455.8766,S,07352.6949,W,6.05,37.89,190411,,,A*5D
$GPGGA,184534.996,1455.8750,S,07352.6941,W,1,10,0.9,3879.4,M,24.4,M,,0000*67
$GPGSA,M,3,18,30,22,21,16,31,25,06,29,03,,,1.7,0.9,1.5*30
$GPGSV,3,1,11,18,59,071,39,30,57,212,41,22,49,009,34,21,38,157,40*7B
$GPGSV,3,2,11,16,33,211,37,31,33,319,36,25,26,040,31,06,20,224,38*7B
$GPGSV,3,3,11,29,16,104,37,03,11,230,38,14,06,004,*4A
$GPRMC,184534.996,A,1455.8750,S,07352.6941,W,7.14,35.85,190411,,,A*5B
$GPGGA,184536.004,1455.8735,S,07352.6932,W,1,10,0.9,3879.2,M,24.4,M,,0000*66
$GPGSA,M,3,18,30,22,21,16,31,25,06,29,03,,,1.7,0.9,1.5*30
$GPRMC,184536.004,A,1455.8735,S,07352.6932,W,7.34,42.84,190411,,,A*5F
$GPGGA,184536.998,1455.8719,S,07352.6909,W,1,10,0.9,3880.5,M,24.4,M,,0000*6D
$GPGSA,M,3,18,30,22,21,16,31,25,06,29,03,,,1.7,0.9,1.5*30
$GPRMC,184536.998,A,1455.8719,S,07352.6909,W,8.03,44.74,190411,,,A*57
$GPGGA,184538.000,1455.8700,S,07352.6896,W,1,10,0.9,3880.2,M,24.4,M,,0000*63
$GPGSA,M,3,18,30,22,21,16,31,25,06,29,03,,,1.7,0.9,1.5*30
$GPRMC,184538.000,A,1455.8700,S,07352.6896,W,8.12,31.49,190411,,,A*52
$GPGGA,184539.002,1455.8682,S,07352.6890,W,1,10,0.9,3881.0,M,24.4,M,,0000*6E
$GPGSA,M,3,18,30,22,21,16,31,25,06,29,03,,,1.7,0.9,1.5*30
$GPRMC,184539.002,A,1455.8682,S,07352.6890,W,7.74,26.70,190411,,,A*5F
$GPGGA,184539.997,1455.8661,S,07352.6883,W,1,10,0.9,3881.8,M,24.4,M,,0000*6C
$GPGSA,M,3,18,30,22,21,16,31,25,06,29,03,,,1.7,0.9,1.5*30
$GPGSV,3,1,11,18,59,071,40,30,57,212,40,22,49,009,36,21,38,157,40*76
$GPGSV,3,2,11,16,33,211,38,31,33,319,37,25,26,040,37,06,20,224,36*7D
$GPGSV,3,3,11,29,16,104,38,03,11,230,37,14,06,004,*4A
$GPRMC,184539.997,A,1455.8661,S,07352.6883,W,8.20,15.46,190411,,,A*5E
$GPGGA,184541.001,1455.8639,S,07352.6879,W,1,10,0.9,3883.0,M,24.4,M,,0000*67
$GPGSA,M,3,18,30,22,21,16,31,25,06,29,03,,,1.7,0.9,1.5*30
$GPRMC,184541.001,A,1455.8639,S,07352.6879,W,7.52,5.09,190411,,,A*6F
$GPGGA,184542.005,1455.8614,S,07352.6879,W,1,10,0.9,3883.1,M,24.4,M,,0000*6E
$GPGSA,M,3,18,30,22,21,16,31,25,06,29,03,,,1.7,0.9,1.5*30
$GPRMC,184542.005,A,1455.8614,S,07352.6879,W,8.68,358.77,190411,,,A*63
$GPGGA,184542.998,1455.8588,S,07352.6884,W,1,10,0.9,3884.2,M,24.4,M,,0000*63
$GPGSA,M,3,18,30,22,21,16,31,25,06,29,03,,,1.7,0.9,1.5*30
$GPRMC,184542.998,A,1455.8588,S,07352.6884,W,9.67,355.58,190411,,,A*64
$GPGGA,184544.001,1455.8559,S,07352.6885,W,1,10,0.9,3883.7,M,24.4,M,,0000*63
$GPGSA,M,3,18,30,22,21,16,31,25,06,29,03,,,1.7,0.9,1.5*30
$GPRMC,184544.001,A,1455.8559,S,07352.6885,W,9.51,356.87,190411,,,A*62
$GPGGA,184545.001,1455.8536,S,07352.6885,W,1,10,0.9,3883.9,M,24.4,M,,0000*65
$GPGSA,M,3,18,30,22,21,16,31,25,06,29,03,,,1.7,0.9,1.5*30
$GPGSV,3,1,11,18,59,071,38,30,57,212,38,22,49,009,37,21,38,157,37*77
$GPGSV,3,2,11,16,33,211,37,31,33,319,33,25,26,040,37,06,20,224,37*77
$GPGSV,3,3,11,29,16,104,39,03,11,230,36,14,06,004,28*40
$GPRMC,184545.001,A,1455.8536,S,07352.6885,W,8.22,358.61,190411,,,A*69
$GPGGA,184546.001,1455.8507,S,07352.6885,W,1,10,0.9,3883.1,M,24.4,M,,0000*6C
$GPGSA,M,3,18,30,22,21,16,31,25,06,29,03,,,1.7,0.9,1.5*30
$GPRMC,184546.001,A,1455.8507,S,07352.6885,W,10.48,356.23,190411,,,A*55
$GPGGA,184547.001,1455.8476,S,07352.6886,W,1,10,0.9,3884.1,M,24.4,M,,0000*6E
$GPGSA,M,3,18,30,22,21,16,31,25,06,29,03,,,1.7,0.9,1.5*30
$GPRMC,184547.001,A,1455.8476,S,07352.6886,W,11.66,357.64,190411,,,A*5F
$GPGGA,184548.001,1455.8442,S,07352.6888,W,1,10,0.9,3884.6,M,24.4,M,,0000*6F
$GPGSA,M,3,18,30,22,21,16,31,25,06,29,03,,,1.7,0.9,1.5*30
$GPRMC,184548.001,A,1455.8442,S,07352.6888,W,11.85,1.11,190411,,,A*56
$GPGGA,184549.000,1455.8410,S,07352.6886,W,1,10,0.9,3885.0,M,24.4,M,,0000*61
$GPGSA,M,3,18,30,22,21,16,31,25,06,29,03,,,1.7,0.9,1.5*30
$GPRMC,184549.000,A,1455.8410,S,07352.6886,W,11.86,0.84,190411,,,A*51
$GPGGA,184550.001,1455.8376,S,07352.6887,W,1,10,0.9,3885.3,M,24.4,M,,0000*6D
$GPGSA,M,3,18,30,22,21,16,31,25,06,29,03,,,1.7,0.9,1.5*30
$GPGSV,3,1,11,18,59,071,41,30,57,212,40,22,49,009,37,21,38,157,40*76
$GPGSV,3,2,11,16,33,211,38,31,33,319,37,25,26,040,38,06,20,224,32*76
$GPGSV,3,3,11,29,16,104,37,03,11,230,37,14,06,004,27*40
$GPRMC,184550.001,A,1455.8376,S,07352.6887,W,12.21,359.00,190411,,,A*53
$GPGGA,184551.004,1455.8340,S,07352.6889,W,1,10,0.9,3884.9,M,24.4,M,,0000*69
$GPGSA,M,3,18,30,22,21,16,31,25,06,29,03,,,1.7,0.9,1.5*30
$GPRMC,184551.004,A,1455.8340,S,07352.6889,W,12.67,1.80,190411,,,A*58
$GPGGA,184551.997,1455.8302,S,07352.6889,W,1,10,0.9,3885.3,M,24.4,M,,0000*67
$GPGSA,M,3,18,30,22,21,16,31,25,06,29,03,,,1.7,0.9,1.5*30
$GPRMC,184551.997,A,1455.8302,S,07352.6889,W,12.74,1.12,190411,,,A*54
$GPGGA,184553.002,1455.8267,S,07352.6886,W,1,10,0.9,3885.3,M,24.4,M,,0000*6D
$GPGSA,M,3,18,30,22,21,16,31,25,06,29,03,,,1.7,0.9,1.5*30
$GPRMC,184553.002,A,1455.8267,S,07352.6886,W,12.20,2.47,190411,,,A*5C
$GPGGA,184554.001,1455.8228,S,07352.6882,W,1,10,0.9,3885.2,M,24.4,M,,0000*67
$GPGSA,M,3,18,30,22,21,16,31,25,06,29,03,,,1.7,0.9,1.5*30
$GPRMC,184554.001,A,1455.8228,S,07352.6882,W,11.68,5.73,190411,,,A*58
$GPGGA,184555.001,1455.8192,S,07352.6879,W,1,10,0.9,3885.4,M,24.4,M,,0000*66
$GPGSA,M,3,18,30,22,21,16,31,25,06,29,03,,,1.7,0.9,1.5*30
$GPGSV,3,1,11,18,59,071,41,30,57,212,40,22,49,009,37,21,38,157,38*79
$GPGSV,3,2,11,16,33,211,37,31,33,319,35,25,26,040,38,06,20,224,36*7F
$GPGSV,3,3,11,29,16,104,37,03,11,230,36,14,06,004,28*4E
$GPRMC,184555.001,A,1455.8192,S,07352.6879,W,13.05,1.82,190411,,,A*5C
$GPGGA,184556.003,1455.8149,S,07352.6879,W,1,10,0.9,3884.8,M,24.4,M,,0000*6C
$GPGSA,M,3,18,30,22,21,16,31,25,06,29,03,,,1.7,0.9,1.5*30
$GPRMC,184556.003,A,1455.8149,S,07352.6879,W,14.15,2.30,190411,,,A*57
$GPGGA,184557.000,1455.8110,S,07352.6879,W,1,09,0.9,3885.0,M,24.4,M,,0000*63
$GPGSA,M,3,18,30,22,21,16,31,06,29,03,,,,1.9,0.9,1.6*3A
$GPRMC,184557.000,A,1455.8110,S,07352.6879,W,14.96,0.76,190411,,,A*52
$GPGGA,184558.002,1455.8067,S,07352.6878,W,1,10,0.9,3886.0,M,24.4,M,,0000*65
$GPGSA,M,3,18,30,22,21,16,31,25,06,29,03,,,1.7,0.9,1.5*30
$GPRMC,184558.002,A,1455.8067,S,07352.6878,W,15.19,1.11,190411,,,A*59
$GPGGA,184559.001,1455.8024,S,07352.6875,W,1,10,0.9,3886.9,M,24.4,M,,0000*64
$GPGSA,M,3,18,30,22,21,16,31,25,06,29,03,,,1.7,0.9,1.5*30
$GPRMC,184559.001,A,1455.8024,S,07352.6875,W,15.35,359.43,190411,,,A*56
$GPGGA,184600.000,1455.7978,S,07352.6877,W,1,10,0.9,3886.6,M,24.4,M,,0000*68
$GPGSA,M,3,18,30,22,21,16,31,25,06,29,03,,,1.7,0.9,1.5*30
$GPGSV,3,1,11,18,59,071,40,30,57,212,40,22,49,009,37,21,38,157,39*79
$GPGSV,3,2,11,16,33,211,37,31,33,319,35,25,26,040,39,06,20,224,37*7F
$GPGSV,3,3,11,29,16,104,41,03,11,230,36,14,06,004,*45
$GPRMC,184600.000,A,1455.7978,S,07352.6877,W,15.44,1.98,190411,,,A*5B
$GPGGA,184601.000,1455.7932,S,07352.6876,W,1,10,0.9,3885.6,M,24.4,M,,0000*65
$GPGSA,M,3,18,30,22,21,16,31,25,06,29,03,,,1.7,0.9,1.5*30
$GPRMC,184601.000,A,1455.7932,S,07352.6876,W,15.67,359.76,190411,,,A*5A
$GPGGA,184602.000,1455.7887,S,07352.6878,W,1,10,0.9,3885.2,M,24.4,M,,0000*63
$GPGSA,M,3,18,30,22,21,16,31,25,06,29,03,,,1.7,0.9,1.5*30
$GPRMC,184602.000,A,1455.7887,S,07352.6878,W,15.81,359.15,190411,,,A*55
$GPGGA,184603.000,1455.7840,S,07352.6879,W,1,10,0.9,3885.8,M,24.4,M,,0000*62
$GPGSA,M,3,18,30,22,21,16,31,25,06,29,03,,,1.7,0.9,1.5*30
$GPRMC,184603.000,A,1455.7840,S,07352.6879,W,16.39,1.01,190411,,,A*55
$GPGGA,184604.000,1455.7797,S,07352.6877,W,1,10,0.9,3886.5,M,24.4,M,,0000*60
$GPGSA,M,3,18,30,22,21,16,31,25,06,29,03,,,1.7,0.9,1.5*30
$GPRMC,184604.000,A,1455.7797,S,07352.6877,W,15.71,2.53,190411,,,A*52
$GPGGA,184605.002,1455.7752,S,07352.6874,W,1,10,0.9,3886.1,M,24.4,M,,0000*6D
$GPGSA,M,3,18,30,22,21,16,31,25,06,29,03,,,1.7,0.9,1.5*30
$GPGSV,3,1,11,18,59,071,38,30,57,212,39,22,49,009,37,21,38,157,39*78
$GPGSV,3,2,11,16,33,211,36,31,33,319,36,25,26,040,39,06,20,224,36*7C
$GPGSV,3,3,11,29,16,104,37,03,11,230,37,14,06,004,*45
$GPRMC,184605.002,A,1455.7752,S,07352.6874,W,15.77,2.39,190411,,,A*51
$GPGGA,184605.999,1455.7709,S,07352.6875,W,1,10,0.9,3886.3,M,24.4,M,,0000*6B
$GPGSA,M,3,18,30,22,21,16,31,25,06,29,03,,,1.7,0.9,1.5*30
$GPRMC,184605.999,A,1455.7709,S,07352.6875,W,15.36,359.78,190411,,,A*58
$GPGGA,184607.001,1455.7668,S,07352.6876,W,1,10,0.9,3887.6,M,24.4,M,,0000*60
$GPGSA,M,3,18,30,22,21,16,31,25,06,29,03,,,1.7,0.9,1.5*30
$GPRMC,184607.001,A,1455.7668,S,07352.6876,W,15.51,0.50,190411,,,A*53
$GPGGA,184607.999,1455.7623,S,07352.6878,W,1,10,0.9,3887.8,M,24.4,M,,0000*67
$GPGSA,M,3,18,30,22,21,16,31,25,06,29,03,,,1.7,0.9,1.5*30
$GPRMC,184607.999,A,1455.7623,S,07352.6878,W,15.78,1.11,190411,,,A*55
$GPGGA,184609.000,1455.7579,S,07352.6876,W,1,10,0.9,3888.2,M,24.4,M,,0000*67
$GPGSA,M,3,18,30,22,21,16,31,25,06,29,03,,,1.7,0.9,1.5*30
$GPRMC,184609.000,A,1455.7579,S,07352.6876,W,15.15,359.77,190411,,,A*55
$GPGGA,184610.002,1455.7533,S,07352.6878,W,1,10,0.9,3888.3,M,24.4,M,,0000*6C
$GPGSA,M,3,18,30,22,21,16,31,25,06,29,03,,,1.7,0.9,1.5*30
$GPGSV,3,1,11,18,59,071,41,30,57,212,40,22,49,009,36,21,38,157,39*79
$GPGSV,3,2,11,16,33,211,36,31,33,319,36,25,26,040,39,06,20,224,36*7C
$GPGSV,3,3,11,29,16,104,32,03,11,230,37,14,06,004,25*47
$GPRMC,184610.002,A,1455.7533,S,07352.6878,W,14.95,358.55,190411,,,A*57
$GPGGA,184611.000,1455.7491,S,07352.6880,W,1,10,0.9,3888.0,M,24.4,M,,0000*62
$GPGSA,M,3,18,30,22,21,16,31,25,06,29,03,,,1.7,0.9,1.5*30
$GPRMC,184611.000,A,1455.7491,S,07352.6880,W,15.29,0.09,190411,,,A*5B
$GPGGA,184611.998,1455.7448,S,07352.6878,W,1,10,0.9,3888.1,M,24.4,M,,0000*68
$GPGSA,M,3,18,30,22,21,16,31,25,06,29,03,,,1.7,0.9,1.5*30
$GPRMC,184611.998,A,1455.7448,S,07352.6878,W,15.53,1.31,190411,,,A*57
$GPGGA,184613.002,1455.7408,S,07352.6876,W,1,10,0.9,3888.7,M,24.4,M,,0000*6C
$GPGSA,M,3,18,30,22,21,16,31,25,06,29,03,,,1.7,0.9,1.5*30
$GPRMC,184613.002,A,1455.7408,S,07352.6876,W,13.72,4.34,190411,,,A*50
$GPGGA,184614.005,1455.7367,S,07352.6874,W,1,10,0.9,3889.0,M,24.4,M,,0000*66
$GPGSA,M,3,18,30,22,21,16,31,25,06,29,03,,,1.7,0.9,1.5*30
$GPRMC,184614.005,A,1455.7367,S,07352.6874,W,14.72,4.22,190411,,,A*5C
$GPGGA,184614.996,1455.7326,S,07352.6870,W,1,10,0.9,3888.6,M,24.4,M,,0000*63
$GPGSA,M,3,18,30,22,21,16,31,25,06,29,03,,,1.7,0.9,1.5*30
$GPGSV,3,1,11,18,59,071,40,30,57,212,40,22,49,009,36,21,38,157,40*76
$GPGSV,3,2,11,16,33,211,38,31,33,319,35,25,26,040,38,06,20,224,36*70
$GPGSV,3,3,11,29,16,104,35,03,11,230,36,14,06,004,*46
$GPRMC,184614.996,A,1455.7326,S,07352.6870,W,14.73,8.04,190411,,,A*57
$GPGGA,184616.001,1455.7286,S,07352.6864,W,1,10,0.9,3890.2,M,24.4,M,,0000*65
$GPGSA,M,3,18,30,22,21,16,31,25,06,29,03,,,1.7,0.9,1.5*30
$GPRMC,184616.001,A,1455.7286,S,07352.6864,W,13.98,8.85,190411,,,A*57
$GPGGA,184617.003,1455.7247,S,07352.6857,W,1,10,0.9,3889.8,M,24.4,M,,0000*69
$GPGSA,M,3,18,30,22,21,16,31,25,06,29,03,,,1.7,0.9,1.5*30
$GPRMC,184617.003,A,1455.7247,S,07352.6857,W,13.93,14.83,190411,,,A*69
$GPGGA,184618.001,1455.7207,S,07352.6850,W,1,10,0.9,3889.2,M,24.4,M,,0000*6D
$GPGSA,M,3,18,30,22,21,16,31,25,06,29,03,,,1.7,0.9,1.5*30
$GPRMC,184618.001,A,1455.7207,S,07352.6850,W,14.07,10.79,190411,,,A*6C
$GPGGA,184619.000,1455.7167,S,07352.6841,W,1,09,1.1,3889.4,M,24.4,M,,0000*6F
$GPGSA,M,3,18,30,22,21,16,31,25,06,03,,,,2.1,1.1,1.8*3A
$GPRMC,184619.000,A,1455.7167,S,07352.6841,W,14.65,11.55,190411,,,A*62
$GPGGA,184620.002,1455.7126,S,07352.6834,W,1,09,1.1,3889.4,M,24.4,M,,0000*60
$GPGSA,M,3,18,30,22,21,16,31,25,06,03,,,,2.1,1.1,1.8*3A
$GPGSV,3,1,11,18,59,071,40,30,57,212,40,22,49,009,36,21,38,157,40*76
$GPGSV,3,2,11,16,33,211,37,31,33,319,35,25,26,040,37,06,20,224,36*70
$GPGSV,3,3,11,29,16,104,,03,11,230,37,14,06,004,*41
$GPRMC,184620.002,A,1455.7126,S,07352.6834,W,14.67,8.81,190411,,,A*5E
$GPGGA,184621.000,1455.7085,S,07352.6829,W,1,09,1.1,3889.7,M,24.4,M,,0000*64
$GPGSA,M,3,18,30,22,21,16,31,25,06,03,,,,2.1,1.1,1.8*3A
$GPRMC,184621.000,A,1455.7085,S,07352.6829,W,13.89,6.65,190411,,,A*5A
$GPGGA,184621.998,1455.7046,S,07352.6824,W,1,09,1.1,3890.2,M,24.4,M,,0000*63
$GPGSA,M,3,18,30,22,21,16,31,25,06,03,,,,2.1,1.1,1.8*3A
$GPRMC,184621.998,A,1455.7046,S,07352.6824,W,14.50,6.95,190411,,,A*5C
$GPGGA,184623.004,1455.7006,S,07352.6822,W,1,09,1.1,3889.8,M,24.4,M,,0000*6D
$GPGSA,M,3,18,30,22,21,16,31,25,06,03,,,,2.1,1.1,1.8*3A
$GPRMC,184623.004,A,1455.7006,S,07352.6822,W,14.37,6.83,190411,,,A*56
$GPGGA,184624.001,1455.6968,S,07352.6818,W,1,09,1.1,3890.2,M,24.4,M,,0000*64
$GPGSA,M,3,18,30,22,21,16,31,25,06,03,,,,2.1,1.1,1.8*3A
$GPRMC,184624.001,A,1455.6968,S,07352.6818,W,14.06,3.14,190411,,,A*54
$GPGGA,184625.000,1455.6929,S,07352.6817,W,1,09,1.1,3890.4,M,24.4,M,,0000*68
$GPGSA,M,3,18,30,22,21,16,31,25,06,03,,,,2.1,1.1,1.8*3A
$GPGSV,3,1,11,18,59,071,39,30,57,212,40,22,49,009,36,21,38,157,40*78
$GPGSV,3,2,11,16,33,211,38,31,33,319,35,25,26,040,38,06,20,224,34*72
$GPGSV,3,3,11,29,16,104,,03,11,230,35,14,06,004,*43
$GPRMC,184625.000,A,1455.6929,S,07352.6817,W,13.84,358.59,190411,,,A*57
$GPGGA,184626.000,1455.6891,S,07352.6817,W,1,09,1.1,3891.3,M,24.4,M,,0000*6F
$GPGSA,M,3,18,30,22,21,16,31,25,06,03,,,,2.1,1.1,1.8*3A
$GPRMC,184626.000,A,1455.6891,S,07352.6817,W,13.81,356.95,190411,,,A*5D
$GPGGA,184626.998,1455.6855,S,07352.6820,W,1,08,1.4,3891.7,M,24.4,M,,0000*6B
$GPGSA,M,3,18,30,22,21,16,31,06,03,,,,,3.0,1.4,2.6*35
$GPRMC,184626.998,A,1455.6855,S,07352.6820,W,12.42,356.27,190411,,,A*5E
$GPGGA,184628.004,1455.6819,S,07352.6820,W,1,10,0.9,3893.1,M,24.4,M,,0000*60
$GPGSA,M,3,18,30,22,21,16,31,25,06,29,03,,,1.7,0.9,1.5*30
$GPRMC,184628.004,A,1455.6819,S,07352.6820,W,12.97,355.62,190411,,,A*5E
$GPGGA,184629.001,1455.6782,S,07352.6823,W,1,10,0.9,3893.8,M,24.4,M,,0000*63
$GPGSA,M,3,18,30,22,21,16,31,25,06,29,03,,,1.7,0.9,1.5*30
$GPRMC,184629.001,A,1455.6782,S,07352.6823,W,12.41,355.20,190411,,,A*59
$GPGGA,184630.001,1455.6748,S,07352.6823,W,1,10,0.9,3894.8,M,24.4,M,,0000*6A
$GPGSA,M,3,18,30,22,21,16,31,25,06,29,03,,,1.7,0.9,1.5*30
$GPGSV,3,1,11,18,59,071,39,30,57,212,38,22,49,009,35,21,38,157,40*74
$GPGSV,3,2,11,16,33,211,38,31,33,319,30,25,26,040,39,06,20,224,37*75
$GPGSV,3,3,11,29,16,104,35,03,11,230,36,14,06,004,*46
$GPRMC,184630.001,A,1455.6748,S,07352.6823,W,11.90,355.87,190411,,,A*55
$GPGGA,184631.001,1455.6715,S,07352.6825,W,1,10,0.9,3895.4,M,24.4,M,,0000*68
$GPGSA,M,3,18,30,22,21,16,31,25,06,29,03,,,1.7,0.9,1.5*30
$GPRMC,184631.001,A,1455.6715,S,07352.6825,W,11.66,357.80,190411,,,A*56
$GPGGA,184632.001,1455.6685,S,07352.6825,W,1,10,0.9,3896.4,M,24.4,M,,0000*60
$GPGSA,M,3,18,30,22,21,16,31,25,06,29,03,,,1.7,0.9,1.5*30
$GPRMC,184632.001,A,1455.6685,S,07352.6825,W,10.88,359.38,190411,,,A*51
$GPGGA,184633.001,1455.6655,S,07352.6824,W,1,10,0.9,3896.8,M,24.4,M,,0000*61
$GPGSA,M,3,18,30,22,21,16,31,25,06,29,03,,,1.7,0.9,1.5*30
$GPRMC,184633.001,A,1455.6655,S,07352.6824,W,10.75,358.64,190411,,,A*56
$GPGGA,184634.001,1455.6625,S,07352.6827,W,1,10,0.9,3896.7,M,24.4,M,,0000*6D
$GPGSA,M,3,18,30,22,21,16,31,25,06,29,03,,,1.7,0.9,1.5*30
$GPRMC,184634.001,A,1455.6625,S,07352.6827,W,10.47,356.76,190411,,,A*59
$GPGGA,184634.997,1455.6598,S,07352.6828,W,1,10,0.9,3897.8,M,24.4,M,,0000*6F
$GPGSA,M,3,18,30,22,21,16,31,25,06,29,03,,,1.7,0.9,1.5*30
$GPGSV,3,1,11,18,59,071,40,30,57,212,39,22,49,009,35,21,38,157,37*7B
$GPGSV,3,2,11,16,33,211,37,31,33,319,31,25,26,040,40,06,20,224,37*75
$GPGSV,3,3,11,29,16,104,38,03,11,230,37,14,06,004,*4A
$GPRMC,184634.997,A,1455.6598,S,07352.6828,W,10.70,356.14,190411,,,A*55
$GPGGA,184636.005,1455.6567,S,07352.6830,W,1,10,0.9,3897.8,M,24.4,M,,0000*66
$GPGSA,M,3,18,30,22,21,16,31,25,06,29,03,,,1.7,0.9,1.5*30
$GPRMC,184636.005,A,1455.6567,S,07352.6830,W,10.83,358.05,190411,,,A*5E
$GPGGA,184637.001,1455.6537,S,07352.6831,W,1,10,0.9,3898.5,M,24.4,M,,0000*65
$GPGSA,M,3,18,30,22,21,16,31,25,06,29,03,,,1.7,0.9,1.5*30
$GPRMC,184637.001,A,1455.6537,S,07352.6831,W,10.94,359.28,190411,,,A*57
$GPGGA,184638.001,1455.6506,S,07352.6834,W,1,10,0.9,3898.6,M,24.4,M,,0000*6E
$GPGSA,M,3,18,30,22,21,16,31,25,06,29,03,,,1.7,0.9,1.5*30
$GPRMC,184638.001,A,1455.6506,S,07352.6834,W,10.83,355.56,190411,,,A*5C
$GPGGA,184639.001,1455.6475,S,07352.6838,W,1,10,0.9,3898.8,M,24.4,M,,0000*68
$GPGSA,M,3,18,30,22,21,16,31,25,06,29,03,,,1.7,0.9,1.5*30
$GPRMC,184639.001,A,1455.6475,S,07352.6838,W,10.67,355.23,190411,,,A*5C
$GPGGA,184640.001,1455.6446,S,07352.6844,W,1,10,0.9,3900.2,M,24.4,M,,0000*67
$GPGSA,M,3,18,30,22,21,16,31,25,06,29,03,,,1.7,0.9,1.5*30
$GPGSV,3,1,11,18,59,071,39,30,57,212,39,22,49,009,36,21,38,157,38*79
$GPGSV,3,2,11,16,33,211,35,31,33,319,31,25,26,040,39,06,20,224,37*79
$GPGSV,3,3,11,29,16,104,40,03,11,230,37,14,06,004,*45
$GPRMC,184640.001,A,1455.6446,S,07352.6844,W,10.71,350.30,190411,,,A*59
$GPGGA,184640.997,1455.6418,S,07352.6849,W,1,10,0.9,3901.0,M,24.4,M,,0000*64
$GPGSA,M,3,18,30,22,21,16,31,25,06,29,03,,,1.7,0.9,1.5*30
$GPRMC,184640.997,A,1455.6418,S,07352.6849,W,10.21,349.92,190411,,,A*5C
$GPGGA,184642.006,1455.6390,S,07352.6855,W,1,10,0.9,3901.7,M,24.4,M,,0000*6A
$GPGSA,M,3,18,30,22,21,16,31,25,06,29,03,,,1.7,0.9,1.5*30
$GPRMC,184642.006,A,1455.6390,S,07352.6855,W,10.38,353.52,190411,,,A*5A
$GPGGA,184642.997,1455.6362,S,07352.6859,W,1,10,0.9,3902.2,M,24.4,M,,0000*6C
$GPGSA,M,3,18,30,22,21,16,31,25,06,29,03,,,1.7,0.9,1.5*30
$GPRMC,184642.997,A,1455.6362,S,07352.6859,W,10.73,350.99,190411,,,A*51
$GPGGA,184644.015,1455.6333,S,07352.6863,W,1,10,0.9,3902.9,M,24.4,M,,0000*6F
$GPGSA,M,3,18,30,22,21,16,31,25,06,29,03,,,1.7,0.9,1.5*30
$GPRMC,184644.015,A,1455.6333,S,07352.6863,W,10.71,352.83,190411,,,A*52
$GPGGA,184644.989,1455.6305,S,07352.6866,W,1,09,1.1,3902.7,M,24.4,M,,0000*6C
$GPGSA,M,3,18,30,22,21,16,31,25,06,03,,,,2.1,1.1,1.8*3A
$GPGSV,3,1,11,18,59,071,40,30,57,212,40,22,49,009,36,21,38,157,40*76
$GPGSV,3,2,11,16,33,211,38,31,33,319,33,25,26,040,40,06,20,224,37*78
$GPGSV,3,3,11,29,16,104,,03,11,230,37,14,06,004,*41
$GPRMC,184644.989,A,1455.6305,S,07352.6866,W,10.00,351.77,190411,,,A*50
$GPGGA,184645.999,1455.6279,S,07352.6870,W,1,10,0.9,3903.4,M,24.4,M,,0000*62
$GPGSA,M,3,18,30,22,21,16,31,25,06,29,03,,,1.7,0.9,1.5*30
$GPRMC,184645.999,A,1455.6279,S,07352.6870,W,10.68,352.22,190411,,,A*50
$GPGGA,184647.003,1455.6250,S,07352.6875,W,1,09,1.1,3903.9,M,24.4,M,,0000*68
$GPGSA,M,3,18,30,22,21,16,25,06,29,03,,,,1.8,1.1,1.5*34
$GPRMC,184647.003,A,1455.6250,S,07352.6875,W,10.45,355.12,190411,,,A*5D
$GPGGA,184648.003,1455.6219,S,07352.6880,W,1,10,0.9,3904.3,M,24.4,M,,0000*6C
$GPGSA,M,3,18,30,22,21,16,31,25,06,29,03,,,1.7,0.9,1.5*30
$GPRMC,184648.003,A,1455.6219,S,07352.6880,W,11.58,353.96,190411,,,A*52
$GPGGA,184648.999,1455.6189,S,07352.6883,W,1,09,1.1,3904.7,M,24.4,M,,0000*6A
$GPGSA,M,3,18,30,22,21,16,25,06,29,03,,,,1.8,1.1,1.5*34
$GPRMC,184648.999,A,1455.6189,S,07352.6883,W,10.83,357.57,190411,,,A*5F
$GPGGA,184649.998,1455.6158,S,07352.6886,W,1,10,0.9,3905.4,M,24.4,M,,0000*60
$GPGSA,M,3,18,30,22,21,16,31,25,06,29,03,,,1.7,0.9,1.5*30
$GPGSV,3,1,11,18,59,071,40,30,57,212,39,22,49,009,36,21,38,157,38*77
$GPGSV,3,2,11,16,33,211,37,31,33,319,25,25,26,040,35,06,20,224,36*73
$GPGSV,3,3,11,29,16,104,31,03,11,230,35,14,06,004,*41
$GPRMC,184649.998,A,1455.6158,S,07352.6886,W,10.86,356.79,190411,,,A*5E
$GPGGA,184651.005,1455.6128,S,07352.6888,W,1,10,0.9,3905.8,M,24.4,M,,0000*61
$GPGSA,M,3,18,30,22,21,16,31,25,06,29,03,,,1.7,0.9,1.5*30
$GPRMC,184651.005,A,1455.6128,S,07352.6888,W,10.92,354.54,190411,,,A*5B
$GPGGA,184651.998,1455.6097,S,07352.6889,W,1,10,0.9,3906.2,M,24.4,M,,0000*61
$GPGSA,M,3,18,30,22,21,16,31,25,06,29,03,,,1.7,0.9,1.5*30
$GPRMC,184651.998,A,1455.6097,S,07352.6889,W,11.29,359.58,190411,,,A*52
$GPGGA,184653.003,1455.6067,S,07352.6890,W,1,09,1.1,3906.8,M,24.4,M,,0000*64
$GPGSA,M,3,18,30,22,21,16,25,06,29,03,,,,1.8,1.1,1.5*34
$GPRMC,184653.003,A,1455.6067,S,07352.6890,W,10.50,357.82,190411,,,A*5A
$GPGGA,184654.000,1455.6039,S,07352.6891,W,1,10,0.9,3907.5,M,24.4,M,,0000*67
$GPGSA,M,3,18,30,22,21,16,31,25,06,29,03,,,1.7,0.9,1.5*30
$GPRMC,184654.000,A,1455.6039,S,07352.6891,W,11.06,352.18,190411,,,A*50
$GPGGA,184655.001,1455.6008,S,07352.6897,W,1,10,0.9,3908.1,M,24.4,M,,0000*68
$GPGSA,M,3,18,30,22,21,16,31,25,06,29,03,,,1.7,0.9,1.5*30
$GPGSV,3,1,11,18,59,071,39,30,57,212,40,22,49,009,38,21,38,157,38*79
$GPGSV,3,2,11,16,33,211,35,31,33,319,31,25,26,040,38,06,20,224,37*78
$GPGSV,3,3,11,29,16,104,36,03,11,230,37,14,06,004,*44
$GPRMC,184655.001,A,1455.6008,S,07352.6897,W,11.05,349.05,190411,,,A*51
$GPGGA,184656.001,1455.5974,S,07352.6905,W,1,10,0.9,3908.6,M,24.4,M,,0000*67
$GPGSA,M,3,18,30,22,21,16,31,25,06,29,03,,,1.7,0.9,1.5*30
$GPRMC,184656.001,A,1455.5974,S,07352.6905,W,11.61,351.02,190411,,,A*55
$GPGGA,184656.999,1455.5943,S,07352.6908,W,1,10,0.9,3908.8,M,24.4,M,,0000*68
$GPGSA,M,3,18,30,22,21,16,31,25,06,29,03,,,1.7,0.9,1.5*30
$GPRMC,184656.999,A,1455.5943,S,07352.6908,W,11.11,355.24,190411,,,A*53
$GPGGA,184658.002,1455.5911,S,07352.6911,W,1,10,0.9,3909.1,M,24.4,M,,0000*6A
$GPGSA,M,3,18,30,22,21,16,31,25,06,29,03,,,1.7,0.9,1.5*30
$GPRMC,184658.002,A,1455.5911,S,07352.6911,W,11.77,353.09,190411,,,A*50
$GPGGA,184659.001,1455.5878,S,07352.6913,W,1,10,0.9,3908.7,M,24.4,M,,0000*63
$GPGSA,M,3,18,30,22,21,16,31,25,06,29,03,,,1.7,0.9,1.5*30
$GPRMC,184659.001,A,1455.5878,S,07352.6913,W,12.03,355.74,190411,,,A*52
$GPGGA,184700.002,1455.5847,S,07352.6914,W,1,10,0.9,3908.9,M,24.4,M,,0000*68
$GPGSA,M,3,18,30,22,21,16,31,25,06,29,03,,,1.7,0.9,1.5*30
$GPGSV,3,1,11,18,59,071,39,30,57,212,40,22,49,009,36,21,38,157,40*78
$GPGSV,3,2,11,16,33,211,37,31,33,319,32,25,26,040,37,06,20,224,35*74
$GPGSV,3,3,11,29,16,104,40,03,11,230,35,14,06,004,*47
$GPRMC,184700.002,A,1455.5847,S,07352.6914,W,11.11,2.70,190411,,,A*52
$GPGGA,184700.998,1455.5815,S,07352.6915,W,1,10,0.9,3909.4,M,24.4,M,,0000*68
$GPGSA,M,3,18,30,22,21,16,31,25,06,29,03,,,1.7,0.9,1.5*30
$GPRMC,184700.998,A,1455.5815,S,07352.6915,W,11.07,2.51,190411,,,A*5A
$GPGGA,184702.005,1455.5780,S,07352.6914,W,1,10,0.9,3909.5,M,24.4,M,,0000*64
$GPGSA,M,3,18,30,22,21,16,31,25,06,29,03,,,1.7,0.9,1.5*30
$GPRMC,184702.005,A,1455.5780,S,07352.6914,W,11.53,0.62,190411,,,A*54
$GPGGA,184703.002,1455.5750,S,07352.6911,W,1,10,0.9,3910.0,M,24.4,M,,0000*67
$GPGSA,M,3,18,30,22,21,16,31,25,06,29,03,,,1.7,0.9,1.5*30
$GPRMC,184703.002,A,1455.5750,S,07352.6911,W,11.54,4.26,190411,,,A*59
$GPGGA,184703.999,1455.5715,S,07352.6913,W,1,10,0.9,3910.3,M,24.4,M,,0000*6C
$GPGSA,M,3,18,30,22,21,16,31,25,06,29,03,,,1.7,0.9,1.5*30
$GPRMC,184703.999,A,1455.5715,S,07352.6913,W,11.23,3.63,190411,,,A*57
$GPGGA,184705.003,1455.5684,S,07352.6909,W,1,10,0.9,3911.0,M,24.4,M,,0000*60
$GPGSA,M,3,18,30,22,21,16,31,25,06,29,03,,,1.7,0.9,1.5*30
$GPGSV,3,1,11,18,60,075,40,30,58,213,40,22,51,010,36,21,36,156,37*78
$GPGSV,3,2,11,16,34,211,37,31,32,320,32,25,25,039,38,06,21,222,31*79
$GPGSV,3,3,11,29,16,103,40,03,11,229,37,14,06,005,*4B
$GPRMC,184705.003,A,1455.5684,S,07352.6909,W,11.58,4.69,190411,,,A*58
$GPGGA,184706.000,1455.5651,S,07352.6908,W,1,10,0.9,3911.3,M,24.4,M,,0000*6A
$GPGSA,M,3,18,30,22,21,16,31,25,06,29,03,,,1.7,0.9,1.5*30
$GPRMC,184706.000,A,1455.5651,S,07352.6908,W,11.39,0.03,190411,,,A*5E
$GPGGA,184706.997,1455.5617,S,07352.6910,W,1,10,0.9,3912.1,M,24.4,M,,0000*67
$GPGSA,M,3,18,30,22,21,16,31,25,06,29,03,,,1.7,0.9,1.5*30
$GPRMC,184706.997,A,1455.5617,S,07352.6910,W,11.06,359.40,190411,,,A*56
$GPGGA,184707.999,1455.5585,S,07352.6909,W,1,10,0.9,3913.0,M,24.4,M,,0000*68
$GPGSA,M,3,18,30,22,21,16,31,25,06,29,03,,,1.7,0.9,1.5*30
$GPRMC,184707.999,A,1455.5585,S,07352.6909,W,11.49,0.45,190411,,,A*58
$GPGGA,184709.003,1455.5552,S,07352.6910,W,1,10,0.9,3912.9,M,24.4,M,,0000*66
$GPGSA,M,3,18,30,22,21,16,31,25,06,29,03,,,1.7,0.9,1.5*30
$GPRMC,184709.003,A,1455.5552,S,07352.6910,W,13.05,355.98,190411,,,A*57
$GPGGA,184710.001,1455.5516,S,07352.6913,W,1,10,0.9,3913.0,M,24.4,M,,0000*67
$GPGSA,M,3,18,30,22,21,16,31,25,06,29,03,,,1.7,0.9,1.5*30
$GPGSV,3,1,11,18,60,075,41,30,58,213,38,22,51,010,35,21,36,156,37*75
$GPGSV,3,2,11,16,34,211,38,31,32,320,30,25,25,039,39,06,21,222,35*71
$GPGSV,3,3,11,29,16,103,40,03,11,229,36,14,06,005,29*41
$GPRMC,184710.001,A,1455.5516,S,07352.6913,W,12.95,353.45,190411,,,A*50
$GPGGA,184710.999,1455.5481,S,07352.6916,W,1,10,0.9,3913.7,M,24.4,M,,0000*62
$GPGSA,M,3,18,30,22,21,16,31,25,06,29,03,,,1.7,0.9,1.5*30
$GPRMC,184710.999,A,1455.5481,S,07352.6916,W,12.14,355.89,190411,,,A*5D
$GPGGA,184712.003,1455.5448,S,07352.6916,W,1,10,0.9,3914.0,M,24.4,M,,0000*6F
$GPGSA,M,3,18,30,22,21,16,31,25,06,29,03,,,1.7,0.9,1.5*30
$GPRMC,184712.003,A,1455.5448,S,07352.6916,W,12.35,3.89,190411,,,A*53
$GPGGA,184713.002,1455.5417,S,07352.6914,W,1,10,0.9,3914.2,M,24.4,M,,0000*65
$GPGSA,M,3,18,30,22,21,16,31,25,06,29,03,,,1.7,0.9,1.5*30
$GPRMC,184713.002,A,1455.5417,S,07352.6914,W,12.09,355.58,190411,,,A*58
$GPGGA,184713.999,1455.5383,S,07352.6917,W,1,10,0.9,3914.7,M,24.4,M,,0000*62
$GPGSA,M,3,18,30,22,21,16,31,25,06,29,03,,,1.7,0.9,1.5*30
$GPRMC,184713.999,A,1455.5383,S,07352.6917,W,12.35,357.53,190411,,,A*5C
$GPGGA,184715.005,1455.5345,S,07352.6924,W,1,10,0.9,3914.7,M,24.4,M,,0000*62
$GPGSA,M,3,18,30,22,21,16,31,25,06,29,03,,,1.7,0.9,1.5*30
$GPGSV,3,1,11,18,60,075,39,30,58,213,38,22,51,010,37,21,36,156,37*78
$GPGSV,3,2,11,16,34,211,36,31,32,320,36,25,25,039,40,06,21,222,35*77
$GPGSV,3,3,11,29,16,103,41,03,11,229,37,14,06,005,*4A
$GPRMC,184715.005,A,1455.5345,S,07352.6924,W,12.89,353.66,190411,,,A*59
$GPGGA,184715.997,1455.5310,S,07352.6928,W,1,10,0.9,3914.9,M,24.4,M,,0000*62
$GPGSA,M,3,18,30,22,21,16,31,25,06,29,03,,,1.7,0.9,1.5*30
$GPRMC,184715.997,A,1455.5310,S,07352.6928,W,12.83,352.86,190411,,,A*52
$GPGGA,184717.000,1455.5278,S,07352.6931,W,1,10,0.9,3914.8,M,24.4,M,,0000*61
$GPGSA,M,3,18,30,22,21,16,31,25,06,29,03,,,1.7,0.9,1.5*30
$GPRMC,184717.000,A,1455.5278,S,07352.6931,W,12.54,355.19,190411,,,A*5B
$GPGGA,184718.000,1455.5246,S,07352.6932,W,1,10,0.9,3915.1,M,24.4,M,,0000*68
$GPGSA,M,3,18,30,22,21,16,31,25,06,29,03,,,1.7,0.9,1.5*30
$GPRMC,184718.000,A,1455.5246,S,07352.6932,W,13.27,353.97,190411,,,A*5F
$GPGGA,184719.000,1455.5212,S,07352.6937,W,1,10,0.9,3914.8,M,24.4,M,,0000*65
$GPGSA,M,3,18,30,22,21,16,31,25,06,29,03,,,1.7,0.9,1.5*30
$GPRMC,184719.000,A,1455.5212,S,07352.6937,W,12.21,352.39,190411,,,A*58
$GPGGA,184720.000,1455.5176,S,07352.6942,W,1,10,0.9,3915.6,M,24.4,M,,0000*63
$GPGSA,M,3,18,30,22,21,16,31,25,06,29,03,,,1.7,0.9,1.5*30
$GPGSV,3,1,11,18,60,075,40,30,58,213,40,22,51,010,36,21,36,156,37*78
$GPGSV,3,2,11,16,34,211,38,31,32,320,33,25,25,039,40,06,21,222,34*7D
$GPGSV,3,3,11,29,16,103,40,03,11,229,37,14,06,005,*4B
$GPRMC,184720.000,A,1455.5176,S,07352.6942,W,13.02,357.08,190411,,,A*56
$GPGGA,184721.002,1455.5140,S,07352.6941,W,1,10,0.9,3915.7,M,24.4,M,,0000*67
$GPGSA,M,3,18,30,22,21,16,31,25,06,29,03,,,1.7,0.9,1.5*30
$GPRMC,184721.002,A,1455.5140,S,07352.6941,W,13.51,359.79,190411,,,A*5D
$GPGGA,184722.001,1455.5103,S,07352.6940,W,1,10,0.9,3915.3,M,24.4,M,,0000*65
$GPGSA,M,3,18,30,22,21,16,31,25,06,29,03,,,1.7,0.9,1.5*30
$GPRMC,184722.001,A,1455.5103,S,07352.6940,W,13.94,358.45,190411,,,A*5C
$GPGGA,184722.999,1455.5065,S,07352.6940,W,1,10,0.9,3915.7,M,24.4,M,,0000*68
$GPGSA,M,3,18,30,22,21,16,31,25,06,29,03,,,1.7,0.9,1.5*30
$GPRMC,184722.999,A,1455.5065,S,07352.6940,W,13.78,357.97,190411,,,A*57
$GPGGA,184724.002,1455.5027,S,07352.6941,W,1,10,0.9,3915.7,M,24.4,M,,0000*62
$GPGSA,M,3,18,30,22,21,16,31,25,06,29,03,,,1.7,0.9,1.5*30
$GPRMC,184724.002,A,1455.5027,S,07352.6941,W,13.52,358.86,190411,,,A*5A
$GPGGA,184725.002,1455.4990,S,07352.6940,W,1,10,0.9,3915.6,M,24.4,M,,0000*67
$GPGSA,M,3,18,30,22,21,16,31,25,06,29,03,,,1.7,0.9,1.5*30
$GPGSV,3,1,11,18,60,075,41,30,58,213,40,22,51,010,36,21,36,156,38*76
$GPGSV,3,2,11,16,34,211,38,31,32,320,30,25,25,039,40,06,21,222,38*72
$GPGSV,3,3,11,29,16,103,36,03,11,229,35,14,06,005,29*43
$GPRMC,184725.002,A,1455.4990,S,07352.6940,W,12.99,1.58,190411,,,A*54
$GPGGA,184726.001,1455.4949,S,07352.6944,W,1,10,0.9,3915.5,M,24.4,M,,0000*64
$GPGSA,M,3,18,30,22,21,16,31,25,06,29,03,,,1.7,0.9,1.5*30
$GPRMC,184726.001,A,1455.4949,S,07352.6944,W,12.94,356.71,190411,,,A*53
$GPGGA,184727.000,1455.4910,S,07352.6948,W,1,10,0.9,3915.4,M,24.4,M,,0000*65
$GPGSA,M,3,18,30,22,21,16,31,25,06,29,03,,,1.7,0.9,1.5*30
$GPRMC,184727.000,A,1455.4910,S,07352.6948,W,14.45,353.35,190411,,,A*5C
$GPGGA,184728.002,1455.4871,S,07352.6952,W,1,10,0.9,3915.5,M,24.4,M,,0000*64
$GPGSA,M,3,18,30,22,21,16,31,25,06,29,03,,,1.7,0.9,1.5*30
$GPRMC,184728.002,A,1455.4871,S,07352.6952,W,14.21,353.50,190411,,,A*5D
$GPGGA,184728.999,1455.4830,S,07352.6957,W,1,10,0.9,3914.9,M,24.4,M,,0000*62
$GPGSA,M,3,18,30,22,21,16,31,25,06,29,03,,,1.7,0.9,1.5*30
$GPRMC,184728.999,A,1455.4830,S,07352.6957,W,14.68,354.82,190411,,,A*53
$GPGGA,184730.004,1455.4790,S,07352.6957,W,1,10,0.9,3915.3,M,24.4,M,,0000*68
$GPGSA,M,3,18,30,22,21,16,31,25,06,29,03,,,1.7,0.9,1.5*30
$GPGSV,3,1,11,18,60,075,39,30,58,213,40,22,51,010,37,21,36,156,40*77
$GPGSV,3,2,11,16,34,211,38,31,32,320,36,25,25,039,39,06,21,222,34*76
$GPGSV,3,3,11,29,16,103,30,03,11,229,37,14,06,005,*4C
$GPRMC,184730.004,A,1455.4790,S,07352.6957,W,14.92,0.44,190411,,,A*5F
$GPGGA,184730.998,1455.4751,S,07352.6955,W,1,10,0.9,3914.8,M,24.4,M,,0000*61
$GPGSA,M,3,18,30,22,21,16,31,25,06,29,03,,,1.7,0.9,1.5*30
$GPRMC,184730.998,A,1455.4751,S,07352.6955,W,14.56,3.18,190411,,,A*5E
$GPGGA,184732.001,1455.4709,S,07352.6955,W,1,10,0.9,3913.8,M,24.4,M,,0000*60
$GPGSA,M,3,18,30,22,21,16,31,25,06,29,03,,,1.7,0.9,1.5*30
$GPRMC,184732.001,A,1455.4709,S,07352.6955,W,14.43,359.89,190411,,,A*58
$GPGGA,184733.004,1455.4668,S,07352.6954,W,1,10,0.9,3913.8,M,24.4,M,,0000*63
$GPGSA,M,3,18,30,22,21,16,31,25,06,29,03,,,1.7,0.9,1.5*30
$GPRMC,184733.004,A,1455.4668,S,07352.6954,W,14.08,4.42,190411,,,A*58
$GPGGA,184734.001,1455.4629,S,07352.6949,W,1,10,0.9,3913.0,M,24.4,M,,0000*60
$GPGSA,M,3,18,30,22,21,16,31,25,06,29,03,,,1.7,0.9,1.5*30
$GPRMC,184734.001,A,1455.4629,S,07352.6949,W,14.18,8.65,190411,,,A*5B
$GPGGA,184734.996,1455.4587,S,07352.6946,W,1,10,0.9,3912.9,M,24.4,M,,0000*67
$GPGSA,M,3,18,30,22,21,16,31,25,06,29,03,,,1.7,0.9,1.5*30
$GPGSV,3,1,11,18,60,075,39,30,58,213,39,22,51,010,35,21,36,156,39*75
$GPGSV,3,2,11,16,34,211,35,31,32,320,37,25,25,039,39,06,21,222,34*7A
$GPGSV,3,3,11,29,16,103,29,03,11,229,38,14,06,005,*4B
$GPRMC,184734.996,A,1455.4587,S,07352.6946,W,14.12,5.66,190411,,,A*50
$GPGGA,184736.003,1455.4547,S,07352.6943,W,1,10,0.9,3912.5,M,24.4,M,,0000*65
$GPGSA,M,3,18,30,22,21,16,31,25,06,29,03,,,1.7,0.9,1.5*30
$GPRMC,184736.003,A,1455.4547,S,07352.6943,W,14.65,358.61,190411,,,A*52
$GPGGA,184737.003,1455.4508,S,07352.6946,W,1,10,0.9,3912.4,M,24.4,M,,0000*6B
$GPGSA,M,3,18,30,22,21,16,31,25,06,29,03,,,1.7,0.9,1.5*30
$GPRMC,184737.003,A,1455.4508,S,07352.6946,W,14.47,354.16,190411,,,A*51
$GPGGA,184738.001,1455.4470,S,07352.6949,W,1,10,0.9,3912.7,M,24.4,M,,0000*64
$GPGSA,M,3,18,30,22,21,16,31,25,06,29,03,,,1.7,0.9,1.5*30
$GPRMC,184738.001,A,1455.4470,S,07352.6949,W,14.53,354.56,190411,,,A*5C
$GPGGA,184738.997,1455.4429,S,07352.6955,W,1,10,0.9,3912.7,M,24.4,M,,0000*63
$GPGSA,M,3,18,30,22,21,16,31,25,06,29,03,,,1.7,0.9,1.5*30
$GPRMC,184738.997,A,1455.4429,S,07352.6955,W,15.18,353.38,190411,,,A*5A
$GPGGA,184740.005,1455.4389,S,07352.6960,W,1,10,0.9,3912.3,M,24.4,M,,0000*61
$GPGSA,M,3,18,30,22,21,16,31,25,06,29,03,,,1.7,0.9,1.5*30
$GPGSV,3,1,11,18,60,075,40,30,58,213,38,22,51,010,37,21,36,156,38*79
$GPGSV,3,2,11,16,34,211,32,31,32,320,29,25,25,039,36,06,21,222,36*7F
$GPGSV,3,3,11,29,16,103,39,03,11,229,36,14,06,005,*44
$GPRMC,184740.005,A,1455.4389,S,07352.6960,W,13.87,352.01,190411,,,A*57
$GPGGA,184741.002,1455.4352,S,07352.6964,W,1,10,0.9,3912.1,M,24.4,M,,0000*67
$GPGSA,M,3,18,30,22,21,16,31,25,06,29,03,,,1.7,0.9,1.5*30
$GPRMC,184741.002,A,1455.4352,S,07352.6964,W,14.20,352.48,190411,,,A*54
$GPGGA,184742.001,1455.4316,S,07352.6970,W,1,10,0.9,3912.4,M,24.4,M,,0000*67
$GPGSA,M,3,18,30,22,21,16,31,25,06,29,03,,,1.7,0.9,1.5*30
$GPRMC,184742.001,A,1455.4316,S,07352.6970,W,14.17,351.59,190411,,,A*56
$GPGGA,184742.996,1455.4276,S,07352.6976,W,1,10,0.9,3912.0,M,24.4,M,,0000*65
$GPGSA,M,3,18,30,22,21,16,31,25,06,29,03,,,1.7,0.9,1.5*30
$GPRMC,184742.996,A,1455.4276,S,07352.6976,W,14.20,351.47,190411,,,A*5B
$GPGGA,184744.005,1455.4237,S,07352.6985,W,1,10,0.9,3911.7,M,24.4,M,,0000*6D
$GPGSA,M,3,18,30,22,21,16,31,25,06,29,03,,,1.7,0.9,1.5*30
$GPRMC,184744.005,A,1455.4237,S,07352.6985,W,14.53,348.16,190411,,,A*5F
$GPGGA,184745.001,1455.4198,S,07352.6993,W,1,10,0.9,3912.0,M,24.4,M,,0000*6D
$GPGSA,M,3,18,30,22,21,16,31,25,06,29,03,,,1.7,0.9,1.5*30
$GPGSV,3,1,11,18,60,075,40,30,58,213,39,22,51,010,34,21,36,156,39*7A
$GPGSV,3,2,11,16,34,211,34,31,32,320,31,25,25,039,40,06,21,222,32*75
$GPGSV,3,3,11,29,16,103,39,03,11,229,37,14,06,005,*45
$GPRMC,184745.001,A,1455.4198,S,07352.6993,W,14.56,350.50,190411,,,A*55
$GPGGA,184745.998,1455.4161,S,07352.7001,W,1,10,0.9,3911.6,M,24.4,M,,0000*64
$GPGSA,M,3,18,30,22,21,16,31,25,06,29,03,,,1.7,0.9,1.5*30
$GPRMC,184745.998,A,1455.4161,S,07352.7001,W,14.64,348.21,190411,,,A*57
$GPGGA,184747.001,1455.4121,S,07352.7010,W,1,10,0.9,3911.7,M,24.4,M,,0000*6A
$GPGSA,M,3,18,30,22,21,16,31,25,06,29,03,,,1.7,0.9,1.5*30
$GPRMC,184747.001,A,1455.4121,S,07352.7010,W,14.17,347.99,190411,,,A*50
$GPGGA,184748.005,1455.4082,S,07352.7019,W,1,10,0.9,3911.1,M,24.4,M,,0000*66
$GPGSA,M,3,18,30,22,21,16,31,25,06,29,03,,,1.7,0.9,1.5*30
$GPRMC,184748.005,A,1455.4082,S,07352.7019,W,14.28,346.08,190411,,,A*5F
$GPGGA,184748.996,1455.4043,S,07352.7029,W,1,10,0.9,3911.8,M,24.4,M,,0000*62
$GPGSA,M,3,18,30,22,21,16,31,25,06,29,03,,,1.7,0.9,1.5*30
$GPRMC,184748.996,A,1455.4043,S,07352.7029,W,14.31,348.28,190411,,,A*56
$GPGGA,184750.001,1455.4003,S,07352.7036,W,1,10,0.9,3911.8,M,24.4,M,,0000*66
$GPGSA,M,3,18,30,22,21,16,31,25,06,29,03,,,1.7,0.9,1.5*30
$GPGSV,3,1,11,18,60,075,41,30,58,213,40,22,51,010,37,21,36,156,38*77
$GPGSV,3,2,11,16,34,211,36,31,32,320,33,25,25,039,40,06,21,222,34*73
$GPGSV,3,3,11,29,16,103,41,03,11,229,34,14,06,005,*49
$GPRMC,184750.001,A,1455.4003,S,07352.7036,W,14.25,347.53,190411,,,A*54
$GPGGA,184751.002,1455.3968,S,07352.7044,W,1,10,0.9,3912.5,M,24.4,M,,0000*6C
$GPGSA,M,3,18,30,22,21,16,31,25,06,29,03,,,1.7,0.9,1.5*30
$GPRMC,184751.002,A,1455.3968,S,07352.7044,W,13.23,347.15,190411,,,A*53
$GPGGA,184752.000,1455.3930,S,07352.7053,W,1,10,0.9,3912.9,M,24.4,M,,0000*6A
$GPGSA,M,3,18,30,22,21,16,31,25,06,29,03,,,1.7,0.9,1.5*30
$GPRMC,184752.000,A,1455.3930,S,07352.7053,W,14.58,348.55,190411,,,A*59
$GPGGA,184753.002,1455.3891,S,07352.7060,W,1,10,0.9,3913.3,M,24.4,M,,0000*68
$GPGSA,M,3,18,30,22,21,16,31,25,06,29,03,,,1.7,0.9,1.5*30
$GPRMC,184753.002,A,1455.3891,S,07352.7060,W,13.86,349.07,190411,,,A*52
$GPGGA,184753.999,1455.3854,S,07352.7068,W,1,10,0.9,3914.5,M,24.4,M,,0000*63
$GPGSA,M,3,18,30,22,21,16,31,25,06,29,03,,,1.7,0.9,1.5*30
$GPRMC,184753.999,A,1455.3854,S,07352.7068,W,14.25,347.08,190411,,,A*57
$GPGGA,184755.001,1455.3814,S,07352.7078,W,1,10,0.9,3914.0,M,24.4,M,,0000*6D
$GPGSA,M,3,18,30,22,21,16,31,25,06,29,03,,,1.7,0.9,1.5*30
$GPGSV,3,1,11,18,60,075,40,30,58,213,38,22,51,010,37,21,36,156,39*78
$GPGSV,3,2,11,16,34,211,36,31,32,320,36,25,25,039,40,06,21,222,34*76
$GPGSV,3,3,11,29,16,103,40,03,11,229,32,14,06,005,*4E
$GPRMC,184755.001,A,1455.3814,S,07352.7078,W,14.13,343.86,190411,,,A*5B
$GPGGA,184756.001,1455.3776,S,07352.7089,W,1,10,0.9,3914.5,M,24.4,M,,0000*6E
$GPGSA,M,3,18,30,22,21,16,31,25,06,29,03,,,1.7,0.9,1.5*30
$GPRMC,184756.001,A,1455.3776,S,07352.7089,W,13.28,345.52,190411,,,A*5D
$GPGGA,184757.001,1455.3740,S,07352.7100,W,1,10,0.9,3914.2,M,24.4,M,,0000*6D
$GPGSA,M,3,18,30,22,21,16,31,25,06,29,03,,,1.7,0.9,1.5*30
$GPRMC,184757.001,A,1455.3740,S,07352.7100,W,13.26,343.04,190411,,,A*52
$GPGGA,184758.005,1455.3705,S,07352.7114,W,1,10,0.9,3914.8,M,24.4,M,,0000*68
$GPGSA,M,3,18,30,22,21,16,31,25,06,29,03,,,1.7,0.9,1.5*30
$GPRMC,184758.005,A,1455.3705,S,07352.7114,W,14.12,335.62,190411,,,A*5C
$GPGGA,184758.999,1455.3669,S,07352.7131,W,1,10,0.9,3915.1,M,24.4,M,,0000*60
$GPGSA,M,3,18,30,22,21,16,31,25,06,29,03,,,1.7,0.9,1.5*30
$GPRMC,184758.999,A,1455.3669,S,07352.7131,W,12.92,334.55,190411,,,A*57
$GPGGA,184800.001,1455.3639,S,07352.7147,W,1,10,0.9,3915.2,M,24.4,M,,0000*6D
$GPGSA,M,3,18,30,22,21,16,31,25,06,29,03,,,1.7,0.9,1.5*30
$GPGSV,3,1,11,18,60,075,40,30,58,213,39,22,51,010,37,21,36,156,40*77
$GPGSV,3,2,11,16,34,211,37,31,32,320,34,25,25,039,39,06,21,222,32*7D
$GPGSV,3,3,11,29,16,103,40,03,11,229,34,14,06,005,30*4B
$GPRMC,184800.001,A,1455.3639,S,07352.7147,W,12.33,328.34,190411,,,A*58
$GPGGA,184801.001,1455.3608,S,07352.7168,W,1,10,0.9,3915.5,M,24.4,M,,0000*64
$GPGSA,M,3,18,30,22,21,16,31,25,06,29,03,,,1.7,0.9,1.5*30
$GPRMC,184801.001,A,1455.3608,S,07352.7168,W,10.98,324.27,190411,,,A*5B
$GPGGA,184802.001,1455.3579,S,07352.7186,W,1,09,0.9,3915.3,M,24.4,M,,0000*6C
$GPGSA,M,3,18,30,22,21,16,31,25,29,03,,,,1.7,0.9,1.5*36
$GPRMC,184802.001,A,1455.3579,S,07352.7186,W,12.61,330.97,190411,,,A*57
$GPGGA,184803.000,1455.3543,S,07352.7207,W,1,10,0.9,3915.6,M,24.4,M,,0000*62
$GPGSA,M,3,18,30,22,21,16,31,25,06,29,03,,,1.7,0.9,1.5*30
$GPRMC,184803.000,A,1455.3543,S,07352.7207,W,12.00,335.99,190411,,,A*58
$GPGGA,184804.002,1455.3513,S,07352.7220,W,1,10,0.9,3916.2,M,24.4,M,,0000*60
$GPGSA,M,3,18,30,22,21,16,31,25,06,29,03,,,1.7,0.9,1.5*30
$GPRMC,184804.002,A,1455.3513,S,07352.7220,W,11.41,339.56,190411,,,A*54
$GPGGA,184805.001,1455.3486,S,07352.7228,W,1,10,0.9,3915.9,M,24.4,M,,0000*6F
$GPGSA,M,3,18,30,22,21,16,31,25,06,29,03,,,1.7,0.9,1.5*30
$GPGSV,3,1,11,18,60,075,40,30,58,213,39,22,51,010,36,21,36,156,39*78
$GPGSV,3,2,11,16,34,211,32,31,32,320,30,25,25,039,39,06,21,222,34*7A
$GPGSV,3,3,11,29,16,103,40,03,11,229,30,14,06,005,*4C
$GPRMC,184805.001,A,1455.3486,S,07352.7228,W,11.20,345.91,190411,,,A*54
$GPGGA,184806.001,1455.3455,S,07352.7233,W,1,09,1.1,3916.1,M,24.4,M,,0000*62
$GPGSA,M,3,18,30,22,21,16,25,06,29,03,,,,1.8,1.1,1.5*34
$GPRMC,184806.001,A,1455.3455,S,07352.7233,W,11.75,356.36,190411,,,A*5C
$GPGGA,184807.002,1455.3419,S,07352.7234,W,1,10,0.9,3915.8,M,24.4,M,,0000*64
$GPGSA,M,3,18,30,22,21,16,31,25,06,29,03,,,1.7,0.9,1.5*30
$GPRMC,184807.002,A,1455.3419,S,07352.7234,W,12.37,5.56,190411,,,A*57
$GPGGA,184807.999,1455.3383,S,07352.7229,W,1,10,0.9,3916.5,M,24.4,M,,0000*69
$GPGSA,M,3,18,30,22,21,16,31,25,06,29,03,,,1.7,0.9,1.5*30
$GPRMC,184807.999,A,1455.3383,S,07352.7229,W,12.78,5.91,190411,,,A*54
$GPGGA,184809.001,1455.3346,S,07352.7226,W,1,10,0.9,3916.8,M,24.4,M,,0000*64
$GPGSA,M,3,18,30,22,21,16,31,25,06,29,03,,,1.7,0.9,1.5*30
$GPRMC,184809.001,A,1455.3346,S,07352.7226,W,12.47,4.97,190411,,,A*5F
$GPGGA,184810.002,1455.3306,S,07352.7223,W,1,10,0.9,3916.4,M,24.4,M,,0000*62
$GPGSA,M,3,18,30,22,21,16,31,25,06,29,03,,,1.7,0.9,1.5*30
$GPGSV,3,1,11,18,60,075,39,30,58,213,40,22,51,010,37,21,36,156,40*77
$GPGSV,3,2,11,16,34,211,37,31,32,320,33,25,25,039,39,06,21,222,36*7E
$GPGSV,3,3,11,29,16,103,39,03,11,229,35,14,06,005,*47
$GPRMC,184810.002,A,1455.3306,S,07352.7223,W,14.20,4.53,190411,,,A*5A
$GPGGA,184811.001,1455.3269,S,07352.7218,W,1,10,0.9,3917.1,M,24.4,M,,0000*64
$GPGSA,M,3,18,30,22,21,16,31,25,06,29,03,,,1.7,0.9,1.5*30
$GPRMC,184811.001,A,1455.3269,S,07352.7218,W,13.49,4.66,190411,,,A*56
$GPGGA,184812.002,1455.3231,S,07352.7216,W,1,10,0.9,3917.3,M,24.4,M,,0000*65
$GPGSA,M,3,18,30,22,21,16,31,25,06,29,03,,,1.7,0.9,1.5*30
$GPRMC,184812.002,A,1455.3231,S,07352.7216,W,13.86,3.55,190411,,,A*51
$GPGGA,184813.001,1455.3192,S,07352.7215,W,1,10,0.9,3917.9,M,24.4,M,,0000*64
$GPGSA,M,3,18,30,22,21,16,31,25,06,29,03,,,1.7,0.9,1.5*30
$GPRMC,184813.001,A,1455.3192,S,07352.7215,W,13.06,1.02,190411,,,A*52
$GPGGA,184814.000,1455.3157,S,07352.7217,W,1,10,0.9,3918.5,M,24.4,M,,0000*6A
$GPGSA,M,3,18,30,22,21,16,31,25,06,29,03,,,1.7,0.9,1.5*30
$GPRMC,184814.000,A,1455.3157,S,07352.7217,W,13.01,354.26,190411,,,A*5D
$GPGGA,184815.000,1455.3122,S,07352.7225,W,1,10,0.9,3918.3,M,24.4,M,,0000*6E
$GPGSA,M,3,18,30,22,21,16,31,25,06,29,03,,,1.7,0.9,1.5*30
$GPGSV,3,1,11,18,60,075,39,30,58,213,38,22,51,010,38,21,36,156,39*79
$GPGSV,3,2,11,16,34,211,36,31,32,320,35,25,25,039,38,06,21,222,37*79
$GPGSV,3,3,11,29,16,103,38,03,11,229,35,14,06,005,*46
$GPRMC,184815.000,A,1455.3122,S,07352.7225,W,12.73,348.01,190411,,,A*53
$GPGGA,184816.001,1455.3088,S,07352.7238,W,1,10,0.9,3918.0,M,24.4,M,,0000*62
$GPGSA,M,3,18,30,22,21,16,31,25,06,29,03,,,1.7,0.9,1.5*30
$GPRMC,184816.001,A,1455.3088,S,07352.7238,W,12.22,337.60,190411,,,A*57
$GPGGA,184817.002,1455.3054,S,07352.7258,W,1,10,0.9,3917.3,M,24.4,M,,0000*6B
$GPGSA,M,3,18,30,22,21,16,31,25,06,29,03,,,1.7,0.9,1.5*30
$GPRMC,184817.002,A,1455.3054,S,07352.7258,W,12.40,328.00,190411,,,A*5E
$GPGGA,184817.995,1455.3023,S,07352.7280,W,1,09,0.9,3916.9,M,24.4,M,,0000*6A
$GPGSA,M,3,18,30,22,16,31,25,06,29,03,,,,1.8,0.9,1.5*3C
$GPRMC,184817.995,A,1455.3023,S,07352.7280,W,12.96,319.34,190411,,,A*52
$GPGGA,184819.005,1455.2996,S,07352.7305,W,1,10,0.9,3916.2,M,24.4,M,,0000*6D
$GPGSA,M,3,18,30,22,21,16,31,25,06,29,03,,,1.7,0.9,1.5*30
$GPRMC,184819.005,A,1455.2996,S,07352.7305,W,13.93,317.59,190411,,,A*57
$GPGGA,184819.997,1455.2972,S,07352.7334,W,1,10,0.9,3916.1,M,24.4,M,,0000*64
$GPGSA,M,3,18,30,22,21,16,31,25,06,29,03,,,1.7,0.9,1.5*30
$GPGSV,3,1,11,18,60,075,40,30,58,213,36,22,51,010,40,21,36,156,37*78
$GPGSV,3,2,11,16,34,211,33,31,32,320,35,25,25,039,40,06,21,222,34*70
$GPGSV,3,3,11,29,16,103,34,03,11,229,30,14,06,005,*4F
$GPRMC,184819.997,A,1455.2972,S,07352.7334,W,12.38,308.11,190411,,,A*5F
$GPGGA,184821.001,1455.2950,S,07352.7368,W,1,10,0.9,3915.4,M,24.4,M,,0000*66
$GPGSA,M,3,18,30,22,21,16,31,25,06,29,03,,,1.7,0.9,1.5*30
$GPRMC,184821.001,A,1455.2950,S,07352.7368,W,13.65,302.19,190411,,,A*50
$GPGGA,184822.004,1455.2928,S,07352.7407,W,1,10,0.9,3914.7,M,24.4,M,,0000*63
$GPGSA,M,3,18,30,22,21,16,31,25,06,29,03,,,1.7,0.9,1.5*30
$GPRMC,184822.004,A,1455.2928,S,07352.7407,W,15.05,302.43,190411,,,A*58
$GPGGA,184822.997,1455.2911,S,07352.7440,W,1,10,0.9,3915.6,M,24.4,M,,0000*69
$GPGSA,M,3,18,30,22,21,16,31,25,06,29,03,,,1.7,0.9,1.5*30
$GPRMC,184822.997,A,1455.2911,S,07352.7440,W,13.89,298.48,190411,,,A*59
$GPGGA,184824.002,1455.2894,S,07352.7476,W,1,09,0.9,3915.8,M,24.4,M,,0000*65
$GPGSA,M,3,18,30,22,21,16,31,25,06,29,,,,1.9,0.9,1.7*3F
$GPRMC,184824.002,A,1455.2894,S,07352.7476,W,13.42,295.33,190411,,,A*55
$GPGGA,184825.001,1455.2879,S,07352.7512,W,1,09,0.9,3916.6,M,24.4,M,,0000*6A
$GPGSA,M,3,18,30,22,21,16,31,25,06,29,,,,1.9,0.9,1.7*3F
$GPGSV,3,1,11,18,60,075,41,30,58,213,37,22,51,010,40,21,36,156,38*77
$GPGSV,3,2,11,16,34,211,33,31,32,320,38,25,25,039,40,06,21,222,26*7E
$GPGSV,3,3,11,29,16,103,34,03,11,229,,14,06,005,*4C
$GPRMC,184825.001,A,1455.2879,S,07352.7512,W,13.20,296.03,190411,,,A*53
$GPGGA,184826.001,1455.2865,S,07352.7545,W,1,09,0.9,3917.3,M,24.4,M,,0000*62
$GPGSA,M,3,18,30,22,21,16,31,25,06,29,,,,1.9,0.9,1.7*3F
$GPRMC,184826.001,A,1455.2865,S,07352.7545,W,11.78,296.06,190411,,,A*55
$GPGGA,184826.997,1455.2854,S,07352.7574,W,1,10,0.9,3918.0,M,24.4,M,,0000*60
$GPGSA,M,3,18,30,22,21,16,31,25,06,29,03,,,1.7,0.9,1.5*30
$GPRMC,184826.997,A,1455.2854,S,07352.7574,W,11.48,295.88,190411,,,A*55
$GPGGA,184828.002,1455.2842,S,07352.7604,W,1,09,0.9,3918.5,M,24.4,M,,0000*65
