$GPGGA,185538.001,1326.7564,S,07223.0365,W,1,06,1.3,3598.8,M,28.3,M,,0000*60
$GPGSA,M,3,30,18,22,21,31,25,,,,,,,2.4,1.3,2.0*34
$GPRMC,185538.001,A,1326.7564,S,07223.0365,W,20.36,107.29,210411,,,A*5D
$GPGGA,185539.000,1326.7605,S,07223.0300,W,1,06,1.3,3594.1,M,28.3,M,,0000*62
$GPGSA,M,3,30,18,22,21,31,25,,,,,,,2.4,1.3,2.0*34
$GPRMC,185539.000,A,1326.7605,S,07223.0300,W,20.97,112.35,210411,,,A*58
$GPGGA,185540.000,1326.7645,S,07223.0242,W,1,07,1.1,3587.4,M,28.3,M,,0000*6B
$GPGSA,M,3,30,18,22,16,21,31,25,,,,,,2.2,1.1,1.9*3D
$GPGSV,3,1,11,30,62,220,38,18,62,095,37,22,60,012,36,16,39,213,21*7C
$GPGSV,3,2,11,21,30,153,26,31,28,324,34,06,22,216,,25,21,035,35*76
$GPGSV,3,3,11,29,15,097,,03,13,224,,14,09,010,*40
$GPRMC,185540.000,A,1326.7645,S,07223.0242,W,20.78,121.68,210411,,,A*5C
$GPGGA,185541.001,1326.7689,S,07223.0183,W,1,05,1.7,3585.6,M,28.3,M,,0000*61
$GPGSA,M,3,30,18,22,21,31,,,,,,,,3.0,1.7,2.4*36
$GPRMC,185541.001,A,1326.7689,S,07223.0183,W,20.53,123.17,210411,,,A*51
$GPGGA,185541.997,1326.7713,S,07223.0125,W,1,07,1.1,3585.8,M,28.3,M,,0000*63
$GPGSA,M,3,30,18,22,16,21,31,25,,,,,,2.2,1.1,1.9*3D
$GPRMC,185541.997,A,1326.7713,S,07223.0125,W,20.54,127.32,210411,,,A*5D
$GPGGA,185543.002,1326.7749,S,07223.0081,W,1,06,1.5,3586.3,M,28.3,M,,0000*69
$GPGSA,M,3,30,18,22,16,31,25,,,,,,,2.8,1.5,2.3*39
$GPRMC,185543.002,A,1326.7749,S,07223.0081,W,20.54,133.38,210411,,,A*55
$GPGGA,185543.998,1326.7795,S,07223.0054,W,1,07,1.1,3586.9,M,28.3,M,,0000*65
$GPGSA,M,3,30,18,22,16,21,31,25,,,,,,2.2,1.1,1.9*3D
$GPRMC,185543.998,A,1326.7795,S,07223.0054,W,20.33,139.02,210411,,,A*54
$GPGGA,185545.000,1326.7827,S,07223.0012,W,1,07,1.1,3590.2,M,28.3,M,,0000*63
$GPGSA,M,3,30,18,22,16,21,31,25,,,,,,2.2,1.1,1.9*3D
$GPGSV,3,1,11,30,62,220,33,18,62,095,41,22,60,012,31,16,39,213,33*72
$GPGSV,3,2,11,21,30,153,15,31,28,324,31,06,22,216,,25,21,035,35*73
$GPGSV,3,3,11,29,15,097,30,03,13,224,,14,09,010,*43
$GPRMC,185545.000,A,1326.7827,S,07223.0012,W,20.94,138.33,210411,,,A*50
$GPGGA,185546.002,1326.7862,S,07222.9968,W,1,06,1.5,3590.3,M,28.3,M,,0000*6B
$GPGSA,M,3,30,18,22,16,31,25,,,,,,,2.8,1.5,2.3*39
$GPRMC,185546.002,A,1326.7862,S,07222.9968,W,21.25,142.33,210411,,,A*5A
$GPGGA,185546.998,1326.7900,S,07222.9930,W,1,07,1.1,3589.0,M,28.3,M,,0000*67
$GPGSA,M,3,30,18,22,16,21,31,25,,,,,,2.2,1.1,1.9*3D
$GPRMC,185546.998,A,1326.7900,S,07222.9930,W,21.25,139.79,210411,,,A*5A
$GPGGA,185548.000,1326.7949,S,07222.9887,W,1,07,1.1,3588.0,M,28.3,M,,0000*60
$GPGSA,M,3,30,18,22,16,21,31,25,,,,,,2.2,1.1,1.9*3D
$GPRMC,185548.000,A,1326.7949,S,07222.9887,W,21.79,138.88,210411,,,A*5A
$GPGGA,185549.002,1326.7994,S,07222.9850,W,1,06,1.5,3588.9,M,28.3,M,,0000*65
$GPGSA,M,3,30,18,22,16,31,25,,,,,,,2.8,1.5,2.3*39
$GPRMC,185549.002,A,1326.7994,S,07222.9850,W,20.89,133.76,210411,,,A*57
$GPGGA,185550.000,1326.8032,S,07222.9803,W,1,06,1.5,3589.6,M,28.3,M,,0000*6D
$GPGSA,M,3,30,18,22,16,31,25,,,,,,,2.8,1.5,2.3*39
$GPGSV,3,1,11,30,62,220,39,18,62,095,37,22,60,012,31,16,39,213,34*7E
$GPGSV,3,2,11,21,30,153,,31,28,324,39,06,22,216,,25,21,035,35*7F
$GPGSV,3,3,11,29,15,097,25,03,13,224,,14,09,010,*47
$GPRMC,185550.000,A,1326.8032,S,07222.9803,W,20.58,126.46,210411,,,A*5A
$GPGGA,185551.000,1326.8061,S,07222.9748,W,1,06,1.5,3590.2,M,28.3,M,,0000*66
$GPGSA,M,3,30,18,22,16,31,25,,,,,,,2.8,1.5,2.3*39
$GPRMC,185551.000,A,1326.8061,S,07222.9748,W,21.22,121.93,210411,,,A*5E
$GPGGA,185552.000,1326.8093,S,07222.9696,W,1,06,1.5,3591.4,M,28.3,M,,0000*6D
$GPGSA,M,3,30,18,22,16,31,25,,,,,,,2.8,1.5,2.3*39
$GPRMC,185552.000,A,1326.8093,S,07222.9696,W,22.73,117.43,210411,,,A*5D
$GPGGA,185553.000,1326.8109,S,07222.9629,W,1,06,1.5,3595.5,M,28.3,M,,0000*6F
$GPGSA,M,3,30,18,22,16,31,25,,,,,,,2.8,1.5,2.3*39
$GPRMC,185553.000,A,1326.8109,S,07222.9629,W,22.15,113.52,210411,,,A*5E
$GPGGA,185553.998,1326.8129,S,07222.9577,W,1,05,1.7,3596.2,M,28.3,M,,0000*68
$GPGSA,M,3,30,22,16,31,25,,,,,,,,3.0,1.7,2.5*3D
$GPRMC,185553.998,A,1326.8129,S,07222.9577,W,21.79,111.21,210411,,,A*53
$GPGGA,185555.002,1326.8146,S,07222.9514,W,1,06,1.5,3597.2,M,28.3,M,,0000*68
$GPGSA,M,3,30,18,22,16,31,25,,,,,,,2.8,1.5,2.3*39
$GPGSV,3,1,11,30,62,220,36,18,62,095,29,22,60,012,29,16,39,213,29*7B
$GPGSV,3,2,11,21,30,153,,31,28,324,29,06,22,216,,25,21,035,37*7C
$GPGSV,3,3,11,29,15,097,39,03,13,224,,14,09,010,*4A
$GPRMC,185555.002,A,1326.8146,S,07222.9514,W,22.82,105.95,210411,,,A*5E
$GPGGA,185556.000,1326.8165,S,07222.9449,W,1,06,1.5,3597.1,M,28.3,M,,0000*62
$GPGSA,M,3,30,18,22,16,31,25,,,,,,,2.8,1.5,2.3*39
$GPRMC,185556.000,A,1326.8165,S,07222.9449,W,21.27,101.55,210411,,,A*53
$GPGGA,185557.000,1326.8181,S,07222.9382,W,1,06,1.5,3598.2,M,28.3,M,,0000*65
$GPGSA,M,3,30,18,22,16,31,25,,,,,,,2.8,1.5,2.3*39
$GPRMC,185557.000,A,1326.8181,S,07222.9382,W,22.45,104.63,210411,,,A*5F
$GPGGA,185558.000,1326.8195,S,07222.9315,W,1,04,2.8,3596.3,M,28.3,M,,0000*62
$GPGSA,M,3,30,18,22,25,,,,,,,,,4.4,2.8,3.4*3E
$GPRMC,185558.000,A,1326.8195,S,07222.9315,W,22.19,103.19,210411,,,A*58
$GPGGA,185558.998,1326.8210,S,07222.9257,W,1,05,2.1,3595.7,M,28.3,M,,0000*6C
$GPGSA,M,3,30,18,22,31,25,,,,,,,,3.9,2.1,3.3*38
$GPRMC,185558.998,A,1326.8210,S,07222.9257,W,23.15,106.39,210411,,,A*53
$GPGGA,185600.002,1326.8228,S,07222.9199,W,1,05,2.1,3595.8,M,28.3,M,,0000*6D
$GPGSA,M,3,30,18,22,31,25,,,,,,,,3.9,2.1,3.3*38
$GPGSV,3,1,11,30,62,220,31,18,62,095,32,22,60,012,30,16,39,213,*75
$GPGSV,3,2,11,21,30,153,,31,28,324,28,06,22,216,,25,21,035,38*72
$GPGSV,3,3,11,29,15,097,,03,13,224,,14,09,010,*40
$GPRMC,185600.002,A,1326.8228,S,07222.9199,W,23.21,106.77,210411,,,A*50
$GPGGA,185601.000,1326.8243,S,07222.9134,W,1,05,2.1,3597.9,M,28.3,M,,0000*67
$GPGSA,M,3,30,18,22,31,25,,,,,,,,3.9,2.1,3.3*38
$GPRMC,185601.000,A,1326.8243,S,07222.9134,W,22.24,107.87,210411,,,A*53
$GPGGA,185602.000,1326.8258,S,07222.9075,W,1,05,2.1,3599.3,M,28.3,M,,0000*6E
$GPGSA,M,3,30,18,22,31,25,,,,,,,,3.9,2.1,3.3*38
$GPRMC,185602.000,A,1326.8258,S,07222.9075,W,22.75,110.27,210411,,,A*56
$GPGGA,185603.000,1326.8281,S,07222.9015,W,1,05,2.1,3599.1,M,28.3,M,,0000*6F
$GPGSA,M,3,30,18,22,31,25,,,,,,,,3.9,2.1,3.3*38
$GPRMC,185603.000,A,1326.8281,S,07222.9015,W,23.19,111.09,210411,,,A*53
$GPGGA,185604.000,1326.8303,S,07222.8958,W,1,05,2.1,3600.0,M,28.3,M,,0000*60
$GPGSA,M,3,30,18,22,31,25,,,,,,,,3.9,2.1,3.3*38
$GPRMC,185604.000,A,1326.8303,S,07222.8958,W,22.11,112.30,210411,,,A*5E
$GPGGA,185605.000,1326.8325,S,07222.8897,W,1,05,2.1,3602.0,M,28.3,M,,0000*65
$GPGSA,M,3,30,18,22,31,25,,,,,,,,3.9,2.1,3.3*38
$GPGSV,3,1,11,30,62,220,27,18,62,095,33,22,60,012,29,16,39,213,*7B
$GPGSV,3,2,11,21,30,153,,31,28,324,31,06,22,216,,25,21,035,39*7B
$GPGSV,3,3,11,29,15,097,,03,13,224,,14,09,010,*40
$GPRMC,185605.000,A,1326.8325,S,07222.8897,W,23.63,110.31,210411,,,A*5E
$GPGGA,185605.998,1326.8356,S,07222.8842,W,1,06,1.5,3599.9,M,28.3,M,,0000*6D
$GPGSA,M,3,30,18,22,16,31,25,,,,,,,2.8,1.5,2.3*39
$GPRMC,185605.998,A,1326.8356,S,07222.8842,W,22.34,107.80,210411,,,A*55
$GPGGA,185607.002,1326.8365,S,07222.8789,W,1,05,2.1,3601.0,M,28.3,M,,0000*62
$GPGSA,M,3,30,18,22,31,25,,,,,,,,3.9,2.1,3.3*38
$GPRMC,185607.002,A,1326.8365,S,07222.8789,W,21.71,106.24,210411,,,A*58
$GPGGA,185608.000,1326.8365,S,07222.8744,W,1,05,2.1,3601.6,M,28.3,M,,0000*68
$GPGSA,M,3,30,18,22,31,25,,,,,,,,3.9,2.1,3.3*38
$GPRMC,185608.000,A,1326.8365,S,07222.8744,W,19.20,101.58,210411,,,A*57
$GPGGA,185609.000,1326.8367,S,07222.8689,W,1,05,2.1,3601.3,M,28.3,M,,0000*6E
$GPGSA,M,3,30,18,22,31,25,,,,,,,,3.9,2.1,3.3*38
$GPRMC,185609.000,A,1326.8367,S,07222.8689,W,20.09,96.48,210411,,,A*6B
$GPGGA,185610.000,1326.8371,S,07222.8613,W,1,05,2.1,3602.0,M,28.3,M,,0000*62
$GPGSA,M,3,30,18,22,31,25,,,,,,,,3.9,2.1,3.3*38
$GPGSV,3,1,11,30,63,221,35,18,62,097,33,22,61,012,44,16,39,213,*70
$GPGSV,3,2,11,21,29,153,,31,27,325,34,25,20,035,40,06,22,216,*77
$GPGSV,3,3,11,29,15,096,,03,13,224,,14,10,011,*48
$GPRMC,185610.000,A,1326.8371,S,07222.8613,W,22.26,85.25,210411,,,A*61
$GPGGA,185611.000,1326.8355,S,07222.8538,W,1,05,2.1,3603.5,M,28.3,M,,0000*6B
$GPGSA,M,3,30,18,22,31,25,,,,,,,,3.9,2.1,3.3*38
$GPRMC,185611.000,A,1326.8355,S,07222.8538,W,23.67,77.96,210411,,,A*6D
$GPGGA,185612.000,1326.8327,S,07222.8474,W,1,05,2.1,3603.6,M,28.3,M,,0000*67
$GPGSA,M,3,30,18,22,31,25,,,,,,,,3.9,2.1,3.3*38
$GPRMC,185612.000,A,1326.8327,S,07222.8474,W,22.57,65.95,210411,,,A*60
$GPGGA,185613.000,1326.8289,S,07222.8417,W,1,05,2.1,3606.3,M,28.3,M,,0000*66
$GPGSA,M,3,30,18,22,31,25,,,,,,,,3.9,2.1,3.3*38
$GPRMC,185613.000,A,1326.8289,S,07222.8417,W,22.98,56.43,210411,,,A*69
$GPGGA,185614.000,1326.8249,S,07222.8364,W,1,06,1.5,3607.1,M,28.3,M,,0000*69
$GPGSA,M,3,30,18,22,31,25,16,,,,,,,2.8,1.5,2.3*39
$GPRMC,185614.000,A,1326.8249,S,07222.8364,W,22.80,47.93,210411,,,A*65
$GPGGA,185615.000,1326.8205,S,07222.8317,W,1,06,1.5,3606.7,M,28.3,M,,0000*63
$GPGSA,M,3,30,18,22,31,25,16,,,,,,,2.8,1.5,2.3*39
$GPGSV,3,1,11,30,63,221,35,18,62,097,22,22,61,012,39,16,39,213,38*71
$GPGSV,3,2,11,21,29,153,,31,27,325,42,25,20,035,35,06,22,216,*74
$GPGSV,3,3,11,29,15,096,,03,13,224,,14,10,011,*48
$GPRMC,185615.000,A,1326.8205,S,07222.8317,W,22.78,41.09,210411,,,A*6A
$GPGGA,185616.000,1326.8152,S,07222.8274,W,1,06,1.5,3606.6,M,28.3,M,,0000*64
$GPGSA,M,3,30,18,22,31,25,16,,,,,,,2.8,1.5,2.3*39
$GPRMC,185616.000,A,1326.8152,S,07222.8274,W,22.70,34.24,210411,,,A*69
$GPGGA,185617.000,1326.8097,S,07222.8239,W,1,04,4.9,3606.2,M,28.3,M,,0000*6B
$GPGSA,M,3,30,22,31,16,,,,,,,,,8.1,4.9,6.4*3E
$GPRMC,185617.000,A,1326.8097,S,07222.8239,W,23.04,28.38,210411,,,A*6B
$GPGGA,185618.000,1326.8042,S,07222.8211,W,1,06,1.5,3605.9,M,28.3,M,,0000*65
$GPGSA,M,3,30,18,22,31,25,16,,,,,,,2.8,1.5,2.3*39
$GPRMC,185618.000,A,1326.8042,S,07222.8211,W,22.39,23.31,210411,,,A*6B
$GPGGA,185619.003,1326.7979,S,07222.8189,W,1,06,1.5,3606.5,M,28.3,M,,0000*64
$GPGSA,M,3,30,18,22,16,31,25,,,,,,,2.8,1.5,2.3*39
$GPRMC,185619.003,A,1326.7979,S,07222.8189,W,23.58,19.81,210411,,,A*61
$GPGGA,185619.998,1326.7919,S,07222.8175,W,1,06,1.5,3606.8,M,28.3,M,,0000*67
$GPGSA,M,3,30,18,22,16,31,25,,,,,,,2.8,1.5,2.3*39
$GPGSV,3,1,11,30,63,221,32,18,62,097,29,22,61,012,25,16,39,213,36*7E
$GPGSV,3,2,11,21,29,153,,31,27,325,38,06,22,216,27,25,20,035,36*7F
$GPGSV,3,3,11,29,15,096,,03,13,224,,14,10,011,*48
$GPRMC,185619.998,A,1326.7919,S,07222.8175,W,22.19,15.08,210411,,,A*66
$GPGGA,185621.000,1326.7859,S,07222.8159,W,1,06,1.5,3607.8,M,28.3,M,,0000*6E
$GPGSA,M,3,30,18,22,16,31,25,,,,,,,2.8,1.5,2.3*39
$GPRMC,185621.000,A,1326.7859,S,07222.8159,W,20.54,16.05,210411,,,A*6B
$GPGGA,185622.000,1326.7805,S,07222.8140,W,1,06,1.5,3608.5,M,28.3,M,,0000*6E
$GPGSA,M,3,30,18,22,16,31,25,,,,,,,2.8,1.5,2.3*39
$GPRMC,185622.000,A,1326.7805,S,07222.8140,W,19.96,20.62,210411,,,A*69
$GPGGA,185623.000,1326.7754,S,07222.8117,W,1,06,1.5,3609.1,M,28.3,M,,0000*63
$GPGSA,M,3,30,18,22,16,31,25,,,,,,,2.8,1.5,2.3*39
$GPRMC,185623.000,A,1326.7754,S,07222.8117,W,19.66,22.93,210411,,,A*62
$GPGGA,185624.000,1326.7707,S,07222.8095,W,1,06,1.5,3608.3,M,28.3,M,,0000*6A
$GPGSA,M,3,30,18,22,16,31,25,,,,,,,2.8,1.5,2.3*39
$GPRMC,185624.000,A,1326.7707,S,07222.8095,W,18.73,22.80,210411,,,A*6F
$GPGGA,185625.000,1326.7666,S,07222.8074,W,1,06,1.5,3609.0,M,28.3,M,,0000*60
$GPGSA,M,3,30,18,22,16,31,25,,,,,,,2.8,1.5,2.3*39
$GPGSV,3,1,11,30,63,221,29,18,62,097,35,22,61,012,41,16,39,213,36*7B
$GPGSV,3,2,11,21,29,153,,31,27,325,31,06,22,216,38,25,20,035,29*76
$GPGSV,3,3,11,29,15,096,,03,13,224,,14,10,011,*48
$GPRMC,185625.000,A,1326.7666,S,07222.8074,W,17.33,24.42,210411,,,A*64
$GPGGA,185625.998,1326.7621,S,07222.8048,W,1,06,1.5,3608.5,M,28.3,M,,0000*60
$GPGSA,M,3,30,18,22,16,31,25,,,,,,,2.8,1.5,2.3*39
$GPRMC,185625.998,A,1326.7621,S,07222.8048,W,17.60,27.34,210411,,,A*64
$GPGGA,185627.000,1326.7590,S,07222.8009,W,1,06,1.5,3609.8,M,28.3,M,,0000*6A
$GPGSA,M,3,30,18,22,16,31,25,,,,,,,2.8,1.5,2.3*39
$GPRMC,185627.000,A,1326.7590,S,07222.8009,W,16.43,35.48,210411,,,A*6A
$GPGGA,185628.002,1326.7579,S,07222.7967,W,1,06,1.5,3610.8,M,28.3,M,,0000*66
$GPGSA,M,3,30,18,22,16,31,25,,,,,,,2.8,1.5,2.3*39
$GPRMC,185628.002,A,1326.7579,S,07222.7967,W,13.94,47.14,210411,,,A*6D
$GPGGA,185629.001,1326.7559,S,07222.7934,W,1,04,2.3,3611.2,M,28.3,M,,0000*6C
$GPGSA,M,3,30,22,31,25,,,,,,,,,4.0,2.3,3.3*3D
$GPRMC,185629.001,A,1326.7559,S,07222.7934,W,13.94,50.46,210411,,,A*6A
$GPGGA,185629.999,1326.7542,S,07222.7890,W,1,04,3.4,3612.5,M,28.3,M,,0000*63
$GPGSA,M,3,18,22,31,25,,,,,,,,,5.2,3.4,3.9*38
$GPGSV,3,1,11,30,63,221,,18,62,097,24,22,61,013,36,16,40,213,*7A
$GPGSV,3,2,11,21,29,153,,31,27,325,38,25,20,035,34,06,22,216,*78
$GPGSV,3,3,11,29,15,096,34,03,13,223,,14,10,011,*48
$GPRMC,185629.999,A,1326.7542,S,07222.7890,W,14.54,57.64,210411,,,A*6B
$GPGGA,185631.000,1326.7536,S,07222.7842,W,1,04,3.4,3613.9,M,28.6,M,,0000*67
$GPGSA,M,3,18,22,31,25,,,,,,,,,5.2,3.4,3.9*38
$GPRMC,185631.000,A,1326.7536,S,07222.7842,W,13.63,65.53,210411,,,A*61
$GPGGA,185632.000,1326.7577,S,07222.7745,W,1,04,3.4,3617.9,M,28.6,M,,0000*6D
$GPGSA,M,3,18,22,31,25,,,,,,,,,5.2,3.4,3.9*38
$GPRMC,185632.000,A,1326.7577,S,07222.7745,W,14.11,68.70,210411,,,A*61
$GPGGA,185633.000,1326.7592,S,07222.7696,W,1,05,2.1,3618.7,M,28.6,M,,0000*6C
$GPGSA,M,3,18,22,31,25,30,,,,,,,,3.9,2.1,3.3*38
$GPRMC,185633.000,A,1326.7592,S,07222.7696,W,15.38,65.94,210411,,,A*69
$GPGGA,185634.000,1326.7621,S,07222.7645,W,1,05,2.1,3617.7,M,28.6,M,,0000*61
$GPGSA,M,3,18,22,31,25,30,,,,,,,,3.9,2.1,3.3*38
$GPRMC,185634.000,A,1326.7621,S,07222.7645,W,16.05,77.86,210411,,,A*66
$GPGGA,185635.000,1326.7643,S,07222.7582,W,1,05,2.1,3617.5,M,28.6,M,,0000*6E
$GPGSA,M,3,18,22,31,25,30,,,,,,,,3.9,2.1,3.3*38
$GPGSV,3,1,11,30,63,221,34,18,62,097,26,22,61,013,41,16,40,213,*7F
$GPGSV,3,2,11,21,29,153,,31,27,325,39,25,20,035,41,06,22,216,*7B
$GPGSV,3,3,11,29,15,096,37,03,13,223,,14,10,011,*4B
$GPRMC,185635.000,A,1326.7643,S,07222.7582,W,17.77,90.06,210411,,,A*6E
$GPGGA,185636.000,1326.7644,S,07222.7528,W,1,04,3.4,3618.7,M,28.6,M,,0000*62
$GPGSA,M,3,18,22,31,25,,,,,,,,,5.2,3.4,3.9*38
$GPRMC,185636.000,A,1326.7644,S,07222.7528,W,17.76,91.74,210411,,,A*6F
$GPGGA,185637.000,1326.7647,S,07222.7471,W,1,04,3.4,3620.0,M,28.6,M,,0000*61
$GPGSA,M,3,18,22,31,25,,,,,,,,,5.2,3.4,3.9*38
$GPRMC,185637.000,A,1326.7647,S,07222.7471,W,17.75,90.58,210411,,,A*6C
$GPGGA,185638.000,1326.7651,S,07222.7414,W,1,04,3.4,3621.3,M,28.6,M,,0000*68
$GPGSA,M,3,18,22,31,25,,,,,,,,,5.2,3.4,3.9*38
$GPRMC,185638.000,A,1326.7651,S,07222.7414,W,17.45,90.04,210411,,,A*6D
$GPGGA,185639.000,1326.7671,S,07222.7362,W,1,05,2.1,3619.8,M,28.6,M,,0000*68
$GPGSA,M,3,18,22,31,25,30,,,,,,,,3.9,2.1,3.3*38
$GPRMC,185639.000,A,1326.7671,S,07222.7362,W,17.38,93.32,210411,,,A*64
$GPGGA,185640.000,1326.7691,S,07222.7316,W,1,05,2.1,3618.1,M,28.6,M,,0000*63
$GPGSA,M,3,18,22,31,25,30,,,,,,,,3.9,2.1,3.3*38
$GPGSV,3,1,11,30,63,221,37,18,62,097,32,22,61,013,41,16,40,213,*79
$GPGSV,3,2,11,21,29,153,,31,27,325,39,25,20,035,41,06,22,216,*7B
$GPGSV,3,3,11,29,15,096,37,03,13,223,,14,10,011,*4B
$GPRMC,185640.000,A,1326.7691,S,07222.7316,W,17.03,95.31,210411,,,A*6A
$GPGGA,185641.000,1326.7699,S,07222.7270,W,1,05,2.1,3617.6,M,28.6,M,,0000*63
$GPGSA,M,3,18,22,31,25,30,,,,,,,,3.9,2.1,3.3*38
$GPRMC,185641.000,A,1326.7699,S,07222.7270,W,16.85,95.70,210411,,,A*68
$GPGGA,185642.000,1326.7702,S,07222.7221,W,1,05,2.1,3618.0,M,28.6,M,,0000*6E
$GPGSA,M,3,18,22,31,25,30,,,,,,,,3.9,2.1,3.3*38
$GPRMC,185642.000,A,1326.7702,S,07222.7221,W,16.54,91.41,210411,,,A*66
$GPGGA,185643.000,1326.7699,S,07222.7175,W,1,05,2.1,3618.7,M,28.6,M,,0000*69
$GPGSA,M,3,18,22,31,25,30,,,,,,,,3.9,2.1,3.3*38
$GPRMC,185643.000,A,1326.7699,S,07222.7175,W,16.32,87.56,210411,,,A*67
$GPGGA,185644.000,1326.7703,S,07222.7130,W,1,05,2.1,3618.6,M,28.6,M,,0000*6C
$GPGSA,M,3,18,22,31,25,30,,,,,,,,3.9,2.1,3.3*38
$GPRMC,185644.000,A,1326.7703,S,07222.7130,W,16.04,91.49,210411,,,A*6F
$GPGGA,185645.000,1326.7709,S,07222.7085,W,1,05,2.1,3618.9,M,28.6,M,,0000*67
$GPGSA,M,3,18,22,31,25,30,,,,,,,,3.9,2.1,3.3*38
$GPGSV,3,1,11,30,63,221,31,18,62,097,31,22,61,013,42,16,40,213,*7F
$GPGSV,3,2,11,21,29,153,,31,27,325,43,25,20,035,34,06,22,216,*74
$GPGSV,3,3,11,29,15,096,39,03,13,223,,14,10,011,*45
$GPRMC,185645.000,A,1326.7709,S,07222.7085,W,15.45,95.12,210411,,,A*67
$GPGGA,185646.000,1326.7712,S,07222.7042,W,1,05,2.1,3619.2,M,28.6,M,,0000*6F
$GPGSA,M,3,18,22,31,25,30,,,,,,,,3.9,2.1,3.3*38
$GPRMC,185646.000,A,1326.7712,S,07222.7042,W,15.54,93.50,210411,,,A*65
$GPGGA,185646.997,1326.7718,S,07222.6998,W,1,05,1.5,3619.2,M,28.6,M,,0000*6A
$GPGSA,M,3,18,22,16,31,25,,,,,,,,2.9,1.5,2.5*3D
$GPRMC,185646.997,A,1326.7718,S,07222.6998,W,15.23,96.10,210411,,,A*66
$GPGGA,185648.001,1326.7724,S,07222.6957,W,1,05,1.5,3618.9,M,28.6,M,,0000*64
$GPGSA,M,3,18,22,16,31,25,,,,,,,,2.9,1.5,2.5*3D
$GPRMC,185648.001,A,1326.7724,S,07222.6957,W,14.53,93.75,210411,,,A*62
$GPGGA,185649.000,1326.7742,S,07222.6919,W,1,05,1.5,3616.8,M,28.6,M,,0000*61
$GPGSA,M,3,18,22,16,31,25,,,,,,,,2.9,1.5,2.5*3D
$GPRMC,185649.000,A,1326.7742,S,07222.6919,W,14.52,97.07,210411,,,A*68
$GPGGA,185650.000,1326.7755,S,07222.6878,W,1,06,1.5,3616.0,M,28.6,M,,0000*62
$GPGSA,M,3,18,22,16,31,25,30,,,,,,,2.7,1.5,2.3*36
$GPGSV,3,1,11,30,63,221,34,18,62,097,30,22,62,013,40,16,40,213,24*7C
$GPGSV,3,2,11,21,29,153,,31,27,325,34,25,20,035,39,06,22,216,*79
$GPGSV,3,3,11,29,15,096,38,03,13,223,,14,10,011,*44
$GPRMC,185650.000,A,1326.7755,S,07222.6878,W,14.14,95.86,210411,,,A*69
$GPGGA,185651.000,1326.7759,S,07222.6836,W,1,06,1.5,3616.5,M,28.6,M,,0000*60
$GPGSA,M,3,18,22,16,31,25,30,,,,,,,2.7,1.5,2.3*36
$GPRMC,185651.000,A,1326.7759,S,07222.6836,W,15.17,96.41,210411,,,A*64
$GPGGA,185652.000,1326.7766,S,07222.6794,W,1,05,2.4,3615.9,M,28.6,M,,0000*66
$GPGSA,M,3,18,22,16,25,30,,,,,,,,3.4,2.4,2.3*34
$GPRMC,185652.000,A,1326.7766,S,07222.6794,W,15.27,95.24,210411,,,A*6F
$GPGGA,185653.000,1326.7773,S,07222.6751,W,1,06,1.5,3615.0,M,28.6,M,,0000*62
$GPGSA,M,3,18,22,16,31,25,30,,,,,,,2.7,1.5,2.3*36
$GPRMC,185653.000,A,1326.7773,S,07222.6751,W,15.99,96.64,210411,,,A*61
$GPGGA,185654.000,1326.7778,S,07222.6706,W,1,06,1.5,3615.1,M,28.6,M,,0000*6D
$GPGSA,M,3,18,22,16,31,25,30,,,,,,,2.7,1.5,2.3*36
$GPRMC,185654.000,A,1326.7778,S,07222.6706,W,16.56,97.12,210411,,,A*6F
$GPGGA,185655.000,1326.7788,S,07222.6653,W,1,06,1.5,3615.5,M,28.6,M,,0000*66
$GPGSA,M,3,18,22,16,31,25,30,,,,,,,2.7,1.5,2.3*36
$GPGSV,3,1,11,30,63,221,33,18,62,097,30,22,62,013,40,16,40,213,27*78
$GPGSV,3,2,11,21,29,153,,31,27,325,30,25,20,035,40,06,22,216,*73
$GPGSV,3,3,11,29,15,096,38,03,13,223,,14,10,011,*44
$GPRMC,185655.000,A,1326.7788,S,07222.6653,W,17.54,98.34,210411,,,A*68
$GPGGA,185656.000,1326.7798,S,07222.6597,W,1,06,1.5,3615.9,M,28.6,M,,0000*63
$GPGSA,M,3,18,22,16,31,25,30,,,,,,,2.7,1.5,2.3*36
$GPRMC,185656.000,A,1326.7798,S,07222.6597,W,18.02,99.30,210411,,,A*68
$GPGGA,185657.000,1326.7805,S,07222.6544,W,1,06,1.5,3616.3,M,28.6,M,,0000*6E
$GPGSA,M,3,18,22,16,31,25,30,,,,,,,2.7,1.5,2.3*36
$GPRMC,185657.000,A,1326.7805,S,07222.6544,W,18.22,97.56,210411,,,A*60
$GPGGA,185658.000,1326.7812,S,07222.6491,W,1,06,1.5,3616.5,M,28.6,M,,0000*68
$GPGSA,M,3,18,22,16,31,25,30,,,,,,,2.7,1.5,2.3*36
$GPRMC,185658.000,A,1326.7812,S,07222.6491,W,18.61,98.40,210411,,,A*6F
$GPGGA,185659.000,1326.7821,S,07222.6436,W,1,06,1.5,3616.9,M,28.6,M,,0000*68
$GPGSA,M,3,18,22,16,31,25,30,,,,,,,2.7,1.5,2.3*36
$GPRMC,185659.000,A,1326.7821,S,07222.6436,W,18.69,100.35,210411,,,A*59
$GPGGA,185659.998,1326.7832,S,07222.6381,W,1,06,1.5,3617.3,M,28.6,M,,0000*62
$GPGSA,M,3,30,18,22,16,31,25,,,,,,,2.7,1.5,2.3*36
$GPGSV,3,1,11,30,63,221,33,18,62,097,29,22,62,013,36,16,40,213,29*7F
$GPGSV,3,2,11,21,29,153,,31,27,325,29,06,22,216,,25,20,035,38*74
$GPGSV,3,3,11,29,15,096,36,03,13,223,,14,10,011,*4A
$GPRMC,185659.998,A,1326.7832,S,07222.6381,W,20.59,100.66,210411,,,A*56
$GPGGA,185701.001,1326.7840,S,07222.6326,W,1,05,1.7,3617.6,M,28.6,M,,0000*6B
$GPGSA,M,3,30,22,16,31,25,,,,,,,,3.0,1.7,2.4*3C
$GPRMC,185701.001,A,1326.7840,S,07222.6326,W,19.34,98.28,210411,,,A*60
$GPGGA,185701.999,1326.7851,S,07222.6270,W,1,06,1.5,3617.3,M,28.6,M,,0000*65
$GPGSA,M,3,30,18,22,16,31,25,,,,,,,2.7,1.5,2.3*36
$GPRMC,185701.999,A,1326.7851,S,07222.6270,W,20.50,101.91,210411,,,A*51
$GPGGA,185702.999,1326.7862,S,07222.6215,W,1,06,1.5,3617.7,M,28.6,M,,0000*61
$GPGSA,M,3,30,18,22,16,31,25,,,,,,,2.7,1.5,2.3*36
$GPRMC,185702.999,A,1326.7862,S,07222.6215,W,19.73,101.16,210411,,,A*55
$GPGGA,185703.999,1326.7872,S,07222.6162,W,1,06,1.5,3617.9,M,28.6,M,,0000*6C
$GPGSA,M,3,30,18,22,16,31,25,,,,,,,2.7,1.5,2.3*36
$GPRMC,185703.999,A,1326.7872,S,07222.6162,W,18.73,101.28,210411,,,A*5A
$GPGGA,185704.999,1326.7883,S,07222.6111,W,1,06,1.5,3617.9,M,28.6,M,,0000*61
$GPGSA,M,3,30,18,22,16,31,25,,,,,,,2.7,1.5,2.3*36
$GPGSV,3,1,11,30,63,221,36,18,62,097,26,22,62,013,34,16,40,213,31*7E
$GPGSV,3,2,11,21,29,153,,31,27,325,31,06,22,216,,25,20,035,38*7D
$GPGSV,3,3,11,29,15,096,36,03,13,223,,14,10,011,*4A
$GPRMC,185704.999,A,1326.7883,S,07222.6111,W,18.13,103.44,210411,,,A*59
$GPGGA,185705.999,1326.7892,S,07222.6061,W,1,06,1.5,3617.8,M,28.6,M,,0000*67
$GPGSA,M,3,30,18,22,16,31,25,,,,,,,2.7,1.5,2.3*36
$GPRMC,185705.999,A,1326.7892,S,07222.6061,W,17.91,102.21,210411,,,A*59
$GPGGA,185706.997,1326.7902,S,07222.6010,W,1,05,1.7,3618.2,M,28.6,M,,0000*60
$GPGSA,M,3,30,22,16,31,25,,,,,,,,3.0,1.7,2.4*3C
$GPRMC,185706.997,A,1326.7902,S,07222.6010,W,18.80,102.68,210411,,,A*58
$GPGGA,185708.000,1326.7914,S,07222.5958,W,1,05,1.7,3618.1,M,28.6,M,,0000*6B
$GPGSA,M,3,30,22,16,31,25,,,,,,,,3.0,1.7,2.4*3C
$GPRMC,185708.000,A,1326.7914,S,07222.5958,W,18.52,104.98,210411,,,A*56
$GPGGA,185709.002,1326.7927,S,07222.5908,W,1,06,1.5,3617.8,M,28.6,M,,0000*6A
$GPGSA,M,3,30,18,22,16,31,25,,,,,,,2.7,1.5,2.3*36
$GPRMC,185709.002,A,1326.7927,S,07222.5908,W,19.02,104.20,210411,,,A*57
$GPGGA,185710.000,1326.7938,S,07222.5857,W,1,06,1.5,3617.8,M,28.6,M,,0000*65
$GPGSA,M,3,30,18,22,16,31,25,,,,,,,2.7,1.5,2.3*36
$GPGSV,3,1,11,30,63,221,36,18,62,097,33,22,62,013,30,16,40,213,25*7B
$GPGSV,3,2,11,21,29,153,,31,27,325,27,06,22,216,,25,20,035,39*7B
$GPGSV,3,3,11,29,15,096,37,03,13,223,,14,10,011,*4B
$GPRMC,185710.000,A,1326.7938,S,07222.5857,W,19.03,102.33,210411,,,A*5D
$GPGGA,185710.998,1326.7949,S,07222.5807,W,1,05,2.1,3618.1,M,28.6,M,,0000*6C
$GPGSA,M,3,30,18,22,31,25,,,,,,,,3.9,2.1,3.3*38
$GPRMC,185710.998,A,1326.7949,S,07222.5807,W,18.71,102.89,210411,,,A*53
$GPGGA,185712.002,1326.7959,S,07222.5756,W,1,04,2.3,3618.3,M,28.6,M,,0000*6F
$GPGSA,M,3,30,22,31,25,,,,,,,,,4.0,2.3,3.3*3D
$GPRMC,185712.002,A,1326.7959,S,07222.5756,W,18.48,103.34,210411,,,A*5C
$GPGGA,185712.998,1326.7972,S,07222.5701,W,1,05,2.1,3618.6,M,28.6,M,,0000*68
$GPGSA,M,3,30,18,22,31,25,,,,,,,,3.9,2.1,3.3*38
$GPRMC,185712.998,A,1326.7972,S,07222.5701,W,20.22,103.36,210411,,,A*58
$GPGGA,185714.003,1326.7984,S,07222.5648,W,1,04,2.3,3618.1,M,28.6,M,,0000*64
$GPGSA,M,3,30,22,31,25,,,,,,,,,4.0,2.3,3.3*3D
$GPRMC,185714.003,A,1326.7984,S,07222.5648,W,19.15,103.58,210411,,,A*56
$GPGGA,185714.997,1326.7995,S,07222.5598,W,1,05,2.1,3618.0,M,28.6,M,,0000*6C
$GPGSA,M,3,30,18,22,31,25,,,,,,,,3.9,2.1,3.3*38
$GPGSV,3,1,11,30,63,221,38,18,62,097,26,22,62,013,30,16,40,213,*76
$GPGSV,3,2,11,21,29,153,,31,27,325,31,06,22,216,,25,20,035,39*7C
$GPGSV,3,3,11,29,15,096,36,03,13,223,,14,10,011,*4A
$GPRMC,185714.997,A,1326.7995,S,07222.5598,W,17.89,101.60,210411,,,A*5E
$GPGGA,185716.000,1326.8005,S,07222.5546,W,1,05,1.7,3619.0,M,28.6,M,,0000*61
$GPGSA,M,3,30,22,16,31,25,,,,,,,,3.0,1.7,2.4*3C
$GPRMC,185716.000,A,1326.8005,S,07222.5546,W,18.64,103.00,210411,,,A*5F
$GPGGA,185717.002,1326.8013,S,07222.5494,W,1,06,1.5,3619.5,M,28.6,M,,0000*6F
$GPGSA,M,3,30,18,22,16,31,25,,,,,,,2.7,1.5,2.3*36
$GPRMC,185717.002,A,1326.8013,S,07222.5494,W,18.40,99.25,210411,,,A*66
$GPGGA,185717.999,1326.8018,S,07222.5446,W,1,06,1.5,3620.4,M,28.6,M,,0000*6B
$GPGSA,M,3,30,18,22,16,31,25,,,,,,,2.7,1.5,2.3*36
$GPRMC,185717.999,A,1326.8018,S,07222.5446,W,17.79,100.46,210411,,,A*58
$GPGGA,185718.999,1326.8025,S,07222.5394,W,1,06,1.5,3621.4,M,28.6,M,,0000*63
$GPGSA,M,3,30,18,22,16,31,25,,,,,,,2.7,1.5,2.3*36
$GPRMC,185718.999,A,1326.8025,S,07222.5394,W,19.18,100.82,210411,,,A*50
$GPGGA,185719.999,1326.8034,S,07222.5337,W,1,06,1.5,3621.4,M,28.6,M,,0000*6B
$GPGSA,M,3,30,18,22,16,31,25,,,,,,,2.7,1.5,2.3*36
$GPGSV,3,1,11,30,63,221,36,18,62,097,29,22,62,013,32,16,40,213,27*70
$GPGSV,3,2,11,21,29,153,,31,27,325,33,06,22,216,,25,20,035,38*7F
$GPGSV,3,3,11,29,15,096,30,03,13,223,,14,10,011,*4C
$GPRMC,185719.999,A,1326.8034,S,07222.5337,W,20.08,98.88,210411,,,A*69
$GPGGA,185720.998,1326.8045,S,07222.5278,W,1,05,2.1,3621.9,M,28.6,M,,0000*65
$GPGSA,M,3,30,18,22,31,25,,,,,,,,3.9,2.1,3.3*38
$GPRMC,185720.998,A,1326.8045,S,07222.5278,W,20.49,102.90,210411,,,A*50
$GPGGA,185722.000,1326.8055,S,07222.5226,W,1,06,1.3,3621.4,M,28.6,M,,0000*6A
$GPGSA,M,3,30,18,22,21,31,25,,,,,,,2.3,1.3,1.9*39
$GPRMC,185722.000,A,1326.8055,S,07222.5226,W,19.71,102.53,210411,,,A*5E
$GPGGA,185723.000,1326.8069,S,07222.5172,W,1,06,1.3,3620.9,M,28.6,M,,0000*6A
$GPGSA,M,3,30,18,22,21,31,25,,,,,,,2.3,1.3,1.9*39
$GPRMC,185723.000,A,1326.8069,S,07222.5172,W,19.44,103.56,210411,,,A*50
$GPGGA,185724.000,1326.8081,S,07222.5120,W,1,06,1.3,3620.6,M,28.6,M,,0000*63
$GPGSA,M,3,30,18,22,21,31,25,,,,,,,2.3,1.3,1.9*39
$GPRMC,185724.000,A,1326.8081,S,07222.5120,W,18.27,105.98,210411,,,A*56
$GPGGA,185725.003,1326.8107,S,07222.5063,W,1,06,1.3,3618.5,M,28.6,M,,0000*60
$GPGSA,M,3,30,18,22,21,31,25,,,,,,,2.3,1.3,1.9*39
$GPGSV,3,1,11,30,63,221,40,18,62,097,35,22,62,013,35,16,40,213,*7E
$GPGSV,3,2,11,21,29,153,36,31,27,325,39,06,22,216,,25,20,035,36*7E
$GPGSV,3,3,11,29,15,096,,03,13,223,,14,10,011,*4F
$GPRMC,185725.003,A,1326.8107,S,07222.5063,W,19.94,110.79,210411,,,A*5F
$GPGGA,185725.996,1326.8130,S,07222.5008,W,1,07,1.1,3618.5,M,28.6,M,,0000*6F
$GPGSA,M,3,30,18,22,16,21,31,25,,,,,,2.2,1.1,1.9*3D
$GPRMC,185725.996,A,1326.8130,S,07222.5008,W,21.29,114.06,210411,,,A*52
$GPGGA,185727.004,1326.8163,S,07222.4956,W,1,07,1.1,3616.7,M,28.6,M,,0000*66
$GPGSA,M,3,30,18,22,16,21,31,25,,,,,,2.2,1.1,1.9*3D
$GPRMC,185727.004,A,1326.8163,S,07222.4956,W,20.19,116.96,210411,,,A*5E
$GPGGA,185727.996,1326.8196,S,07222.4915,W,1,07,1.1,3618.2,M,28.6,M,,0000*62
$GPGSA,M,3,30,18,22,16,21,31,25,,,,,,2.2,1.1,1.9*3D
$GPRMC,185727.996,A,1326.8196,S,07222.4915,W,18.93,123.67,210411,,,A*50
$GPGGA,185729.002,1326.8242,S,07222.4881,W,1,06,1.3,3618.4,M,28.6,M,,0000*6B
$GPGSA,M,3,30,18,22,21,31,25,,,,,,,2.3,1.3,1.9*39
$GPRMC,185729.002,A,1326.8242,S,07222.4881,W,19.10,131.58,210411,,,A*59
$GPGGA,185730.000,1326.8288,S,07222.4847,W,1,06,1.3,3617.4,M,28.6,M,,0000*62
$GPGSA,M,3,30,18,22,21,31,25,,,,,,,2.3,1.3,1.9*39
$GPGSV,3,1,11,30,63,221,36,18,62,097,40,22,62,013,35,16,40,213,*7D
$GPGSV,3,2,11,21,29,153,38,31,27,325,36,06,22,216,,25,20,035,38*71
$GPGSV,3,3,11,29,15,096,,03,13,223,,14,10,011,30*4C
$GPRMC,185730.000,A,1326.8288,S,07222.4847,W,19.06,137.90,210411,,,A*5A
$GPGGA,185731.000,1326.8345,S,07222.4829,W,1,06,1.3,3617.3,M,28.6,M,,0000*6C
$GPGSA,M,3,30,18,22,21,31,25,,,,,,,2.3,1.3,1.9*39
$GPRMC,185731.000,A,1326.8345,S,07222.4829,W,19.92,145.27,210411,,,A*57
$GPGGA,185732.000,1326.8397,S,07222.4794,W,1,06,1.3,3616.0,M,28.6,M,,0000*6B
$GPGSA,M,3,30,18,22,21,31,25,,,,,,,2.3,1.3,1.9*39
$GPRMC,185732.000,A,1326.8397,S,07222.4794,W,20.66,140.43,210411,,,A*54
$GPGGA,185733.000,1326.8437,S,07222.4753,W,1,06,1.3,3614.8,M,28.6,M,,0000*66
$GPGSA,M,3,30,18,22,21,31,25,,,,,,,2.3,1.3,1.9*39
$GPRMC,185733.000,A,1326.8437,S,07222.4753,W,18.88,140.11,210411,,,A*5F
$GPGGA,185734.000,1326.8480,S,07222.4715,W,1,06,1.3,3614.0,M,28.6,M,,0000*67
$GPGSA,M,3,30,18,22,21,31,25,,,,,,,2.3,1.3,1.9*39
$GPRMC,185734.000,A,1326.8480,S,07222.4715,W,19.18,137.48,210411,,,A*52
$GPGGA,185735.004,1326.8510,S,07222.4669,W,1,06,1.3,3612.5,M,28.6,M,,0000*63
$GPGSA,M,3,30,22,18,21,31,25,,,,,,,2.3,1.3,1.9*39
$GPGSV,3,1,11,30,64,222,34,22,62,013,37,18,62,098,26,16,40,213,*76
$GPGSV,3,2,11,21,29,153,32,31,27,326,28,25,20,034,39,06,22,215,*74
$GPGSV,3,3,11,29,14,095,,03,13,223,,14,10,011,*4D
$GPRMC,185735.004,A,1326.8510,S,07222.4669,W,18.65,130.93,210411,,,A*5F
$GPGGA,185735.994,1326.8523,S,07222.4632,W,1,06,1.3,3612.6,M,28.6,M,,0000*6E
$GPGSA,M,3,30,22,18,21,31,25,,,,,,,2.3,1.3,1.9*39
$GPRMC,185735.994,A,1326.8523,S,07222.4632,W,15.14,128.56,210411,,,A*5A
$GPGGA,185737.014,1326.8540,S,07222.4600,W,1,06,1.3,3613.7,M,28.6,M,,0000*69
$GPGSA,M,3,30,22,18,21,31,25,,,,,,,2.3,1.3,1.9*39
$GPRMC,185737.014,A,1326.8540,S,07222.4600,W,13.78,125.58,210411,,,A*52
$GPGGA,185737.988,1326.8573,S,07222.4571,W,1,07,1.1,3611.7,M,28.6,M,,0000*61
$GPGSA,M,3,30,22,18,16,21,31,25,,,,,,2.2,1.1,1.9*3D
$GPRMC,185737.988,A,1326.8573,S,07222.4571,W,13.88,127.85,210411,,,A*56
$GPGGA,185738.998,1326.8552,S,07222.4513,W,1,06,1.5,3611.7,M,28.6,M,,0000*6D
$GPGSA,M,3,30,22,18,16,31,25,,,,,,,2.7,1.5,2.3*36
$GPRMC,185738.998,A,1326.8552,S,07222.4513,W,13.78,106.24,210411,,,A*58
$GPGGA,185740.000,1326.8520,S,07222.4464,W,1,06,1.5,3611.8,M,28.6,M,,0000*61
$GPGSA,M,3,30,22,18,16,31,25,,,,,,,2.7,1.5,2.3*36
$GPGSV,3,1,11,30,64,222,30,22,62,013,33,18,62,098,32,16,40,213,39*79
$GPGSV,3,2,11,21,29,153,,31,27,326,39,06,22,215,,25,20,034,38*74
$GPGSV,3,3,11,29,14,095,,03,13,223,,14,10,011,*4D
$GPRMC,185740.000,A,1326.8520,S,07222.4464,W,14.03,86.27,210411,,,A*6A
$GPGGA,185741.000,1326.8491,S,07222.4418,W,1,06,1.5,3611.0,M,28.6,M,,0000*68
$GPGSA,M,3,30,22,18,16,31,25,,,,,,,2.7,1.5,2.3*36
$GPRMC,185741.000,A,1326.8491,S,07222.4418,W,15.31,74.14,210411,,,A*66
$GPGGA,185742.000,1326.8433,S,07222.4387,W,1,06,1.5,3610.8,M,28.6,M,,0000*6B
$GPGSA,M,3,30,22,18,16,31,25,,,,,,,2.7,1.5,2.3*36
$GPRMC,185742.000,A,1326.8433,S,07222.4387,W,14.92,54.83,210411,,,A*68
$GPGGA,185743.000,1326.8384,S,07222.4362,W,1,06,1.5,3610.2,M,28.6,M,,0000*60
$GPGSA,M,3,30,22,18,16,31,25,,,,,,,2.7,1.5,2.3*36
$GPRMC,185743.000,A,1326.8384,S,07222.4362,W,15.60,42.50,210411,,,A*6C
$GPGGA,185744.000,1326.8350,S,07222.4343,W,1,06,1.5,3610.3,M,28.6,M,,0000*6C
$GPGSA,M,3,30,22,18,16,31,25,,,,,,,2.7,1.5,2.3*36
$GPRMC,185744.000,A,1326.8350,S,07222.4343,W,14.97,37.05,210411,,,A*6A
$GPGGA,185745.000,1326.8316,S,07222.4313,W,1,06,1.5,3608.5,M,28.6,M,,0000*65
$GPGSA,M,3,30,22,18,16,31,25,,,,,,,2.7,1.5,2.3*36
$GPGSV,3,1,11,30,64,222,28,22,62,013,31,18,62,098,34,16,40,213,39*74
$GPGSV,3,2,11,21,29,153,,31,27,326,38,06,22,215,,25,20,034,38*75
$GPGSV,3,3,11,29,14,095,,03,13,223,,14,10,011,*4D
$GPRMC,185745.000,A,1326.8316,S,07222.4313,W,15.21,35.85,210411,,,A*6A
$GPGGA,185746.000,1326.8275,S,07222.4295,W,1,06,1.5,3608.6,M,28.6,M,,0000*6E
$GPGSA,M,3,30,22,18,16,31,25,,,,,,,2.7,1.5,2.3*36
$GPRMC,185746.000,A,1326.8275,S,07222.4295,W,15.40,38.13,210411,,,A*67
$GPGGA,185747.000,1326.8230,S,07222.4271,W,1,06,1.5,3610.4,M,28.6,M,,0000*6F
$GPGSA,M,3,30,22,18,16,31,25,,,,,,,2.7,1.5,2.3*36
$GPRMC,185747.000,A,1326.8230,S,07222.4271,W,15.84,34.83,210411,,,A*60
$GPGGA,185748.000,1326.8192,S,07222.4234,W,1,06,1.5,3611.1,M,28.6,M,,0000*6E
$GPGSA,M,3,30,22,18,16,31,25,,,,,,,2.7,1.5,2.3*36
$GPRMC,185748.000,A,1326.8192,S,07222.4234,W,16.16,39.08,210411,,,A*63
$GPGGA,185749.002,1326.8154,S,07222.4208,W,1,05,1.5,3611.8,M,28.6,M,,0000*62
$GPGSA,M,3,22,18,16,31,25,,,,,,,,2.9,1.5,2.4*3C
$GPRMC,185749.002,A,1326.8154,S,07222.4208,W,15.68,37.16,210411,,,A*6E
$GPGGA,185750.001,1326.8109,S,07222.4188,W,1,06,1.5,3611.1,M,28.6,M,,0000*60
$GPGSA,M,3,30,22,18,16,31,25,,,,,,,2.7,1.5,2.3*36
$GPGSV,3,1,11,30,64,222,27,22,62,013,31,18,62,098,29,16,40,213,37*79
$GPGSV,3,2,11,21,29,153,,31,27,326,38,06,22,215,,25,20,034,36*7B
$GPGSV,3,3,11,29,14,095,,03,13,223,,14,10,011,*4D
$GPRMC,185750.001,A,1326.8109,S,07222.4188,W,16.02,39.03,210411,,,A*63
$GPGGA,185750.997,1326.8071,S,07222.4159,W,1,06,1.5,3612.6,M,28.6,M,,0000*60
$GPGSA,M,3,30,22,18,16,31,25,,,,,,,2.7,1.5,2.3*36
$GPRMC,185750.997,A,1326.8071,S,07222.4159,W,16.33,37.71,210411,,,A*6E
$GPGGA,185752.000,1326.8024,S,07222.4139,W,1,06,1.5,3614.3,M,28.6,M,,0000*60
$GPGSA,M,3,30,22,18,16,31,25,,,,,,,2.7,1.5,2.3*36
$GPRMC,185752.000,A,1326.8024,S,07222.4139,W,16.08,36.52,210411,,,A*65
$GPGGA,185753.000,1326.7986,S,07222.4106,W,1,06,1.5,3617.0,M,28.6,M,,0000*63
$GPGSA,M,3,30,22,18,16,31,25,,,,,,,2.7,1.5,2.3*36
$GPRMC,185753.000,A,1326.7986,S,07222.4106,W,16.55,37.15,210411,,,A*6C
$GPGGA,185754.001,1326.7946,S,07222.4079,W,1,06,1.5,3618.3,M,28.6,M,,0000*6C
$GPGSA,M,3,30,22,18,16,31,25,,,,,,,2.7,1.5,2.3*36
$GPRMC,185754.001,A,1326.7946,S,07222.4079,W,16.90,37.95,210411,,,A*6E
$GPGGA,185755.000,1326.7909,S,07222.4049,W,1,06,1.5,3618.9,M,28.6,M,,0000*6E
$GPGSA,M,3,30,22,18,16,31,25,,,,,,,2.7,1.5,2.3*36
$GPGSV,3,1,11,30,64,222,28,22,62,013,33,18,62,098,26,16,40,213,39*75
$GPGSV,3,2,11,21,29,153,,31,27,326,37,06,22,215,35,25,20,034,37*73
$GPGSV,3,3,11,29,14,095,,03,13,223,,14,10,011,*4D
$GPRMC,185755.000,A,1326.7909,S,07222.4049,W,16.91,37.75,210411,,,A*69
$GPGGA,185756.000,1326.7877,S,07222.4020,W,1,06,1.5,3620.9,M,28.6,M,,0000*61
$GPGSA,M,3,30,22,18,16,31,25,,,,,,,2.7,1.5,2.3*36
$GPRMC,185756.000,A,1326.7877,S,07222.4020,W,16.75,41.27,210411,,,A*61
$GPGGA,185757.000,1326.7846,S,07222.3990,W,1,06,1.5,3620.4,M,28.6,M,,0000*6A
$GPGSA,M,3,30,22,18,16,31,25,,,,,,,2.7,1.5,2.3*36
$GPRMC,185757.000,A,1326.7846,S,07222.3990,W,17.08,44.39,210411,,,A*66
$GPGGA,185758.000,1326.7813,S,07222.3956,W,1,06,1.5,3619.6,M,28.6,M,,0000*67
$GPGSA,M,3,30,22,18,16,31,25,,,,,,,2.7,1.5,2.3*36
$GPRMC,185758.000,A,1326.7813,S,07222.3956,W,16.73,46.35,210411,,,A*60
$GPGGA,185758.998,1326.7780,S,07222.3925,W,1,06,1.5,3618.6,M,28.6,M,,0000*6F
$GPGSA,M,3,30,22,18,16,31,25,,,,,,,2.7,1.5,2.3*36
$GPRMC,185758.998,A,1326.7780,S,07222.3925,W,16.61,47.14,210411,,,A*68
$GPGGA,185800.002,1326.7751,S,07222.3902,W,1,06,1.5,3616.3,M,28.6,M,,0000*65
$GPGSA,M,3,30,22,18,16,31,25,,,,,,,2.7,1.5,2.3*36
$GPGSV,3,1,11,30,64,222,32,22,62,013,41,18,62,098,33,16,40,213,30*76
$GPGSV,3,2,11,21,29,153,,31,27,326,32,06,22,215,33,25,20,034,36*71
$GPGSV,3,3,11,29,14,095,,03,13,223,,14,10,011,*4D
$GPRMC,185800.002,A,1326.7751,S,07222.3902,W,15.30,48.65,210411,,,A*67
$GPGGA,185801.000,1326.7725,S,07222.3881,W,1,07,1.1,3617.9,M,28.6,M,,0000*61
$GPGSA,M,3,30,22,18,16,21,31,25,,,,,,2.2,1.1,1.8*3C
$GPRMC,185801.000,A,1326.7725,S,07222.3881,W,13.68,48.21,210411,,,A*66
$GPGGA,185801.998,1326.7711,S,07222.3852,W,1,07,1.1,3617.2,M,28.6,M,,0000*6B
$GPGSA,M,3,30,22,18,16,21,31,25,,,,,,2.2,1.1,1.8*3C
$GPRMC,185801.998,A,1326.7711,S,07222.3852,W,12.84,53.92,210411,,,A*66
$GPGGA,185803.000,1326.7712,S,07222.3819,W,1,06,1.5,3617.9,M,28.6,M,,0000*63
$GPGSA,M,3,30,22,18,16,31,25,,,,,,,2.7,1.5,2.3*36
$GPRMC,185803.000,A,1326.7712,S,07222.3819,W,11.75,69.03,210411,,,A*6C
$GPGGA,185804.002,1326.7725,S,07222.3770,W,1,07,1.1,3615.7,M,28.6,M,,0000*6B
$GPGSA,M,3,30,22,18,16,21,31,25,,,,,,2.2,1.1,1.8*3C
$GPRMC,185804.002,A,1326.7725,S,07222.3770,W,12.08,84.36,210411,,,A*61
$GPGGA,185805.000,1326.7745,S,07222.3737,W,1,07,1.1,3614.8,M,28.6,M,,0000*63
$GPGSA,M,3,30,22,18,16,21,31,25,,,,,,2.2,1.1,1.8*3C
$GPGSV,3,1,11,30,64,222,36,22,62,013,34,18,62,098,37,16,40,213,37*73
$GPGSV,3,2,11,21,29,153,25,31,27,326,33,06,22,215,,25,20,034,37*76
$GPGSV,3,3,11,29,14,095,,03,13,223,,14,10,011,*4D
$GPRMC,185805.000,A,1326.7745,S,07222.3737,W,11.88,97.84,210411,,,A*67
$GPGGA,185806.000,1326.7793,S,07222.3682,W,1,07,1.1,3612.2,M,28.6,M,,0000*68
$GPGSA,M,3,30,22,18,16,21,31,25,,,,,,2.2,1.1,1.8*3C
$GPRMC,185806.000,A,1326.7793,S,07222.3682,W,14.76,115.85,210411,,,A*5E
$GPGGA,185807.000,1326.7835,S,07222.3670,W,1,07,1.1,3610.7,M,28.6,M,,0000*60
$GPGSA,M,3,30,22,18,16,21,31,25,,,,,,2.2,1.1,1.8*3C
$GPRMC,185807.000,A,1326.7835,S,07222.3670,W,15.14,133.03,210411,,,A*5E
$GPGGA,185808.000,1326.7888,S,07222.3653,W,1,07,1.1,3611.8,M,28.6,M,,0000*66
$GPGSA,M,3,30,22,18,16,21,31,25,,,,,,2.2,1.1,1.8*3C
$GPRMC,185808.000,A,1326.7888,S,07222.3653,W,14.76,145.17,210411,,,A*57
$GPGGA,185808.998,1326.7953,S,07222.3630,W,1,07,1.1,3613.1,M,28.6,M,,0000*67
$GPGSA,M,3,30,22,18,16,21,31,25,,,,,,2.2,1.1,1.8*3C
$GPRMC,185808.998,A,1326.7953,S,07222.3630,W,15.77,150.92,210411,,,A*54
$GPGGA,185810.000,1326.7990,S,07222.3614,W,1,07,1.1,3614.6,M,28.6,M,,0000*6F
$GPGSA,M,3,30,22,18,16,21,31,25,,,,,,2.2,1.1,1.8*3C
$GPGSV,3,1,11,30,64,222,35,22,62,013,32,18,62,098,40,16,40,213,31*70
$GPGSV,3,2,11,21,29,153,32,31,27,326,39,06,22,215,,25,20,034,39*74
$GPGSV,3,3,11,29,14,095,28,03,13,223,,14,10,011,*47
$GPRMC,185810.000,A,1326.7990,S,07222.3614,W,16.62,152.98,210411,,,A*53
$GPGGA,185811.000,1326.8030,S,07222.3599,W,1,07,1.1,3615.9,M,28.6,M,,0000*6A
$GPGSA,M,3,30,22,18,16,21,31,25,,,,,,2.2,1.1,1.8*3C
$GPRMC,185811.000,A,1326.8030,S,07222.3599,W,15.87,150.82,210411,,,A*59
$GPGGA,185812.000,1326.8067,S,07222.3566,W,1,07,1.1,3614.8,M,28.6,M,,0000*6B
$GPGSA,M,3,30,22,18,16,21,31,25,,,,,,2.2,1.1,1.8*3C
$GPRMC,185812.000,A,1326.8067,S,07222.3566,W,14.92,150.66,210411,,,A*57
$GPGGA,185813.000,1326.8104,S,07222.3554,W,1,06,1.2,3611.9,M,28.6,M,,0000*69
$GPGSA,M,3,30,18,16,21,31,25,,,,,,,2.5,1.2,2.2*31
$GPRMC,185813.000,A,1326.8104,S,07222.3554,W,15.37,145.07,210411,,,A*5E
$GPGGA,185814.002,1326.8149,S,07222.3528,W,1,06,1.6,3611.5,M,28.6,M,,0000*66
$GPGSA,M,3,30,22,18,16,21,25,,,,,,,2.6,1.6,2.1*37
$GPRMC,185814.002,A,1326.8149,S,07222.3528,W,16.01,144.72,210411,,,A*5C
$GPGGA,185814.999,1326.8189,S,07222.3504,W,1,07,1.1,3610.4,M,28.6,M,,0000*69
$GPGSA,M,3,30,22,18,16,21,31,25,,,,,,2.2,1.1,1.8*3C
$GPGSV,3,1,11,30,64,222,35,22,62,013,29,18,62,098,35,16,40,213,34*7D
$GPGSV,3,2,11,21,29,153,37,31,27,326,36,06,22,215,,25,20,034,32*75
$GPGSV,3,3,11,29,14,095,31,03,13,223,,14,10,011,25*48
$GPRMC,185814.999,A,1326.8189,S,07222.3504,W,17.09,133.42,210411,,,A*5F
$GPGGA,185816.000,1326.8221,S,07222.3460,W,1,06,1.3,3611.8,M,28.6,M,,0000*6E
$GPGSA,M,3,30,22,18,21,31,25,,,,,,,2.3,1.3,1.9*39
$GPRMC,185816.000,A,1326.8221,S,07222.3460,W,16.95,128.82,210411,,,A*54
$GPGGA,185816.999,1326.8256,S,07222.3418,W,1,06,1.3,3610.0,M,28.6,M,,0000*61
$GPGSA,M,3,30,22,18,21,31,25,,,,,,,2.3,1.3,1.9*39
$GPRMC,185816.999,A,1326.8256,S,07222.3418,W,16.38,127.61,210411,,,A*57
$GPGGA,185817.999,1326.8279,S,07222.3374,W,1,07,1.1,3607.5,M,28.6,M,,0000*60
$GPGSA,M,3,30,22,18,16,21,31,25,,,,,,2.2,1.1,1.8*3C
$GPRMC,185817.999,A,1326.8279,S,07222.3374,W,16.18,119.93,210411,,,A*54
$GPGGA,185818.998,1326.8296,S,07222.3327,W,1,04,2.0,3607.6,M,28.6,M,,0000*6B
$GPGSA,M,3,30,16,31,25,,,,,,,,,4.6,2.0,4.1*3A
$GPRMC,185818.998,A,1326.8296,S,07222.3327,W,18.06,111.66,210411,,,A*5E
$GPGGA,185820.002,1326.8308,S,07222.3279,W,1,05,1.5,3607.9,M,28.6,M,,0000*6E
$GPGSA,M,3,22,18,16,31,25,,,,,,,,2.9,1.5,2.4*3C
$GPGSV,3,1,11,30,64,222,,22,62,013,27,18,62,098,28,16,40,213,39*74
$GPGSV,3,2,11,21,29,153,,31,27,326,29,06,22,215,,25,20,034,40*7A
$GPGSV,3,3,11,29,14,095,31,03,13,223,,14,10,011,29*44
$GPRMC,185820.002,A,1326.8308,S,07222.3279,W,18.73,108.54,210411,,,A*58
$GPGGA,185821.001,1326.8319,S,07222.3222,W,1,06,1.5,3610.1,M,28.6,M,,0000*6F
$GPGSA,M,3,30,22,18,16,31,25,,,,,,,2.7,1.5,2.3*36
$GPRMC,185821.001,A,1326.8319,S,07222.3222,W,19.62,107.98,210411,,,A*5A
$GPGGA,185821.997,1326.8336,S,07222.3176,W,1,04,2.0,3611.4,M,28.6,M,,0000*66
$GPGSA,M,3,30,16,31,25,,,,,,,,,4.6,2.0,4.1*3A
$GPRMC,185821.997,A,1326.8336,S,07222.3176,W,17.84,106.67,210411,,,A*54
$GPGGA,185823.003,1326.8351,S,07222.3130,W,1,06,1.5,3611.7,M,28.6,M,,0000*64
$GPGSA,M,3,30,22,18,16,31,25,,,,,,,2.7,1.5,2.3*36
$GPRMC,185823.003,A,1326.8351,S,07222.3130,W,17.36,112.72,210411,,,A*59
$GPGGA,185824.000,1326.8367,S,07222.3081,W,1,06,1.5,3614.2,M,28.6,M,,0000*6E
$GPGSA,M,3,30,22,18,16,31,25,,,,,,,2.7,1.5,2.3*36
$GPRMC,185824.000,A,1326.8367,S,07222.3081,W,19.01,111.34,210411,,,A*58
$GPGGA,185825.000,1326.8394,S,07222.3028,W,1,06,1.3,3614.1,M,28.6,M,,0000*65
$GPGSA,M,3,30,22,18,21,31,25,,,,,,,2.3,1.3,1.9*39
$GPGSV,3,1,11,30,64,222,37,22,62,013,32,18,62,098,31,16,40,213,*76
$GPGSV,3,2,11,21,29,153,29,31,27,326,34,06,22,215,,25,20,034,36*7C
$GPGSV,3,3,11,29,14,095,28,03,13,223,,14,10,011,34*40
$GPRMC,185825.000,A,1326.8394,S,07222.3028,W,19.23,115.33,210411,,,A*55
$GPGGA,185826.000,1326.8422,S,07222.2976,W,1,06,1.5,3615.7,M,28.6,M,,0000*6E
$GPGSA,M,3,30,22,18,16,31,25,,,,,,,2.7,1.5,2.3*36
$GPRMC,185826.000,A,1326.8422,S,07222.2976,W,19.31,116.63,210411,,,A*5A
$GPGGA,185826.998,1326.8451,S,07222.2917,W,1,07,1.1,3616.2,M,28.6,M,,0000*66
$GPGSA,M,3,30,22,18,16,21,31,25,,,,,,2.2,1.1,1.8*3C
$GPRMC,185826.998,A,1326.8451,S,07222.2917,W,20.74,119.35,210411,,,A*56
$GPGGA,185828.002,1326.8485,S,07222.2861,W,1,06,1.6,3614.7,M,28.6,M,,0000*6A
$GPGSA,M,3,30,22,18,16,21,25,,,,,,,2.6,1.6,2.1*37
$GPRMC,185828.002,A,1326.8485,S,07222.2861,W,18.96,121.70,210411,,,A*56
$GPGGA,185828.998,1326.8515,S,07222.2808,W,1,07,1.1,3616.2,M,28.6,M,,0000*66
$GPGSA,M,3,30,22,18,16,21,31,25,,,,,,2.2,1.1,1.8*3C
$GPRMC,185828.998,A,1326.8515,S,07222.2808,W,19.59,125.81,210411,,,A*53
$GPGGA,185829.998,1326.8548,S,07222.2761,W,1,07,1.1,3615.9,M,28.6,M,,0000*67
$GPGSA,M,3,30,22,18,16,21,31,25,,,,,,2.2,1.1,1.8*3C
$GPGSV,3,1,11,30,64,222,37,22,62,013,34,18,62,098,35,16,40,213,29*7F
$GPGSV,3,2,11,21,29,153,35,31,27,326,38,06,22,215,,25,20,034,36*7D
$GPGSV,3,3,11,29,14,095,,03,13,223,,14,10,011,27*48
$GPRMC,185829.998,A,1326.8548,S,07222.2761,W,18.94,127.74,210411,,,A*52
$GPGGA,185831.002,1326.8585,S,07222.2714,W,1,07,1.1,3618.2,M,28.6,M,,0000*61
$GPGSA,M,3,30,22,18,16,21,31,25,,,,,,2.2,1.1,1.8*3C
$GPRMC,185831.002,A,1326.8585,S,07222.2714,W,19.11,131.67,210411,,,A*5B
$GPGGA,185831.998,1326.8621,S,07222.2671,W,1,06,1.5,3619.7,M,28.6,M,,0000*65
$GPGSA,M,3,30,22,18,16,31,25,,,,,,,2.7,1.5,2.3*36
$GPRMC,185831.998,A,1326.8621,S,07222.2671,W,19.16,134.81,210411,,,A*54
$GPGGA,185833.002,1326.8661,S,07222.2628,W,1,07,1.1,3619.0,M,28.6,M,,0000*67
$GPGSA,M,3,30,22,18,16,21,31,25,,,,,,2.2,1.1,1.8*3C
$GPRMC,185833.002,A,1326.8661,S,07222.2628,W,18.95,139.17,210411,,,A*5C
$GPGGA,185834.000,1326.8704,S,07222.2591,W,1,07,1.1,3620.5,M,28.6,M,,0000*6E
$GPGSA,M,3,30,22,18,16,21,31,25,,,,,,2.2,1.1,1.8*3C
$GPRMC,185834.000,A,1326.8704,S,07222.2591,W,18.18,142.07,210411,,,A*52
$GPGGA,185834.999,1326.8744,S,07222.2562,W,1,07,1.1,3621.6,M,28.6,M,,0000*6D
$GPGSA,M,3,30,22,18,16,21,31,25,,,,,,2.2,1.1,1.8*3C
$GPGSV,3,1,11,30,64,222,38,22,62,013,32,18,62,098,40,16,40,213,40*7B
$GPGSV,3,2,11,21,29,153,24,31,27,326,32,06,22,215,,25,20,034,38*79
$GPGSV,3,3,11,29,14,095,31,03,13,223,,14,10,011,37*4B
$GPRMC,185834.999,A,1326.8744,S,07222.2562,W,18.53,143.42,210411,,,A*5C
$GPGGA,185836.000,1326.8788,S,07222.2526,W,1,07,1.1,3620.9,M,28.6,M,,0000*68
$GPGSA,M,3,30,22,18,16,21,31,25,,,,,,2.2,1.1,1.8*3C
$GPRMC,185836.000,A,1326.8788,S,07222.2526,W,18.22,145.99,210411,,,A*51
$GPGGA,185837.000,1326.8833,S,07222.2499,W,1,07,1.1,3622.4,M,28.6,M,,0000*6C
$GPGSA,M,3,30,22,18,16,21,31,25,,,,,,2.2,1.1,1.8*3C
$GPRMC,185837.000,A,1326.8833,S,07222.2499,W,17.86,147.64,210411,,,A*5B
$GPGGA,185837.999,1326.8872,S,07222.2471,W,1,07,1.1,3623.1,M,28.6,M,,0000*62
$GPGSA,M,3,30,22,18,16,21,31,25,,,,,,2.2,1.1,1.8*3C
$GPRMC,185837.999,A,1326.8872,S,07222.2471,W,17.90,149.41,210411,,,A*5F
$GPGGA,185839.000,1326.8917,S,07222.2447,W,1,07,1.1,3622.2,M,28.6,M,,0000*60
$GPGSA,M,3,30,22,18,16,21,31,25,,,,,,2.2,1.1,1.8*3C
$GPRMC,185839.000,A,1326.8917,S,07222.2447,W,16.94,152.70,210411,,,A*52
$GPGGA,185839.999,1326.8960,S,07222.2428,W,1,06,1.2,3623.1,M,28.6,M,,0000*60
$GPGSA,M,3,22,18,16,21,31,25,,,,,,,2.3,1.2,2.0*36
$GPGSV,3,1,11,30,64,222,,22,62,013,35,18,62,098,41,16,40,213,38*79
$GPGSV,3,2,11,21,29,153,34,31,27,326,38,06,22,215,,25,20,034,38*72
$GPGSV,3,3,11,29,14,095,37,03,13,223,,14,10,011,34*4E
$GPRMC,185839.999,A,1326.8960,S,07222.2428,W,16.88,157.15,210411,,,A*59
$GPGGA,185841.000,1326.8997,S,07222.2413,W,1,07,1.1,3623.6,M,28.6,M,,0000*63
$GPGSA,M,3,30,22,18,16,21,31,25,,,,,,2.2,1.1,1.8*3C
$GPRMC,185841.000,A,1326.8997,S,07222.2413,W,16.74,158.57,210411,,,A*55
$GPGGA,185842.000,1326.9039,S,07222.2399,W,1,07,1.1,3623.4,M,28.6,M,,0000*6B
$GPGSA,M,3,30,22,18,16,21,31,25,,,,,,2.2,1.1,1.8*3C
$GPRMC,185842.000,A,1326.9039,S,07222.2399,W,15.89,159.59,210411,,,A*51
$GPGGA,185842.999,1326.9082,S,07222.2384,W,1,07,1.1,3623.8,M,28.6,M,,0000*62
$GPGSA,M,3,30,22,18,16,21,31,25,,,,,,2.2,1.1,1.8*3C
$GPRMC,185842.999,A,1326.9082,S,07222.2384,W,15.79,163.22,210411,,,A*5E
$GPGGA,185844.000,1326.9126,S,07222.2373,W,1,07,1.1,3624.6,M,28.6,M,,0000*63
$GPGSA,M,3,30,22,18,16,21,31,25,,,,,,2.2,1.1,1.8*3C
$GPRMC,185844.000,A,1326.9126,S,07222.2373,W,15.81,161.75,210411,,,A*51
$GPGGA,185845.000,1326.9167,S,07222.2361,W,1,07,1.1,3625.2,M,28.6,M,,0000*61
$GPGSA,M,3,30,22,18,16,21,31,25,,,,,,2.2,1.1,1.8*3C
$GPGSV,3,1,11,30,64,222,31,22,62,013,32,18,62,098,41,16,40,213,29*7C
$GPGSV,3,2,11,21,29,153,36,31,27,326,38,06,22,215,,25,20,034,38*70
$GPGSV,3,3,11,29,14,095,36,03,13,223,,14,10,011,24*4E
$GPRMC,185845.000,A,1326.9167,S,07222.2361,W,14.86,159.59,210411,,,A*55
$GPGGA,185846.000,1326.9205,S,07222.2350,W,1,07,1.1,3626.4,M,28.6,M,,0000*62
$GPGSA,M,3,30,22,18,16,21,31,25,,,,,,2.2,1.1,1.8*3C
$GPRMC,185846.000,A,1326.9205,S,07222.2350,W,14.79,161.21,210411,,,A*57
$GPGGA,185847.000,1326.9248,S,07222.2332,W,1,07,1.1,3626.8,M,28.6,M,,0000*62
$GPGSA,M,3,30,22,18,16,21,31,25,,,,,,2.2,1.1,1.8*3C
$GPRMC,185847.000,A,1326.9248,S,07222.2332,W,15.68,160.68,210411,,,A*56
$GPGGA,185848.001,1326.9290,S,07222.2318,W,1,06,1.2,3626.1,M,28.6,M,,0000*6A
$GPGSA,M,3,22,18,16,21,31,25,,,,,,,2.3,1.2,2.0*36
$GPRMC,185848.001,A,1326.9290,S,07222.2318,W,14.84,161.53,210411,,,A*5F
$GPGGA,185849.000,1326.9331,S,07222.2300,W,1,07,1.1,3625.8,M,28.6,M,,0000*61
$GPGSA,M,3,30,22,18,16,21,31,25,,,,,,2.2,1.1,1.8*3C
$GPRMC,185849.000,A,1326.9331,S,07222.2300,W,15.19,156.56,210411,,,A*58
$GPGGA,185850.002,1326.9368,S,07222.2281,W,1,06,1.3,3627.8,M,28.6,M,,0000*6E
$GPGSA,M,3,30,22,18,21,31,25,,,,,,,2.3,1.3,1.9*39
$GPGSV,3,1,11,30,64,222,36,22,62,013,28,18,62,098,40,16,40,213,*7A
$GPGSV,3,2,11,21,29,153,36,31,27,326,38,06,22,215,,25,20,034,38*70
$GPGSV,3,3,11,29,14,095,33,03,13,223,,14,10,011,28*47
$GPRMC,185850.002,A,1326.9368,S,07222.2281,W,15.12,149.56,210411,,,A*53
$GPGGA,185850.997,1326.9404,S,07222.2260,W,1,04,2.8,3628.5,M,28.6,M,,0000*61
$GPGSA,M,3,30,22,18,25,,,,,,,,,4.4,2.8,3.4*3E
$GPRMC,185850.997,A,1326.9404,S,07222.2260,W,14.88,147.17,210411,,,A*5D
$GPGGA,185852.003,1326.9436,S,07222.2237,W,1,06,1.3,3628.7,M,28.6,M,,0000*6C
$GPGSA,M,3,30,22,18,21,31,25,,,,,,,2.3,1.3,1.9*39
$GPRMC,185852.003,A,1326.9436,S,07222.2237,W,14.53,145.74,210411,,,A*59
$GPGGA,185852.997,1326.9464,S,07222.2203,W,1,05,1.8,3629.2,M,28.6,M,,0000*64
$GPGSA,M,3,30,22,18,21,31,,,,,,,,2.9,1.8,2.3*36
$GPRMC,185852.997,A,1326.9464,S,07222.2203,W,15.51,136.10,210411,,,A*58
$GPGGA,185854.003,1326.9490,S,07222.2175,W,1,07,1.1,3631.2,M,28.6,M,,0000*6D
$GPGSA,M,3,30,22,18,16,21,31,25,,,,,,2.2,1.1,1.8*3C
$GPRMC,185854.003,A,1326.9490,S,07222.2175,W,15.05,132.08,210411,,,A*5F
$GPGGA,185855.000,1326.9511,S,07222.2140,W,1,07,1.1,3632.0,M,28.6,M,,0000*60
$GPGSA,M,3,30,22,18,16,21,31,25,,,,,,2.2,1.1,1.8*3C
$GPGSV,3,1,11,30,64,222,32,22,62,013,37,18,62,098,30,16,40,213,39*7D
$GPGSV,3,2,11,21,29,153,26,31,27,326,32,06,22,215,,25,20,034,39*7A
$GPGSV,3,3,11,29,14,095,,03,13,223,,14,10,011,29*46
$GPRMC,185855.000,A,1326.9511,S,07222.2140,W,14.73,125.68,210411,,,A*53
$GPGGA,185855.996,1326.9532,S,07222.2105,W,1,07,1.1,3632.7,M,28.6,M,,0000*61
$GPGSA,M,3,30,22,18,16,21,31,25,,,,,,2.2,1.1,1.8*3C
$GPRMC,185855.996,A,1326.9532,S,07222.2105,W,14.96,122.33,210411,,,A*57
$GPGGA,185857.004,1326.9535,S,07222.2059,W,1,07,1.1,3634.2,M,28.6,M,,0000*6D
$GPGSA,M,3,30,22,18,16,21,31,25,,,,,,2.2,1.1,1.8*3C
$GPRMC,185857.004,A,1326.9535,S,07222.2059,W,12.82,108.62,210411,,,A*57
$GPGGA,185857.996,1326.9547,S,07222.2023,W,1,07,1.1,3633.6,M,28.6,M,,0000*64
$GPGSA,M,3,30,22,18,16,21,31,25,,,,,,2.2,1.1,1.8*3C
$GPRMC,185857.996,A,1326.9547,S,07222.2023,W,12.55,106.56,210411,,,A*5E
$GPGGA,185859.002,1326.9551,S,07222.1985,W,1,07,1.1,3632.1,M,28.6,M,,0000*69
$GPGSA,M,3,30,22,18,16,21,31,25,,,,,,2.2,1.1,1.8*3C
$GPRMC,185859.002,A,1326.9551,S,07222.1985,W,13.17,98.68,210411,,,A*69
$GPGGA,185859.998,1326.9533,S,07222.1941,W,1,06,1.4,3631.5,M,28.6,M,,0000*6C
$GPGSA,M,3,30,22,18,16,21,31,,,,,,,2.6,1.4,2.2*33
$GPGSV,3,1,11,30,64,222,32,22,62,013,39,18,62,098,35,16,40,213,37*78
$GPGSV,3,2,11,21,29,153,21,31,27,326,37,06,22,215,30,25,20,034,*71
$GPGSV,3,3,11,29,14,095,,03,13,223,,14,10,011,26*49
$GPRMC,185859.998,A,1326.9533,S,07222.1941,W,13.11,83.58,210411,,,A*60
$GPGGA,185901.000,1326.9499,S,07222.1883,W,1,05,2.2,3631.8,M,28.6,M,,0000*6D
$GPGSA,M,3,30,22,18,16,31,,,,,,,,4.7,2.2,4.2*34
$GPRMC,185901.000,A,1326.9499,S,07222.1883,W,15.21,72.73,210411,,,A*68
$GPGGA,185902.000,1326.9464,S,07222.1828,W,1,05,2.2,3631.5,M,28.6,M,,0000*60
$GPGSA,M,3,30,22,18,16,31,,,,,,,,4.7,2.2,4.2*34
$GPRMC,185902.000,A,1326.9464,S,07222.1828,W,17.71,66.62,210411,,,A*6A
$GPGGA,185903.003,1326.9426,S,07222.1780,W,1,05,2.2,3632.8,M,28.6,M,,0000*67
$GPGSA,M,3,30,22,18,16,31,,,,,,,,4.7,2.2,4.2*34
$GPRMC,185903.003,A,1326.9426,S,07222.1780,W,16.90,65.68,210411,,,A*64
$GPGGA,185903.998,1326.9407,S,07222.1736,W,0,00,,3633.1,M,28.6,M,,0000*40
$GPGSA,M,1,,,,,,,,,,,,,,,*12
$GPRMC,185903.998,V,1326.9407,S,07222.1736,W,,,210411,,,N*7A
$GPGGA,185905.000,1326.9387,S,07222.1692,W,0,00,,3633.3,M,28.6,M,,0000*4C
$GPGSA,M,1,,,,,,,,,,,,,,,*12
$GPGSV,3,1,11,30,64,222,32,22,63,014,44,18,61,100,38,16,41,214,*78
$GPGSV,3,2,11,21,29,152,,31,26,326,,25,19,034,,06,23,215,17*78
$GPGSV,3,3,11,29,14,095,,03,14,223,,14,10,012,*49
$GPRMC,185905.000,V,1326.9387,S,07222.1692,W,,,210411,,,N*74
$GPGGA,185906.000,1326.9368,S,07222.1648,W,0,00,,3633.6,M,28.6,M,,0000*4C
$GPGSA,M,1,,,,,,,,,,,,,,,*12
$GPRMC,185906.000,V,1326.9368,S,07222.1648,W,,,210411,,,N*71
$GPGGA,185907.000,1326.9343,S,07222.1601,W,1,04,2.7,3635.6,M,28.6,M,,0000*61
$GPGSA,M,3,30,22,18,31,,,,,,,,,6.0,2.7,5.4*34
$GPRMC,185907.000,A,1326.9343,S,07222.1601,W,17.13,70.64,210411,,,A*6D
$GPGGA,185908.000,1326.9325,S,07222.1546,W,1,04,2.7,3638.4,M,28.6,M,,0000*61
$GPGSA,M,3,30,22,18,31,,,,,,,,,6.0,2.7,5.4*34
$GPRMC,185908.000,A,1326.9325,S,07222.1546,W,17.65,74.45,210411,,,A*64
$GPGGA,185909.000,1326.9314,S,07222.1509,W,1,04,2.7,3643.4,M,28.6,M,,0000*65
$GPGSA,M,3,30,22,18,31,,,,,,,,,6.0,2.7,5.4*34
$GPRMC,185909.000,A,1326.9314,S,07222.1509,W,18.77,73.54,210411,,,A*67
$GPGGA,185910.000,1326.9304,S,07222.1460,W,1,05,2.2,3647.0,M,28.6,M,,0000*66
$GPGSA,M,3,30,22,18,16,31,,,,,,,,4.7,2.2,4.1*37
$GPGSV,3,1,11,30,64,222,34,22,63,014,46,18,61,100,30,16,41,214,38*7F
$GPGSV,3,2,11,21,29,152,,31,26,326,40,25,19,034,,06,23,215,15*7E
$GPGSV,3,3,11,29,14,095,,03,14,223,,14,10,012,*49
$GPRMC,185910.000,A,1326.9304,S,07222.1460,W,19.35,77.98,210411,,,A*63
$GPGGA,185911.000,1326.9306,S,07222.1421,W,1,05,2.2,3650.8,M,28.6,M,,0000*6E
$GPGSA,M,3,30,22,18,16,31,,,,,,,,4.7,2.2,4.1*37
$GPRMC,185911.000,A,1326.9306,S,07222.1421,W,16.34,93.48,210411,,,A*6C
$GPGGA,185912.000,1326.9318,S,07222.1372,W,1,05,2.2,3654.5,M,28.6,M,,0000*6A
$GPGSA,M,3,30,22,18,16,31,,,,,,,,4.7,2.2,4.1*37
$GPRMC,185912.000,A,1326.9318,S,07222.1372,W,16.95,102.67,210411,,,A*5E
$GPGGA,185913.000,1326.9333,S,07222.1328,W,1,04,2.7,3658.1,M,28.6,M,,0000*61
$GPGSA,M,3,30,22,18,31,,,,,,,,,6.0,2.7,5.4*34
$GPRMC,185913.000,A,1326.9333,S,07222.1328,W,16.72,108.48,210411,,,A*57
$GPGGA,185914.000,1326.9352,S,07222.1281,W,1,05,2.2,3659.3,M,28.6,M,,0000*64
$GPGSA,M,3,30,22,18,16,31,,,,,,,,4.7,2.2,4.1*37
$GPRMC,185914.000,A,1326.9352,S,07222.1281,W,17.02,110.08,210411,,,A*5E
$GPGGA,185915.000,1326.9375,S,07222.1236,W,1,05,2.2,3660.7,M,28.6,M,,0000*62
$GPGSA,M,3,30,22,18,16,31,,,,,,,,4.7,2.2,4.1*37
$GPGSV,3,1,11,30,64,222,33,22,63,014,34,18,61,100,32,16,41,214,21*77
$GPGSV,3,2,11,21,29,152,,31,26,326,32,25,19,034,,06,23,215,*7F
$GPGSV,3,3,11,29,14,095,,03,14,223,,14,10,012,11*49
$GPRMC,185915.000,A,1326.9375,S,07222.1236,W,16.79,111.52,210411,,,A*55
$GPGGA,185916.000,1326.9393,S,07222.1190,W,1,05,2.2,3662.1,M,28.6,M,,0000*62
$GPGSA,M,3,30,22,18,16,31,,,,,,,,4.7,2.2,4.1*37
$GPRMC,185916.000,A,1326.9393,S,07222.1190,W,15.74,109.29,210411,,,A*5A
$GPGGA,185917.000,1326.9409,S,07222.1150,W,1,05,2.2,3664.7,M,28.6,M,,0000*6B
$GPGSA,M,3,30,22,18,16,31,,,,,,,,4.7,2.2,4.1*37
$GPRMC,185917.000,A,1326.9409,S,07222.1150,W,15.99,110.19,210411,,,A*5B
$GPGGA,185917.998,1326.9425,S,07222.1106,W,1,04,2.7,3665.9,M,28.6,M,,0000*65
$GPGSA,M,3,30,22,18,31,,,,,,,,,6.0,2.7,5.4*34
$GPRMC,185917.998,A,1326.9425,S,07222.1106,W,16.41,112.05,210411,,,A*57
$GPGGA,185919.001,1326.9442,S,07222.1067,W,1,04,2.7,3667.1,M,28.6,M,,0000*6F
$GPGSA,M,3,30,22,18,31,,,,,,,,,6.0,2.7,5.4*34
$GPRMC,185919.001,A,1326.9442,S,07222.1067,W,15.05,112.23,210411,,,A*50
$GPGGA,185920.000,1326.9458,S,07222.1020,W,1,04,2.7,3665.9,M,28.6,M,,0000*66
$GPGSA,M,3,30,22,18,31,,,,,,,,,6.0,2.7,5.4*34
$GPGSV,3,1,11,30,64,223,36,22,63,014,32,18,61,100,33,16,41,214,*77
$GPGSV,3,2,11,21,28,152,,31,26,326,26,25,19,034,,06,23,215,*7B
$GPGSV,3,3,11,29,14,094,,03,14,223,,14,10,012,*48
$GPRMC,185920.000,A,1326.9458,S,07222.1020,W,15.39,109.07,210411,,,A*50
$GPGGA,185921.000,1326.9472,S,07222.0984,W,1,04,2.7,3666.3,M,28.6,M,,0000*60
$GPGSA,M,3,30,22,18,31,,,,,,,,,6.0,2.7,5.4*34
$GPRMC,185921.000,A,1326.9472,S,07222.0984,W,14.07,109.13,210411,,,A*56
$GPGGA,185922.000,1326.9484,S,07222.0950,W,1,04,2.7,3669.0,M,28.6,M,,0000*6F
$GPGSA,M,3,30,22,18,31,,,,,,,,,6.0,2.7,5.4*34
$GPRMC,185922.000,A,1326.9484,S,07222.0950,W,14.11,108.77,210411,,,A*51
$GPGGA,185923.000,1326.9492,S,07222.0910,W,1,04,2.7,3670.8,M,28.6,M,,0000*6D
$GPGSA,M,3,30,22,18,31,,,,,,,,,6.0,2.7,5.4*34
$GPRMC,185923.000,A,1326.9492,S,07222.0910,W,14.34,102.22,210411,,,A*5E
$GPGGA,185924.000,1326.9495,S,07222.0864,W,1,04,2.7,3671.4,M,28.6,M,,0000*62
$GPGSA,M,3,30,22,18,31,,,,,,,,,6.0,2.7,5.3*33
$GPRMC,185924.000,A,1326.9495,S,07222.0864,W,15.00,93.93,210411,,,A*69
$GPGGA,185925.000,1326.9492,S,07222.0819,W,1,04,2.7,3672.4,M,28.6,M,,0000*6D
$GPGSA,M,3,30,22,18,31,,,,,,,,,6.0,2.7,5.3*33
$GPGSV,3,1,11,30,64,223,35,22,63,014,43,18,61,100,39,16,41,214,*78
$GPGSV,3,2,11,21,28,152,,31,26,326,36,25,19,034,,06,23,215,*7A
$GPGSV,3,3,11,29,14,094,,03,14,223,,14,10,012,*48
$GPRMC,185925.000,A,1326.9492,S,07222.0819,W,14.64,82.07,210411,,,A*6B
$GPGGA,185926.000,1326.9479,S,07222.0773,W,1,04,2.7,3672.8,M,28.6,M,,0000*64
$GPGSA,M,3,30,22,18,31,,,,,,,,,6.0,2.7,5.3*33
$GPRMC,185926.000,A,1326.9479,S,07222.0773,W,15.05,70.12,210411,,,A*61
$GPGGA,185927.000,1326.9462,S,07222.0727,W,1,05,1.8,3672.0,M,28.6,M,,0000*6B
$GPGSA,M,3,30,22,18,31,21,,,,,,,,2.9,1.8,2.2*37
$GPRMC,185927.000,A,1326.9462,S,07222.0727,W,15.24,59.18,210411,,,A*69
$GPGGA,185928.000,1326.9445,S,07222.0678,W,1,05,1.8,3665.2,M,28.6,M,,0000*6E
$GPGSA,M,3,30,22,18,31,21,,,,,,,,2.9,1.8,2.2*37
$GPRMC,185928.000,A,1326.9445,S,07222.0678,W,15.15,49.05,210411,,,A*67
$GPGGA,185929.000,1326.9409,S,07222.0642,W,1,06,1.4,3666.3,M,28.6,M,,0000*63
$GPGSA,M,3,30,22,18,31,21,16,,,,,,,2.6,1.4,2.2*33
$GPRMC,185929.000,A,1326.9409,S,07222.0642,W,16.50,43.28,210411,,,A*60
$GPGGA,185930.000,1326.9371,S,07222.0619,W,1,06,1.4,3668.1,M,28.6,M,,0000*61
$GPGSA,M,3,30,22,18,31,21,16,,,,,,,2.6,1.4,2.2*33
$GPGSV,3,1,11,30,64,223,30,22,63,014,31,18,61,100,33,16,41,214,40*76
$GPGSV,3,2,11,21,28,152,32,31,26,326,40,25,19,034,,06,23,215,*7A
$GPGSV,3,3,11,29,14,094,,03,14,223,,14,10,012,*48
$GPRMC,185930.000,A,1326.9371,S,07222.0619,W,16.13,35.65,210411,,,A*61
$GPGGA,185931.000,1326.9335,S,07222.0614,W,1,06,1.4,3668.7,M,28.6,M,,0000*6B
$GPGSA,M,3,30,22,18,31,21,16,,,,,,,2.6,1.4,2.2*33
$GPRMC,185931.000,A,1326.9335,S,07222.0614,W,14.20,19.06,210411,,,A*64
$GPGGA,185932.000,1326.9294,S,07222.0603,W,1,06,1.4,3669.1,M,28.6,M,,0000*63
$GPGSA,M,3,30,22,18,31,21,16,,,,,,,2.6,1.4,2.2*33
$GPRMC,185932.000,A,1326.9294,S,07222.0603,W,14.31,12.87,210411,,,A*69
$GPGGA,185933.000,1326.9257,S,07222.0603,W,1,06,1.4,3670.0,M,28.6,M,,0000*64
$GPGSA,M,3,30,22,18,31,21,16,,,,,,,2.6,1.4,2.2*33
$GPRMC,185933.000,A,1326.9257,S,07222.0603,W,12.50,1.01,210411,,,A*5A
$GPGGA,185933.999,1326.9222,S,07222.0603,W,1,05,2.4,3671.1,M,28.6,M,,0000*6F
$GPGSA,M,3,30,22,18,16,21,,,,,,,,5.5,2.4,4.9*3B
$GPRMC,185933.999,A,1326.9222,S,07222.0603,W,12.12,356.65,210411,,,A*54
$GPGGA,185934.999,1326.9187,S,07222.0605,W,1,06,1.4,3671.0,M,28.6,M,,0000*63
$GPGSA,M,3,30,22,18,16,21,31,,,,,,,2.6,1.4,2.2*33
$GPGSV,3,1,11,30,64,223,30,22,63,014,37,18,61,100,30,16,41,214,32*76
$GPGSV,3,2,11,21,28,152,38,31,26,326,33,06,23,215,,25,19,034,*74
$GPGSV,3,3,11,29,14,094,,03,14,223,,14,10,012,*48
$GPRMC,185934.999,A,1326.9187,S,07222.0605,W,12.72,355.10,210411,,,A*5E
$GPGGA,185936.000,1326.9154,S,07222.0614,W,1,06,1.4,3672.1,M,28.6,M,,0000*64
$GPGSA,M,3,30,22,18,16,21,31,,,,,,,2.6,1.4,2.2*33
$GPRMC,185936.000,A,1326.9154,S,07222.0614,W,11.90,346.76,210411,,,A*56
$GPGGA,185937.000,1326.9121,S,07222.0628,W,1,06,1.4,3672.6,M,28.6,M,,0000*6F
$GPGSA,M,3,30,22,18,16,21,31,,,,,,,2.6,1.4,2.2*33
$GPRMC,185937.000,A,1326.9121,S,07222.0628,W,12.67,337.58,210411,,,A*5B
$GPGGA,185938.000,1326.9088,S,07222.0640,W,1,06,1.4,3672.6,M,28.6,M,,0000*6C
$GPGSA,M,3,30,22,18,16,21,31,,,,,,,2.6,1.4,2.2*33
$GPRMC,185938.000,A,1326.9088,S,07222.0640,W,12.54,337.24,210411,,,A*53
$GPGGA,185939.000,1326.9055,S,07222.0656,W,1,06,1.4,3673.8,M,28.6,M,,0000*65
$GPGSA,M,3,30,22,18,16,21,31,,,,,,,2.6,1.4,2.2*33
$GPRMC,185939.000,A,1326.9055,S,07222.0656,W,13.19,338.40,210411,,,A*50
$GPGGA,185940.000,1326.9022,S,07222.0673,W,1,06,1.4,3674.4,M,28.6,M,,0000*67
$GPGSA,M,3,30,22,18,16,21,31,,,,,,,2.6,1.4,2.2*33
$GPGSV,3,1,11,30,64,223,25,22,63,014,31,18,61,100,34,16,41,214,35*77
$GPGSV,3,2,11,21,28,152,38,31,26,326,37,06,23,215,33,25,19,034,*70
$GPGSV,3,3,11,29,14,094,,03,14,223,,14,10,012,*48
$GPRMC,185940.000,A,1326.9022,S,07222.0673,W,13.17,336.99,210411,,,A*5D
$GPGGA,185941.000,1326.8989,S,07222.0691,W,1,06,1.4,3674.6,M,28.6,M,,0000*61
$GPGSA,M,3,30,22,18,16,21,31,,,,,,,2.6,1.4,2.2*33
$GPRMC,185941.000,A,1326.8989,S,07222.0691,W,13.36,335.23,210411,,,A*58
$GPGGA,185942.000,1326.8954,S,07222.0702,W,1,06,1.4,3673.6,M,28.6,M,,0000*6E
$GPGSA,M,3,30,22,18,16,21,31,,,,,,,2.6,1.4,2.2*33
$GPRMC,185942.000,A,1326.8954,S,07222.0702,W,13.00,338.85,210411,,,A*54
$GPGGA,185943.000,1326.8920,S,07222.0717,W,1,06,1.4,3673.1,M,28.6,M,,0000*6F
$GPGSA,M,3,30,22,18,16,21,31,,,,,,,2.6,1.4,2.2*33
$GPRMC,185943.000,A,1326.8920,S,07222.0717,W,13.27,333.58,210411,,,A*5C
$GPGGA,185944.000,1326.8887,S,07222.0731,W,1,06,1.4,3672.7,M,28.6,M,,0000*67
$GPGSA,M,3,30,22,18,16,21,31,,,,,,,2.6,1.4,2.2*33
$GPRMC,185944.000,A,1326.8887,S,07222.0731,W,13.16,335.71,210411,,,A*5C
$GPGGA,185944.999,1326.8855,S,07222.0746,W,1,05,1.6,3672.3,M,28.6,M,,0000*64
$GPGSA,M,3,22,18,16,21,31,,,,,,,,3.2,1.6,2.8*3D
$GPGSV,3,1,11,30,64,223,,22,63,014,36,18,61,100,35,16,41,214,35*76
$GPGSV,3,2,11,21,28,152,32,31,26,326,38,06,23,215,37,25,19,034,*71
$GPGSV,3,3,11,29,14,094,,03,14,223,,14,10,012,*48
$GPRMC,185944.999,A,1326.8855,S,07222.0746,W,13.39,337.53,210411,,,A*55
$GPGGA,185946.001,1326.8820,S,07222.0760,W,1,06,1.4,3672.2,M,28.6,M,,0000*68
$GPGSA,M,3,30,22,18,16,21,31,,,,,,,2.6,1.4,2.2*33
$GPRMC,185946.001,A,1326.8820,S,07222.0760,W,13.69,336.70,210411,,,A*5C
$GPGGA,185947.000,1326.8786,S,07222.0778,W,1,06,1.4,3673.0,M,28.6,M,,0000*61
$GPGSA,M,3,30,22,18,16,21,31,,,,,,,2.6,1.4,2.2*33
$GPRMC,185947.000,A,1326.8786,S,07222.0778,W,12.99,335.20,210411,,,A*5E
$GPGGA,185947.998,1326.8752,S,07222.0793,W,1,06,1.4,3672.7,M,28.6,M,,0000*63
$GPGSA,M,3,30,22,18,16,21,31,,,,,,,2.6,1.4,2.2*33
$GPRMC,185947.998,A,1326.8752,S,07222.0793,W,13.72,337.83,210411,,,A*55
$GPGGA,185949.004,1326.8719,S,07222.0810,W,1,06,1.4,3673.1,M,28.6,M,,0000*6D
$GPGSA,M,3,30,22,18,16,21,31,,,,,,,2.6,1.4,2.2*33
$GPRMC,185949.004,A,1326.8719,S,07222.0810,W,13.66,338.73,210411,,,A*59
$GPGGA,185949.996,1326.8680,S,07222.0822,W,1,06,1.4,3673.5,M,28.6,M,,0000*6B
$GPGSA,M,3,30,22,18,16,21,31,,,,,,,2.6,1.4,2.2*33
$GPGSV,3,1,11,30,64,223,28,22,63,014,32,18,61,100,35,16,41,214,34*79
$GPGSV,3,2,11,21,28,152,34,31,26,326,37,06,23,215,32,25,19,034,*7D
$GPGSV,3,3,11,29,14,094,,03,14,223,31,14,10,012,*4A
$GPRMC,185949.996,A,1326.8680,S,07222.0822,W,14.40,337.52,210411,,,A*54
$GPGGA,185951.002,1326.8646,S,07222.0842,W,1,05,1.6,3672.6,M,28.6,M,,0000*69
$GPGSA,M,3,22,18,16,21,31,,,,,,,,3.2,1.6,2.8*3D
$GPRMC,185951.002,A,1326.8646,S,07222.0842,W,14.21,329.80,210411,,,A*52
$GPGGA,185951.998,1326.8612,S,07222.0864,W,1,06,1.4,3671.2,M,28.6,M,,0000*60
$GPGSA,M,3,30,22,18,16,21,31,,,,,,,2.6,1.4,2.2*33
$GPRMC,185951.998,A,1326.8612,S,07222.0864,W,14.07,328.23,210411,,,A*51
$GPGGA,185953.000,1326.8577,S,07222.0878,W,1,06,1.4,3670.5,M,28.6,M,,0000*61
$GPGSA,M,3,30,22,18,16,21,31,,,,,,,2.6,1.4,2.2*33
