$GPGGA,230624.998,1926.9273,S,06958.0552,W,1,09,1.2,1079.3,M,35.0,M,,0000*69
$GPGSA,M,3,19,11,32,24,03,23,06,31,14,,,,2.6,1.2,2.3*34
$GPRMC,230624.998,A,1926.9273,S,06958.0552,W,0.63,126.03,300411,,,A*6F
$GPGGA,230626.000,1926.9273,S,06958.0555,W,1,09,1.2,1077.5,M,35.0,M,,0000*6C
$GPGSA,M,3,19,11,32,24,03,23,06,31,14,,,,2.6,1.2,2.4*33
$GPRMC,230626.000,A,1926.9273,S,06958.0555,W,0.37,47.70,300411,,,A*51
$GPGGA,230627.000,1926.9273,S,06958.0554,W,1,09,1.2,1077.1,M,35.0,M,,0000*68
$GPGSA,M,3,19,11,32,24,03,23,06,31,14,,,,2.6,1.2,2.4*33
$GPRMC,230627.000,A,1926.9273,S,06958.0554,W,0.58,20.97,300411,,,A*50
$GPGGA,230627.998,1926.9269,S,06958.0555,W,1,08,1.3,1078.6,M,35.0,M,,0000*62
$GPGSA,M,3,19,11,32,24,03,23,06,31,,,,,2.8,1.3,2.5*38
$GPGSV,3,1,12,19,68,351,36,11,52,202,33,32,50,231,32,24,37,205,31*79
$GPGSV,3,2,12,03,36,008,38,20,32,256,,23,31,332,35,06,24,019,37*77
$GPGSV,3,3,12,31,19,072,36,14,18,141,,28,00,244,,22,00,121,*72
$GPRMC,230627.998,A,1926.9269,S,06958.0555,W,0.39,350.76,300411,,,A*6E
$GPGGA,230629.000,1926.9272,S,06958.0556,W,1,08,1.3,1078.3,M,35.0,M,,0000*68
$GPGSA,M,3,19,11,32,24,03,23,06,31,,,,,2.8,1.3,2.5*38
$GPRMC,230629.000,A,1926.9272,S,06958.0556,W,0.03,198.78,300411,,,A*60
$GPGGA,230630.000,1926.9273,S,06958.0556,W,1,08,1.3,1078.3,M,35.0,M,,0000*61
$GPGSA,M,3,19,11,32,24,03,23,06,31,,,,,2.8,1.3,2.5*38
$GPRMC,230630.000,A,1926.9273,S,06958.0556,W,0.60,20.93,300411,,,A*5B
$GPGGA,230631.000,1926.9273,S,06958.0558,W,1,08,1.3,1076.0,M,35.0,M,,0000*63
$GPGSA,M,3,19,11,32,24,03,23,06,31,,,,,2.8,1.3,2.5*38
$GPRMC,230631.000,A,1926.9273,S,06958.0558,W,0.27,20.96,300411,,,A*52
$GPGGA,230632.002,1926.9275,S,06958.0557,W,1,08,1.3,1076.7,M,35.0,M,,0000*6C
$GPGSA,M,3,19,11,32,24,03,23,06,31,,,,,2.8,1.3,2.5*38
$GPRMC,230632.002,A,1926.9275,S,06958.0557,W,0.15,352.16,300411,,,A*65
$GPGGA,230633.000,1926.9271,S,06958.0555,W,1,09,1.2,1080.1,M,35.0,M,,0000*66
$GPGSA,M,3,19,11,32,24,03,23,06,31,14,,,,2.6,1.2,2.4*33
$GPGSV,3,1,12,19,68,351,36,11,52,202,33,32,50,231,31,24,37,205,32*79
$GPGSV,3,2,12,03,36,008,37,20,32,256,,23,31,332,36,06,24,019,37*7B
$GPGSV,3,3,12,31,19,072,38,14,18,141,25,28,00,244,,22,00,121,*7B
$GPRMC,230633.000,A,1926.9271,S,06958.0555,W,0.37,92.68,300411,,,A*56
$GPGGA,230633.998,1926.9272,S,06958.0552,W,1,08,1.3,1080.1,M,35.0,M,,0000*6A
$GPGSA,M,3,19,11,32,24,03,23,06,31,,,,,2.8,1.3,2.5*38
$GPRMC,230633.998,A,1926.9272,S,06958.0552,W,0.64,59.64,300411,,,A*57
$GPGGA,230635.002,1926.9272,S,06958.0551,W,1,09,1.2,1081.4,M,35.0,M,,0000*61
$GPGSA,M,3,19,11,32,24,03,23,06,31,14,,,,2.6,1.2,2.4*33
$GPRMC,230635.002,A,1926.9272,S,06958.0551,W,0.43,23.37,300411,,,A*56
$GPGGA,230636.000,1926.9269,S,06958.0550,W,1,09,1.2,1081.5,M,35.0,M,,0000*6A
$GPGSA,M,3,19,11,32,24,03,23,06,31,14,,,,2.6,1.2,2.4*33
$GPRMC,230636.000,A,1926.9269,S,06958.0550,W,0.27,36.78,300411,,,A*51
$GPGGA,230637.000,1926.9270,S,06958.0550,W,1,09,1.2,1081.2,M,35.0,M,,0000*64
$GPGSA,M,3,19,11,32,24,03,23,06,31,14,,,,2.6,1.2,2.4*33
$GPRMC,230637.000,A,1926.9270,S,06958.0550,W,0.50,68.81,300411,,,A*55
$GPGGA,230638.000,1926.9269,S,06958.0553,W,1,09,1.2,1080.6,M,35.0,M,,0000*65
$GPGSA,M,3,19,11,32,24,03,23,06,31,14,,,,2.6,1.2,2.4*33
$GPGSV,3,1,12,19,68,351,36,11,52,202,33,32,50,231,31,24,37,205,31*7A
$GPGSV,3,2,12,03,36,008,37,20,32,256,,23,31,332,36,06,24,019,37*7B
$GPGSV,3,3,12,31,19,072,36,14,18,141,29,28,00,244,,22,00,121,*79
$GPRMC,230638.000,A,1926.9269,S,06958.0553,W,0.39,44.90,300411,,,A*50
$GPGGA,230639.000,1926.9270,S,06958.0552,W,1,09,1.2,1080.1,M,35.0,M,,0000*6A
$GPGSA,M,3,19,11,32,24,03,23,06,31,14,,,,2.6,1.2,2.4*33
$GPRMC,230639.000,A,1926.9270,S,06958.0552,W,0.28,61.39,300411,,,A*5C
$GPGGA,230640.000,1926.9271,S,06958.0551,W,1,09,1.2,1080.1,M,35.0,M,,0000*66
$GPGSA,M,3,19,11,32,24,03,23,06,31,14,,,,2.6,1.2,2.4*33
$GPRMC,230640.000,A,1926.9271,S,06958.0551,W,0.35,52.75,300411,,,A*54
$GPGGA,230640.998,1926.9271,S,06958.0547,W,1,08,1.2,1082.4,M,35.0,M,,0000*6F
$GPGSA,M,3,19,11,32,24,03,23,31,14,,,,,2.7,1.2,2.4*34
$GPRMC,230640.998,A,1926.9271,S,06958.0547,W,0.05,200.66,300411,,,A*6F
$GPGGA,230642.002,1926.9274,S,06958.0547,W,1,09,1.2,1082.5,M,35.0,M,,0000*62
$GPGSA,M,3,19,11,32,24,03,23,06,31,14,,,,2.6,1.2,2.4*33
$GPRMC,230642.002,A,1926.9274,S,06958.0547,W,0.43,67.54,300411,,,A*52
$GPGGA,230643.000,1926.9274,S,06958.0536,W,1,09,1.2,1088.5,M,35.0,M,,0000*6D
$GPGSA,M,3,19,11,32,24,03,23,06,31,14,,,,2.6,1.2,2.4*33
$GPGSV,3,1,12,19,68,351,35,11,52,202,33,32,50,231,31,24,37,205,31*79
$GPGSV,3,2,12,03,36,008,38,20,32,256,,23,31,332,36,06,24,019,37*74
$GPGSV,3,3,12,31,19,072,36,14,18,141,28,28,00,244,,22,00,121,*78
$GPRMC,230643.000,A,1926.9274,S,06958.0536,W,0.55,81.34,300411,,,A*5E
$GPGGA,230643.999,1926.9276,S,06958.0536,W,1,08,1.3,1088.4,M,35.0,M,,0000*67
$GPGSA,M,3,19,11,32,24,03,23,06,31,,,,,2.8,1.3,2.5*38
$GPRMC,230643.999,A,1926.9276,S,06958.0536,W,0.26,47.68,300411,,,A*52
$GPGGA,230645.000,1926.9275,S,06958.0536,W,1,09,1.2,1088.3,M,35.0,M,,0000*6C
$GPGSA,M,3,19,11,32,24,03,23,06,31,14,,,,2.6,1.2,2.4*33
$GPRMC,230645.000,A,1926.9275,S,06958.0536,W,0.30,7.25,300411,,,A*64
$GPGGA,230646.000,1926.9272,S,06958.0536,W,1,09,1.2,1088.8,M,35.0,M,,0000*63
$GPGSA,M,3,19,11,32,24,03,23,06,31,14,,,,2.6,1.2,2.4*33
$GPRMC,230646.000,A,1926.9272,S,06958.0536,W,0.62,4.45,300411,,,A*62
$GPGGA,230646.998,1926.9273,S,06958.0535,W,1,08,1.3,1088.2,M,35.0,M,,0000*63
$GPGSA,M,3,19,11,32,24,03,23,06,31,,,,,2.8,1.3,2.5*38
$GPRMC,230646.998,A,1926.9273,S,06958.0535,W,0.72,2.82,300411,,,A*64
$GPGGA,230648.002,1926.9273,S,06958.0538,W,1,09,1.2,1087.0,M,35.0,M,,0000*67
$GPGSA,M,3,19,11,32,24,03,23,06,31,14,,,,2.6,1.2,2.4*33
$GPGSV,3,1,12,19,68,351,36,11,52,202,34,32,50,231,31,24,37,205,31*7D
$GPGSV,3,2,12,03,36,008,38,20,32,256,,23,31,332,37,06,24,019,37*75
$GPGSV,3,3,12,31,19,072,37,14,18,141,27,28,00,244,,22,00,121,*76
$GPRMC,230648.002,A,1926.9273,S,06958.0538,W,0.65,24.60,300411,,,A*53
$GPGGA,230649.001,1926.9270,S,06958.0536,W,1,09,1.2,1086.8,M,35.0,M,,0000*61
$GPGSA,M,3,19,11,32,24,03,23,06,31,14,,,,2.6,1.2,2.4*33
$GPRMC,230649.001,A,1926.9270,S,06958.0536,W,0.23,23.52,300411,,,A*58
$GPGGA,230649.999,1926.9272,S,06958.0539,W,1,08,1.3,1085.6,M,35.0,M,,0000*69
$GPGSA,M,3,19,11,32,24,03,23,06,31,,,,,2.8,1.3,2.5*38
$GPRMC,230649.999,A,1926.9272,S,06958.0539,W,0.57,9.55,300411,,,A*61
$GPGGA,230650.999,1926.9274,S,06958.0535,W,1,08,1.3,1086.2,M,35.0,M,,0000*6C
$GPGSA,M,3,19,11,32,24,03,23,06,31,,,,,2.8,1.3,2.5*38
$GPRMC,230650.999,A,1926.9274,S,06958.0535,W,0.38,86.43,300411,,,A*5A
$GPGGA,230652.001,1926.9270,S,06958.0534,W,1,09,1.2,1086.0,M,35.0,M,,0000*61
$GPGSA,M,3,19,11,32,24,03,23,06,31,14,,,,2.6,1.2,2.4*33
$GPRMC,230652.001,A,1926.9270,S,06958.0534,W,0.49,66.75,300411,,,A*58
$GPGGA,230653.001,1926.9271,S,06958.0534,W,1,09,1.2,1085.7,M,35.0,M,,0000*65
$GPGSA,M,3,19,11,32,24,03,23,06,31,14,,,,2.6,1.2,2.4*33
$GPGSV,3,1,12,19,68,351,36,11,52,202,33,32,50,231,31,24,37,205,30*7B
$GPGSV,3,2,12,03,36,008,37,20,32,256,,23,31,332,36,06,24,019,36*7A
$GPGSV,3,3,12,31,19,072,36,14,18,141,25,28,00,244,,22,00,121,*75
$GPRMC,230653.001,A,1926.9271,S,06958.0534,W,0.45,73.04,300411,,,A*56
$GPGGA,230654.001,1926.9270,S,06958.0533,W,1,09,1.2,1085.3,M,35.0,M,,0000*60
$GPGSA,M,3,19,11,32,24,03,23,06,31,14,,,,2.6,1.2,2.4*33
$GPRMC,230654.001,A,1926.9270,S,06958.0533,W,0.56,50.55,300411,,,A*50
$GPGGA,230655.001,1926.9267,S,06958.0530,W,1,09,1.2,1087.2,M,35.0,M,,0000*67
$GPGSA,M,3,19,11,32,24,03,23,06,31,14,,,,2.6,1.2,2.4*33
$GPRMC,230655.001,A,1926.9267,S,06958.0530,W,0.12,338.26,300411,,,A*6D
$GPGGA,230656.001,1926.9269,S,06958.0528,W,1,09,1.2,1087.6,M,35.0,M,,0000*67
$GPGSA,M,3,19,11,32,24,03,23,06,31,14,,,,2.6,1.2,2.4*33
$GPRMC,230656.001,A,1926.9269,S,06958.0528,W,0.78,47.03,300411,,,A*59
$GPGGA,230657.001,1926.9266,S,06958.0526,W,1,09,1.2,1088.0,M,35.0,M,,0000*6E
$GPGSA,M,3,19,11,32,24,03,23,06,31,14,,,,2.6,1.2,2.4*33
$GPRMC,230657.001,A,1926.9266,S,06958.0526,W,0.38,33.51,300411,,,A*59
$GPGGA,230658.001,1926.9266,S,06958.0524,W,1,09,1.2,1088.2,M,35.0,M,,0000*61
$GPGSA,M,3,19,11,32,24,03,23,06,31,14,,,,2.6,1.2,2.4*33
$GPGSV,3,1,12,19,68,351,36,11,52,202,33,32,50,231,32,24,37,205,31*79
$GPGSV,3,2,12,03,36,008,39,20,32,256,,23,31,332,35,06,24,019,37*76
$GPGSV,3,3,12,31,19,072,37,14,18,141,28,28,00,244,,22,00,121,*79
$GPRMC,230658.001,A,1926.9266,S,06958.0524,W,0.53,66.79,300411,,,A*53
$GPGGA,230659.001,1926.9264,S,06958.0529,W,1,09,1.2,1086.9,M,35.0,M,,0000*6A
$GPGSA,M,3,19,11,32,24,03,23,06,31,14,,,,2.6,1.2,2.4*33
$GPRMC,230659.001,A,1926.9264,S,06958.0529,W,0.19,88.99,300411,,,A*5D
$GPGGA,230700.001,1926.9265,S,06958.0530,W,1,09,1.2,1086.1,M,35.0,M,,0000*66
$GPGSA,M,3,19,11,32,24,03,23,06,31,14,,,,2.6,1.2,2.4*33
$GPRMC,230700.001,A,1926.9265,S,06958.0530,W,0.44,49.80,300411,,,A*54
$GPGGA,230701.001,1926.9265,S,06958.0528,W,1,09,1.2,1087.1,M,35.0,M,,0000*6F
$GPGSA,M,3,19,11,32,24,03,23,06,31,14,,,,2.6,1.2,2.4*33
$GPRMC,230701.001,A,1926.9265,S,06958.0528,W,0.47,33.10,300411,,,A*5B
$GPGGA,230702.003,1926.9266,S,06958.0526,W,1,09,1.2,1088.2,M,35.0,M,,0000*6F
$GPGSA,M,3,19,11,32,24,03,23,06,31,14,,,,2.6,1.2,2.4*33
$GPRMC,230702.003,A,1926.9266,S,06958.0526,W,0.36,42.74,300411,,,A*55
$GPGGA,230702.998,1926.9265,S,06958.0531,W,1,09,1.2,1086.4,M,35.0,M,,0000*69
$GPGSA,M,3,19,11,32,24,03,23,06,31,14,,,,2.6,1.2,2.4*33
$GPGSV,3,1,12,19,68,351,36,11,52,202,31,32,50,231,31,24,37,205,31*78
$GPGSV,3,2,12,03,36,008,38,20,32,256,,23,31,332,36,06,24,019,37*74
$GPGSV,3,3,12,31,19,072,36,14,18,141,28,28,00,244,,22,00,121,*78
$GPRMC,230702.998,A,1926.9265,S,06958.0531,W,0.47,69.16,300411,,,A*50
$GPGGA,230704.000,1926.9266,S,06958.0535,W,1,09,1.2,1084.6,M,35.0,M,,0000*60
$GPGSA,M,3,19,11,32,24,03,23,06,31,14,,,,2.6,1.2,2.4*33
$GPRMC,230704.000,A,1926.9266,S,06958.0535,W,0.30,34.09,300411,,,A*5F
$GPGGA,230705.000,1926.9267,S,06958.0534,W,1,09,1.2,1085.2,M,35.0,M,,0000*64
$GPGSA,M,3,19,11,32,24,03,23,06,31,14,,,,2.6,1.2,2.4*33
$GPRMC,230705.000,A,1926.9267,S,06958.0534,W,0.39,21.92,300411,,,A*51
$GPGGA,230706.000,1926.9269,S,06958.0532,W,1,09,1.2,1086.6,M,35.0,M,,0000*68
$GPGSA,M,3,19,11,32,24,03,23,06,31,14,,,,2.6,1.2,2.4*33
$GPRMC,230706.000,A,1926.9269,S,06958.0532,W,0.61,331.09,300411,,,A*67
$GPGGA,230707.000,1926.9268,S,06958.0538,W,1,09,1.2,1086.3,M,35.0,M,,0000*67
$GPGSA,M,3,19,11,32,24,03,23,06,31,14,,,,2.6,1.2,2.4*33
$GPRMC,230707.000,A,1926.9268,S,06958.0538,W,0.55,44.20,300411,,,A*50
$GPGGA,230708.000,1926.9269,S,06958.0537,W,1,09,1.2,1085.6,M,35.0,M,,0000*60
$GPGSA,M,3,19,11,32,24,03,23,06,31,14,,,,2.6,1.2,2.4*33
$GPGSV,3,1,12,19,68,351,36,11,52,202,32,32,50,231,31,24,37,205,32*78
$GPGSV,3,2,12,03,36,008,38,20,32,256,,23,31,332,36,06,24,019,37*74
$GPGSV,3,3,12,31,19,072,37,14,18,141,29,28,00,244,,22,00,121,*78
$GPRMC,230708.000,A,1926.9269,S,06958.0537,W,0.49,83.34,300411,,,A*52
$GPGGA,230709.000,1926.9271,S,06958.0538,W,1,09,1.2,1084.7,M,35.0,M,,0000*67
$GPGSA,M,3,19,11,32,24,03,23,06,31,14,,,,2.6,1.2,2.4*33
$GPRMC,230709.000,A,1926.9271,S,06958.0538,W,0.30,247.88,300411,,,A*66
$GPGGA,230710.000,1926.9269,S,06958.0540,W,1,09,1.2,1084.2,M,35.0,M,,0000*6C
$GPGSA,M,3,19,11,32,24,03,23,06,31,14,,,,2.6,1.2,2.4*33
$GPRMC,230710.000,A,1926.9269,S,06958.0540,W,0.21,37.84,300411,,,A*51
$GPGGA,230711.000,1926.9270,S,06958.0539,W,1,09,1.2,1083.7,M,35.0,M,,0000*69
$GPGSA,M,3,19,11,32,24,03,23,06,31,14,,,,2.6,1.2,2.4*33
$GPRMC,230711.000,A,1926.9270,S,06958.0539,W,0.20,95.63,300411,,,A*56
$GPGGA,230712.000,1926.9271,S,06958.0537,W,1,09,1.2,1083.6,M,35.0,M,,0000*64
$GPGSA,M,3,19,11,32,24,03,23,06,31,14,,,,2.6,1.2,2.4*33
$GPRMC,230712.000,A,1926.9271,S,06958.0537,W,0.31,56.65,300411,,,A*53
$GPGGA,230713.000,1926.9270,S,06958.0534,W,1,09,1.2,1085.6,M,35.0,M,,0000*61
$GPGSA,M,3,19,11,32,24,03,23,06,31,14,,,,2.6,1.2,2.4*33
$GPGSV,3,1,12,19,68,351,36,11,52,202,33,32,50,231,33,24,37,205,31*78
$GPGSV,3,2,12,03,36,008,38,20,32,256,,23,31,332,37,06,24,019,37*75
$GPGSV,3,3,12,31,19,072,36,14,18,141,27,28,00,244,,22,00,121,*77
$GPRMC,230713.000,A,1926.9270,S,06958.0534,W,0.35,49.13,300411,,,A*5B
$GPGGA,230714.000,1926.9272,S,06958.0533,W,1,09,1.2,1084.9,M,35.0,M,,0000*6D
$GPGSA,M,3,19,11,32,24,03,23,06,31,14,,,,2.6,1.2,2.4*33
$GPRMC,230714.000,A,1926.9272,S,06958.0533,W,0.18,4.35,300411,,,A*6B
$GPGGA,230715.000,1926.9275,S,06958.0532,W,1,09,1.2,1085.2,M,35.0,M,,0000*60
$GPGSA,M,3,19,11,32,24,03,23,06,31,14,,,,2.6,1.2,2.4*33
$GPRMC,230715.000,A,1926.9275,S,06958.0532,W,0.35,114.07,300411,,,A*62
$GPGGA,230716.000,1926.9274,S,06958.0532,W,1,09,1.2,1085.9,M,35.0,M,,0000*69
$GPGSA,M,3,19,11,32,24,03,23,06,31,14,,,,2.6,1.2,2.4*33
$GPRMC,230716.000,A,1926.9274,S,06958.0532,W,0.71,28.89,300411,,,A*58
$GPGGA,230717.000,1926.9274,S,06958.0533,W,1,09,1.2,1083.9,M,35.0,M,,0000*6F
$GPGSA,M,3,19,11,32,24,03,23,06,31,14,,,,2.6,1.2,2.4*33
$GPRMC,230717.000,A,1926.9274,S,06958.0533,W,0.72,52.49,300411,,,A*5A
$GPGGA,230718.001,1926.9274,S,06958.0536,W,1,09,1.2,1081.5,M,35.0,M,,0000*6A
$GPGSA,M,3,19,11,32,24,03,23,06,31,14,,,,2.6,1.2,2.4*33
$GPGSV,3,1,12,19,68,351,36,11,52,202,32,32,50,231,32,24,37,205,30*79
$GPGSV,3,2,12,03,36,008,37,20,32,256,,23,31,332,36,06,24,019,37*7B
$GPGSV,3,3,12,31,19,072,36,14,18,141,27,28,00,244,,22,00,121,*77
$GPRMC,230718.001,A,1926.9274,S,06958.0536,W,0.47,334.80,300411,,,A*61
$GPGGA,230719.001,1926.9272,S,06958.0537,W,1,09,1.2,1081.6,M,35.0,M,,0000*6F
$GPGSA,M,3,19,11,32,24,03,23,06,31,14,,,,2.6,1.2,2.4*33
$GPRMC,230719.001,A,1926.9272,S,06958.0537,W,0.46,37.17,300411,,,A*58
$GPGGA,230720.000,1926.9272,S,06958.0535,W,1,09,1.2,1081.8,M,35.0,M,,0000*68
$GPGSA,M,3,19,11,32,24,03,23,06,31,14,,,,2.6,1.2,2.4*33
$GPRMC,230720.000,A,1926.9272,S,06958.0535,W,0.23,85.12,300411,,,A*5E
$GPGGA,230721.000,1926.9274,S,06958.0534,W,1,09,1.2,1081.9,M,35.0,M,,0000*6F
$GPGSA,M,3,19,11,32,24,03,23,06,31,14,,,,2.6,1.2,2.4*33
$GPRMC,230721.000,A,1926.9274,S,06958.0534,W,0.14,18.48,300411,,,A*57
$GPGGA,230721.999,1926.9274,S,06958.0536,W,1,09,1.2,1081.8,M,35.0,M,,0000*65
$GPGSA,M,3,19,11,32,24,03,23,06,31,14,,,,2.6,1.2,2.4*33
$GPRMC,230721.999,A,1926.9274,S,06958.0536,W,0.09,253.15,300411,,,A*65
$GPGGA,230723.001,1926.9275,S,06958.0537,W,1,09,1.2,1082.0,M,35.0,M,,0000*64
$GPGSA,M,3,19,11,32,24,03,23,06,31,14,,,,2.6,1.2,2.4*33
$GPGSV,3,1,12,19,68,351,37,11,52,202,33,32,50,231,31,24,37,205,31*7B
$GPGSV,3,2,12,03,36,008,37,20,32,256,,23,31,332,37,06,24,019,36*7B
$GPGSV,3,3,12,31,19,072,37,14,18,141,28,28,00,244,,22,00,121,*79
$GPRMC,230723.001,A,1926.9275,S,06958.0537,W,0.23,338.07,300411,,,A*68
$GPGGA,230724.000,1926.9273,S,06958.0534,W,1,09,1.2,1082.0,M,35.0,M,,0000*67
$GPGSA,M,3,19,11,32,24,03,23,06,31,14,,,,2.6,1.2,2.4*33
$GPRMC,230724.000,A,1926.9273,S,06958.0534,W,0.42,338.42,300411,,,A*6D
$GPGGA,230725.000,1926.9272,S,06958.0535,W,1,09,1.2,1082.3,M,35.0,M,,0000*65
$GPGSA,M,3,19,11,32,24,03,23,06,31,14,,,,2.6,1.2,2.4*33
$GPRMC,230725.000,A,1926.9272,S,06958.0535,W,0.23,14.43,300411,,,A*57
$GPGGA,230726.000,1926.9270,S,06958.0539,W,1,09,1.2,1081.5,M,35.0,M,,0000*6D
$GPGSA,M,3,19,11,32,24,03,23,06,31,14,,,,2.6,1.2,2.4*33
$GPRMC,230726.000,A,1926.9270,S,06958.0539,W,0.60,333.59,300411,,,A*60
$GPGGA,230727.000,1926.9269,S,06958.0539,W,1,09,1.2,1082.1,M,35.0,M,,0000*63
$GPGSA,M,3,19,11,32,24,03,23,06,31,14,,,,2.6,1.2,2.4*33
$GPRMC,230727.000,A,1926.9269,S,06958.0539,W,0.29,235.32,300411,,,A*6E
$GPGGA,230728.000,1926.9267,S,06958.0540,W,1,09,1.2,1083.0,M,35.0,M,,0000*6C
$GPGSA,M,3,19,11,32,24,03,23,06,31,14,,,,2.6,1.2,2.4*33
$GPGSV,3,1,12,19,68,351,36,11,52,202,33,32,50,231,32,24,37,205,30*78
$GPGSV,3,2,12,03,36,008,38,20,32,256,,23,31,332,35,06,24,019,37*77
$GPGSV,3,3,12,31,19,072,37,14,18,141,28,28,00,244,,22,00,121,*79
$GPRMC,230728.000,A,1926.9267,S,06958.0540,W,0.74,73.61,300411,,,A*5F
$GPGGA,230729.000,1926.9266,S,06958.0539,W,1,09,1.2,1082.2,M,35.0,M,,0000*61
$GPGSA,M,3,19,11,32,24,03,23,06,31,14,,,,2.6,1.2,2.4*33
$GPRMC,230729.000,A,1926.9266,S,06958.0539,W,0.66,3.21,300411,,,A*61
$GPGGA,230730.000,1926.9265,S,06958.0541,W,1,09,1.2,1081.8,M,35.0,M,,0000*6C
$GPGSA,M,3,19,11,32,24,03,23,06,31,14,,,,2.6,1.2,2.4*33
$GPRMC,230730.000,A,1926.9265,S,06958.0541,W,0.23,87.44,300411,,,A*5B
$GPGGA,230731.000,1926.9266,S,06958.0542,W,1,09,1.2,1081.4,M,35.0,M,,0000*61
$GPGSA,M,3,19,11,32,24,03,23,06,31,14,,,,2.6,1.2,2.4*33
$GPRMC,230731.000,A,1926.9266,S,06958.0542,W,0.84,65.55,300411,,,A*5B
$GPGGA,230732.000,1926.9266,S,06958.0539,W,1,09,1.2,1082.8,M,35.0,M,,0000*61
$GPGSA,M,3,19,11,32,24,03,23,06,31,14,,,,2.6,1.2,2.4*33
$GPRMC,230732.000,A,1926.9266,S,06958.0539,W,0.11,129.96,300411,,,A*6E
$GPGGA,230733.000,1926.9267,S,06958.0542,W,1,09,1.2,1081.9,M,35.0,M,,0000*6F
$GPGSA,M,3,19,11,32,24,03,23,06,31,14,,,,2.6,1.2,2.4*33
$GPGSV,3,1,12,19,68,351,36,11,52,202,33,32,50,231,31,24,37,205,30*7B
$GPGSV,3,2,12,03,36,008,38,20,32,256,,23,31,332,37,06,24,019,37*75
$GPGSV,3,3,12,31,19,072,37,14,18,141,29,28,00,244,,22,00,121,*78
$GPRMC,230733.000,A,1926.9267,S,06958.0542,W,0.53,53.12,300411,,,A*54
$GPGGA,230734.000,1926.9268,S,06958.0539,W,1,09,1.2,1082.3,M,35.0,M,,0000*62
$GPGSA,M,3,19,11,32,24,03,23,06,31,14,,,,2.6,1.2,2.4*33
$GPRMC,230734.000,A,1926.9268,S,06958.0539,W,0.50,48.21,300411,,,A*59
$GPGGA,230735.001,1926.9268,S,06958.0536,W,1,09,1.2,1082.1,M,35.0,M,,0000*6F
$GPGSA,M,3,19,11,32,24,03,23,06,31,14,,,,2.6,1.2,2.4*33
$GPRMC,230735.001,A,1926.9268,S,06958.0536,W,0.40,18.22,300411,,,A*51
$GPGGA,230736.000,1926.9268,S,06958.0534,W,1,09,1.2,1085.0,M,35.0,M,,0000*69
$GPGSA,M,3,19,11,32,24,03,23,06,31,14,,,,2.6,1.2,2.4*33
$GPRMC,230736.000,A,1926.9268,S,06958.0534,W,0.16,311.78,300411,,,A*67
$GPGGA,230737.000,1926.9270,S,06958.0534,W,1,09,1.2,1084.8,M,35.0,M,,0000*68
$GPGSA,M,3,19,11,32,24,03,23,06,31,14,,,,2.7,1.2,2.4*32
$GPRMC,230737.000,A,1926.9270,S,06958.0534,W,0.08,247.05,300411,,,A*68
$GPGGA,230738.000,1926.9272,S,06958.0534,W,1,09,1.2,1085.4,M,35.0,M,,0000*68
$GPGSA,M,3,19,11,32,24,03,23,06,31,14,,,,2.7,1.2,2.4*32
$GPGSV,3,1,12,19,68,351,36,11,52,202,32,32,50,231,32,24,37,205,30*79
$GPGSV,3,2,12,03,36,008,38,20,32,256,,23,31,332,36,06,24,019,37*74
$GPGSV,3,3,12,31,19,072,37,14,18,141,28,28,00,244,,22,00,121,*79
$GPRMC,230738.000,A,1926.9272,S,06958.0534,W,0.49,36.88,300411,,,A*51
$GPGGA,230739.000,1926.9273,S,06958.0531,W,1,09,1.2,1087.6,M,35.0,M,,0000*6D
$GPGSA,M,3,19,11,32,24,03,23,06,31,14,,,,2.7,1.2,2.4*32
$GPRMC,230739.000,A,1926.9273,S,06958.0531,W,0.28,15.86,300411,,,A*5C
$GPGGA,230740.000,1926.9272,S,06958.0527,W,1,09,1.2,1089.0,M,35.0,M,,0000*6D
$GPGSA,M,3,19,11,32,24,03,23,06,31,14,,,,2.7,1.2,2.4*32
$GPRMC,230740.000,A,1926.9272,S,06958.0527,W,0.61,54.03,300411,,,A*51
$GPGGA,230741.000,1926.9275,S,06958.0524,W,1,09,1.2,1090.2,M,35.0,M,,0000*62
$GPGSA,M,3,19,11,32,24,03,23,06,31,14,,,,2.7,1.2,2.4*32
$GPRMC,230741.000,A,1926.9275,S,06958.0524,W,0.27,125.38,300411,,,A*69
$GPGGA,230742.000,1926.9276,S,06958.0524,W,1,09,1.2,1091.0,M,35.0,M,,0000*61
$GPGSA,M,3,19,11,32,24,03,23,06,31,14,,,,2.7,1.2,2.4*32
$GPRMC,230742.000,A,1926.9276,S,06958.0524,W,0.30,23.59,300411,,,A*5F
$GPGGA,230743.000,1926.9275,S,06958.0530,W,1,09,1.2,1088.9,M,35.0,M,,0000*67
$GPGSA,M,3,19,11,32,24,03,23,06,31,14,,,,2.7,1.2,2.4*32
$GPGSV,3,1,12,19,68,351,36,11,52,202,32,32,50,231,32,24,37,205,32*7B
$GPGSV,3,2,12,03,36,008,37,20,32,256,,23,31,332,36,06,24,019,36*7A
$GPGSV,3,3,12,31,19,072,36,14,18,141,28,28,00,244,,22,00,121,*78
$GPRMC,230743.000,A,1926.9275,S,06958.0530,W,0.48,33.87,300411,,,A*55
$GPGGA,230744.002,1926.9275,S,06958.0531,W,1,09,1.2,1089.0,M,35.0,M,,0000*6B
$GPGSA,M,3,19,11,32,24,03,23,06,31,14,,,,2.7,1.2,2.4*32
$GPRMC,230744.002,A,1926.9275,S,06958.0531,W,0.69,1.42,300411,,,A*6A
$GPGGA,230744.998,1926.9272,S,06958.0526,W,1,09,1.2,1091.9,M,35.0,M,,0000*60
$GPGSA,M,3,19,11,32,24,03,23,06,31,14,,,,2.7,1.2,2.4*32
$GPRMC,230744.998,A,1926.9272,S,06958.0526,W,0.43,84.59,300411,,,A*5E
$GPGGA,230746.000,1926.9272,S,06958.0524,W,1,09,1.2,1091.6,M,35.0,M,,0000*67
$GPGSA,M,3,19,11,32,24,03,23,06,31,14,,,,2.7,1.2,2.4*32
$GPRMC,230746.000,A,1926.9272,S,06958.0524,W,0.51,21.61,300411,,,A*51
$GPGGA,230746.998,1926.9273,S,06958.0523,W,1,08,1.2,1091.5,M,35.0,M,,0000*6B
$GPGSA,M,3,19,11,32,24,03,23,31,14,,,,,2.7,1.2,2.5*35
$GPRMC,230746.998,A,1926.9273,S,06958.0523,W,0.58,57.27,300411,,,A*55
$GPGGA,230748.002,1926.9272,S,06958.0524,W,1,09,1.2,1090.9,M,35.0,M,,0000*65
$GPGSA,M,3,19,11,32,24,03,23,06,31,14,,,,2.7,1.2,2.4*32
$GPGSV,3,1,12,19,68,351,37,11,52,202,32,32,50,231,31,24,37,205,30*7B
$GPGSV,3,2,12,03,36,008,38,20,32,256,,23,31,332,37,06,24,019,37*75
$GPGSV,3,3,12,31,19,072,38,14,18,141,28,28,00,244,,22,00,121,*76
$GPRMC,230748.002,A,1926.9272,S,06958.0524,W,0.44,348.34,300411,,,A*65
$GPGGA,230749.000,1926.9272,S,06958.0523,W,1,09,1.2,1091.0,M,35.0,M,,0000*69
$GPGSA,M,3,19,11,32,24,03,23,06,31,14,,,,2.7,1.2,2.4*32
$GPRMC,230749.000,A,1926.9272,S,06958.0523,W,0.38,68.14,300411,,,A*59
$GPGGA,230750.000,1926.9273,S,06958.0531,W,1,09,1.2,1088.7,M,35.0,M,,0000*6C
$GPGSA,M,3,19,11,32,24,03,23,06,31,14,,,,2.7,1.2,2.4*32
$GPRMC,230750.000,A,1926.9273,S,06958.0531,W,0.25,17.51,300411,,,A*56
$GPGGA,230751.000,1926.9274,S,06958.0533,W,1,09,1.2,1087.6,M,35.0,M,,0000*66
$GPGSA,M,3,19,11,32,24,03,23,06,31,14,,,,2.7,1.2,2.4*32
$GPRMC,230751.000,A,1926.9274,S,06958.0533,W,0.38,60.29,300411,,,A*51
$GPGGA,230752.000,1926.9275,S,06958.0531,W,1,09,1.2,1087.9,M,35.0,M,,0000*69
$GPGSA,M,3,19,11,32,24,03,23,06,31,14,,,,2.7,1.2,2.4*32
$GPRMC,230752.000,A,1926.9275,S,06958.0531,W,0.17,61.72,300411,,,A*53
$GPGGA,230753.000,1926.9275,S,06958.0530,W,1,09,1.2,1087.9,M,35.0,M,,0000*69
$GPGSA,M,3,19,11,32,24,03,23,06,31,14,,,,2.7,1.2,2.4*32
$GPGSV,3,1,12,19,68,351,35,11,52,202,32,32,50,231,30,24,37,205,30*78
$GPGSV,3,2,12,03,36,008,37,20,32,256,,23,31,332,36,06,24,019,36*7A
$GPGSV,3,3,12,31,19,072,37,14,18,141,27,28,00,244,,22,00,121,*76
$GPRMC,230753.000,A,1926.9275,S,06958.0530,W,0.53,6.20,300411,,,A*65
$GPGGA,230754.000,1926.9274,S,06958.0529,W,1,09,1.2,1087.6,M,35.0,M,,0000*68
$GPGSA,M,3,19,11,32,24,03,23,06,31,14,,,,2.7,1.2,2.4*32
$GPRMC,230754.000,A,1926.9274,S,06958.0529,W,0.58,95.20,300411,,,A*5A
$GPGGA,230755.000,1926.9276,S,06958.0532,W,1,09,1.2,1085.3,M,35.0,M,,0000*66
$GPGSA,M,3,19,11,32,24,03,23,06,31,14,,,,2.7,1.2,2.4*32
$GPRMC,230755.000,A,1926.9276,S,06958.0532,W,0.64,60.42,300411,,,A*52
$GPGGA,230756.000,1926.9278,S,06958.0528,W,1,09,1.2,1085.1,M,35.0,M,,0000*62
$GPGSA,M,3,19,11,32,24,03,23,06,31,14,,,,2.7,1.2,2.4*32
$GPRMC,230756.000,A,1926.9278,S,06958.0528,W,0.44,15.32,300411,,,A*53
$GPGGA,230757.000,1926.9276,S,06958.0532,W,1,09,1.2,1083.7,M,35.0,M,,0000*66
$GPGSA,M,3,19,11,32,24,03,23,06,31,14,,,,2.7,1.2,2.4*32
$GPRMC,230757.000,A,1926.9276,S,06958.0532,W,0.43,49.38,300411,,,A*53
$GPGGA,230757.999,1926.9276,S,06958.0530,W,1,09,1.2,1084.3,M,35.0,M,,0000*6E
$GPGSA,M,3,19,11,32,24,03,23,06,31,14,,,,2.7,1.2,2.4*32
$GPGSV,3,1,12,19,68,351,36,11,52,202,33,32,50,231,31,24,37,205,30*7B
$GPGSV,3,2,12,03,36,008,38,20,32,256,,23,31,332,36,06,24,019,36*75
$GPGSV,3,3,12,31,19,072,38,14,18,141,29,28,00,244,,22,00,121,*77
$GPRMC,230757.999,A,1926.9276,S,06958.0530,W,0.53,85.03,300411,,,A*51
$GPGGA,230759.000,1926.9277,S,06958.0530,W,1,09,1.2,1083.8,M,35.0,M,,0000*64
$GPGSA,M,3,19,11,32,24,03,23,06,31,14,,,,2.7,1.2,2.4*32
$GPRMC,230759.000,A,1926.9277,S,06958.0530,W,0.52,46.73,300411,,,A*5E
$GPGGA,230800.000,1926.9275,S,06958.0528,W,1,09,1.2,1084.1,M,35.0,M,,0000*62
$GPGSA,M,3,19,11,32,24,03,23,06,31,14,,,,2.7,1.2,2.4*32
$GPRMC,230800.000,A,1926.9275,S,06958.0528,W,0.16,51.95,300411,,,A*58
$GPGGA,230801.000,1926.9273,S,06958.0528,W,1,09,1.2,1085.4,M,35.0,M,,0000*61
$GPGSA,M,3,19,11,32,24,03,23,06,31,14,,,,2.7,1.2,2.4*32
$GPRMC,230801.000,A,1926.9273,S,06958.0528,W,0.32,14.95,300411,,,A*58
$GPGGA,230802.000,1926.9272,S,06958.0529,W,1,09,1.2,1083.7,M,35.0,M,,0000*67
$GPGSA,M,3,19,11,32,24,03,23,06,31,14,,,,2.7,1.2,2.4*32
$GPRMC,230802.000,A,1926.9272,S,06958.0529,W,0.35,68.66,300411,,,A*5B
$GPGGA,230803.000,1926.9270,S,06958.0528,W,1,09,1.2,1084.5,M,35.0,M,,0000*60
$GPGSA,M,3,19,11,32,24,03,23,06,31,14,,,,2.7,1.2,2.4*32
$GPGSV,3,1,12,19,68,351,37,11,52,202,32,32,50,231,31,24,37,205,30*7B
$GPGSV,3,2,12,03,36,008,38,20,32,256,,23,31,332,36,06,24,019,37*74
$GPGSV,3,3,12,31,19,072,38,14,18,141,28,28,00,244,,22,00,121,*76
$GPRMC,230803.000,A,1926.9270,S,06958.0528,W,0.51,52.14,300411,,,A*57
$GPGGA,230804.000,1926.9270,S,06958.0528,W,1,09,1.2,1083.6,M,35.0,M,,0000*63
$GPGSA,M,3,19,11,32,24,03,23,06,31,14,,,,2.7,1.2,2.4*32
$GPRMC,230804.000,A,1926.9270,S,06958.0528,W,0.49,22.99,300411,,,A*5B
$GPGGA,230805.000,1926.9271,S,06958.0527,W,1,09,1.2,1084.4,M,35.0,M,,0000*69
$GPGSA,M,3,19,11,32,24,03,23,06,31,14,,,,2.7,1.2,2.4*32
$GPRMC,230805.000,A,1926.9271,S,06958.0527,W,0.53,34.95,300411,,,A*54
$GPGGA,230806.003,1926.9271,S,06958.0527,W,1,09,1.2,1084.4,M,35.0,M,,0000*69
$GPGSA,M,3,19,11,32,24,03,23,06,31,14,,,,2.7,1.2,2.4*32
$GPRMC,230806.003,A,1926.9271,S,06958.0527,W,0.53,57.26,300411,,,A*59
$GPGGA,230806.997,1926.9269,S,06958.0524,W,1,09,1.2,1086.2,M,35.0,M,,0000*63
$GPGSA,M,3,19,11,32,24,03,23,06,31,14,,,,2.7,1.2,2.4*32
$GPRMC,230806.997,A,1926.9269,S,06958.0524,W,0.78,98.03,300411,,,A*5A
$GPGGA,230808.000,1926.9271,S,06958.0522,W,1,09,1.2,1086.0,M,35.0,M,,0000*67
$GPGSA,M,3,19,11,32,24,03,23,06,31,14,,,,2.7,1.2,2.4*32
$GPGSV,3,1,12,19,68,351,36,11,52,202,32,32,50,231,31,24,37,205,30*7A
$GPGSV,3,2,12,03,36,008,37,20,32,256,,23,31,332,37,06,24,019,36*7B
$GPGSV,3,3,12,31,19,072,37,14,18,141,28,28,00,244,,22,00,121,*79
$GPRMC,230808.000,A,1926.9271,S,06958.0522,W,0.39,81.32,300411,,,A*53
$GPGGA,230809.002,1926.9272,S,06958.0523,W,1,09,1.2,1085.7,M,35.0,M,,0000*62
$GPGSA,M,3,19,11,32,24,03,23,06,31,14,,,,2.7,1.2,2.4*32
$GPRMC,230809.002,A,1926.9272,S,06958.0523,W,0.42,52.16,300411,,,A*56
$GPGGA,230809.998,1926.9272,S,06958.0529,W,1,09,1.2,1082.1,M,35.0,M,,0000*63
$GPGSA,M,3,19,11,32,24,03,23,06,31,14,,,,2.7,1.2,2.4*32
$GPRMC,230809.998,A,1926.9272,S,06958.0529,W,0.54,358.80,300411,,,A*67
$GPGGA,230811.001,1926.9272,S,06958.0528,W,1,09,1.2,1082.2,M,35.0,M,,0000*61
$GPGSA,M,3,19,11,32,24,03,23,06,31,14,,,,2.7,1.2,2.4*32
$GPRMC,230811.001,A,1926.9272,S,06958.0528,W,0.37,11.14,300411,,,A*50
$GPGGA,230812.000,1926.9272,S,06958.0525,W,1,09,1.2,1082.9,M,35.0,M,,0000*65
$GPGSA,M,3,19,11,32,24,03,23,06,31,14,,,,2.7,1.2,2.4*32
$GPRMC,230812.000,A,1926.9272,S,06958.0525,W,0.15,21.08,300411,,,A*51
$GPGGA,230813.002,1926.9268,S,06958.0526,W,1,09,1.2,1085.8,M,35.0,M,,0000*68
$GPGSA,M,3,19,11,32,24,03,23,06,31,14,,,,2.7,1.2,2.4*32
$GPGSV,3,1,12,19,68,351,35,11,52,202,33,32,50,231,31,24,37,205,30*78
$GPGSV,3,2,12,03,36,008,38,20,32,256,,23,31,332,37,06,24,019,37*75
$GPGSV,3,3,12,31,19,072,36,14,18,141,27,28,00,244,,22,00,121,*77
$GPRMC,230813.002,A,1926.9268,S,06958.0526,W,0.19,120.32,300411,,,A*6F
$GPGGA,230813.998,1926.9270,S,06958.0526,W,1,09,1.2,1085.5,M,35.0,M,,0000*66
$GPGSA,M,3,19,11,32,24,03,23,06,31,14,,,,2.7,1.2,2.4*32
$GPRMC,230813.998,A,1926.9270,S,06958.0526,W,0.50,58.84,300411,,,A*52
$GPGGA,230815.000,1926.9269,S,06958.0525,W,1,09,1.2,1085.5,M,35.0,M,,0000*63
$GPGSA,M,3,19,11,32,24,03,23,06,31,14,,,,2.7,1.2,2.4*32
$GPRMC,230815.000,A,1926.9269,S,06958.0525,W,0.41,130.94,300411,,,A*69
$GPGGA,230816.000,1926.9267,S,06958.0522,W,1,09,1.2,1086.3,M,35.0,M,,0000*6C
$GPGSA,M,3,19,11,32,24,03,23,06,31,14,,,,2.7,1.2,2.4*32
$GPRMC,230816.000,A,1926.9267,S,06958.0522,W,0.52,3.28,300411,,,A*67
$GPGGA,230817.002,1926.9267,S,06958.0522,W,1,09,1.2,1087.0,M,35.0,M,,0000*6D
$GPGSA,M,3,19,11,32,24,03,23,06,31,14,,,,2.7,1.2,2.4*32
$GPRMC,230817.002,A,1926.9267,S,06958.0522,W,0.24,313.38,300411,,,A*66
$GPGGA,230817.996,1926.9268,S,06958.0525,W,1,08,1.6,1085.9,M,35.0,M,,0000*6F
$GPGSA,M,3,19,11,32,24,03,06,31,14,,,,,3.3,1.6,2.9*3F
$GPGSV,3,1,12,19,68,351,36,11,52,202,32,32,50,231,30,24,37,205,30*7B
$GPGSV,3,2,12,03,36,008,38,20,32,256,,23,31,332,,06,24,019,36*70
$GPGSV,3,3,12,31,19,072,37,14,18,141,27,28,00,244,,22,00,121,*76
$GPRMC,230817.996,A,1926.9268,S,06958.0525,W,0.79,347.05,300411,,,A*6D
$GPGGA,230819.002,1926.9268,S,06958.0526,W,1,09,1.2,1085.5,M,35.0,M,,0000*6F
$GPGSA,M,3,19,11,32,24,03,23,06,31,14,,,,2.7,1.2,2.4*32
$GPRMC,230819.002,A,1926.9268,S,06958.0526,W,0.71,20.59,300411,,,A*57
$GPGGA,230820.000,1926.9268,S,06958.0530,W,1,09,1.2,1083.5,M,35.0,M,,0000*66
$GPGSA,M,3,19,11,32,24,03,23,06,31,14,,,,2.7,1.2,2.4*32
$GPRMC,230820.000,A,1926.9268,S,06958.0530,W,0.46,32.49,300411,,,A*5E
$GPGGA,230821.001,1926.9267,S,06958.0525,W,1,09,1.2,1084.7,M,35.0,M,,0000*68
$GPGSA,M,3,19,11,32,24,03,23,06,31,14,,,,2.7,1.2,2.4*32
$GPRMC,230821.001,A,1926.9267,S,06958.0525,W,0.29,2.32,300411,,,A*63
$GPGGA,230822.002,1926.9268,S,06958.0533,W,1,09,1.2,1082.9,M,35.0,M,,0000*68
$GPGSA,M,3,19,11,32,24,03,23,06,31,14,,,,2.7,1.2,2.4*32
$GPRMC,230822.002,A,1926.9268,S,06958.0533,W,0.28,313.40,300411,,,A*6C
$GPGGA,230823.003,1926.9266,S,06958.0536,W,1,09,1.2,1082.9,M,35.0,M,,0000*63
$GPGSA,M,3,19,11,32,24,03,23,06,31,14,,,,2.7,1.2,2.4*32
$GPGSV,3,1,12,19,68,351,37,11,52,202,34,32,50,231,30,24,37,205,31*7D
$GPGSV,3,2,12,03,36,008,39,20,32,256,,23,31,332,37,06,24,019,37*74
$GPGSV,3,3,12,31,19,072,37,14,18,141,28,28,00,244,,22,00,121,*79
$GPRMC,230823.003,A,1926.9266,S,06958.0536,W,0.07,38.28,300411,,,A*5E
$GPGGA,230823.993,1926.9269,S,06958.0538,W,1,08,1.3,1081.3,M,35.0,M,,0000*6B
$GPGSA,M,3,19,11,32,24,03,23,06,31,,,,,2.9,1.3,2.6*3A
$GPRMC,230823.993,A,1926.9269,S,06958.0538,W,0.45,75.12,300411,,,A*59
$GPGGA,230825.002,1926.9270,S,06958.0541,W,1,09,1.2,1079.5,M,35.0,M,,0000*6B
$GPGSA,M,3,19,11,32,24,03,23,06,31,14,,,,2.7,1.2,2.4*32
$GPRMC,230825.002,A,1926.9270,S,06958.0541,W,0.38,349.68,300411,,,A*63
$GPGGA,230826.000,1926.9267,S,06958.0544,W,1,09,1.2,1079.8,M,35.0,M,,0000*64
$GPGSA,M,3,19,11,32,24,03,23,06,31,14,,,,2.7,1.2,2.4*32
$GPRMC,230826.000,A,1926.9267,S,06958.0544,W,0.67,20.91,300411,,,A*51
$GPGGA,230827.000,1926.9266,S,06958.0543,W,1,09,1.2,1080.0,M,35.0,M,,0000*6D
$GPGSA,M,3,19,11,32,24,03,23,06,31,14,,,,2.7,1.2,2.4*32
$GPRMC,230827.000,A,1926.9266,S,06958.0543,W,0.19,52.74,300411,,,A*51
$GPGGA,230828.000,1926.9264,S,06958.0543,W,1,09,1.2,1078.4,M,35.0,M,,0000*63
$GPGSA,M,3,19,11,32,24,03,23,06,31,14,,,,2.7,1.2,2.4*32
$GPGSV,3,1,12,19,68,351,36,11,52,202,33,32,50,231,30,24,37,205,31*7B
$GPGSV,3,2,12,03,36,008,38,20,32,256,,23,31,332,37,06,24,019,35*77
$GPGSV,3,3,12,31,19,072,37,14,18,141,29,28,00,244,,22,00,121,*78
$GPRMC,230828.000,A,1926.9264,S,06958.0543,W,0.35,70.84,300411,,,A*5D
$GPGGA,230829.000,1926.9265,S,06958.0543,W,1,09,1.2,1078.5,M,35.0,M,,0000*62
$GPGSA,M,3,19,11,32,24,03,23,06,31,14,,,,2.7,1.2,2.4*32
$GPRMC,230829.000,A,1926.9265,S,06958.0543,W,0.21,333.26,300411,,,A*64
$GPGGA,230830.000,1926.9265,S,06958.0541,W,1,09,1.2,1079.5,M,35.0,M,,0000*69
$GPGSA,M,3,19,11,32,24,03,23,06,31,14,,,,2.7,1.2,2.4*32
$GPRMC,230830.000,A,1926.9265,S,06958.0541,W,0.16,358.67,300411,,,A*62
$GPGGA,230831.000,1926.9266,S,06958.0539,W,1,09,1.2,1079.4,M,35.0,M,,0000*65
$GPGSA,M,3,19,11,32,24,03,23,06,31,14,,,,2.7,1.2,2.4*32
$GPRMC,230831.000,A,1926.9266,S,06958.0539,W,0.29,227.35,300411,,,A*6D
$GPGGA,230832.000,1926.9266,S,06958.0539,W,1,09,1.2,1079.8,M,35.0,M,,0000*6A
$GPGSA,M,3,19,11,32,24,03,23,06,31,14,,,,2.7,1.2,2.4*32
$GPRMC,230832.000,A,1926.9266,S,06958.0539,W,0.41,25.16,300411,,,A*51
$GPGGA,230832.999,1926.9266,S,06958.0538,W,1,09,1.2,1079.8,M,35.0,M,,0000*62
$GPGSA,M,3,19,11,32,24,03,23,06,31,14,,,,2.7,1.2,2.4*32
$GPGSV,3,1,12,19,68,351,37,11,52,202,32,32,50,231,31,24,37,205,30*7B
$GPGSV,3,2,12,03,36,008,39,20,32,256,,23,31,332,38,06,24,019,37*7B
$GPGSV,3,3,12,31,19,072,38,14,18,141,28,28,00,244,,22,00,121,*76
$GPRMC,230832.999,A,1926.9266,S,06958.0538,W,0.13,7.48,300411,,,A*65
$GPGGA,230834.001,1926.9266,S,06958.0536,W,1,09,1.2,1080.6,M,35.0,M,,0000*6A
$GPGSA,M,3,19,11,32,24,03,23,06,31,14,,,,2.7,1.2,2.4*32
$GPRMC,230834.001,A,1926.9266,S,06958.0536,W,0.18,101.22,300411,,,A*65
$GPGGA,230835.000,1926.9266,S,06958.0534,W,1,09,1.2,1080.3,M,35.0,M,,0000*6D
$GPGSA,M,3,19,11,32,24,03,23,06,31,14,,,,2.7,1.2,2.4*32
$GPRMC,230835.000,A,1926.9266,S,06958.0534,W,0.29,13.85,300411,,,A*5A
$GPGGA,230836.000,1926.9267,S,06958.0535,W,1,09,1.2,1079.8,M,35.0,M,,0000*63
$GPGSA,M,3,19,11,32,24,03,23,06,31,14,,,,2.7,1.2,2.4*32
$GPRMC,230836.000,A,1926.9267,S,06958.0535,W,0.11,341.36,300411,,,A*6E
$GPGGA,230837.000,1926.9265,S,06958.0532,W,1,09,1.2,1083.4,M,35.0,M,,0000*6E
$GPGSA,M,3,19,11,32,24,03,23,06,31,14,,,,2.7,1.2,2.4*32
$GPRMC,230837.000,A,1926.9265,S,06958.0532,W,0.34,42.95,300411,,,A*54
$GPGGA,230838.000,1926.9266,S,06958.0533,W,1,09,1.2,1082.9,M,35.0,M,,0000*6F
$GPGSA,M,3,19,11,32,24,03,23,06,31,14,,,,2.7,1.2,2.4*32
$GPGSV,3,1,12,19,68,351,36,11,52,202,33,32,50,231,30,24,37,205,30*7A
$GPGSV,3,2,12,03,36,008,38,20,32,256,,23,31,332,36,06,24,019,37*74
$GPGSV,3,3,12,31,19,072,37,14,18,141,27,28,00,244,,22,00,121,*76
$GPRMC,230838.000,A,1926.9266,S,06958.0533,W,0.27,319.63,300411,,,A*6F
$GPGGA,230839.000,1926.9264,S,06958.0529,W,1,09,1.2,1084.4,M,35.0,M,,0000*6C
$GPGSA,M,3,19,11,32,24,03,23,06,31,14,,,,2.7,1.2,2.4*32
$GPRMC,230839.000,A,1926.9264,S,06958.0529,W,0.69,3.84,300411,,,A*6C
$GPGGA,230840.000,1926.9262,S,06958.0528,W,1,09,1.2,1085.0,M,35.0,M,,0000*60
$GPGSA,M,3,19,11,32,24,03,23,06,31,14,,,,2.7,1.2,2.4*32
$GPRMC,230840.000,A,1926.9262,S,06958.0528,W,0.37,330.41,300411,,,A*64
$GPGGA,230841.000,1926.9262,S,06958.0525,W,1,09,1.2,1085.6,M,35.0,M,,0000*6A
$GPGSA,M,3,19,11,32,24,03,23,06,31,14,,,,2.7,1.2,2.4*32
$GPRMC,230841.000,A,1926.9262,S,06958.0525,W,0.21,40.81,300411,,,A*57
$GPGGA,230842.000,1926.9263,S,06958.0524,W,1,09,1.2,1085.9,M,35.0,M,,0000*66
$GPGSA,M,3,19,11,32,24,03,23,06,31,14,,,,2.7,1.2,2.4*32
$GPRMC,230842.000,A,1926.9263,S,06958.0524,W,0.17,54.23,300411,,,A*5C
$GPGGA,230843.000,1926.9263,S,06958.0530,W,1,09,1.2,1084.1,M,35.0,M,,0000*6B
$GPGSA,M,3,19,11,32,24,03,23,06,31,14,,,,2.7,1.2,2.4*32
$GPGSV,3,1,12,19,68,351,36,11,52,202,33,32,50,231,31,24,37,205,30*7B
$GPGSV,3,2,12,03,36,008,38,20,32,256,,23,31,332,35,06,24,019,37*77
$GPGSV,3,3,12,31,19,072,36,14,18,141,27,28,00,244,,22,00,121,*77
$GPRMC,230843.000,A,1926.9263,S,06958.0530,W,0.36,99.20,300411,,,A*59
$GPGGA,230844.000,1926.9269,S,06958.0532,W,1,09,1.2,1082.2,M,35.0,M,,0000*61
$GPGSA,M,3,19,11,32,24,03,23,06,31,14,,,,2.7,1.2,2.4*32
$GPRMC,230844.000,A,1926.9269,S,06958.0532,W,0.24,94.65,300411,,,A*59
$GPGGA,230845.000,1926.9271,S,06958.0532,W,1,09,1.2,1082.7,M,35.0,M,,0000*6C
$GPGSA,M,3,19,11,32,24,03,23,06,31,14,,,,2.7,1.2,2.4*32
$GPRMC,230845.000,A,1926.9271,S,06958.0532,W,0.21,304.43,300411,,,A*6A
$GPGGA,230846.000,1926.9272,S,06958.0535,W,1,09,1.2,1081.5,M,35.0,M,,0000*6A
$GPGSA,M,3,19,11,32,24,03,23,06,31,14,,,,2.7,1.2,2.4*32
$GPRMC,230846.000,A,1926.9272,S,06958.0535,W,0.36,319.67,300411,,,A*61
$GPGGA,230847.000,1926.9272,S,06958.0536,W,1,09,1.2,1082.0,M,35.0,M,,0000*6E
$GPGSA,M,3,19,11,32,24,03,23,06,31,14,,,,2.7,1.2,2.4*32
$GPRMC,230847.000,A,1926.9272,S,06958.0536,W,0.33,33.33,300411,,,A*5C
$GPGGA,230848.000,1926.9273,S,06958.0539,W,1,09,1.2,1081.0,M,35.0,M,,0000*6C
$GPGSA,M,3,19,11,32,24,03,23,06,31,14,,,,2.7,1.2,2.4*32
$GPGSV,3,1,12,19,68,351,37,11,52,202,33,32,50,231,31,24,37,205,30*7A
$GPGSV,3,2,12,03,36,008,38,20,32,256,,23,31,332,37,06,24,019,37*75
$GPGSV,3,3,12,31,19,072,37,14,18,141,27,28,00,244,,22,00,121,*76
$GPRMC,230848.000,A,1926.9273,S,06958.0539,W,0.34,35.32,300411,,,A*5D
$GPGGA,230848.998,1926.9273,S,06958.0538,W,1,08,1.3,1081.0,M,35.0,M,,0000*65
$GPGSA,M,3,19,11,32,24,03,23,06,31,,,,,2.9,1.3,2.6*3A
$GPRMC,230848.998,A,1926.9273,S,06958.0538,W,0.20,297.21,300411,,,A*69
$GPGGA,230850.002,1926.9269,S,06958.0547,W,1,09,1.2,1081.0,M,35.0,M,,0000*65
$GPGSA,M,3,19,11,32,24,03,23,06,31,14,,,,2.7,1.2,2.4*32
$GPRMC,230850.002,A,1926.9269,S,06958.0547,W,0.24,7.21,300411,,,A*66
$GPGGA,230851.002,1926.9269,S,06958.0548,W,1,09,1.2,1080.1,M,35.0,M,,0000*6B
$GPGSA,M,3,19,11,32,24,03,23,06,31,14,,,,2.7,1.2,2.4*32
$GPRMC,230851.002,A,1926.9269,S,06958.0548,W,0.19,277.75,300411,,,A*62
$GPGGA,230851.998,1926.9270,S,06958.0548,W,1,09,1.2,1079.9,M,35.0,M,,0000*67
$GPGSA,M,3,19,11,32,24,03,23,06,31,14,,,,2.7,1.2,2.4*32
$GPRMC,230851.998,A,1926.9270,S,06958.0548,W,0.01,266.51,300411,,,A*6F
$GPGGA,230853.001,1926.9272,S,06958.0549,W,1,08,1.2,1080.9,M,35.0,M,,0000*68
$GPGSA,M,3,19,11,32,24,03,23,31,14,,,,,2.8,1.2,2.5*3A
$GPGSV,3,1,12,19,68,351,36,11,52,202,31,32,50,231,31,24,37,205,30*79
$GPGSV,3,2,12,03,36,008,38,20,32,256,,23,31,332,36,06,24,019,*70
$GPGSV,3,3,12,31,19,072,36,14,18,141,27,28,00,244,,22,00,121,*77
$GPRMC,230853.001,A,1926.9272,S,06958.0549,W,0.34,172.14,300411,,,A*66
$GPGGA,230853.999,1926.9274,S,06958.0548,W,1,09,1.2,1080.1,M,35.0,M,,0000*6E
$GPGSA,M,3,19,11,32,24,03,23,06,31,14,,,,2.7,1.2,2.4*32
$GPRMC,230853.999,A,1926.9274,S,06958.0548,W,0.83,102.95,300411,,,A*6B
$GPGGA,230855.000,1926.9275,S,06958.0551,W,1,09,1.2,1077.5,M,35.0,M,,0000*64
$GPGSA,M,3,19,11,32,24,03,23,06,31,14,,,,2.7,1.2,2.4*32
$GPRMC,230855.000,A,1926.9275,S,06958.0551,W,0.49,51.71,300411,,,A*56
$GPGGA,230856.000,1926.9276,S,06958.0552,W,1,09,1.2,1077.4,M,35.0,M,,0000*66
$GPGSA,M,3,19,11,32,24,03,23,06,31,14,,,,2.7,1.2,2.4*32
$GPRMC,230856.000,A,1926.9276,S,06958.0552,W,0.28,333.68,300411,,,A*6D
$GPGGA,230857.000,1926.9276,S,06958.0551,W,1,09,1.2,1077.2,M,35.0,M,,0000*62
$GPGSA,M,3,19,11,32,24,03,23,06,31,14,,,,2.7,1.2,2.4*32
$GPRMC,230857.000,A,1926.9276,S,06958.0551,W,0.12,4.78,300411,,,A*60
$GPGGA,230858.000,1926.9277,S,06958.0550,W,1,09,1.2,1077.3,M,35.0,M,,0000*6C
$GPGSA,M,3,19,11,32,24,03,23,06,31,14,,,,2.7,1.2,2.4*32
$GPGSV,3,1,12,19,68,351,37,11,52,202,33,32,50,231,31,24,37,205,30*7A
$GPGSV,3,2,12,03,36,008,38,20,32,256,,23,31,332,37,06,24,019,37*75
$GPGSV,3,3,12,31,19,072,37,14,18,141,28,28,00,244,,22,00,121,*79
$GPRMC,230858.000,A,1926.9277,S,06958.0550,W,0.38,349.04,300411,,,A*66
$GPGGA,230859.000,1926.9274,S,06958.0553,W,1,09,1.2,1077.3,M,35.0,M,,0000*6D
$GPGSA,M,3,19,11,32,24,03,23,06,31,14,,,,2.7,1.2,2.4*32
$GPRMC,230859.000,A,1926.9274,S,06958.0553,W,0.49,7.59,300411,,,A*60
$GPGGA,230900.000,1926.9275,S,06958.0549,W,1,09,1.2,1078.3,M,35.0,M,,0000*65
$GPGSA,M,3,19,11,32,24,03,23,06,31,14,,,,2.7,1.2,2.4*32
$GPRMC,230900.000,A,1926.9275,S,06958.0549,W,0.19,342.80,300411,,,A*64
$GPGGA,230901.000,1926.9277,S,06958.0550,W,1,09,1.2,1079.0,M,35.0,M,,0000*6C
$GPGSA,M,3,19,11,32,24,03,23,06,31,14,,,,2.7,1.2,2.4*32
$GPRMC,230901.000,A,1926.9277,S,06958.0550,W,0.50,212.49,300411,,,A*63
$GPGGA,230902.000,1926.9276,S,06958.0559,W,1,09,1.2,1075.4,M,35.0,M,,0000*6F
$GPGSA,M,3,19,11,32,24,03,23,06,31,14,,,,2.7,1.2,2.4*32
$GPRMC,230902.000,A,1926.9276,S,06958.0559,W,0.59,64.29,300411,,,A*54
$GPGGA,230903.000,1926.9277,S,06958.0558,W,1,09,1.2,1075.2,M,35.0,M,,0000*68
$GPGSA,M,3,19,11,32,24,03,23,06,31,14,,,,2.7,1.2,2.4*32
$GPGSV,3,1,11,19,66,352,36,11,53,202,34,32,50,228,30,24,38,204,30*74
$GPGSV,3,2,11,03,34,008,37,20,33,255,,23,32,332,37,06,23,019,36*7C
$GPGSV,3,3,11,31,20,074,37,14,17,141,28,28,00,246,*49
$GPRMC,230903.000,A,1926.9277,S,06958.0558,W,0.25,55.58,300411,,,A*5A
$GPGGA,230904.000,1926.9278,S,06958.0562,W,1,09,1.2,1073.8,M,35.0,M,,0000*65
$GPGSA,M,3,19,11,32,24,03,23,06,31,14,,,,2.7,1.2,2.4*32
$GPRMC,230904.000,A,1926.9278,S,06958.0562,W,0.10,296.01,300411,,,A*6C
$GPGGA,230904.998,1926.9278,S,06958.0560,W,1,09,1.2,1075.1,M,35.0,M,,0000*60
$GPGSA,M,3,19,11,32,24,03,23,06,31,14,,,,2.7,1.2,2.4*32
$GPRMC,230904.998,A,1926.9278,S,06958.0560,W,0.34,101.99,300411,,,A*6C
$GPGGA,230906.000,1926.9278,S,06958.0558,W,1,09,1.2,1076.3,M,35.0,M,,0000*60
$GPGSA,M,3,19,11,32,24,03,23,06,31,14,,,,2.7,1.2,2.4*32
$GPRMC,230906.000,A,1926.9278,S,06958.0558,W,0.31,100.62,300411,,,A*6D
$GPGGA,230907.000,1926.9280,S,06958.0556,W,1,09,1.2,1077.2,M,35.0,M,,0000*68
$GPGSA,M,3,19,11,32,24,03,23,06,31,14,,,,2.7,1.2,2.4*32
$GPRMC,230907.000,A,1926.9280,S,06958.0556,W,0.20,37.01,300411,,,A*55
$GPGGA,230907.998,1926.9279,S,06958.0549,W,1,08,1.3,1079.8,M,35.0,M,,0000*6C
$GPGSA,M,3,19,11,32,24,03,23,06,31,,,,,2.9,1.3,2.6*3A
$GPGSV,3,1,11,19,66,352,36,11,53,202,33,32,50,228,31,24,38,204,30*72
$GPGSV,3,2,11,03,34,008,38,20,33,255,,23,32,332,36,06,23,019,36*72
$GPGSV,3,3,11,31,20,074,37,14,17,141,,28,00,246,*43
$GPRMC,230907.998,A,1926.9279,S,06958.0549,W,0.47,78.10,300411,,,A*5F
$GPGGA,230909.002,1926.9281,S,06958.0551,W,1,09,1.2,1078.9,M,35.0,M,,0000*66
$GPGSA,M,3,19,11,32,24,03,23,06,31,14,,,,2.7,1.2,2.4*32
$GPRMC,230909.002,A,1926.9281,S,06958.0551,W,0.23,113.12,300411,,,A*69
$GPGGA,230910.002,1926.9279,S,06958.0542,W,1,09,1.2,1081.8,M,35.0,M,,0000*6C
$GPGSA,M,3,19,11,32,24,03,23,06,31,14,,,,2.7,1.2,2.4*32
$GPRMC,230910.002,A,1926.9279,S,06958.0542,W,0.39,348.19,300411,,,A*68
$GPGGA,230910.997,1926.9279,S,06958.0543,W,1,09,1.2,1082.0,M,35.0,M,,0000*63
$GPGSA,M,3,19,11,32,24,03,23,06,31,14,,,,2.7,1.2,2.4*32
$GPRMC,230910.997,A,1926.9279,S,06958.0543,W,0.05,186.12,300411,,,A*68
$GPGGA,230912.000,1926.9278,S,06958.0541,W,1,09,1.2,1083.5,M,35.0,M,,0000*61
$GPGSA,M,3,19,11,32,24,03,23,06,31,14,,,,2.7,1.2,2.4*32
$GPRMC,230912.000,A,1926.9278,S,06958.0541,W,0.64,135.26,300411,,,A*66
$GPGGA,230912.999,1926.9280,S,06958.0542,W,1,08,1.4,1082.5,M,35.0,M,,0000*6A
$GPGSA,M,3,19,11,32,24,03,23,06,14,,,,,2.8,1.4,2.4*39
$GPGSV,3,1,11,19,66,352,36,11,53,202,33,32,50,228,32,24,38,204,30*71
$GPGSV,3,2,11,03,34,008,38,20,33,255,,23,32,332,37,06,23,019,37*72
$GPGSV,3,3,11,31,20,074,,14,17,141,28,28,00,246,*4D
$GPRMC,230912.999,A,1926.9280,S,06958.0542,W,0.93,73.61,300411,,,A*53
$GPGGA,230913.999,1926.9282,S,06958.0540,W,1,08,1.4,1082.3,M,35.0,M,,0000*6D
$GPGSA,M,3,19,11,32,24,03,23,06,14,,,,,2.8,1.4,2.4*39
$GPRMC,230913.999,A,1926.9282,S,06958.0540,W,1.16,69.26,300411,,,A*56
$GPGGA,230915.000,1926.9280,S,06958.0537,W,1,09,1.2,1082.9,M,35.0,M,,0000*6D
$GPGSA,M,3,19,11,32,24,03,23,06,31,14,,,,2.7,1.2,2.4*32
$GPRMC,230915.000,A,1926.9280,S,06958.0537,W,0.40,94.75,300411,,,A*5D
$GPGGA,230916.000,1926.9282,S,06958.0534,W,1,09,1.2,1082.4,M,35.0,M,,0000*62
$GPGSA,M,3,19,11,32,24,03,23,06,31,14,,,,2.7,1.2,2.4*32
$GPRMC,230916.000,A,1926.9282,S,06958.0534,W,0.50,68.59,300411,,,A*53
$GPGGA,230917.000,1926.9281,S,06958.0533,W,1,09,1.2,1082.0,M,35.0,M,,0000*63
$GPGSA,M,3,19,11,32,24,03,23,06,31,14,,,,2.7,1.2,2.4*32
$GPRMC,230917.000,A,1926.9281,S,06958.0533,W,0.27,357.53,300411,,,A*63
$GPGGA,230918.001,1926.9280,S,06958.0531,W,1,09,1.2,1084.2,M,35.0,M,,0000*6A
$GPGSA,M,3,19,11,32,24,03,23,06,31,14,,,,2.7,1.2,2.4*32
$GPGSV,3,1,11,19,66,352,36,11,53,202,32,32,50,228,31,24,38,204,31*72
$GPGSV,3,2,11,03,34,008,38,20,33,255,,23,32,332,36,06,23,019,37*73
$GPGSV,3,3,11,31,20,074,37,14,17,141,27,28,00,246,*46
$GPRMC,230918.001,A,1926.9280,S,06958.0531,W,0.51,1.61,300411,,,A*6E
$GPGGA,230918.999,1926.9280,S,06958.0537,W,1,09,1.2,1082.5,M,35.0,M,,0000*65
$GPGSA,M,3,19,11,32,24,03,23,06,31,14,,,,2.7,1.2,2.4*32
$GPRMC,230918.999,A,1926.9280,S,06958.0537,W,0.31,158.48,300411,,,A*60
$GPGGA,230919.999,1926.9282,S,06958.0539,W,1,09,1.2,1081.1,M,35.0,M,,0000*6F
$GPGSA,M,3,19,11,32,24,03,23,06,31,14,,,,2.7,1.2,2.4*32
$GPRMC,230919.999,A,1926.9282,S,06958.0539,W,0.20,23.16,300411,,,A*5B
$GPGGA,230920.999,1926.9281,S,06958.0533,W,1,09,1.2,1083.5,M,35.0,M,,0000*6A
$GPGSA,M,3,19,11,32,24,03,23,06,31,14,,,,2.7,1.2,2.4*32
$GPRMC,230920.999,A,1926.9281,S,06958.0533,W,0.78,15.87,300411,,,A*58
$GPGGA,230921.999,1926.9281,S,06958.0531,W,1,09,1.2,1084.2,M,35.0,M,,0000*69
$GPGSA,M,3,19,11,32,24,03,23,06,31,14,,,,2.7,1.2,2.4*32
$GPRMC,230921.999,A,1926.9281,S,06958.0531,W,0.38,50.75,300411,,,A*53
$GPGGA,230922.999,1926.9280,S,06958.0535,W,1,09,1.2,1083.7,M,35.0,M,,0000*6D
$GPGSA,M,3,19,11,32,24,03,23,06,31,14,,,,2.7,1.2,2.4*32
$GPGSV,3,1,11,19,66,352,37,11,53,202,34,32,50,228,30,24,38,204,30*75
$GPGSV,3,2,11,03,34,008,38,20,33,255,,23,32,332,37,06,23,019,37*72
$GPGSV,3,3,11,31,20,074,37,14,17,141,28,28,00,246,*49
$GPRMC,230922.999,A,1926.9280,S,06958.0535,W,0.10,116.40,300411,,,A*6A
$GPGGA,230923.998,1926.9281,S,06958.0537,W,1,08,1.3,1082.3,M,35.0,M,,0000*6B
$GPGSA,M,3,19,11,32,24,03,23,06,31,,,,,2.9,1.3,2.6*3A
$GPRMC,230923.998,A,1926.9281,S,06958.0537,W,0.32,314.37,300411,,,A*69
$GPGGA,230925.001,1926.9281,S,06958.0539,W,1,09,1.2,1082.4,M,35.0,M,,0000*6D
$GPGSA,M,3,19,11,32,24,03,23,06,31,14,,,,2.7,1.2,2.4*32
$GPRMC,230925.001,A,1926.9281,S,06958.0539,W,0.35,1.55,300411,,,A*6C
$GPGGA,230926.002,1926.9283,S,06958.0540,W,1,09,1.2,1083.1,M,35.0,M,,0000*65
$GPGSA,M,3,19,11,32,24,03,23,06,31,14,,,,2.7,1.2,2.4*32
$GPRMC,230926.002,A,1926.9283,S,06958.0540,W,0.39,72.62,300411,,,A*5C
$GPGGA,230926.998,1926.9283,S,06958.0538,W,1,09,1.2,1083.5,M,35.0,M,,0000*64
$GPGSA,M,3,19,11,32,24,03,23,06,31,14,,,,2.7,1.2,2.4*32
$GPRMC,230926.998,A,1926.9283,S,06958.0538,W,0.18,81.91,300411,,,A*5A
$GPGGA,230928.000,1926.9283,S,06958.0541,W,1,09,1.2,1082.0,M,35.0,M,,0000*68
$GPGSA,M,3,19,11,32,24,03,23,06,31,14,,,,2.7,1.2,2.4*32
$GPGSV,3,1,11,19,66,352,36,11,53,202,33,32,50,228,31,24,38,204,30*72
$GPGSV,3,2,11,03,34,008,39,20,33,255,,23,32,332,37,06,23,019,37*73
$GPGSV,3,3,11,31,20,074,37,14,17,141,28,28,00,246,*49
$GPRMC,230928.000,A,1926.9283,S,06958.0541,W,0.66,33.34,300411,,,A*5D
$GPGGA,230929.000,1926.9282,S,06958.0540,W,1,09,1.2,1082.2,M,35.0,M,,0000*6B
$GPGSA,M,3,19,11,32,24,03,23,06,31,14,,,,2.7,1.2,2.4*32
$GPRMC,230929.000,A,1926.9282,S,06958.0540,W,0.47,356.87,300411,,,A*67
$GPGGA,230930.000,1926.9281,S,06958.0537,W,1,09,1.2,1082.8,M,35.0,M,,0000*6A
$GPGSA,M,3,19,11,32,24,03,23,06,31,14,,,,2.7,1.2,2.4*32
$GPRMC,230930.000,A,1926.9281,S,06958.0537,W,0.36,62.48,300411,,,A*5D
$GPGGA,230931.000,1926.9280,S,06958.0531,W,1,09,1.2,1086.4,M,35.0,M,,0000*64
$GPGSA,M,3,19,11,32,24,03,23,06,31,14,,,,2.7,1.2,2.4*32
$GPRMC,230931.000,A,1926.9280,S,06958.0531,W,0.43,74.17,300411,,,A*54
$GPGGA,230932.000,1926.9280,S,06958.0528,W,1,09,1.2,1086.4,M,35.0,M,,0000*6F
$GPGSA,M,3,19,11,32,24,03,23,06,31,14,,,,2.7,1.2,2.4*32
$GPRMC,230932.000,A,1926.9280,S,06958.0528,W,0.46,40.64,300411,,,A*59
$GPGGA,230933.000,1926.9280,S,06958.0532,W,1,09,1.2,1084.7,M,35.0,M,,0000*64
$GPGSA,M,3,19,11,32,24,03,23,06,31,14,,,,2.7,1.2,2.4*32
$GPGSV,3,1,11,19,66,352,36,11,53,202,33,32,50,228,31,24,38,204,30*72
$GPGSV,3,2,11,03,34,008,38,20,33,255,,23,32,332,37,06,23,019,37*72
$GPGSV,3,3,11,31,20,074,37,14,17,141,28,28,00,246,*49
$GPRMC,230933.000,A,1926.9280,S,06958.0532,W,0.36,19.84,300411,,,A*56
$GPGGA,230934.000,1926.9281,S,06958.0536,W,1,09,1.2,1082.9,M,35.0,M,,0000*6E
$GPGSA,M,3,19,11,32,24,03,23,06,31,14,,,,2.7,1.2,2.4*32
$GPRMC,230934.000,A,1926.9281,S,06958.0536,W,0.36,36.16,300411,,,A*52
$GPGGA,230935.000,1926.9280,S,06958.0540,W,1,09,1.2,1082.7,M,35.0,M,,0000*61
$GPGSA,M,3,19,11,32,24,03,23,06,31,14,,,,2.7,1.2,2.4*32
$GPRMC,230935.000,A,1926.9280,S,06958.0540,W,0.39,56.21,300411,,,A*5E
$GPGGA,230936.000,1926.9278,S,06958.0546,W,1,09,1.2,1079.9,M,35.0,M,,0000*69
$GPGSA,M,3,19,11,32,24,03,23,06,31,14,,,,2.7,1.2,2.4*32
$GPRMC,230936.000,A,1926.9278,S,06958.0546,W,0.43,326.77,300411,,,A*66
$GPGGA,230937.000,1926.9279,S,06958.0546,W,1,09,1.2,1079.7,M,35.0,M,,0000*67
$GPGSA,M,3,19,11,32,24,03,23,06,31,14,,,,2.7,1.2,2.4*32
$GPRMC,230937.000,A,1926.9279,S,06958.0546,W,0.43,22.14,300411,,,A*54
$GPGGA,230938.000,1926.9279,S,06958.0548,W,1,09,1.2,1079.3,M,35.0,M,,0000*62
$GPGSA,M,3,19,11,32,24,03,23,06,31,14,,,,2.7,1.2,2.4*32
$GPGSV,3,1,11,19,66,352,37,11,53,202,34,32,50,228,32,24,38,204,31*76
$GPGSV,3,2,11,03,34,008,38,20,33,255,,23,32,332,37,06,23,019,37*72
$GPGSV,3,3,11,31,20,074,37,14,17,141,27,28,00,246,*46
$GPRMC,230938.000,A,1926.9279,S,06958.0548,W,0.20,269.61,300411,,,A*6F
$GPGGA,230939.001,1926.9278,S,06958.0551,W,1,09,1.2,1079.1,M,35.0,M,,0000*69
$GPGSA,M,3,19,11,32,24,03,23,06,31,14,,,,2.7,1.2,2.4*32
$GPRMC,230939.001,A,1926.9278,S,06958.0551,W,0.86,14.31,300411,,,A*57
$GPGGA,230939.998,1926.9278,S,06958.0550,W,1,08,1.3,1078.3,M,35.0,M,,0000*62
$GPGSA,M,3,19,11,32,24,03,23,06,31,,,,,2.9,1.3,2.6*3A
$GPRMC,230939.998,A,1926.9278,S,06958.0550,W,0.23,74.39,300411,,,A*5E
$GPGGA,230941.001,1926.9278,S,06958.0548,W,1,09,1.2,1078.7,M,35.0,M,,0000*69
$GPGSA,M,3,19,11,32,24,03,23,06,31,14,,,,2.7,1.2,2.4*32
$GPRMC,230941.001,A,1926.9278,S,06958.0548,W,0.42,184.28,300411,,,A*68
$GPGGA,230942.000,1926.9280,S,06958.0545,W,1,09,1.2,1078.3,M,35.0,M,,0000*65
$GPGSA,M,3,19,11,32,24,03,23,06,31,14,,,,2.7,1.2,2.4*32
$GPRMC,230942.000,A,1926.9280,S,06958.0545,W,0.87,70.77,300411,,,A*59
$GPGGA,230942.999,1926.9280,S,06958.0542,W,1,09,1.2,1079.0,M,35.0,M,,0000*69
$GPGSA,M,3,19,11,32,24,03,23,06,31,14,,,,2.7,1.2,2.4*32
$GPGSV,3,1,11,19,66,352,37,11,53,202,32,32,50,228,30,24,38,204,31*72
$GPGSV,3,2,11,03,34,008,37,20,33,255,,23,32,332,36,06,23,019,37*7C
$GPGSV,3,3,11,31,20,074,37,14,17,141,27,28,00,246,*46
$GPRMC,230942.999,A,1926.9280,S,06958.0542,W,0.47,354.50,300411,,,A*6B
$GPGGA,230944.000,1926.9281,S,06958.0542,W,1,09,1.2,1079.7,M,35.0,M,,0000*60
$GPGSA,M,3,19,11,32,24,03,23,06,31,14,,,,2.7,1.2,2.4*32
$GPRMC,230944.000,A,1926.9281,S,06958.0542,W,0.39,50.79,300411,,,A*50
$GPGGA,230944.999,1926.9281,S,06958.0543,W,1,08,1.3,1078.9,M,35.0,M,,0000*67
$GPGSA,M,3,19,11,32,24,03,23,06,31,,,,,2.9,1.3,2.6*3A
$GPRMC,230944.999,A,1926.9281,S,06958.0543,W,0.43,45.26,300411,,,A*5B
$GPGGA,230946.001,1926.9281,S,06958.0548,W,1,09,1.2,1077.1,M,35.0,M,,0000*61
$GPGSA,M,3,19,11,32,24,03,23,06,31,14,,,,2.7,1.2,2.4*32
$GPRMC,230946.001,A,1926.9281,S,06958.0548,W,0.36,116.77,300411,,,A*6B
$GPGGA,230946.999,1926.9284,S,06958.0548,W,1,09,1.2,1076.1,M,35.0,M,,0000*6D
$GPGSA,M,3,19,11,32,24,03,23,06,31,14,,,,2.7,1.2,2.4*32
$GPRMC,230946.999,A,1926.9284,S,06958.0548,W,0.07,172.53,300411,,,A*60
$GPGGA,230947.999,1926.9283,S,06958.0551,W,1,09,1.2,1074.6,M,35.0,M,,0000*66
$GPGSA,M,3,19,11,32,24,03,23,06,31,14,,,,2.7,1.2,2.4*32
$GPGSV,3,1,11,19,66,352,37,11,53,202,33,32,50,228,31,24,38,204,32*71
$GPGSV,3,2,11,03,34,008,38,20,33,255,,23,32,332,37,06,23,019,36*73
$GPGSV,3,3,11,31,20,074,37,14,17,141,28,28,00,246,*49
$GPRMC,230947.999,A,1926.9283,S,06958.0551,W,0.51,24.18,300411,,,A*50
$GPGGA,230948.998,1926.9286,S,06958.0550,W,1,09,1.2,1075.0,M,35.0,M,,0000*6B
$GPGSA,M,3,19,11,32,24,03,23,06,31,14,,,,2.7,1.2,2.4*32
$GPRMC,230948.998,A,1926.9286,S,06958.0550,W,0.23,12.39,300411,,,A*59
$GPGGA,230950.000,1926.9285,S,06958.0550,W,1,09,1.2,1076.3,M,35.0,M,,0000*69
$GPGSA,M,3,19,11,32,24,03,23,06,31,14,,,,2.7,1.2,2.4*32
$GPRMC,230950.000,A,1926.9285,S,06958.0550,W,0.23,330.62,300411,,,A*66
$GPGGA,230950.999,1926.9285,S,06958.0553,W,1,08,1.5,1074.1,M,35.0,M,,0000*65
$GPGSA,M,3,19,11,32,24,03,23,06,14,,,,,2.8,1.5,2.4*38
$GPRMC,230950.999,A,1926.9285,S,06958.0553,W,1.08,97.07,300411,,,A*59
$GPGGA,230952.000,1926.9285,S,06958.0552,W,1,09,1.2,1073.9,M,35.0,M,,0000*66
$GPGSA,M,3,19,11,32,24,03,23,06,31,14,,,,2.7,1.2,2.4*32
$GPRMC,230952.000,A,1926.9285,S,06958.0552,W,0.41,21.26,300411,,,A*51
$GPGGA,230953.000,1926.9284,S,06958.0554,W,1,09,1.2,1074.4,M,35.0,M,,0000*6A
$GPGSA,M,3,19,11,32,24,03,23,06,31,14,,,,2.7,1.2,2.4*32
$GPGSV,3,1,11,19,66,352,37,11,53,202,33,32,50,228,32,24,38,204,31*71
$GPGSV,3,2,11,03,34,008,37,20,33,255,,23,32,332,37,06,23,019,36*7C
$GPGSV,3,3,11,31,20,074,36,14,17,141,28,28,00,246,*48
$GPRMC,230953.000,A,1926.9284,S,06958.0554,W,0.30,74.57,300411,,,A*57
$GPGGA,230954.000,1926.9286,S,06958.0554,W,1,09,1.2,1073.5,M,35.0,M,,0000*69
$GPGSA,M,3,19,11,32,24,03,23,06,31,14,,,,2.7,1.2,2.4*32
$GPRMC,230954.000,A,1926.9286,S,06958.0554,W,0.24,68.81,300411,,,A*51
$GPGGA,230955.000,1926.9287,S,06958.0554,W,1,09,1.2,1072.9,M,35.0,M,,0000*64
$GPGSA,M,3,19,11,32,24,03,23,06,31,14,,,,2.7,1.2,2.4*32
$GPRMC,230955.000,A,1926.9287,S,06958.0554,W,0.38,42.45,300411,,,A*5C
$GPGGA,230956.000,1926.9288,S,06958.0556,W,1,09,1.2,1072.0,M,35.0,M,,0000*63
$GPGSA,M,3,19,11,32,24,03,23,06,31,14,,,,2.7,1.2,2.4*32
$GPRMC,230956.000,A,1926.9288,S,06958.0556,W,0.64,1.16,300411,,,A*6A
$GPGGA,230957.000,1926.9287,S,06958.0553,W,1,09,1.2,1073.3,M,35.0,M,,0000*6A
$GPGSA,M,3,19,11,32,24,03,23,06,31,14,,,,2.7,1.2,2.4*32
$GPRMC,230957.000,A,1926.9287,S,06958.0553,W,0.30,69.93,300411,,,A*53
$GPGGA,230958.002,1926.9287,S,06958.0551,W,1,09,1.2,1074.2,M,35.0,M,,0000*63
$GPGSA,M,3,19,11,32,24,03,23,06,31,14,,,,2.7,1.2,2.4*32
$GPGSV,3,1,11,19,66,352,36,11,53,202,32,32,50,228,31,24,38,204,30*73
$GPGSV,3,2,11,03,34,008,38,20,33,255,,23,32,332,37,06,23,019,36*73
$GPGSV,3,3,11,31,20,074,37,14,17,141,28,28,00,246,*49
$GPRMC,230958.002,A,1926.9287,S,06958.0551,W,0.60,320.13,300411,,,A*6F
$GPGGA,230958.998,1926.9285,S,06958.0553,W,1,09,1.2,1074.5,M,35.0,M,,0000*6E
$GPGSA,M,3,19,11,32,24,03,23,06,31,14,,,,2.7,1.2,2.4*32
$GPRMC,230958.998,A,1926.9285,S,06958.0553,W,0.12,174.77,300411,,,A*61
$GPGGA,231000.002,1926.9287,S,06958.0555,W,1,09,1.2,1072.8,M,35.0,M,,0000*6E
$GPGSA,M,3,19,11,32,24,03,23,06,31,14,,,,2.7,1.2,2.4*32
$GPRMC,231000.002,A,1926.9287,S,06958.0555,W,0.29,121.36,300411,,,A*67
$GPGGA,231000.998,1926.9287,S,06958.0560,W,1,09,1.2,1070.3,M,35.0,M,,0000*6B
$GPGSA,M,3,19,11,32,24,03,23,06,31,14,,,,2.7,1.2,2.4*32
$GPRMC,231000.998,A,1926.9287,S,06958.0560,W,0.43,58.75,300411,,,A*5F
$GPGGA,231002.000,1926.9286,S,06958.0558,W,1,09,1.2,1071.3,M,35.0,M,,0000*6A
$GPGSA,M,3,19,11,32,24,03,23,06,31,14,,,,2.7,1.2,2.4*32
$GPRMC,231002.000,A,1926.9286,S,06958.0558,W,0.43,290.15,300411,,,A*6F
$GPGGA,231003.000,1926.9286,S,06958.0562,W,1,09,1.2,1071.5,M,35.0,M,,0000*64
$GPGSA,M,3,19,11,32,24,03,23,06,31,14,,,,2.7,1.2,2.4*32
$GPGSV,3,1,11,19,66,352,37,11,53,202,34,32,50,228,32,24,38,204,30*77
$GPGSV,3,2,11,03,34,008,39,20,33,255,,23,32,332,37,06,23,019,36*72
$GPGSV,3,3,11,31,20,074,37,14,17,141,28,28,00,246,*49
$GPRMC,231003.000,A,1926.9286,S,06958.0562,W,0.59,49.09,300411,,,A*57
$GPGGA,231004.000,1926.9287,S,06958.0557,W,1,09,1.2,1073.4,M,35.0,M,,0000*67
$GPGSA,M,3,19,11,32,24,03,23,06,31,14,,,,2.7,1.2,2.4*32
$GPRMC,231004.000,A,1926.9287,S,06958.0557,W,0.41,77.60,300411,,,A*5C
$GPGGA,231005.000,1926.9285,S,06958.0556,W,1,09,1.2,1073.5,M,35.0,M,,0000*64
$GPGSA,M,3,19,11,32,24,03,23,06,31,14,,,,2.7,1.2,2.4*32
$GPRMC,231005.000,A,1926.9285,S,06958.0556,W,0.26,70.21,300411,,,A*5D
$GPGGA,231006.000,1926.9285,S,06958.0559,W,1,09,1.2,1072.4,M,35.0,M,,0000*68
$GPGSA,M,3,19,11,32,24,03,23,06,31,14,,,,2.7,1.2,2.4*32
$GPRMC,231006.000,A,1926.9285,S,06958.0559,W,0.41,1.53,300411,,,A*63
$GPGGA,231007.000,1926.9284,S,06958.0555,W,1,09,1.2,1074.6,M,35.0,M,,0000*60
$GPGSA,M,3,19,11,32,24,03,23,06,31,14,,,,2.7,1.2,2.4*32
$GPRMC,231007.000,A,1926.9284,S,06958.0555,W,0.76,60.09,300411,,,A*53
$GPGGA,231007.999,1926.9284,S,06958.0552,W,1,08,1.3,1075.9,M,35.0,M,,0000*60
$GPGSA,M,3,19,11,32,24,03,23,06,31,,,,,2.9,1.3,2.6*3A
$GPGSV,3,1,11,19,66,352,37,11,53,202,34,32,50,228,31,24,38,204,31*75
$GPGSV,3,2,11,03,34,008,38,20,33,255,,23,32,332,37,06,23,019,36*73
$GPGSV,3,3,11,31,20,074,37,14,17,141,,28,00,246,*43
$GPRMC,231007.999,A,1926.9284,S,06958.0552,W,0.23,35.91,300411,,,A*5C
$GPGGA,231009.000,1926.9285,S,06958.0553,W,1,09,1.2,1076.0,M,35.0,M,,0000*6D
$GPGSA,M,3,19,11,32,24,03,23,06,31,14,,,,2.7,1.2,2.4*32
$GPRMC,231009.000,A,1926.9285,S,06958.0553,W,0.44,19.72,300411,,,A*59
$GPGGA,231010.000,1926.9284,S,06958.0550,W,1,09,1.2,1076.3,M,35.0,M,,0000*64
$GPGSA,M,3,19,11,32,24,03,23,06,31,14,,,,2.7,1.2,2.4*32
$GPRMC,231010.000,A,1926.9284,S,06958.0550,W,0.58,18.62,300411,,,A*5E
$GPGGA,231011.000,1926.9284,S,06958.0551,W,1,09,1.2,1076.2,M,35.0,M,,0000*65
$GPGSA,M,3,19,11,32,24,03,23,06,31,14,,,,2.7,1.2,2.4*32
$GPRMC,231011.000,A,1926.9284,S,06958.0551,W,0.09,93.06,300411,,,A*5B
$GPGGA,231012.000,1926.9285,S,06958.0554,W,1,09,1.2,1073.6,M,35.0,M,,0000*63
$GPGSA,M,3,19,11,32,24,03,23,06,31,14,,,,2.7,1.2,2.4*32
$GPRMC,231012.000,A,1926.9285,S,06958.0554,W,0.61,62.72,300411,,,A*5F
$GPGGA,231012.998,1926.9284,S,06958.0554,W,1,08,1.3,1072.8,M,35.0,M,,0000*65
$GPGSA,M,3,19,11,32,24,03,23,06,31,,,,,2.9,1.3,2.6*3A
$GPGSV,3,1,11,19,66,352,36,11,53,202,32,32,50,228,31,24,38,204,29*7B
$GPGSV,3,2,11,03,34,008,38,20,33,255,,23,32,332,36,06,23,019,36*72
$GPGSV,3,3,11,31,20,074,37,14,17,141,,28,00,246,*43
$GPRMC,231012.998,A,1926.9284,S,06958.0554,W,0.30,36.66,300411,,,A*56
$GPGGA,231014.002,1926.9282,S,06958.0553,W,1,09,1.2,1074.8,M,35.0,M,,0000*6E
$GPGSA,M,3,19,11,32,24,03,23,06,31,14,,,,2.7,1.2,2.4*32
$GPRMC,231014.002,A,1926.9282,S,06958.0553,W,0.20,298.12,300411,,,A*6F
$GPGGA,231015.000,1926.9281,S,06958.0553,W,1,09,1.2,1074.8,M,35.0,M,,0000*6E
$GPGSA,M,3,19,11,32,24,03,23,06,31,14,,,,2.7,1.2,2.4*32
$GPRMC,231015.000,A,1926.9281,S,06958.0553,W,0.70,335.17,300411,,,A*69
$GPGGA,231016.000,1926.9282,S,06958.0546,W,1,09,1.2,1076.7,M,35.0,M,,0000*67
$GPGSA,M,3,19,11,32,24,03,23,06,31,14,,,,2.7,1.2,2.4*32
$GPRMC,231016.000,A,1926.9282,S,06958.0546,W,0.59,99.07,300411,,,A*52
$GPGGA,231017.000,1926.9283,S,06958.0543,W,1,09,1.2,1078.0,M,35.0,M,,0000*6B
$GPGSA,M,3,19,11,32,24,03,23,06,31,14,,,,2.7,1.2,2.4*32
$GPRMC,231017.000,A,1926.9283,S,06958.0543,W,0.22,331.75,300411,,,A*6F
$GPGGA,231018.000,1926.9280,S,06958.0545,W,1,09,1.2,1077.9,M,35.0,M,,0000*67
$GPGSA,M,3,19,11,32,24,03,23,06,31,14,,,,2.7,1.2,2.4*32
$GPGSV,3,1,11,19,66,352,37,11,53,202,33,32,50,228,31,24,38,204,30*73
$GPGSV,3,2,11,03,34,008,38,20,33,255,,23,32,332,36,06,23,019,35*71
$GPGSV,3,3,11,31,20,074,36,14,17,141,29,28,00,246,*49
$GPRMC,231018.000,A,1926.9280,S,06958.0545,W,0.46,102.17,300411,,,A*61
$GPGGA,231018.999,1926.9281,S,06958.0546,W,1,09,1.2,1077.1,M,35.0,M,,0000*64
$GPGSA,M,3,19,11,32,24,03,23,06,31,14,,,,2.7,1.2,2.4*32
$GPRMC,231018.999,A,1926.9281,S,06958.0546,W,0.24,108.11,300411,,,A*62
$GPGGA,231020.000,1926.9281,S,06958.0546,W,1,09,1.2,1077.3,M,35.0,M,,0000*64
$GPGSA,M,3,19,11,32,24,03,23,06,31,14,,,,2.7,1.2,2.4*32
$GPRMC,231020.000,A,1926.9281,S,06958.0546,W,0.35,128.72,300411,,,A*67
$GPGGA,231021.000,1926.9283,S,06958.0548,W,1,09,1.2,1076.0,M,35.0,M,,0000*6B
$GPGSA,M,3,19,11,32,24,03,23,06,31,14,,,,2.7,1.2,2.4*32
$GPRMC,231021.000,A,1926.9283,S,06958.0548,W,0.54,307.40,300411,,,A*63
$GPGGA,231021.999,1926.9280,S,06958.0547,W,1,09,1.2,1077.7,M,35.0,M,,0000*68
$GPGSA,M,3,19,11,32,24,03,23,06,31,14,,,,2.7,1.2,2.4*32
$GPRMC,231021.999,A,1926.9280,S,06958.0547,W,0.40,29.54,300411,,,A*59
$GPGGA,231022.999,1926.9280,S,06958.0546,W,1,09,1.2,1077.6,M,35.0,M,,0000*6B
$GPGSA,M,3,19,11,32,24,03,23,06,31,14,,,,2.7,1.2,2.4*32
$GPGSV,3,1,11,19,66,352,36,11,53,202,32,32,50,228,32,24,38,204,30*70
$GPGSV,3,2,11,03,34,008,37,20,33,255,,23,32,332,36,06,23,019,36*7D
$GPGSV,3,3,11,31,20,074,37,14,17,141,27,28,00,246,*46
$GPRMC,231022.999,A,1926.9280,S,06958.0546,W,0.35,339.27,300411,,,A*6F
$GPGGA,231023.999,1926.9280,S,06958.0547,W,1,09,1.2,1078.0,M,35.0,M,,0000*62
$GPGSA,M,3,19,11,32,24,03,23,06,31,14,,,,2.7,1.2,2.4*32
$GPRMC,231023.999,A,1926.9280,S,06958.0547,W,0.18,14.26,300411,,,A*5D
$GPGGA,231024.999,1926.9281,S,06958.0547,W,1,09,1.2,1078.1,M,35.0,M,,0000*65
$GPGSA,M,3,19,11,32,24,03,23,06,31,14,,,,2.7,1.2,2.4*32
$GPRMC,231024.999,A,1926.9281,S,06958.0547,W,0.16,30.73,300411,,,A*53
$GPGGA,231025.999,1926.9280,S,06958.0552,W,1,09,1.2,1076.4,M,35.0,M,,0000*6A
$GPGSA,M,3,19,11,32,24,03,23,06,31,14,,,,2.7,1.2,2.4*32
$GPRMC,231025.999,A,1926.9280,S,06958.0552,W,0.36,4.62,300411,,,A*62
$GPGGA,231026.998,1926.9281,S,06958.0553,W,1,08,1.3,1076.5,M,35.0,M,,0000*69
$GPGSA,M,3,19,11,32,24,03,23,06,31,,,,,2.9,1.3,2.6*3A
$GPRMC,231026.998,A,1926.9281,S,06958.0553,W,0.32,299.47,300411,,,A*65
$GPGGA,231028.001,1926.9280,S,06958.0555,W,1,09,1.2,1076.3,M,35.0,M,,0000*6F
$GPGSA,M,3,19,11,32,24,03,23,06,31,14,,,,2.7,1.2,2.4*32
$GPGSV,3,1,11,19,66,352,37,11,53,202,33,32,50,228,31,24,38,204,30*73
$GPGSV,3,2,11,03,34,008,38,20,33,255,,23,32,332,37,06,23,019,37*72
$GPGSV,3,3,11,31,20,074,37,14,17,141,28,28,00,246,*49
$GPRMC,231028.001,A,1926.9280,S,06958.0555,W,0.52,48.89,300411,,,A*5F
$GPGGA,231028.999,1926.9282,S,06958.0556,W,1,08,1.5,1075.2,M,35.0,M,,0000*62
$GPGSA,M,3,19,11,32,24,03,23,06,14,,,,,2.8,1.5,2.4*38
$GPRMC,231028.999,A,1926.9282,S,06958.0556,W,0.48,12.67,300411,,,A*52
$GPGGA,231030.002,1926.9282,S,06958.0557,W,1,08,1.3,1073.4,M,35.0,M,,0000*67
$GPGSA,M,3,19,11,32,24,03,23,06,31,,,,,2.9,1.3,2.6*3A
$GPRMC,231030.002,A,1926.9282,S,06958.0557,W,0.75,354.27,300411,,,A*6A
$GPGGA,231030.998,1926.9280,S,06958.0557,W,1,09,1.2,1073.7,M,35.0,M,,0000*6C
$GPGSA,M,3,19,11,32,24,03,23,06,31,14,,,,2.7,1.2,2.4*32
$GPRMC,231030.998,A,1926.9280,S,06958.0557,W,0.64,23.37,300411,,,A*50
$GPGGA,231032.000,1926.9281,S,06958.0558,W,1,09,1.2,1075.3,M,35.0,M,,0000*6A
$GPGSA,M,3,19,11,32,24,03,23,06,31,14,,,,2.7,1.2,2.4*32
$GPRMC,231032.000,A,1926.9281,S,06958.0558,W,0.15,355.49,300411,,,A*69
