$GPGGA,141147.622,,,,,0,00,,,M,0.0,M,,0000*56
$GPGSA,M,1,,,,,,,,,,,,,,,*12
$GPRMC,141147.622,V,,,,,,,210411,,,N*4A
$GPGGA,141148.639,,,,,0,00,,,M,0.0,M,,0000*53
$GPGSA,M,1,,,,,,,,,,,,,,,*12
$GPRMC,141148.639,V,,,,,,,210411,,,N*4F
$GPGGA,141149.622,,,,,0,00,,,M,0.0,M,,0000*58
$GPGSA,M,1,,,,,,,,,,,,,,,*12
$GPRMC,141149.622,V,,,,,,,210411,,,N*44
$GPGGA,141150.629,,,,,0,00,,,M,0.0,M,,0000*5B
$GPGSA,M,1,,,,,,,,,,,,,,,*12
$GPRMC,141150.629,V,,,,,,,210411,,,N*47
$GPGGA,141151.632,,,,,0,00,,,M,0.0,M,,0000*50
$GPGSA,M,1,,,,,,,,,,,,,,,*12
$GPGSV,3,1,11,09,66,064,,29,60,255,,27,44,047,,12,36,155,*7E
$GPGSV,3,2,11,25,31,204,,02,27,124,,14,25,247,,15,16,006,*7D
$GPGSV,3,3,11,21,15,340,,05,02,065,,18,00,320,*45
$GPRMC,141151.632,V,,,,,,,210411,,,N*4C
$GPGGA,141152.629,,,,,0,00,,,M,0.0,M,,0000*59
$GPGSA,M,1,,,,,,,,,,,,,,,*12
$GPRMC,141152.629,V,,,,,,,210411,,,N*45
$GPGGA,141153.622,,,,,0,00,,,M,0.0,M,,0000*53
$GPGSA,M,1,,,,,,,,,,,,,,,*12
$GPRMC,141153.622,V,,,,,,,210411,,,N*4F
$GPGGA,141154.644,,,,,0,00,,,M,0.0,M,,0000*54
$GPGSA,M,1,,,,,,,,,,,,,,,*12
$GPRMC,141154.644,V,,,,,,,210411,,,N*48
$GPGGA,141155.624,,,,,0,00,,,M,0.0,M,,0000*53
$GPGSA,M,1,,,,,,,,,,,,,,,*12
$GPRMC,141155.624,V,,,,,,,210411,,,N*4F
$GPGGA,141156.615,,,,,0,00,,,M,0.0,M,,0000*52
$GPGSA,M,1,,,,,,,,,,,,,,,*12
$GPGSV,3,1,11,09,66,064,,29,60,255,,27,44,047,,12,36,155,*7E
$GPGSV,3,2,11,25,31,204,,02,26,124,27,14,25,248,,15,16,006,*76
$GPGSV,3,3,11,21,15,340,,05,02,066,,18,00,321,*47
$GPRMC,141156.615,V,,,,,,,210411,,,N*4E
$GPGGA,141157.615,,,,,0,00,,,M,0.0,M,,0000*53
$GPGSA,M,1,,,,,,,,,,,,,,,*12
$GPRMC,141157.615,V,,,,,,,210411,,,N*4F
$GPGGA,141158.615,,,,,0,00,,,M,0.0,M,,0000*5C
$GPGSA,M,1,,,,,,,,,,,,,,,*12
$GPRMC,141158.615,V,,,,,,,210411,,,N*40
$GPGGA,141159.615,,,,,0,00,,,M,0.0,M,,0000*5D
$GPGSA,M,1,,,,,,,,,,,,,,,*12
$GPRMC,141159.615,V,,,,,,,210411,,,N*41
$GPGGA,141200.615,,,,,0,00,,,M,0.0,M,,0000*52
$GPGSA,M,1,,,,,,,,,,,,,,,*12
$GPRMC,141200.615,V,,,,,,,210411,,,N*4E
$GPGGA,141201.615,,,,,0,00,,,M,0.0,M,,0000*53
$GPGSA,M,1,,,,,,,,,,,,,,,*12
$GPGSV,3,1,11,09,66,064,,29,60,255,,27,44,047,,12,36,155,*7E
$GPGSV,3,2,11,25,31,204,,02,26,124,37,14,25,248,,15,16,006,*77
$GPGSV,3,3,11,21,15,340,,05,02,066,,18,00,321,*47
$GPRMC,141201.615,V,,,,,,,210411,,,N*4F
$GPGGA,141202.615,,,,,0,00,,,M,0.0,M,,0000*50
$GPGSA,M,1,,,,,,,,,,,,,,,*12
$GPRMC,141202.615,V,,,,,,,210411,,,N*4C
$GPGGA,141203.615,,,,,0,00,,,M,0.0,M,,0000*51
$GPGSA,M,1,,,,,,,,,,,,,,,*12
$GPRMC,141203.615,V,,,,,,,210411,,,N*4D
$GPGGA,141204.615,,,,,0,00,,,M,0.0,M,,0000*56
$GPGSA,M,1,,,,,,,,,,,,,,,*12
$GPRMC,141204.615,V,,,,,,,210411,,,N*4A
$GPGGA,141205.635,,,,,0,00,,,M,0.0,M,,0000*55
$GPGSA,M,1,,,,,,,,,,,,,,,*12
$GPRMC,141205.635,V,,,,,,,210411,,,N*49
$GPGGA,141206.635,,,,,0,00,,,M,0.0,M,,0000*56
$GPGSA,M,1,,,,,,,,,,,,,,,*12
$GPGSV,3,1,11,09,66,064,,29,60,255,,27,44,047,,12,36,155,*7E
$GPGSV,3,2,11,25,31,204,,02,26,124,37,14,25,248,,15,16,006,*77
$GPGSV,3,3,11,21,15,340,,05,02,066,,18,00,321,*47
$GPRMC,141206.635,V,,,,,,,210411,,,N*4A
$GPGGA,141207.635,,,,,0,00,,,M,0.0,M,,0000*57
$GPGSA,M,1,,,,,,,,,,,,,,,*12
$GPRMC,141207.635,V,,,,,,,210411,,,N*4B
$GPGGA,141208.635,,,,,0,00,,,M,0.0,M,,0000*58
$GPGSA,M,1,,,,,,,,,,,,,,,*12
$GPRMC,141208.635,V,,,,,,,210411,,,N*44
$GPGGA,141209.635,,,,,0,00,,,M,0.0,M,,0000*59
$GPGSA,M,1,,,,,,,,,,,,,,,*12
$GPRMC,141209.635,V,,,,,,,210411,,,N*45
$GPGGA,141210.635,,,,,0,00,,,M,0.0,M,,0000*51
$GPGSA,M,1,,,,,,,,,,,,,,,*12
$GPRMC,141210.635,V,,,,,,,210411,,,N*4D
$GPGGA,141211.635,,,,,0,00,,,M,0.0,M,,0000*50
$GPGSA,M,1,,,,,,,,,,,,,,,*12
$GPGSV,3,1,11,09,66,064,,29,60,255,,27,44,047,,12,36,155,*7E
$GPGSV,3,2,11,25,31,204,,02,26,124,37,14,25,248,,15,16,006,*77
$GPGSV,3,3,11,21,15,340,,05,02,066,,18,00,321,*47
$GPRMC,141211.635,V,,,,,,,210411,,,N*4C
$GPGGA,141212.635,,,,,0,00,,,M,0.0,M,,0000*53
$GPGSA,M,1,,,,,,,,,,,,,,,*12
$GPRMC,141212.635,V,,,,,,,210411,,,N*4F
$GPGGA,141213.635,,,,,0,00,,,M,0.0,M,,0000*52
$GPGSA,M,1,,,,,,,,,,,,,,,*12
$GPRMC,141213.635,V,,,,,,,210411,,,N*4E
$GPGGA,141214.635,,,,,0,00,,,M,0.0,M,,0000*55
$GPGSA,M,1,,,,,,,,,,,,,,,*12
$GPRMC,141214.635,V,,,,,,,210411,,,N*49
$GPGGA,141215.635,,,,,0,00,,,M,0.0,M,,0000*54
$GPGSA,M,1,,,,,,,,,,,,,,,*12
$GPRMC,141215.635,V,,,,,,,210411,,,N*48
$GPGGA,141216.635,,,,,0,00,,,M,0.0,M,,0000*57
$GPGSA,M,1,,,,,,,,,,,,,,,*12
$GPGSV,3,1,11,09,66,064,,29,60,255,,27,44,047,,12,36,155,*7E
$GPGSV,3,2,11,25,31,204,,02,26,124,37,14,25,248,,15,16,006,*77
$GPGSV,3,3,11,21,15,340,,05,02,066,,18,00,321,*47
$GPRMC,141216.635,V,,,,,,,210411,,,N*4B
$GPGGA,141217.635,,,,,0,00,,,M,0.0,M,,0000*56
$GPGSA,M,1,,,,,,,,,,,,,,,*12
$GPRMC,141217.635,V,,,,,,,210411,,,N*4A
$GPGGA,141218.635,,,,,0,00,,,M,0.0,M,,0000*59
$GPGSA,M,1,,,,,,,,,,,,,,,*12
$GPRMC,141218.635,V,,,,,,,210411,,,N*45
$GPGGA,141219.635,,,,,0,00,,,M,0.0,M,,0000*58
$GPGSA,M,1,,,,,,,,,,,,,,,*12
$GPRMC,141219.635,V,,,,,,,210411,,,N*44
$GPGGA,141220.635,,,,,0,00,,,M,0.0,M,,0000*52
$GPGSA,M,1,,,,,,,,,,,,,,,*12
$GPRMC,141220.635,V,,,,,,,210411,,,N*4E
$GPGGA,141221.635,,,,,0,00,,,M,0.0,M,,0000*53
$GPGSA,M,1,,,,,,,,,,,,,,,*12
$GPGSV,3,1,11,09,66,064,,29,60,255,,27,44,047,,12,36,155,*7E
$GPGSV,3,2,11,25,31,204,,02,26,124,37,14,25,248,,15,16,006,*77
$GPGSV,3,3,11,21,15,340,,05,02,066,,18,00,321,*47
$GPRMC,141221.635,V,,,,,,,210411,,,N*4F
$GPGGA,141222.635,,,,,0,00,,,M,0.0,M,,0000*50
$GPGSA,M,1,,,,,,,,,,,,,,,*12
$GPRMC,141222.635,V,,,,,,,210411,,,N*4C
$GPGGA,141223.635,,,,,0,00,,,M,0.0,M,,0000*51
$GPGSA,M,1,,,,,,,,,,,,,,,*12
$GPRMC,141223.635,V,,,,,,,210411,,,N*4D
$GPGGA,141224.635,,,,,0,00,,,M,0.0,M,,0000*56
$GPGSA,M,1,,,,,,,,,,,,,,,*12
$GPRMC,141224.635,V,,,,,,,210411,,,N*4A
$GPGGA,141225.635,,,,,0,00,,,M,0.0,M,,0000*57
$GPGSA,M,1,,,,,,,,,,,,,,,*12
$GPRMC,141225.635,V,,,,,,,210411,,,N*4B
$GPGGA,141226.635,,,,,0,00,,,M,0.0,M,,0000*54
$GPGSA,M,1,,,,,,,,,,,,,,,*12
$GPGSV,3,1,11,09,66,064,,29,60,255,,27,44,047,,12,36,155,*7E
$GPGSV,3,2,11,25,31,204,,02,26,124,37,14,25,248,,15,16,006,*77
$GPGSV,3,3,11,21,15,340,,05,02,066,,18,00,321,*47
$GPRMC,141226.635,V,,,,,,,210411,,,N*48
$GPGGA,141227.635,,,,,0,00,,,M,0.0,M,,0000*55
$GPGSA,M,1,,,,,,,,,,,,,,,*12
$GPRMC,141227.635,V,,,,,,,210411,,,N*49
$GPGGA,141228.635,,,,,0,00,,,M,0.0,M,,0000*5A
$GPGSA,M,1,,,,,,,,,,,,,,,*12
$GPRMC,141228.635,V,,,,,,,210411,,,N*46
$GPGGA,141229.635,,,,,0,00,,,M,0.0,M,,0000*5B
$GPGSA,M,1,,,,,,,,,,,,,,,*12
$GPRMC,141229.635,V,,,,,,,210411,,,N*47
$GPGGA,141230.635,,,,,0,00,,,M,0.0,M,,0000*53
$GPGSA,M,1,,,,,,,,,,,,,,,*12
$GPRMC,141230.635,V,,,,,,,210411,,,N*4F
$GPGGA,141231.635,,,,,0,00,,,M,0.0,M,,0000*52
$GPGSA,M,1,,,,,,,,,,,,,,,*12
$GPGSV,3,1,11,02,26,124,37,09,66,063,,29,60,254,,27,44,047,*7A
$GPGSV,3,2,11,12,36,155,,25,31,204,,14,25,248,,15,16,006,*75
$GPGSV,3,3,11,21,15,340,,05,02,066,,18,00,321,*47
$GPRMC,141231.635,V,,,,,,,210411,,,N*4E
$GPGGA,141232.635,,,,,0,00,,,M,0.0,M,,0000*51
$GPGSA,M,1,,,,,,,,,,,,,,,*12
$GPRMC,141232.635,V,,,,,,,210411,,,N*4D
$GPGGA,141233.635,,,,,0,00,,,M,0.0,M,,0000*50
$GPGSA,M,1,,,,,,,,,,,,,,,*12
$GPRMC,141233.635,V,,,,,,,210411,,,N*4C
$GPGGA,141234.635,,,,,0,00,,,M,0.0,M,,0000*57
$GPGSA,M,1,,,,,,,,,,,,,,,*12
$GPRMC,141234.635,V,,,,,,,210411,,,N*4B
$GPGGA,141235.635,,,,,0,00,,,M,0.0,M,,0000*56
$GPGSA,M,1,,,,,,,,,,,,,,,*12
$GPRMC,141235.635,V,,,,,,,210411,,,N*4A
$GPGGA,141236.635,,,,,0,00,,,M,0.0,M,,0000*55
$GPGSA,M,1,,,,,,,,,,,,,,,*12
$GPGSV,3,1,11,02,26,124,37,09,66,063,,29,60,254,,27,44,047,*7A
$GPGSV,3,2,11,12,36,155,,25,31,204,,14,25,248,,15,16,006,*75
$GPGSV,3,3,11,21,15,340,,05,02,066,,18,00,321,*47
$GPRMC,141236.635,V,,,,,,,210411,,,N*49
$GPGGA,141237.635,,,,,0,00,,,M,0.0,M,,0000*54
$GPGSA,M,1,,,,,,,,,,,,,,,*12
$GPRMC,141237.635,V,,,,,,,210411,,,N*48
$GPGGA,141238.635,,,,,0,00,,,M,0.0,M,,0000*5B
$GPGSA,M,1,,,,,,,,,,,,,,,*12
$GPRMC,141238.635,V,,,,,,,210411,,,N*47
$GPGGA,141239.635,,,,,0,00,,,M,0.0,M,,0000*5A
$GPGSA,M,1,,,,,,,,,,,,,,,*12
$GPRMC,141239.635,V,,,,,,,210411,,,N*46
$GPGGA,141240.635,,,,,0,00,,,M,0.0,M,,0000*54
$GPGSA,M,1,,,,,,,,,,,,,,,*12
$GPRMC,141240.635,V,,,,,,,210411,,,N*48
$GPGGA,141241.635,,,,,0,00,,,M,0.0,M,,0000*55
$GPGSA,M,1,,,,,,,,,,,,,,,*12
$GPGSV,3,1,11,02,26,124,37,09,66,063,,29,60,254,,27,44,047,*7A
$GPGSV,3,2,11,12,36,155,,25,31,204,,14,25,248,,15,16,006,*75
$GPGSV,3,3,11,21,15,340,,05,02,066,,18,00,321,*47
$GPRMC,141241.635,V,,,,,,,210411,,,N*49
$GPGGA,141242.635,,,,,0,00,,,M,0.0,M,,0000*56
$GPGSA,M,1,,,,,,,,,,,,,,,*12
$GPRMC,141242.635,V,,,,,,,210411,,,N*4A
$GPGGA,141243.635,,,,,0,00,,,M,0.0,M,,0000*57
$GPGSA,M,1,,,,,,,,,,,,,,,*12
$GPRMC,141243.635,V,,,,,,,210411,,,N*4B
$GPGGA,141244.635,,,,,0,00,,,M,0.0,M,,0000*50
$GPGSA,M,1,,,,,,,,,,,,,,,*12
$GPRMC,141244.635,V,,,,,,,210411,,,N*4C
$GPGGA,141245.635,,,,,0,00,,,M,0.0,M,,0000*51
$GPGSA,M,1,,,,,,,,,,,,,,,*12
$GPRMC,141245.635,V,,,,,,,210411,,,N*4D
$GPGGA,141246.635,,,,,0,00,,,M,0.0,M,,0000*52
$GPGSA,M,1,,,,,,,,,,,,,,,*12
$GPGSV,3,1,11,02,26,124,37,09,66,063,,29,60,254,,27,44,047,*7A
$GPGSV,3,2,11,12,36,155,,25,31,204,,14,25,248,,15,16,006,*75
$GPGSV,3,3,11,21,15,340,,05,02,066,,18,00,321,*47
$GPRMC,141246.635,V,,,,,,,210411,,,N*4E
$GPGGA,141247.635,,,,,0,00,,,M,0.0,M,,0000*53
$GPGSA,M,1,,,,,,,,,,,,,,,*12
$GPRMC,141247.635,V,,,,,,,210411,,,N*4F
$GPGGA,141248.635,,,,,0,00,,,M,0.0,M,,0000*5C
$GPGSA,M,1,,,,,,,,,,,,,,,*12
$GPRMC,141248.635,V,,,,,,,210411,,,N*40
$GPGGA,141249.635,,,,,0,00,,,M,0.0,M,,0000*5D
$GPGSA,M,1,,,,,,,,,,,,,,,*12
$GPRMC,141249.635,V,,,,,,,210411,,,N*41
$GPGGA,141250.635,,,,,0,00,,,M,0.0,M,,0000*55
$GPGSA,M,1,,,,,,,,,,,,,,,*12
$GPRMC,141250.635,V,,,,,,,210411,,,N*49
$GPGGA,141251.635,,,,,0,00,,,M,0.0,M,,0000*54
$GPGSA,M,1,,,,,,,,,,,,,,,*12
$GPGSV,3,1,11,02,26,124,37,09,66,063,,29,60,254,,27,44,047,*7A
$GPGSV,3,2,11,12,36,155,,25,31,204,,14,25,248,,15,16,006,*75
$GPGSV,3,3,11,21,15,340,,05,02,066,,18,00,321,*47
$GPRMC,141251.635,V,,,,,,,210411,,,N*48
$GPGGA,141252.635,,,,,0,00,,,M,0.0,M,,0000*57
$GPGSA,M,1,,,,,,,,,,,,,,,*12
$GPRMC,141252.635,V,,,,,,,210411,,,N*4B
$GPGGA,141253.635,,,,,0,00,,,M,0.0,M,,0000*56
$GPGSA,M,1,,,,,,,,,,,,,,,*12
$GPRMC,141253.635,V,,,,,,,210411,,,N*4A
$GPGGA,141254.635,,,,,0,00,,,M,0.0,M,,0000*51
$GPGSA,M,1,,,,,,,,,,,,,,,*12
$GPRMC,141254.635,V,,,,,,,210411,,,N*4D
$GPGGA,141255.635,,,,,0,00,,,M,0.0,M,,0000*50
$GPGSA,M,1,,,,,,,,,,,,,,,*12
$GPRMC,141255.635,V,,,,,,,210411,,,N*4C
$GPGGA,141256.635,,,,,0,00,,,M,0.0,M,,0000*53
$GPGSA,M,1,,,,,,,,,,,,,,,*12
$GPGSV,3,1,11,02,26,124,37,09,66,063,,29,60,254,,27,44,047,*7A
$GPGSV,3,2,11,12,36,155,,25,31,204,,14,25,248,,15,16,006,*75
$GPGSV,3,3,11,21,15,340,,05,02,066,,18,00,321,*47
$GPRMC,141256.635,V,,,,,,,210411,,,N*4F
$GPGGA,141257.635,,,,,0,00,,,M,0.0,M,,0000*52
$GPGSA,M,1,,,,,,,,,,,,,,,*12
$GPRMC,141257.635,V,,,,,,,210411,,,N*4E
$GPGGA,141258.635,,,,,0,00,,,M,0.0,M,,0000*5D
$GPGSA,M,1,,,,,,,,,,,,,,,*12
$GPRMC,141258.635,V,,,,,,,210411,,,N*41
$GPGGA,141259.635,,,,,0,00,,,M,0.0,M,,0000*5C
$GPGSA,M,1,,,,,,,,,,,,,,,*12
$GPRMC,141259.635,V,,,,,,,210411,,,N*40
$GPGGA,141300.635,,,,,0,00,,,M,0.0,M,,0000*51
$GPGSA,M,1,,,,,,,,,,,,,,,*12
$GPRMC,141300.635,V,,,,,,,210411,,,N*4D
$GPGGA,141301.635,,,,,0,00,,,M,0.0,M,,0000*50
$GPGSA,M,1,,,,,,,,,,,,,,,*12
$GPGSV,3,1,11,02,26,124,37,09,66,063,,29,60,254,,27,44,047,*7A
$GPGSV,3,2,11,12,36,155,,25,31,204,,14,25,248,,15,16,006,*75
$GPGSV,3,3,11,21,15,340,,05,02,066,,18,00,321,*47
$GPRMC,141301.635,V,,,,,,,210411,,,N*4C
$GPGGA,141302.635,,,,,0,00,,,M,0.0,M,,0000*53
$GPGSA,M,1,,,,,,,,,,,,,,,*12
$GPRMC,141302.635,V,,,,,,,210411,,,N*4F
$GPGGA,141303.635,,,,,0,00,,,M,0.0,M,,0000*52
$GPGSA,M,1,,,,,,,,,,,,,,,*12
$GPRMC,141303.635,V,,,,,,,210411,,,N*4E
$GPGGA,141304.635,,,,,0,00,,,M,0.0,M,,0000*55
$GPGSA,M,1,,,,,,,,,,,,,,,*12
$GPRMC,141304.635,V,,,,,,,210411,,,N*49
$GPGGA,141305.635,,,,,0,00,,,M,0.0,M,,0000*54
$GPGSA,M,1,,,,,,,,,,,,,,,*12
$GPRMC,141305.635,V,,,,,,,210411,,,N*48
$GPGGA,141306.635,,,,,0,00,,,M,0.0,M,,0000*57
$GPGSA,M,1,,,,,,,,,,,,,,,*12
$GPGSV,3,1,11,02,26,124,31,09,66,063,,29,60,254,,27,44,047,*7C
$GPGSV,3,2,11,12,36,155,,25,31,204,,14,25,248,,15,16,006,*75
$GPGSV,3,3,11,21,15,340,,05,02,066,,18,00,321,*47
$GPRMC,141306.635,V,,,,,,,210411,,,N*4B
$GPGGA,141307.635,,,,,0,00,,,M,0.0,M,,0000*56
$GPGSA,M,1,,,,,,,,,,,,,,,*12
$GPRMC,141307.635,V,,,,,,,210411,,,N*4A
$GPGGA,141308.635,,,,,0,00,,,M,0.0,M,,0000*59
$GPGSA,M,1,,,,,,,,,,,,,,,*12
$GPRMC,141308.635,V,,,,,,,210411,,,N*45
$GPGGA,141309.635,,,,,0,00,,,M,0.0,M,,0000*58
$GPGSA,M,1,,,,,,,,,,,,,,,*12
$GPRMC,141309.635,V,,,,,,,210411,,,N*44
$GPGGA,141310.635,,,,,0,00,,,M,0.0,M,,0000*50
$GPGSA,M,1,,,,,,,,,,,,,,,*12
$GPRMC,141310.635,V,,,,,,,210411,,,N*4C
$GPGGA,141311.635,,,,,0,00,,,M,0.0,M,,0000*51
$GPGSA,M,1,,,,,,,,,,,,,,,*12
$GPGSV,3,1,11,02,26,124,23,09,66,063,,29,60,254,,27,44,047,*7F
$GPGSV,3,2,11,12,36,155,,25,31,204,,14,25,248,,15,16,006,*75
$GPGSV,3,3,11,21,15,340,,05,02,066,,18,00,321,*47
$GPRMC,141311.635,V,,,,,,,210411,,,N*4D
$GPGGA,141312.635,,,,,0,00,,,M,0.0,M,,0000*52
$GPGSA,M,1,,,,,,,,,,,,,,,*12
$GPRMC,141312.635,V,,,,,,,210411,,,N*4E
$GPGGA,141313.635,,,,,0,00,,,M,0.0,M,,0000*53
$GPGSA,M,1,,,,,,,,,,,,,,,*12
$GPRMC,141313.635,V,,,,,,,210411,,,N*4F
$GPGGA,141314.635,,,,,0,00,,,M,0.0,M,,0000*54
$GPGSA,M,1,,,,,,,,,,,,,,,*12
$GPRMC,141314.635,V,,,,,,,210411,,,N*48
$GPGGA,141315.635,,,,,0,00,,,M,0.0,M,,0000*55
$GPGSA,M,1,,,,,,,,,,,,,,,*12
$GPRMC,141315.635,V,,,,,,,210411,,,N*49
$GPGGA,141316.635,,,,,0,00,,,M,0.0,M,,0000*56
$GPGSA,M,1,,,,,,,,,,,,,,,*12
$GPGSV,3,1,11,02,26,124,19,09,66,063,,29,60,254,,27,44,047,*76
$GPGSV,3,2,11,12,36,155,,25,31,204,,14,25,248,,15,16,006,*75
$GPGSV,3,3,11,21,15,340,,05,02,066,,18,00,321,*47
$GPRMC,141316.635,V,,,,,,,210411,,,N*4A
$GPGGA,141317.635,,,,,0,00,,,M,0.0,M,,0000*57
$GPGSA,M,1,,,,,,,,,,,,,,,*12
$GPRMC,141317.635,V,,,,,,,210411,,,N*4B
$GPGGA,141318.635,,,,,0,00,,,M,0.0,M,,0000*58
$GPGSA,M,1,,,,,,,,,,,,,,,*12
$GPRMC,141318.635,V,,,,,,,210411,,,N*44
$GPGGA,141319.635,,,,,0,00,,,M,0.0,M,,0000*59
$GPGSA,M,1,,,,,,,,,,,,,,,*12
$GPRMC,141319.635,V,,,,,,,210411,,,N*45
$GPGGA,141320.635,,,,,0,00,,,M,0.0,M,,0000*53
$GPGSA,M,1,,,,,,,,,,,,,,,*12
$GPRMC,141320.635,V,,,,,,,210411,,,N*4F
$GPGGA,141321.635,,,,,0,00,,,M,0.0,M,,0000*52
$GPGSA,M,1,,,,,,,,,,,,,,,*12
$GPGSV,3,1,11,02,26,124,18,09,66,063,,29,60,254,,27,44,047,*77
$GPGSV,3,2,11,12,36,155,,25,31,204,,14,25,248,,15,16,006,*75
$GPGSV,3,3,11,21,15,340,,05,02,066,,18,00,321,*47
$GPRMC,141321.635,V,,,,,,,210411,,,N*4E
$GPGGA,141322.635,,,,,0,00,,,M,0.0,M,,0000*51
$GPGSA,M,1,,,,,,,,,,,,,,,*12
$GPRMC,141322.635,V,,,,,,,210411,,,N*4D
$GPGGA,141323.635,,,,,0,00,,,M,0.0,M,,0000*50
$GPGSA,M,1,,,,,,,,,,,,,,,*12
$GPRMC,141323.635,V,,,,,,,210411,,,N*4C
$GPGGA,141324.635,,,,,0,00,,,M,0.0,M,,0000*57
$GPGSA,M,1,,,,,,,,,,,,,,,*12
$GPRMC,141324.635,V,,,,,,,210411,,,N*4B
$GPGGA,141325.635,,,,,0,00,,,M,0.0,M,,0000*56
$GPGSA,M,1,,,,,,,,,,,,,,,*12
$GPRMC,141325.635,V,,,,,,,210411,,,N*4A
$GPGGA,141326.635,,,,,0,00,,,M,0.0,M,,0000*55
$GPGSA,M,1,,,,,,,,,,,,,,,*12
$GPGSV,3,1,11,02,26,124,18,09,66,063,,29,60,254,,27,44,047,*77
$GPGSV,3,2,11,12,36,155,,25,31,204,,14,25,248,,15,16,006,*75
$GPGSV,3,3,11,21,15,340,,05,02,066,,18,00,321,*47
$GPRMC,141326.635,V,,,,,,,210411,,,N*49
$GPGGA,141327.635,,,,,0,00,,,M,0.0,M,,0000*54
$GPGSA,M,1,,,,,,,,,,,,,,,*12
$GPRMC,141327.635,V,,,,,,,210411,,,N*48
$GPGGA,141328.635,,,,,0,00,,,M,0.0,M,,0000*5B
$GPGSA,M,1,,,,,,,,,,,,,,,*12
$GPRMC,141328.635,V,,,,,,,210411,,,N*47
$GPGGA,141329.634,,,,,0,00,,,M,0.0,M,,0000*5B
$GPGSA,M,1,,,,,,,,,,,,,,,*12
$GPRMC,141329.634,V,,,,,,,210411,,,N*47
$GPGGA,141330.634,,,,,0,00,,,M,0.0,M,,0000*53
$GPGSA,M,1,,,,,,,,,,,,,,,*12
$GPRMC,141330.634,V,,,,,,,210411,,,N*4F
$GPGGA,141331.634,,,,,0,00,,,M,0.0,M,,0000*52
$GPGSA,M,1,,,,,,,,,,,,,,,*12
$GPGSV,3,1,11,02,26,124,18,09,66,063,,29,60,254,,27,44,047,*77
$GPGSV,3,2,11,12,36,155,,25,31,204,,14,25,248,,15,16,006,*75
$GPGSV,3,3,11,21,15,340,,05,02,066,,18,00,321,*47
$GPRMC,141331.634,V,,,,,,,210411,,,N*4E
$GPGGA,141332.634,,,,,0,00,,,M,0.0,M,,0000*51
$GPGSA,M,1,,,,,,,,,,,,,,,*12
$GPRMC,141332.634,V,,,,,,,210411,,,N*4D
$GPGGA,141333.634,,,,,0,00,,,M,0.0,M,,0000*50
$GPGSA,M,1,,,,,,,,,,,,,,,*12
$GPRMC,141333.634,V,,,,,,,210411,,,N*4C
$GPGGA,141334.634,,,,,0,00,,,M,0.0,M,,0000*57
$GPGSA,M,1,,,,,,,,,,,,,,,*12
$GPRMC,141334.634,V,,,,,,,210411,,,N*4B
$GPGGA,141404.479,,,,,0,00,,,M,0.0,M,,0000*58
$GPGSA,M,1,,,,,,,,,,,,,,,*12
$GPRMC,141404.479,V,,,,,,,210411,,,N*44
$GPGGA,141405.181,,,,,0,00,,,M,0.0,M,,0000*5B
$GPGSA,M,1,,,,,,,,,,,,,,,*12
$GPRMC,141405.181,V,,,,,,,210411,,,N*47
$GPGGA,141406.192,,,,,0,00,,,M,0.0,M,,0000*5A
$GPGSA,M,1,,,,,,,,,,,,,,,*12
$GPGSV,3,1,11,02,26,125,,09,65,062,,29,60,253,,27,43,046,*7C
$GPGSV,3,2,11,12,36,154,,25,32,203,,14,25,249,,21,16,340,*77
$GPGSV,3,3,11,15,15,006,,05,02,066,,18,00,321,*41
$GPRMC,141406.192,V,,,,,,,210411,,,N*46
$GPGGA,141407.183,,,,,0,00,,,M,0.0,M,,0000*5B
$GPGSA,M,1,,,,,,,,,,,,,,,*12
$GPRMC,141407.183,V,,,,,,,210411,,,N*47
$GPGGA,141408.183,,,,,0,00,,,M,0.0,M,,0000*54
$GPGSA,M,1,,,,,,,,,,,,,,,*12
$GPRMC,141408.183,V,,,,,,,210411,,,N*48
$GPGGA,141409.193,,,,,0,00,,,M,0.0,M,,0000*54
$GPGSA,M,1,,,,,,,,,,,,,,,*12
$GPRMC,141409.193,V,,,,,,,210411,,,N*48
$GPGGA,141410.183,,,,,0,00,,,M,0.0,M,,0000*5D
$GPGSA,M,1,,,,,,,,,,,,,,,*12
$GPRMC,141410.183,V,,,,,,,210411,,,N*41
$GPGGA,141411.183,,,,,0,00,,,M,0.0,M,,0000*5C
$GPGSA,M,1,,,,,,,,,,,,,,,*12
$GPGSV,3,1,11,02,26,125,,09,65,062,,29,60,253,,27,43,046,*7C
$GPGSV,3,2,11,12,36,154,,25,32,203,,14,25,249,,21,16,340,*77
$GPGSV,3,3,11,15,15,006,,05,02,066,,18,00,321,*41
$GPRMC,141411.183,V,,,,,,,210411,,,N*40
$GPGGA,141412.192,,,,,0,00,,,M,0.0,M,,0000*5F
$GPGSA,M,1,,,,,,,,,,,,,,,*12
$GPRMC,141412.192,V,,,,,,,210411,,,N*43
$GPGGA,141413.183,,,,,0,00,,,M,0.0,M,,0000*5E
$GPGSA,M,1,,,,,,,,,,,,,,,*12
$GPRMC,141413.183,V,,,,,,,210411,,,N*42
$GPGGA,141414.183,,,,,0,00,,,M,0.0,M,,0000*59
$GPGSA,M,1,,,,,,,,,,,,,,,*12
$GPRMC,141414.183,V,,,,,,,210411,,,N*45
$GPGGA,141415.198,,,,,0,00,,,M,0.0,M,,0000*52
$GPGSA,M,1,,,,,,,,,,,,,,,*12
$GPRMC,141415.198,V,,,,,,,210411,,,N*4E
$GPGGA,141416.174,,,,,0,00,,,M,0.0,M,,0000*53
$GPGSA,M,1,,,,,,,,,,,,,,,*12
$GPGSV,3,1,11,02,26,125,,09,65,061,,29,60,252,,27,43,046,*7E
$GPGSV,3,2,11,12,36,154,,25,32,203,39,14,25,249,,21,16,340,*7D
$GPGSV,3,3,11,15,15,007,,05,02,066,,18,00,321,*40
$GPRMC,141416.174,V,,,,,,,210411,,,N*4F
$GPGGA,141417.173,,,,,0,00,,,M,0.0,M,,0000*55
$GPGSA,M,1,,,,,,,,,,,,,,,*12
$GPRMC,141417.173,V,,,,,,,210411,,,N*49
$GPGGA,141418.173,,,,,0,00,,,M,0.0,M,,0000*5A
$GPGSA,M,1,,,,,,,,,,,,,,,*12
$GPRMC,141418.173,V,,,,,,,210411,,,N*46
$GPGGA,141419.173,,,,,0,00,,,M,0.0,M,,0000*5B
$GPGSA,M,1,,,,,,,,,,,,,,,*12
$GPRMC,141419.173,V,,,,,,,210411,,,N*47
$GPGGA,141420.173,,,,,0,00,,,M,0.0,M,,0000*51
$GPGSA,M,1,,,,,,,,,,,,,,,*12
$GPRMC,141420.173,V,,,,,,,210411,,,N*4D
$GPGGA,141421.173,,,,,0,00,,,M,0.0,M,,0000*50
$GPGSA,M,1,,,,,,,,,,,,,,,*12
$GPGSV,3,1,11,02,26,125,,09,65,061,,29,60,252,30,27,43,046,*7D
$GPGSV,3,2,11,12,36,154,,25,32,203,36,14,25,249,,21,16,340,*72
$GPGSV,3,3,11,15,15,007,,05,02,066,,18,00,321,*40
$GPRMC,141421.173,V,,,,,,,210411,,,N*4C
$GPGGA,141422.173,,,,,0,00,,,M,0.0,M,,0000*53
$GPGSA,M,1,,,,,,,,,,,,,,,*12
$GPRMC,141422.173,V,,,,,,,210411,,,N*4F
$GPGGA,141423.173,,,,,0,00,,,M,0.0,M,,0000*52
$GPGSA,M,1,,,,,,,,,,,,,,,*12
$GPRMC,141423.173,V,,,,,,,210411,,,N*4E
$GPGGA,141424.173,,,,,0,00,,,M,0.0,M,,0000*55
$GPGSA,M,1,,,,,,,,,,,,,,,*12
$GPRMC,141424.173,V,,,,,,,210411,,,N*49
$GPGGA,141425.173,,,,,0,00,,,M,0.0,M,,0000*54
$GPGSA,M,1,,,,,,,,,,,,,,,*12
$GPRMC,141425.173,V,,,,,,,210411,,,N*48
$GPGGA,141426.173,,,,,0,00,,,M,0.0,M,,0000*57
$GPGSA,M,1,,,,,,,,,,,,,,,*12
$GPGSV,3,1,11,02,26,125,,09,65,061,,29,60,252,30,27,43,046,*7D
$GPGSV,3,2,11,12,36,154,44,25,32,203,40,14,25,249,29,21,16,340,*78
$GPGSV,3,3,11,15,15,007,,05,02,066,,18,00,321,*40
$GPRMC,141426.173,V,,,,,,,210411,,,N*4B
$GPGGA,141427.173,,,,,0,00,,,M,0.0,M,,0000*56
$GPGSA,M,1,,,,,,,,,,,,,,,*12
$GPRMC,141427.173,V,,,,,,,210411,,,N*4A
$GPGGA,141428.173,,,,,0,00,,,M,0.0,M,,0000*59
$GPGSA,M,1,,,,,,,,,,,,,,,*12
$GPRMC,141428.173,V,,,,,,,210411,,,N*45
$GPGGA,141429.173,,,,,0,00,,,M,0.0,M,,0000*58
$GPGSA,M,1,,,,,,,,,,,,,,,*12
$GPRMC,141429.173,V,,,,,,,210411,,,N*44
$GPGGA,141430.173,,,,,0,00,,,M,0.0,M,,0000*50
$GPGSA,M,1,,,,,,,,,,,,,,,*12
$GPRMC,141430.173,V,,,,,,,210411,,,N*4C
$GPGGA,141431.173,,,,,0,00,,,M,0.0,M,,0000*51
$GPGSA,M,1,,,,,,,,,,,,,,,*12
$GPGSV,3,1,11,02,26,125,,09,65,061,,29,60,252,31,27,43,046,*7C
$GPGSV,3,2,11,12,36,154,35,25,32,203,34,14,25,249,32,21,16,340,*77
$GPGSV,3,3,11,15,15,007,,05,02,066,,18,00,321,*40
$GPRMC,141431.173,V,,,,,,,210411,,,N*4D
$GPGGA,141432.173,,,,,0,00,,,M,0.0,M,,0000*52
$GPGSA,M,1,,,,,,,,,,,,,,,*12
$GPRMC,141432.173,V,,,,,,,210411,,,N*4E
$GPGGA,141433.173,,,,,0,00,,,M,0.0,M,,0000*53
$GPGSA,M,1,,,,,,,,,,,,,,,*12
$GPRMC,141433.173,V,,,,,,,210411,,,N*4F
$GPGGA,141434.173,,,,,0,00,,,M,0.0,M,,0000*54
$GPGSA,M,1,,,,,,,,,,,,,,,*12
$GPRMC,141434.173,V,,,,,,,210411,,,N*48
$GPGGA,141435.173,,,,,0,00,,,M,0.0,M,,0000*55
$GPGSA,M,1,,,,,,,,,,,,,,,*12
$GPRMC,141435.173,V,,,,,,,210411,,,N*49
$GPGGA,141436.173,,,,,0,00,,,M,0.0,M,,0000*56
$GPGSA,M,1,,,,,,,,,,,,,,,*12
$GPGSV,3,1,11,02,26,125,,09,65,061,,29,60,252,42,27,43,046,*78
$GPGSV,3,2,11,12,36,154,37,25,32,203,37,14,25,249,34,21,16,340,*70
$GPGSV,3,3,11,15,15,007,,05,02,066,,18,00,321,*40
$GPRMC,141436.173,V,,,,,,,210411,,,N*4A
$GPGGA,141437.173,,,,,0,00,,,M,0.0,M,,0000*57
$GPGSA,M,1,,,,,,,,,,,,,,,*12
$GPRMC,141437.173,V,,,,,,,210411,,,N*4B
$GPGGA,141438.173,,,,,0,00,,,M,0.0,M,,0000*58
$GPGSA,M,1,,,,,,,,,,,,,,,*12
$GPRMC,141438.173,V,,,,,,,210411,,,N*44
$GPGGA,141439.173,,,,,0,00,,,M,0.0,M,,0000*59
$GPGSA,M,1,,,,,,,,,,,,,,,*12
$GPRMC,141439.173,V,,,,,,,210411,,,N*45
$GPGGA,141440.173,,,,,0,00,,,M,0.0,M,,0000*57
$GPGSA,M,1,,,,,,,,,,,,,,,*12
$GPRMC,141440.173,V,,,,,,,210411,,,N*4B
$GPGGA,141441.173,,,,,0,00,,,M,0.0,M,,0000*56
$GPGSA,M,1,,,,,,,,,,,,,,,*12
$GPGSV,3,1,11,02,26,125,,09,65,061,,29,60,252,33,27,43,046,*7E
$GPGSV,3,2,11,12,36,154,36,25,32,203,34,14,25,249,32,21,16,340,*74
$GPGSV,3,3,11,15,15,007,,05,02,067,,18,00,322,*42
$GPRMC,141441.173,V,,,,,,,210411,,,N*4A
$GPGGA,141442.173,,,,,0,00,,,M,0.0,M,,0000*55
$GPGSA,M,1,,,,,,,,,,,,,,,*12
$GPRMC,141442.173,V,,,,,,,210411,,,N*49
$GPGGA,141443.173,,,,,0,00,,,M,0.0,M,,0000*54
$GPGSA,M,1,,,,,,,,,,,,,,,*12
$GPRMC,141443.173,V,,,,,,,210411,,,N*48
$GPGGA,141444.173,,,,,0,00,,,M,0.0,M,,0000*53
$GPGSA,M,1,,,,,,,,,,,,,,,*12
$GPRMC,141444.173,V,,,,,,,210411,,,N*4F
$GPGGA,141445.173,,,,,0,00,,,M,0.0,M,,0000*52
$GPGSA,M,1,,,,,,,,,,,,,,,*12
$GPRMC,141445.173,V,,,,,,,210411,,,N*4E
$GPGGA,141446.173,,,,,0,00,,,M,0.0,M,,0000*51
$GPGSA,M,1,,,,,,,,,,,,,,,*12
$GPGSV,3,1,11,02,26,125,,09,65,061,,29,60,252,33,27,43,046,*7E
$GPGSV,3,2,11,12,36,154,32,25,32,203,36,14,25,249,32,21,16,340,*72
$GPGSV,3,3,11,15,15,007,,05,02,067,,18,00,322,*42
$GPRMC,141446.173,V,,,,,,,210411,,,N*4D
$GPGGA,141447.173,,,,,0,00,,,M,0.0,M,,0000*50
$GPGSA,M,1,,,,,,,,,,,,,,,*12
$GPRMC,141447.173,V,,,,,,,210411,,,N*4C
$GPGGA,141448.173,,,,,0,00,,,M,0.0,M,,0000*5F
$GPGSA,M,1,,,,,,,,,,,,,,,*12
$GPRMC,141448.173,V,,,,,,,210411,,,N*43
$GPGGA,141449.173,,,,,0,00,,,M,0.0,M,,0000*5E
$GPGSA,M,1,,,,,,,,,,,,,,,*12
$GPRMC,141449.173,V,,,,,,,210411,,,N*42
$GPGGA,141450.173,,,,,0,00,,,M,0.0,M,,0000*56
$GPGSA,M,1,,,,,,,,,,,,,,,*12
$GPRMC,141450.173,V,,,,,,,210411,,,N*4A
$GPGGA,141451.173,,,,,0,00,,,M,0.0,M,,0000*57
$GPGSA,M,1,,,,,,,,,,,,,,,*12
$GPGSV,3,1,11,02,26,125,,09,65,061,,29,60,252,32,27,43,046,*7F
$GPGSV,3,2,11,12,36,154,32,25,32,203,36,14,25,249,31,21,16,340,*71
$GPGSV,3,3,11,15,15,007,,05,02,067,,18,00,322,*42
$GPRMC,141451.173,V,,,,,,,210411,,,N*4B
$GPGGA,141452.173,,,,,0,00,,,M,0.0,M,,0000*54
$GPGSA,M,1,,,,,,,,,,,,,,,*12
$GPRMC,141452.173,V,,,,,,,210411,,,N*48
$GPGGA,141453.173,,,,,0,00,,,M,0.0,M,,0000*55
$GPGSA,M,1,,,,,,,,,,,,,,,*12
$GPRMC,141453.173,V,,,,,,,210411,,,N*49
$GPGGA,141454.173,,,,,0,00,,,M,0.0,M,,0000*52
$GPGSA,M,1,,,,,,,,,,,,,,,*12
$GPRMC,141454.173,V,,,,,,,210411,,,N*4E
$GPGGA,141455.173,,,,,0,00,,,M,0.0,M,,0000*53
$GPGSA,M,1,,,,,,,,,,,,,,,*12
$GPRMC,141455.173,V,,,,,,,210411,,,N*4F
$GPGGA,141456.173,,,,,0,00,,,M,0.0,M,,0000*50
$GPGSA,M,1,,,,,,,,,,,,,,,*12
$GPGSV,3,1,11,02,26,125,,09,65,061,,29,60,252,32,27,43,046,*7F
$GPGSV,3,2,11,12,36,154,31,25,32,203,36,14,25,249,30,21,16,340,*73
$GPGSV,3,3,11,15,15,007,,05,02,067,,18,00,322,*42
$GPRMC,141456.173,V,,,,,,,210411,,,N*4C
$GPGGA,141457.173,,,,,0,00,,,M,0.0,M,,0000*51
$GPGSA,M,1,,,,,,,,,,,,,,,*12
$GPRMC,141457.173,V,,,,,,,210411,,,N*4D
$GPGGA,141458.173,,,,,0,00,,,M,0.0,M,,0000*5E
$GPGSA,M,1,,,,,,,,,,,,,,,*12
$GPRMC,141458.173,V,,,,,,,210411,,,N*42
$GPGGA,141459.173,,,,,0,00,,,M,0.0,M,,0000*5F
$GPGSA,M,1,,,,,,,,,,,,,,,*12
$GPRMC,141459.173,V,,,,,,,210411,,,N*43
$GPGGA,141500.173,,,,,0,00,,,M,0.0,M,,0000*52
$GPGSA,M,1,,,,,,,,,,,,,,,*12
$GPRMC,141500.173,V,,,,,,,210411,,,N*4E
$GPGGA,141501.173,,,,,0,00,,,M,0.0,M,,0000*53
$GPGSA,M,1,,,,,,,,,,,,,,,*12
$GPGSV,3,1,11,02,26,125,,09,65,061,,29,60,252,32,27,43,046,*7F
$GPGSV,3,2,11,12,36,154,32,25,32,203,37,14,25,249,29,21,16,340,*79
$GPGSV,3,3,11,15,15,007,,05,02,067,,18,00,322,*42
$GPRMC,141501.173,V,,,,,,,210411,,,N*4F
$GPGGA,141502.173,,,,,0,00,,,M,0.0,M,,0000*50
$GPGSA,M,1,,,,,,,,,,,,,,,*12
$GPRMC,141502.173,V,,,,,,,210411,,,N*4C
$GPGGA,141503.173,,,,,0,00,,,M,0.0,M,,0000*51
$GPGSA,M,1,,,,,,,,,,,,,,,*12
$GPRMC,141503.173,V,,,,,,,210411,,,N*4D
$GPGGA,141504.173,,,,,0,00,,,M,0.0,M,,0000*56
$GPGSA,M,1,,,,,,,,,,,,,,,*12
$GPRMC,141504.173,V,,,,,,,210411,,,N*4A
$GPGGA,141505.173,,,,,0,00,,,M,0.0,M,,0000*57
$GPGSA,M,1,,,,,,,,,,,,,,,*12
$GPRMC,141505.173,V,,,,,,,210411,,,N*4B
$GPGGA,141506.173,,,,,0,00,,,M,0.0,M,,0000*54
$GPGSA,M,1,,,,,,,,,,,,,,,*12
$GPGSV,3,1,11,12,36,153,32,25,32,203,37,02,26,125,,14,25,249,29*7E
$GPGSV,3,2,11,09,65,061,,29,60,252,32,27,43,046,,21,16,340,*7F
$GPGSV,3,3,11,15,15,007,,05,02,067,,18,00,322,*42
$GPRMC,141506.173,V,,,,,,,210411,,,N*48
$GPGGA,141507.173,,,,,0,00,,,M,0.0,M,,0000*55
$GPGSA,M,1,,,,,,,,,,,,,,,*12
$GPRMC,141507.173,V,,,,,,,210411,,,N*49
$GPGGA,141508.173,,,,,0,00,,,M,0.0,M,,0000*5A
$GPGSA,M,1,,,,,,,,,,,,,,,*12
$GPRMC,141508.173,V,,,,,,,210411,,,N*46
$GPGGA,141509.173,,,,,0,00,,,M,0.0,M,,0000*5B
$GPGSA,M,1,,,,,,,,,,,,,,,*12
$GPRMC,141509.173,V,,,,,,,210411,,,N*47
$GPGGA,141510.173,,,,,0,00,,,M,0.0,M,,0000*53
$GPGSA,M,1,,,,,,,,,,,,,,,*12
$GPRMC,141510.173,V,,,,,,,210411,,,N*4F
$GPGGA,141511.173,,,,,0,00,,,M,0.0,M,,0000*52
$GPGSA,M,1,,,,,,,,,,,,,,,*12
$GPGSV,3,1,11,12,36,153,32,25,32,203,38,02,26,125,,14,25,249,28*70
$GPGSV,3,2,11,09,65,061,,29,60,252,32,27,43,046,,21,16,340,*7F
$GPGSV,3,3,11,15,15,007,,05,02,067,,18,00,322,*42
$GPRMC,141511.173,V,,,,,,,210411,,,N*4E
$GPGGA,141512.173,,,,,0,00,,,M,0.0,M,,0000*51
$GPGSA,M,1,,,,,,,,,,,,,,,*12
$GPRMC,141512.173,V,,,,,,,210411,,,N*4D
$GPGGA,141513.173,,,,,0,00,,,M,0.0,M,,0000*50
$GPGSA,M,1,,,,,,,,,,,,,,,*12
$GPRMC,141513.173,V,,,,,,,210411,,,N*4C
$GPGGA,141514.173,,,,,0,00,,,M,0.0,M,,0000*57
$GPGSA,M,1,,,,,,,,,,,,,,,*12
$GPRMC,141514.173,V,,,,,,,210411,,,N*4B
$GPGGA,141515.173,,,,,0,00,,,M,0.0,M,,0000*56
$GPGSA,M,1,,,,,,,,,,,,,,,*12
$GPRMC,141515.173,V,,,,,,,210411,,,N*4A
$GPGGA,141516.173,,,,,0,00,,,M,0.0,M,,0000*55
$GPGSA,M,1,,,,,,,,,,,,,,,*12
$GPGSV,3,1,11,12,36,153,32,25,32,203,38,02,26,125,,14,25,249,20*78
$GPGSV,3,2,11,09,65,061,,29,60,252,32,27,43,046,,21,16,340,*7F
$GPGSV,3,3,11,15,15,007,,05,02,067,,18,00,322,*42
$GPRMC,141516.173,V,,,,,,,210411,,,N*49
$GPGGA,141517.173,,,,,0,00,,,M,0.0,M,,0000*54
$GPGSA,M,1,,,,,,,,,,,,,,,*12
$GPRMC,141517.173,V,,,,,,,210411,,,N*48
$GPGGA,141518.173,,,,,0,00,,,M,0.0,M,,0000*5B
$GPGSA,M,1,,,,,,,,,,,,,,,*12
$GPRMC,141518.173,V,,,,,,,210411,,,N*47
$GPGGA,141519.173,,,,,0,00,,,M,0.0,M,,0000*5A
$GPGSA,M,1,,,,,,,,,,,,,,,*12
$GPRMC,141519.173,V,,,,,,,210411,,,N*46
$GPGGA,141520.173,,,,,0,00,,,M,0.0,M,,0000*50
$GPGSA,M,1,,,,,,,,,,,,,,,*12
$GPRMC,141520.173,V,,,,,,,210411,,,N*4C
$GPGGA,141521.173,,,,,0,00,,,M,0.0,M,,0000*51
$GPGSA,M,1,,,,,,,,,,,,,,,*12
$GPGSV,3,1,11,12,36,153,32,25,32,203,38,02,26,125,,14,25,249,16*7D
$GPGSV,3,2,11,09,65,060,,29,60,251,31,27,43,046,,21,16,340,*7E
$GPGSV,3,3,11,15,15,007,,05,02,067,,18,00,322,*42
$GPRMC,141521.173,V,,,,,,,210411,,,N*4D
$GPGGA,141522.173,,,,,0,00,,,M,0.0,M,,0000*52
$GPGSA,M,1,,,,,,,,,,,,,,,*12
$GPRMC,141522.173,V,,,,,,,210411,,,N*4E
$GPGGA,141523.173,,,,,0,00,,,M,0.0,M,,0000*53
$GPGSA,M,1,,,,,,,,,,,,,,,*12
$GPRMC,141523.173,V,,,,,,,210411,,,N*4F
$GPGGA,141524.173,,,,,0,00,,,M,0.0,M,,0000*54
$GPGSA,M,1,,,,,,,,,,,,,,,*12
$GPRMC,141524.173,V,,,,,,,210411,,,N*48
$GPGGA,141525.173,,,,,0,00,,,M,0.0,M,,0000*55
$GPGSA,M,1,,,,,,,,,,,,,,,*12
$GPRMC,141525.173,V,,,,,,,210411,,,N*49
$GPGGA,141526.173,,,,,0,00,,,M,0.0,M,,0000*56
$GPGSA,M,1,,,,,,,,,,,,,,,*12
$GPGSV,3,1,11,12,36,153,31,25,32,203,38,02,26,125,,14,25,249,15*7D
$GPGSV,3,2,11,09,65,060,,29,60,251,30,27,43,046,,21,16,340,*7F
$GPGSV,3,3,11,15,15,007,,05,02,067,,18,00,322,*42
$GPRMC,141526.173,V,,,,,,,210411,,,N*4A
$GPGGA,141527.173,,,,,0,00,,,M,0.0,M,,0000*57
$GPGSA,M,1,,,,,,,,,,,,,,,*12
$GPRMC,141527.173,V,,,,,,,210411,,,N*4B
$GPGGA,141528.173,,,,,0,00,,,M,0.0,M,,0000*58
$GPGSA,M,1,,,,,,,,,,,,,,,*12
$GPRMC,141528.173,V,,,,,,,210411,,,N*44
$GPGGA,141529.173,,,,,0,00,,,M,0.0,M,,0000*59
$GPGSA,M,1,,,,,,,,,,,,,,,*12
$GPRMC,141529.173,V,,,,,,,210411,,,N*45
$GPGGA,141530.173,,,,,0,00,,,M,0.0,M,,0000*51
$GPGSA,M,1,,,,,,,,,,,,,,,*12
$GPRMC,141530.173,V,,,,,,,210411,,,N*4D
$GPGGA,141531.173,,,,,0,00,,,M,0.0,M,,0000*50
$GPGSA,M,1,,,,,,,,,,,,,,,*12
$GPGSV,3,1,11,12,36,153,31,25,32,203,38,02,26,125,,14,25,249,*79
$GPGSV,3,2,11,09,65,060,38,29,60,251,30,27,43,046,,21,16,340,*74
$GPGSV,3,3,11,15,15,007,,05,02,067,,18,00,322,*42
$GPRMC,141531.173,V,,,,,,,210411,,,N*4C
$GPGGA,141532.173,,,,,0,00,,,M,0.0,M,,0000*53
$GPGSA,M,1,,,,,,,,,,,,,,,*12
$GPRMC,141532.173,V,,,,,,,210411,,,N*4F
$GPGGA,141533.173,,,,,0,00,,,M,0.0,M,,0000*52
$GPGSA,M,1,,,,,,,,,,,,,,,*12
$GPRMC,141533.173,V,,,,,,,210411,,,N*4E
$GPGGA,141534.173,,,,,0,00,,,M,0.0,M,,0000*55
$GPGSA,M,1,,,,,,,,,,,,,,,*12
$GPRMC,141534.173,V,,,,,,,210411,,,N*49
$GPGGA,141535.173,,,,,0,00,,,M,0.0,M,,0000*54
$GPGSA,M,1,,,,,,,,,,,,,,,*12
$GPRMC,141535.173,V,,,,,,,210411,,,N*48
$GPGGA,141536.173,,,,,0,00,,,M,0.0,M,,0000*57
$GPGSA,M,1,,,,,,,,,,,,,,,*12
$GPGSV,3,1,11,29,60,251,29,12,36,153,31,25,32,202,38,02,26,125,*75
$GPGSV,3,2,11,14,25,249,,09,65,060,38,27,43,045,,21,16,340,*72
$GPGSV,3,3,11,15,15,007,,05,02,067,,18,00,322,*42
$GPRMC,141536.173,V,,,,,,,210411,,,N*4B
$GPGGA,141537.173,,,,,0,00,,,M,0.0,M,,0000*56
$GPGSA,M,1,,,,,,,,,,,,,,,*12
$GPRMC,141537.173,V,,,,,,,210411,,,N*4A
$GPGGA,141538.173,,,,,0,00,,,M,0.0,M,,0000*59
$GPGSA,M,1,,,,,,,,,,,,,,,*12
$GPRMC,141538.173,V,,,,,,,210411,,,N*45
$GPGGA,141539.173,,,,,0,00,,,M,0.0,M,,0000*58
$GPGSA,M,1,,,,,,,,,,,,,,,*12
$GPRMC,141539.173,V,,,,,,,210411,,,N*44
$GPGGA,141540.173,,,,,0,00,,,M,0.0,M,,0000*56
$GPGSA,M,1,,,,,,,,,,,,,,,*12
$GPRMC,141540.173,V,,,,,,,210411,,,N*4A
$GPGGA,141541.173,,,,,0,00,,,M,0.0,M,,0000*57
$GPGSA,M,1,,,,,,,,,,,,,,,*12
$GPGSV,3,1,11,29,60,251,26,12,36,153,31,25,32,202,38,02,26,125,*7A
$GPGSV,3,2,11,14,25,249,,09,65,060,38,27,43,045,,21,16,340,*72
$GPGSV,3,3,11,15,15,007,,05,02,067,,18,00,322,*42
$GPRMC,141541.173,V,,,,,,,210411,,,N*4B
$GPGGA,141542.173,,,,,0,00,,,M,0.0,M,,0000*54
$GPGSA,M,1,,,,,,,,,,,,,,,*12
$GPRMC,141542.173,V,,,,,,,210411,,,N*48
$GPGGA,141543.173,,,,,0,00,,,M,0.0,M,,0000*55
$GPGSA,M,1,,,,,,,,,,,,,,,*12
$GPRMC,141543.173,V,,,,,,,210411,,,N*49
$GPGGA,141544.173,,,,,0,00,,,M,0.0,M,,0000*52
$GPGSA,M,1,,,,,,,,,,,,,,,*12
$GPRMC,141544.173,V,,,,,,,210411,,,N*4E
$GPGGA,141545.172,,,,,0,00,,,M,0.0,M,,0000*52
$GPGSA,M,1,,,,,,,,,,,,,,,*12
$GPRMC,141545.172,V,,,,,,,210411,,,N*4E
$GPGGA,141546.172,,,,,0,00,,,M,0.0,M,,0000*51
$GPGSA,M,1,,,,,,,,,,,,,,,*12
$GPGSV,3,1,11,29,60,251,26,12,36,153,32,25,32,202,38,02,26,125,*79
$GPGSV,3,2,11,14,25,249,,09,65,060,37,27,43,045,,21,16,340,*7D
$GPGSV,3,3,11,15,15,007,,05,02,067,,18,00,322,*42
$GPRMC,141546.172,V,,,,,,,210411,,,N*4D
$GPGGA,141547.172,,,,,0,00,,,M,0.0,M,,0000*50
$GPGSA,M,1,,,,,,,,,,,,,,,*12
$GPRMC,141547.172,V,,,,,,,210411,,,N*4C
$GPGGA,141548.172,,,,,0,00,,,M,0.0,M,,0000*5F
$GPGSA,M,1,,,,,,,,,,,,,,,*12
$GPRMC,141548.172,V,,,,,,,210411,,,N*43
$GPGGA,141549.172,,,,,0,00,,,M,0.0,M,,0000*5E
$GPGSA,M,1,,,,,,,,,,,,,,,*12
$GPRMC,141549.172,V,,,,,,,210411,,,N*42
$GPGGA,141550.172,,,,,0,00,,,M,0.0,M,,0000*56
$GPGSA,M,1,,,,,,,,,,,,,,,*12
$GPRMC,141550.172,V,,,,,,,210411,,,N*4A
$GPGGA,141551.172,,,,,0,00,,,M,0.0,M,,0000*57
$GPGSA,M,1,,,,,,,,,,,,,,,*12
$GPGSV,3,1,11,29,60,251,27,12,36,153,33,25,32,202,38,02,25,125,*7A
$GPGSV,3,2,11,14,25,250,,09,65,060,37,27,43,045,,21,16,341,*74
$GPGSV,3,3,11,15,15,007,,05,02,067,,18,00,322,*42
$GPRMC,141551.172,V,,,,,,,210411,,,N*4B
$GPGGA,141552.172,,,,,0,00,,,M,0.0,M,,0000*54
$GPGSA,M,1,,,,,,,,,,,,,,,*12
$GPRMC,141552.172,V,,,,,,,210411,,,N*48
$GPGGA,141553.172,,,,,0,00,,,M,0.0,M,,0000*55
$GPGSA,M,1,,,,,,,,,,,,,,,*12
$GPRMC,141553.172,V,,,,,,,210411,,,N*49
$GPGGA,141554.172,,,,,0,00,,,M,0.0,M,,0000*52
$GPGSA,M,1,,,,,,,,,,,,,,,*12
$GPRMC,141554.172,V,,,,,,,210411,,,N*4E
$GPGGA,141555.172,,,,,0,00,,,M,0.0,M,,0000*53
$GPGSA,M,1,,,,,,,,,,,,,,,*12
$GPRMC,141555.172,V,,,,,,,210411,,,N*4F
$GPGGA,141556.172,,,,,0,00,,,M,0.0,M,,0000*50
$GPGSA,M,1,,,,,,,,,,,,,,,*12
$GPGSV,3,1,11,29,60,251,27,12,36,153,33,25,32,202,38,02,25,125,*7A
$GPGSV,3,2,11,14,25,250,,09,65,060,37,27,43,045,,21,16,341,*74
$GPGSV,3,3,11,15,15,007,,05,02,067,,18,00,322,*42
$GPRMC,141556.172,V,,,,,,,210411,,,N*4C
$GPGGA,141557.172,,,,,0,00,,,M,0.0,M,,0000*51
$GPGSA,M,1,,,,,,,,,,,,,,,*12
$GPRMC,141557.172,V,,,,,,,210411,,,N*4D
$GPGGA,141558.172,,,,,0,00,,,M,0.0,M,,0000*5E
$GPGSA,M,1,,,,,,,,,,,,,,,*12
$GPRMC,141558.172,V,,,,,,,210411,,,N*42
$GPGGA,141559.172,,,,,0,00,,,M,0.0,M,,0000*5F
$GPGSA,M,1,,,,,,,,,,,,,,,*12
$GPRMC,141559.172,V,,,,,,,210411,,,N*43
$GPGGA,141600.172,,,,,0,00,,,M,0.0,M,,0000*50
$GPGSA,M,1,,,,,,,,,,,,,,,*12
$GPRMC,141600.172,V,,,,,,,210411,,,N*4C
$GPGGA,141601.172,,,,,0,00,,,M,0.0,M,,0000*51
$GPGSA,M,1,,,,,,,,,,,,,,,*12
$GPGSV,3,1,11,29,60,251,27,12,36,153,33,25,32,202,39,02,25,125,*7B
$GPGSV,3,2,11,14,25,250,,09,65,060,38,27,43,045,,21,16,341,*7B
$GPGSV,3,3,11,15,15,007,,05,02,067,,18,00,322,*42
$GPRMC,141601.172,V,,,,,,,210411,,,N*4D
$GPGGA,141602.172,,,,,0,00,,,M,0.0,M,,0000*52
$GPGSA,M,1,,,,,,,,,,,,,,,*12
$GPRMC,141602.172,V,,,,,,,210411,,,N*4E
$GPGGA,141603.172,,,,,0,00,,,M,0.0,M,,0000*53
$GPGSA,M,1,,,,,,,,,,,,,,,*12
$GPRMC,141603.172,V,,,,,,,210411,,,N*4F
$GPGGA,141604.172,,,,,0,00,,,M,0.0,M,,0000*54
$GPGSA,M,1,,,,,,,,,,,,,,,*12
$GPRMC,141604.172,V,,,,,,,210411,,,N*48
$GPGGA,141605.172,,,,,0,00,,,M,0.0,M,,0000*55
$GPGSA,M,1,,,,,,,,,,,,,,,*12
$GPRMC,141605.172,V,,,,,,,210411,,,N*49
$GPGGA,141635.484,,,,,0,00,,,M,0.0,M,,0000*5A
$GPGSA,M,1,,,,,,,,,,,,,,,*12
$GPRMC,141635.484,V,,,,,,,210411,,,N*46
$GPGGA,141636.180,,,,,0,00,,,M,0.0,M,,0000*58
$GPGSA,M,1,,,,,,,,,,,,,,,*12
$GPGSV,3,1,11,09,65,060,,29,60,251,,27,43,045,,12,36,153,*7E
$GPGSV,3,2,11,25,32,202,,02,25,125,,14,25,250,,21,16,341,*7A
$GPGSV,3,3,11,15,15,007,,05,02,067,,18,00,322,*42
$GPRMC,141636.180,V,,,,,,,210411,,,N*44
$GPGGA,141636.477,1338.0829,S,07252.7934,W,1,05,2.3,2433.2,M,27.0,M,,0000*64
$GPGSA,M,3,29,14,12,25,02,,,,,,,,2.5,2.3,1.0*31
$GPGSV,3,1,11,29,60,250,46,12,36,153,42,25,32,202,41,14,25,250,44*72
$GPGSV,3,2,11,02,25,126,37,09,64,059,,27,42,045,,21,16,341,*7B
$GPGSV,3,3,11,15,14,007,,05,02,067,,18,00,322,*43
$GPRMC,141636.477,A,1338.0829,S,07252.7934,W,0.00,,210411,,,A*7A
$GPGGA,141637.170,1338.0872,S,07252.8035,W,1,05,2.5,2435.3,M,27.0,M,,0000*6F
$GPGSA,M,3,29,14,25,12,02,,,,,,,,4.0,2.5,3.2*34
$GPRMC,141637.170,A,1338.0872,S,07252.8035,W,2.39,23.27,210411,,,A*52
$GPGGA,141638.000,1338.0826,S,07252.8032,W,1,05,2.5,2435.5,M,27.0,M,,0000*66
$GPGSA,M,3,29,14,25,12,02,,,,,,,,4.0,2.5,3.2*34
$GPRMC,141638.000,A,1338.0826,S,07252.8032,W,0.65,13.30,210411,,,A*53
$GPGGA,141639.000,1338.0840,S,07252.8031,W,1,05,2.5,2436.9,M,27.0,M,,0000*6B
$GPGSA,M,3,29,14,25,12,02,,,,,,,,4.0,2.5,3.2*34
$GPRMC,141639.000,A,1338.0840,S,07252.8031,W,0.42,16.65,210411,,,A*51
$GPGGA,141640.000,1338.0845,S,07252.8031,W,1,05,2.5,2437.6,M,27.0,M,,0000*6E
$GPGSA,M,3,29,14,25,12,02,,,,,,,,4.0,2.5,3.2*34
$GPRMC,141640.000,A,1338.0845,S,07252.8031,W,0.40,12.32,210411,,,A*5E
$GPGGA,141641.000,1338.0841,S,07252.8030,W,1,05,2.5,2436.7,M,27.0,M,,0000*6A
$GPGSA,M,3,29,14,25,12,02,,,,,,,,4.0,2.5,3.2*34
$GPGSV,3,1,11,29,60,250,48,12,36,153,41,25,32,202,37,14,25,250,44*7E
$GPGSV,3,2,11,02,25,126,34,09,64,059,39,27,42,045,24,21,16,341,*74
$GPGSV,3,3,11,15,14,007,,05,02,067,,18,00,322,*43
$GPRMC,141641.000,A,1338.0841,S,07252.8030,W,0.47,10.43,210411,,,A*59
$GPGGA,141642.000,1338.0841,S,07252.8031,W,1,05,2.5,2436.5,M,27.0,M,,0000*6A
$GPGSA,M,3,29,14,25,12,02,,,,,,,,4.0,2.5,3.2*34
$GPRMC,141642.000,A,1338.0841,S,07252.8031,W,0.48,16.80,210411,,,A*5D
$GPGGA,141643.000,1338.0836,S,07252.8025,W,1,05,2.5,2435.8,M,27.0,M,,0000*60
$GPGSA,M,3,29,14,25,12,02,,,,,,,,4.0,2.5,3.2*34
$GPRMC,141643.000,A,1338.0836,S,07252.8025,W,0.42,35.38,210411,,,A*51
$GPGGA,141644.000,1338.0844,S,07252.8020,W,1,05,2.5,2434.6,M,27.0,M,,0000*68
$GPGSA,M,3,29,14,25,12,02,,,,,,,,4.0,2.5,3.2*34
$GPRMC,141644.000,A,1338.0844,S,07252.8020,W,1.79,12.95,210411,,,A*5D
$GPGGA,141645.000,1338.0845,S,07252.8018,W,1,05,2.5,2433.0,M,27.0,M,,0000*62
$GPGSA,M,3,29,14,25,12,02,,,,,,,,4.0,2.5,3.2*34
$GPRMC,141645.000,A,1338.0845,S,07252.8018,W,0.76,7.40,210411,,,A*64
$GPGGA,141646.000,1338.0849,S,07252.8018,W,1,05,2.5,2432.7,M,27.0,M,,0000*6B
$GPGSA,M,3,29,14,25,12,02,,,,,,,,4.0,2.5,3.2*34
$GPGSV,3,1,11,29,60,250,37,12,36,153,29,25,32,202,45,14,25,250,37*79
$GPGSV,3,2,11,02,25,126,40,09,64,059,28,27,42,045,18,21,16,341,*78
$GPGSV,3,3,11,15,14,007,24,05,02,067,,18,00,322,*45
$GPRMC,141646.000,A,1338.0849,S,07252.8018,W,0.39,10.29,210411,,,A*59
$GPGGA,141647.000,1338.0852,S,07252.8019,W,1,05,2.5,2432.9,M,27.0,M,,0000*6F
$GPGSA,M,3,29,14,25,12,02,,,,,,,,4.0,2.5,3.2*34
$GPRMC,141647.000,A,1338.0852,S,07252.8019,W,0.41,10.20,210411,,,A*55
$GPGGA,141648.467,1338.0851,S,07252.8017,W,1,05,2.5,2432.2,M,27.0,M,,0000*63
$GPGSA,M,3,29,12,25,14,02,,,,,,,,4.0,2.5,3.2*34
$GPRMC,141648.467,A,1338.0851,S,07252.8017,W,0.29,157.99,210411,,,A*6C
$GPGGA,141649.001,1338.0848,S,07252.8016,W,1,05,2.5,2432.7,M,27.0,M,,0000*6A
$GPGSA,M,3,29,12,25,14,02,,,,,,,,4.0,2.5,3.2*34
$GPRMC,141649.001,A,1338.0848,S,07252.8016,W,0.22,206.25,210411,,,A*6B
$GPGGA,141650.005,1338.0851,S,07252.8015,W,1,04,2.8,2432.2,M,27.0,M,,0000*64
$GPGSA,M,3,29,25,14,02,,,,,,,,,4.4,2.8,3.4*38
$GPRMC,141650.005,A,1338.0851,S,07252.8015,W,0.34,186.28,210411,,,A*6D
$GPGGA,141650.996,1338.0852,S,07252.8015,W,1,05,2.5,2432.5,M,27.0,M,,0000*6F
$GPGSA,M,3,29,12,25,14,02,,,,,,,,4.0,2.5,3.2*34
$GPGSV,3,1,11,09,64,059,32,29,60,250,37,27,42,045,,12,36,153,27*75
$GPGSV,3,2,11,25,32,202,40,14,25,250,36,02,25,126,36,21,16,341,*7D
$GPGSV,3,3,11,15,14,007,,05,02,067,,18,00,322,*43
$GPRMC,141650.996,A,1338.0852,S,07252.8015,W,0.50,118.92,210411,,,A*69
$GPGGA,141652.000,1338.0852,S,07252.8014,W,1,05,2.5,2432.3,M,27.0,M,,0000*6C
$GPGSA,M,3,29,12,25,14,02,,,,,,,,4.0,2.5,3.2*34
$GPRMC,141652.000,A,1338.0852,S,07252.8014,W,0.51,203.86,210411,,,A*61
$GPGGA,141653.002,1338.0855,S,07252.8015,W,1,04,2.8,2431.8,M,27.0,M,,0000*6D
$GPGSA,M,3,29,25,14,02,,,,,,,,,4.4,2.8,3.4*38
$GPRMC,141653.002,A,1338.0855,S,07252.8015,W,0.53,244.32,210411,,,A*6A
$GPGGA,141654.003,1338.0856,S,07252.8015,W,1,05,2.5,2432.5,M,27.0,M,,0000*6A
$GPGSA,M,3,29,12,25,14,02,,,,,,,,4.0,2.5,3.2*34
$GPRMC,141654.003,A,1338.0856,S,07252.8015,W,0.37,152.15,210411,,,A*6C
$GPGGA,141654.997,1338.0853,S,07252.8015,W,1,04,2.8,2431.7,M,27.0,M,,0000*66
$GPGSA,M,3,29,25,14,02,,,,,,,,,4.4,2.8,3.4*38
$GPRMC,141654.997,A,1338.0853,S,07252.8015,W,0.17,173.68,210411,,,A*66
$GPGGA,141656.000,1338.0855,S,07252.8015,W,1,04,2.8,2433.2,M,27.0,M,,0000*62
$GPGSA,M,3,29,25,14,02,,,,,,,,,4.4,2.8,3.4*38
$GPGSV,3,1,11,09,64,059,29,29,60,250,36,27,42,045,,12,36,153,*7B
$GPGSV,3,2,11,25,32,202,40,14,25,250,30,02,25,126,36,21,16,341,*7B
$GPGSV,3,3,11,15,14,007,,05,02,067,,18,00,322,*43
$GPRMC,141656.000,A,1338.0855,S,07252.8015,W,0.42,212.01,210411,,,A*6E
$GPGGA,141657.000,1338.0848,S,07252.8017,W,1,04,2.8,2432.0,M,27.0,M,,0000*6E
$GPGSA,M,3,29,25,14,02,,,,,,,,,4.4,2.8,3.4*38
$GPRMC,141657.000,A,1338.0848,S,07252.8017,W,1.38,339.11,210411,,,A*64
$GPGGA,141658.000,1338.0846,S,07252.8016,W,1,04,2.8,2432.9,M,27.0,M,,0000*67
$GPGSA,M,3,29,25,14,02,,,,,,,,,4.4,2.8,3.4*38
$GPRMC,141658.000,A,1338.0846,S,07252.8016,W,0.63,29.13,210411,,,A*5B
$GPGGA,141659.000,1338.0842,S,07252.8016,W,1,04,2.8,2431.9,M,27.0,M,,0000*61
$GPGSA,M,3,29,25,14,02,,,,,,,,,4.4,2.8,3.4*38
$GPRMC,141659.000,A,1338.0842,S,07252.8016,W,0.33,308.09,210411,,,A*60
$GPGGA,141700.000,1338.0841,S,07252.8016,W,1,04,2.8,2431.2,M,27.0,M,,0000*64
$GPGSA,M,3,29,25,14,02,,,,,,,,,4.4,2.8,3.4*38
$GPRMC,141700.000,A,1338.0841,S,07252.8016,W,0.27,15.60,210411,,,A*5B
$GPGGA,141701.000,1338.0840,S,07252.8017,W,1,04,2.8,2428.6,M,27.0,M,,0000*69
$GPGSA,M,3,29,25,14,02,,,,,,,,,4.4,2.8,3.4*38
$GPGSV,3,1,11,09,64,059,27,29,60,250,37,27,42,045,,12,36,153,*74
$GPGSV,3,2,11,25,32,202,41,14,25,250,31,02,25,126,36,21,16,341,*7B
$GPGSV,3,3,11,15,14,007,,05,02,067,,18,00,322,*43
$GPRMC,141701.000,A,1338.0840,S,07252.8017,W,0.30,177.45,210411,,,A*6E
$GPGGA,141702.003,1338.0845,S,07252.8015,W,1,04,2.8,2430.4,M,27.0,M,,0000*65
$GPGSA,M,3,29,25,14,02,,,,,,,,,4.4,2.8,3.4*38
$GPRMC,141702.003,A,1338.0845,S,07252.8015,W,1.14,179.68,210411,,,A*6F
$GPGGA,141702.998,1338.0847,S,07252.8015,W,1,04,2.8,2430.3,M,27.0,M,,0000*6B
$GPGSA,M,3,29,25,14,02,,,,,,,,,4.4,2.8,3.4*38
$GPRMC,141702.998,A,1338.0847,S,07252.8015,W,0.08,171.91,210411,,,A*64
$GPGGA,141704.001,1338.0844,S,07252.8016,W,1,04,2.8,2431.4,M,27.0,M,,0000*62
$GPGSA,M,3,29,25,14,02,,,,,,,,,4.4,2.8,3.4*38
$GPRMC,141704.001,A,1338.0844,S,07252.8016,W,0.23,38.12,210411,,,A*55
$GPGGA,141705.000,1338.0845,S,07252.8013,W,1,05,2.5,2432.7,M,27.0,M,,0000*6A
$GPGSA,M,3,29,12,25,14,02,,,,,,,,4.0,2.5,3.2*34
$GPRMC,141705.000,A,1338.0845,S,07252.8013,W,0.62,228.48,210411,,,A*68
$GPGGA,141706.000,1338.0840,S,07252.8013,W,1,05,2.5,2432.6,M,27.0,M,,0000*6D
$GPGSA,M,3,29,12,25,14,02,,,,,,,,4.0,2.5,3.2*34
$GPGSV,3,1,11,09,64,059,33,29,60,250,37,27,42,045,24,12,36,153,34*70
$GPGSV,3,2,11,25,32,202,40,14,25,250,36,02,25,126,35,21,16,341,*7E
$GPGSV,3,3,11,15,14,007,,05,02,067,,18,00,322,*43
$GPRMC,141706.000,A,1338.0840,S,07252.8013,W,0.98,338.77,210411,,,A*67
$GPGGA,141707.005,1338.0841,S,07252.8013,W,1,05,2.5,2434.4,M,27.0,M,,0000*6C
$GPGSA,M,3,29,12,25,14,02,,,,,,,,4.0,2.5,3.2*34
$GPRMC,141707.005,A,1338.0841,S,07252.8013,W,0.57,190.81,210411,,,A*68
$GPGGA,141707.993,1338.0836,S,07252.8011,W,1,05,2.5,2432.9,M,27.0,M,,0000*63
$GPGSA,M,3,29,12,25,14,02,,,,,,,,4.0,2.5,3.2*34
$GPRMC,141707.993,A,1338.0836,S,07252.8011,W,0.25,352.02,210411,,,A*6E
$GPGGA,141709.001,1338.0838,S,07252.8010,W,1,04,2.8,2435.0,M,27.0,M,,0000*62
$GPGSA,M,3,29,25,14,02,,,,,,,,,4.4,2.8,3.4*38
$GPRMC,141709.001,A,1338.0838,S,07252.8010,W,0.28,217.55,210411,,,A*62
$GPGGA,141710.001,1338.0835,S,07252.8010,W,1,04,2.8,2434.2,M,27.0,M,,0000*64
$GPGSA,M,3,29,25,14,02,,,,,,,,,4.4,2.8,3.4*38
$GPRMC,141710.001,A,1338.0835,S,07252.8010,W,0.39,187.12,210411,,,A*6E
$GPGGA,141711.001,1338.0841,S,07252.8010,W,1,04,2.8,2435.5,M,27.0,M,,0000*60
$GPGSA,M,3,29,25,14,02,,,,,,,,,4.4,2.8,3.4*38
$GPGSV,3,1,11,09,64,059,26,29,60,250,37,27,42,045,,12,36,153,*75
$GPGSV,3,2,11,25,32,202,40,14,25,250,35,02,25,126,35,21,16,341,*7D
$GPGSV,3,3,11,15,14,007,,05,02,067,,18,00,322,*43
$GPRMC,141711.001,A,1338.0841,S,07252.8010,W,0.55,159.43,210411,,,A*61
$GPGGA,141712.002,1338.0842,S,07252.8007,W,1,05,2.5,2436.7,M,27.0,M,,0000*68
$GPGSA,M,3,29,12,25,14,02,,,,,,,,4.0,2.5,3.2*34
$GPRMC,141712.002,A,1338.0842,S,07252.8007,W,0.37,188.66,210411,,,A*6B
$GPGGA,141712.998,1338.0845,S,07252.8009,W,1,05,2.5,2437.9,M,27.0,M,,0000*64
$GPGSA,M,3,29,12,25,14,02,,,,,,,,4.0,2.5,3.2*34
$GPRMC,141712.998,A,1338.0845,S,07252.8009,W,0.46,175.28,210411,,,A*66
$GPGGA,141714.000,1338.0839,S,07252.8009,W,1,05,2.5,2437.8,M,27.0,M,,0000*60
$GPGSA,M,3,29,12,25,14,02,,,,,,,,4.0,2.5,3.2*34
$GPRMC,141714.000,A,1338.0839,S,07252.8009,W,0.01,1.49,210411,,,A*65
$GPGGA,141715.001,1338.0833,S,07252.8007,W,1,04,2.8,2439.2,M,27.0,M,,0000*6C
$GPGSA,M,3,29,25,14,02,,,,,,,,,4.4,2.8,3.4*38
$GPRMC,141715.001,A,1338.0833,S,07252.8007,W,0.20,304.14,210411,,,A*6C
$GPGGA,141716.002,1338.0828,S,07252.8006,W,1,04,2.8,2439.8,M,27.0,M,,0000*6D
$GPGSA,M,3,29,25,14,02,,,,,,,,,4.4,2.8,3.4*38
$GPGSV,3,1,11,09,64,059,31,29,60,250,37,27,42,045,,12,36,153,*73
$GPGSV,3,2,11,25,32,202,40,14,25,250,31,02,25,126,36,21,16,341,*7A
$GPGSV,3,3,11,15,14,007,,05,02,067,,18,00,322,*43
$GPRMC,141716.002,A,1338.0828,S,07252.8006,W,0.03,337.79,210411,,,A*6D
$GPGGA,141716.998,1338.0832,S,07252.8004,W,1,04,2.8,2441.5,M,27.0,M,,0000*6C
$GPGSA,M,3,29,25,14,02,,,,,,,,,4.4,2.8,3.4*38
$GPRMC,141716.998,A,1338.0832,S,07252.8004,W,0.41,197.74,210411,,,A*6D
$GPGGA,141718.000,1338.0828,S,07252.8004,W,1,04,2.8,2441.5,M,27.0,M,,0000*61
$GPGSA,M,3,29,25,14,02,,,,,,,,,4.4,2.8,3.4*38
$GPRMC,141718.000,A,1338.0828,S,07252.8004,W,0.39,183.44,210411,,,A*69
$GPGGA,141719.000,1338.0832,S,07252.8002,W,1,04,2.8,2441.7,M,27.0,M,,0000*6F
$GPGSA,M,3,29,25,14,02,,,,,,,,,4.4,2.8,3.4*38
$GPRMC,141719.000,A,1338.0832,S,07252.8002,W,0.82,139.13,210411,,,A*66
$GPGGA,141719.998,1338.0835,S,07252.8002,W,1,05,2.5,2441.4,M,27.0,M,,0000*6F
$GPGSA,M,3,29,12,25,14,02,,,,,,,,4.0,2.5,3.2*34
$GPRMC,141719.998,A,1338.0835,S,07252.8002,W,0.83,145.55,210411,,,A*61
$GPGGA,141721.000,1338.0836,S,07252.8002,W,1,05,2.5,2441.3,M,27.0,M,,0000*68
$GPGSA,M,3,29,12,25,14,02,,,,,,,,4.0,2.5,3.1*37
$GPGSV,3,1,11,09,64,059,31,29,60,250,36,27,42,045,,12,36,153,27*77
$GPGSV,3,2,11,25,32,202,40,14,25,250,29,02,25,126,34,21,16,341,*71
$GPGSV,3,3,11,15,14,007,,05,02,067,,18,00,322,*43
$GPRMC,141721.000,A,1338.0836,S,07252.8002,W,0.59,189.05,210411,,,A*63
$GPGGA,141722.000,1338.0837,S,07252.8001,W,1,04,2.8,2442.5,M,27.0,M,,0000*60
$GPGSA,M,3,29,25,14,02,,,,,,,,,4.4,2.8,3.3*3F
$GPRMC,141722.000,A,1338.0837,S,07252.8001,W,0.36,170.89,210411,,,A*69
$GPGGA,141723.002,1338.0829,S,07252.7999,W,1,04,2.8,2440.5,M,27.0,M,,0000*69
$GPGSA,M,3,29,25,14,02,,,,,,,,,4.4,2.8,3.3*3F
$GPRMC,141723.002,A,1338.0829,S,07252.7999,W,0.33,341.49,210411,,,A*6B
$GPGGA,141723.998,1338.0830,S,07252.7999,W,1,04,2.8,2441.7,M,27.0,M,,0000*68
$GPGSA,M,3,29,25,14,02,,,,,,,,,4.4,2.8,3.3*3F
$GPRMC,141723.998,A,1338.0830,S,07252.7999,W,0.74,32.57,210411,,,A*52
$GPGGA,141725.000,1338.0815,S,07252.7999,W,1,05,2.5,2438.6,M,27.0,M,,0000*62
$GPGSA,M,3,29,12,25,14,02,,,,,,,,4.0,2.5,3.1*37
$GPRMC,141725.000,A,1338.0815,S,07252.7999,W,0.43,47.14,210411,,,A*5A
$GPGGA,141726.000,1338.0815,S,07252.8001,W,1,05,2.5,2439.9,M,27.0,M,,0000*68
$GPGSA,M,3,29,12,25,14,02,,,,,,,,4.0,2.5,3.1*37
$GPGSV,3,1,11,09,64,059,30,29,60,250,35,27,42,045,,12,36,153,30*73
$GPGSV,3,2,11,25,32,202,41,14,25,250,35,02,25,126,33,21,16,341,*7A
$GPGSV,3,3,11,15,14,007,,05,02,067,,18,00,322,*43
$GPRMC,141726.000,A,1338.0815,S,07252.8001,W,0.84,239.07,210411,,,A*6C
$GPGGA,141727.000,1338.0810,S,07252.8001,W,1,04,2.8,2440.2,M,27.0,M,,0000*65
$GPGSA,M,3,29,25,14,02,,,,,,,,,4.4,2.8,3.3*3F
$GPRMC,141727.000,A,1338.0810,S,07252.8001,W,0.73,305.69,210411,,,A*66
$GPGGA,141728.001,1338.0812,S,07252.8003,W,1,05,2.5,2440.8,M,27.0,M,,0000*6D
$GPGSA,M,3,29,12,25,14,02,,,,,,,,4.0,2.5,3.1*37
$GPRMC,141728.001,A,1338.0812,S,07252.8003,W,0.22,226.03,210411,,,A*60
$GPGGA,141729.001,1338.0808,S,07252.8003,W,1,05,2.5,2440.9,M,27.0,M,,0000*66
$GPGSA,M,3,29,12,25,14,02,,,,,,,,4.0,2.5,3.1*37
$GPRMC,141729.001,A,1338.0808,S,07252.8003,W,0.30,300.29,210411,,,A*64
$GPGGA,141730.002,1338.0805,S,07252.8002,W,1,05,2.5,2441.0,M,27.0,M,,0000*69
$GPGSA,M,3,29,12,25,14,02,,,,,,,,4.0,2.5,3.1*37
$GPRMC,141730.002,A,1338.0805,S,07252.8002,W,0.26,102.93,210411,,,A*65
$GPGGA,141730.999,1338.0798,S,07252.8001,W,1,04,2.8,2440.0,M,27.0,M,,0000*67
$GPGSA,M,3,29,25,14,02,,,,,,,,,4.4,2.8,3.3*3F
$GPGSV,3,1,11,09,64,059,30,29,60,250,37,27,42,045,29,12,36,153,*79
$GPGSV,3,2,11,25,32,202,41,14,25,250,33,02,25,126,36,21,16,341,*79
$GPGSV,3,3,11,15,14,007,,05,02,067,,18,00,322,*43
$GPRMC,141730.999,A,1338.0798,S,07252.8001,W,0.44,346.76,210411,,,A*6B
$GPGGA,141732.002,1338.0796,S,07252.8004,W,1,04,4.1,2439.1,M,27.0,M,,0000*65
$GPGSA,M,3,29,12,25,02,,,,,,,,,8.7,4.1,7.7*39
$GPRMC,141732.002,A,1338.0796,S,07252.8004,W,0.58,324.49,210411,,,A*6C
$GPGGA,141732.998,1338.0795,S,07252.8004,W,1,05,2.5,2438.6,M,27.0,M,,0000*69
$GPGSA,M,3,29,12,25,14,02,,,,,,,,4.0,2.5,3.1*37
$GPRMC,141732.998,A,1338.0795,S,07252.8004,W,0.53,6.04,210411,,,A*64
$GPGGA,141734.002,1338.0790,S,07252.8003,W,1,04,4.1,2438.7,M,27.0,M,,0000*65
$GPGSA,M,3,29,12,25,02,,,,,,,,,8.7,4.1,7.7*39
$GPRMC,141734.002,A,1338.0790,S,07252.8003,W,0.75,312.92,210411,,,A*67
$GPGGA,141734.998,1338.0786,S,07252.8003,W,1,05,2.5,2438.2,M,27.0,M,,0000*6E
$GPGSA,M,3,29,12,25,14,02,,,,,,,,4.0,2.5,3.1*37
$GPRMC,141734.998,A,1338.0786,S,07252.8003,W,0.71,353.57,210411,,,A*62
$GPGGA,141736.000,1338.0781,S,07252.8001,W,1,05,2.5,2437.1,M,27.0,M,,0000*6D
$GPGSA,M,3,29,12,25,14,02,,,,,,,,4.0,2.5,3.1*37
$GPGSV,3,1,11,09,64,059,31,29,60,250,37,27,42,045,29,12,36,153,31*7A
$GPGSV,3,2,11,25,32,202,41,14,25,250,30,02,25,126,34,21,16,341,*78
$GPGSV,3,3,11,15,14,007,,05,02,067,,18,00,322,*43
$GPRMC,141736.000,A,1338.0781,S,07252.8001,W,0.89,1.75,210411,,,A*6E
$GPGGA,141737.002,1338.0772,S,07252.8002,W,1,04,4.1,2438.0,M,27.0,M,,0000*6C
$GPGSA,M,3,29,12,25,02,,,,,,,,,8.7,4.1,7.7*39
$GPRMC,141737.002,A,1338.0772,S,07252.8002,W,0.57,13.68,210411,,,A*5E
$GPGGA,141738.000,1338.0767,S,07252.8003,W,1,04,2.8,2437.0,M,27.0,M,,0000*64
$GPGSA,M,3,29,25,14,02,,,,,,,,,4.3,2.8,3.3*38
$GPRMC,141738.000,A,1338.0767,S,07252.8003,W,0.25,245.92,210411,,,A*67
$GPGGA,141738.998,1338.0766,S,07252.8004,W,1,05,2.5,2434.4,M,27.0,M,,0000*61
$GPGSA,M,3,29,12,25,14,02,,,,,,,,4.0,2.5,3.1*37
$GPRMC,141738.998,A,1338.0766,S,07252.8004,W,0.26,179.14,210411,,,A*68
$GPGGA,141740.002,1338.0770,S,07252.8006,W,1,04,4.1,2433.3,M,27.0,M,,0000*62
$GPGSA,M,3,29,12,25,02,,,,,,,,,8.7,4.1,7.7*39
$GPRMC,141740.002,A,1338.0770,S,07252.8006,W,0.10,309.20,210411,,,A*6F
$GPGGA,141741.000,1338.0771,S,07252.8007,W,1,04,4.1,2432.5,M,27.0,M,,0000*66
$GPGSA,M,3,29,12,25,02,,,,,,,,,8.7,4.1,7.7*39
$GPGSV,3,1,11,09,64,059,30,29,60,250,37,27,42,045,31,12,36,153,30*73
$GPGSV,3,2,11,25,32,202,40,14,25,250,,02,25,126,35,21,16,341,*7B
$GPGSV,3,3,11,15,14,007,,05,02,067,,18,00,322,*43
$GPRMC,141741.000,A,1338.0771,S,07252.8007,W,1.07,13.31,210411,,,A*53
$GPGGA,141742.002,1338.0772,S,07252.8004,W,1,04,4.1,2432.7,M,27.0,M,,0000*65
$GPGSA,M,3,29,12,25,02,,,,,,,,,8.7,4.1,7.7*39
$GPRMC,141742.002,A,1338.0772,S,07252.8004,W,0.51,212.46,210411,,,A*63
$GPGGA,141742.996,1338.0777,S,07252.8004,W,1,05,2.5,2431.6,M,27.0,M,,0000*65
$GPGSA,M,3,29,12,25,14,02,,,,,,,,4.0,2.5,3.1*37
$GPRMC,141742.996,A,1338.0777,S,07252.8004,W,0.60,24.13,210411,,,A*57
$GPGGA,141743.998,1338.0773,S,07252.8004,W,1,04,2.8,2427.3,M,27.0,M,,0000*60
$GPGSA,M,3,29,25,14,02,,,,,,,,,4.3,2.8,3.3*38
$GPRMC,141743.998,A,1338.0773,S,07252.8004,W,0.75,355.88,210411,,,A*6F
$GPGGA,141745.002,1338.0771,S,07252.8005,W,1,05,2.5,2428.0,M,27.0,M,,0000*6F
$GPGSA,M,3,29,12,25,14,02,,,,,,,,4.0,2.5,3.1*37
$GPRMC,141745.002,A,1338.0771,S,07252.8005,W,0.19,39.79,210411,,,A*5D
$GPGGA,141745.998,1338.0764,S,07252.8004,W,1,04,2.8,2427.7,M,27.0,M,,0000*64
$GPGSA,M,3,29,25,14,02,,,,,,,,,4.3,2.8,3.3*38
$GPGSV,3,1,11,09,64,059,34,29,60,250,39,27,42,045,28,12,36,153,*72
$GPGSV,3,2,11,25,32,202,40,14,25,250,29,02,25,126,36,21,16,341,*73
$GPGSV,3,3,11,15,14,007,,05,02,067,,18,00,322,*43
$GPRMC,141745.998,A,1338.0764,S,07252.8004,W,0.65,8.14,210411,,,A*60
$GPGGA,141747.002,1338.0764,S,07252.8005,W,1,05,2.5,2427.9,M,27.0,M,,0000*6F
$GPGSA,M,3,29,12,25,14,02,,,,,,,,4.0,2.5,3.1*37
$GPRMC,141747.002,A,1338.0764,S,07252.8005,W,0.96,31.66,210411,,,A*5A
$GPGGA,141747.998,1338.0769,S,07252.8003,W,1,04,2.8,2428.7,M,27.0,M,,0000*63
$GPGSA,M,3,29,25,14,02,,,,,,,,,4.3,2.8,3.3*38
$GPRMC,141747.998,A,1338.0769,S,07252.8003,W,0.34,77.44,210411,,,A*51
$GPGGA,141749.000,1338.0772,S,07252.8000,W,1,04,2.8,2431.0,M,27.0,M,,0000*63
$GPGSA,M,3,29,25,14,02,,,,,,,,,4.3,2.8,3.3*38
$GPRMC,141749.000,A,1338.0772,S,07252.8000,W,0.51,314.36,210411,,,A*6E
$GPGGA,141749.999,1338.0764,S,07252.7997,W,1,05,2.5,2429.3,M,27.0,M,,0000*63
$GPGSA,M,3,29,12,25,14,02,,,,,,,,4.0,2.5,3.1*37
$GPRMC,141749.999,A,1338.0764,S,07252.7997,W,0.36,36.41,210411,,,A*5A
$GPGGA,141751.001,1338.0771,S,07252.7994,W,1,04,2.8,2432.6,M,27.0,M,,0000*66
$GPGSA,M,3,29,25,14,02,,,,,,,,,4.3,2.8,3.3*38
$GPGSV,3,1,11,09,64,059,29,29,60,250,37,27,42,045,30,12,36,153,*79
$GPGSV,3,2,11,25,32,202,40,14,25,250,30,02,25,126,36,21,16,341,*7B
$GPGSV,3,3,11,15,14,007,,05,02,067,,18,00,322,*43
$GPRMC,141751.001,A,1338.0771,S,07252.7994,W,0.35,313.36,210411,,,A*6B
$GPGGA,141752.003,1338.0769,S,07252.7994,W,1,05,2.5,2432.6,M,27.0,M,,0000*62
$GPGSA,M,3,29,12,25,14,02,,,,,,,,4.0,2.5,3.1*37
$GPRMC,141752.003,A,1338.0769,S,07252.7994,W,0.17,95.14,210411,,,A*5E
$GPGGA,141752.999,1338.0775,S,07252.7991,W,1,05,2.5,2433.9,M,27.0,M,,0000*6E
$GPGSA,M,3,29,12,25,14,02,,,,,,,,4.0,2.5,3.1*37
$GPRMC,141752.999,A,1338.0775,S,07252.7991,W,0.29,313.20,210411,,,A*6B
$GPGGA,141753.999,1338.0779,S,07252.7990,W,1,04,2.8,2435.0,M,27.0,M,,0000*61
$GPGSA,M,3,29,25,14,02,,,,,,,,,4.3,2.8,3.3*38
$GPRMC,141753.999,A,1338.0779,S,07252.7990,W,0.19,74.35,210411,,,A*52
$GPGGA,141755.002,1338.0780,S,07252.7990,W,1,04,2.8,2434.9,M,27.0,M,,0000*62
$GPGSA,M,3,29,25,14,02,,,,,,,,,4.3,2.8,3.3*38
$GPRMC,141755.002,A,1338.0780,S,07252.7990,W,0.22,289.78,210411,,,A*68
$GPGGA,141756.001,1338.0772,S,07252.7988,W,1,05,2.5,2433.6,M,27.0,M,,0000*62
$GPGSA,M,3,29,12,25,14,02,,,,,,,,4.0,2.5,3.1*37
$GPGSV,3,1,11,09,64,059,31,29,60,250,37,27,42,045,30,12,36,153,25*77
$GPGSV,3,2,11,25,32,202,40,14,25,250,30,02,25,126,36,21,16,341,*7B
$GPGSV,3,3,11,15,14,007,,05,02,067,,18,00,322,*43
$GPRMC,141756.001,A,1338.0772,S,07252.7988,W,0.06,61.70,210411,,,A*56
$GPGGA,141756.998,1338.0781,S,07252.7987,W,1,04,2.8,2435.2,M,27.0,M,,0000*66
$GPGSA,M,3,29,25,14,02,,,,,,,,,4.3,2.8,3.3*38
$GPRMC,141756.998,A,1338.0781,S,07252.7987,W,0.18,303.89,210411,,,A*62
$GPGGA,141758.000,1338.0783,S,07252.7986,W,1,04,2.8,2436.9,M,27.0,M,,0000*6B
$GPGSA,M,3,29,25,14,02,,,,,,,,,4.3,2.8,3.3*38
$GPRMC,141758.000,A,1338.0783,S,07252.7986,W,0.37,187.03,210411,,,A*66
$GPGGA,141759.002,1338.0781,S,07252.7986,W,1,05,2.5,2436.6,M,27.0,M,,0000*69
$GPGSA,M,3,29,12,25,14,02,,,,,,,,4.0,2.5,3.1*37
$GPRMC,141759.002,A,1338.0781,S,07252.7986,W,0.40,233.18,210411,,,A*61
$GPGGA,141800.001,1338.0774,S,07252.7984,W,1,04,2.8,2435.6,M,27.0,M,,0000*6E
$GPGSA,M,3,29,25,14,02,,,,,,,,,4.3,2.8,3.3*38
$GPRMC,141800.001,A,1338.0774,S,07252.7984,W,0.28,154.17,210411,,,A*6A
$GPGGA,141801.001,1338.0781,S,07252.7985,W,1,04,2.8,2435.8,M,27.0,M,,0000*6A
$GPGSA,M,3,29,25,14,02,,,,,,,,,4.3,2.8,3.3*38
$GPGSV,3,1,11,09,64,059,32,29,60,250,38,27,42,045,31,12,36,153,*7D
$GPGSV,3,2,11,25,32,202,40,14,25,250,30,02,25,126,36,21,16,341,*7B
$GPGSV,3,3,11,15,14,007,,05,02,067,,18,00,322,*43
$GPRMC,141801.001,A,1338.0781,S,07252.7985,W,0.38,215.86,210411,,,A*6F
$GPGGA,141801.999,1338.0778,S,07252.7985,W,1,05,2.5,2434.4,M,27.0,M,,0000*65
$GPGSA,M,3,29,12,25,14,02,,,,,,,,4.0,2.5,3.1*37
$GPRMC,141801.999,A,1338.0778,S,07252.7985,W,0.13,329.27,210411,,,A*6D
$GPGGA,141803.000,1338.0782,S,07252.7984,W,1,05,2.5,2434.7,M,27.0,M,,0000*69
$GPGSA,M,3,29,12,25,14,02,,,,,,,,4.0,2.5,3.1*37
$GPRMC,141803.000,A,1338.0782,S,07252.7984,W,0.35,30.74,210411,,,A*5B
$GPGGA,141804.000,1338.0776,S,07252.7987,W,1,05,2.5,2432.8,M,27.0,M,,0000*6F
$GPGSA,M,3,29,12,25,14,02,,,,,,,,4.0,2.5,3.1*37
$GPRMC,141804.000,A,1338.0776,S,07252.7987,W,1.00,347.87,210411,,,A*6C
$GPGGA,141805.000,1338.0775,S,07252.7987,W,1,05,2.5,2432.9,M,27.0,M,,0000*6C
$GPGSA,M,3,29,12,25,14,02,,,,,,,,4.0,2.5,3.1*37
$GPRMC,141805.000,A,1338.0775,S,07252.7987,W,0.41,202.65,210411,,,A*66
$GPGGA,141806.000,1338.0770,S,07252.7987,W,1,05,2.5,2432.3,M,27.0,M,,0000*60
$GPGSA,M,3,29,12,25,14,02,,,,,,,,4.0,2.5,3.1*37
$GPGSV,3,1,11,09,64,059,32,29,60,250,37,27,42,045,30,12,36,153,28*79
$GPGSV,3,2,11,25,32,202,41,14,25,250,28,02,25,126,36,21,16,341,*73
$GPGSV,3,3,11,15,14,007,,05,02,067,,18,00,322,*43
$GPRMC,141806.000,A,1338.0770,S,07252.7987,W,0.11,312.62,210411,,,A*62
$GPGGA,141807.000,1338.0772,S,07252.7985,W,1,05,2.5,2433.6,M,27.0,M,,0000*65
$GPGSA,M,3,29,12,25,14,02,,,,,,,,4.0,2.5,3.1*37
$GPRMC,141807.000,A,1338.0772,S,07252.7985,W,0.78,352.91,210411,,,A*64
$GPGGA,141807.998,1338.0779,S,07252.7986,W,1,05,2.5,2435.9,M,27.0,M,,0000*6C
$GPGSA,M,3,29,12,25,14,02,,,,,,,,4.0,2.5,3.1*37
$GPRMC,141807.998,A,1338.0779,S,07252.7986,W,0.09,331.53,210411,,,A*69
$GPGGA,141809.002,1338.0780,S,07252.7983,W,1,05,2.5,2436.4,M,27.0,M,,0000*65
$GPGSA,M,3,29,12,25,14,02,,,,,,,,4.0,2.5,3.1*37
$GPRMC,141809.002,A,1338.0780,S,07252.7983,W,0.50,169.73,210411,,,A*6F
$GPGGA,141810.000,1338.0773,S,07252.7985,W,1,05,2.5,2433.7,M,27.0,M,,0000*63
$GPGSA,M,3,29,12,25,14,02,,,,,,,,4.0,2.5,3.1*37
$GPRMC,141810.000,A,1338.0773,S,07252.7985,W,0.55,213.85,210411,,,A*6D
$GPGGA,141811.000,1338.0771,S,07252.7987,W,1,05,2.5,2433.6,M,27.0,M,,0000*63
$GPGSA,M,3,29,12,25,14,02,,,,,,,,4.0,2.5,3.1*37
$GPGSV,3,1,11,09,64,059,33,29,60,250,37,27,42,045,30,12,36,153,28*78
$GPGSV,3,2,11,25,32,202,41,14,25,250,29,02,25,126,37,21,16,341,*73
$GPGSV,3,3,11,15,14,007,,05,02,067,,18,00,322,*43
$GPRMC,141811.000,A,1338.0771,S,07252.7987,W,0.15,258.99,210411,,,A*6A
$GPGGA,141812.000,1338.0766,S,07252.7984,W,1,05,2.5,2433.3,M,27.0,M,,0000*60
$GPGSA,M,3,29,12,25,14,02,,,,,,,,4.0,2.5,3.1*37
$GPRMC,141812.000,A,1338.0766,S,07252.7984,W,0.38,143.29,210411,,,A*61
$GPGGA,141813.000,1338.0772,S,07252.7985,W,1,05,2.5,2435.0,M,27.0,M,,0000*60
$GPGSA,M,3,29,12,25,14,02,,,,,,,,4.0,2.5,3.1*37
$GPRMC,141813.000,A,1338.0772,S,07252.7985,W,0.13,275.59,210411,,,A*6C
$GPGGA,141814.000,1338.0769,S,07252.7986,W,1,05,2.5,2433.4,M,27.0,M,,0000*6C
$GPGSA,M,3,29,12,25,14,02,,,,,,,,4.0,2.5,3.1*37
$GPRMC,141814.000,A,1338.0769,S,07252.7986,W,1.39,173.19,210411,,,A*6A
$GPGGA,141815.000,1338.0764,S,07252.7985,W,1,05,2.5,2432.1,M,27.0,M,,0000*67
$GPGSA,M,3,29,12,25,14,02,,,,,,,,4.0,2.5,3.1*37
$GPRMC,141815.000,A,1338.0764,S,07252.7985,W,0.29,57.07,210411,,,A*5D
$GPGGA,141816.000,1338.0761,S,07252.7984,W,1,05,2.5,2431.8,M,27.0,M,,0000*6A
$GPGSA,M,3,29,12,25,14,02,,,,,,,,4.0,2.5,3.1*37
$GPGSV,3,1,11,09,64,059,33,29,60,250,36,27,42,045,30,12,36,153,29*78
$GPGSV,3,2,11,25,32,202,41,14,25,250,29,02,25,126,36,21,16,341,*72
$GPGSV,3,3,11,15,14,007,,05,02,067,,18,00,322,*43
$GPRMC,141816.000,A,1338.0761,S,07252.7984,W,0.51,212.17,210411,,,A*67
$GPGGA,141817.000,1338.0761,S,07252.7983,W,1,05,2.5,2433.4,M,27.0,M,,0000*62
$GPGSA,M,3,29,12,25,14,02,,,,,,,,4.0,2.5,3.1*37
$GPRMC,141817.000,A,1338.0761,S,07252.7983,W,0.42,240.88,210411,,,A*62
$GPGGA,141818.000,1338.0766,S,07252.7984,W,1,05,2.5,2433.9,M,27.0,M,,0000*60
$GPGSA,M,3,29,12,25,14,02,,,,,,,,4.0,2.5,3.1*37
$GPRMC,141818.000,A,1338.0766,S,07252.7984,W,0.18,256.41,210411,,,A*60
$GPGGA,141819.000,1338.0763,S,07252.7983,W,1,05,2.5,2434.7,M,27.0,M,,0000*6A
$GPGSA,M,3,29,12,25,14,02,,,,,,,,4.0,2.5,3.1*37
$GPRMC,141819.000,A,1338.0763,S,07252.7983,W,0.51,92.27,210411,,,A*54
$GPGGA,141820.000,1338.0768,S,07252.7986,W,1,05,2.5,2434.4,M,27.0,M,,0000*6D
$GPGSA,M,3,29,12,25,14,02,,,,,,,,4.0,2.5,3.1*37
$GPRMC,141820.000,A,1338.0768,S,07252.7986,W,1.42,202.66,210411,,,A*6D
$GPGGA,141821.000,1338.0761,S,07252.7987,W,1,05,2.5,2432.5,M,27.0,M,,0000*63
$GPGSA,M,3,29,12,25,14,02,,,,,,,,4.0,2.5,3.1*37
$GPGSV,3,1,11,09,64,059,33,29,60,250,36,27,42,045,30,12,36,153,29*78
$GPGSV,3,2,11,25,32,202,40,14,25,250,28,02,25,126,37,21,16,341,*73
$GPGSV,3,3,11,15,14,007,,05,02,067,,18,00,322,*43
$GPRMC,141821.000,A,1338.0761,S,07252.7987,W,0.84,178.75,210411,,,A*63
$GPGGA,141822.000,1338.0762,S,07252.7987,W,1,05,2.5,2434.0,M,27.0,M,,0000*60
$GPGSA,M,3,29,12,25,14,02,,,,,,,,4.0,2.5,3.1*37
$GPRMC,141822.000,A,1338.0762,S,07252.7987,W,0.57,149.56,210411,,,A*6E
$GPGGA,141823.002,1338.0764,S,07252.7985,W,1,05,2.5,2435.5,M,27.0,M,,0000*63
$GPGSA,M,3,29,12,25,14,02,,,,,,,,4.0,2.5,3.1*37
$GPRMC,141823.002,A,1338.0764,S,07252.7985,W,0.80,210.17,210411,,,A*69
$GPGGA,141823.998,1338.0768,S,07252.7989,W,1,05,2.5,2435.1,M,27.0,M,,0000*6D
