$GPGGA,012444.002,1926.9258,S,06958.0596,W,1,06,1.7,1036.9,M,35.0,M,,0000*6F
$GPGSA,M,3,24,23,11,13,20,32,,,,,,,4.6,1.7,4.3*3B
$GPRMC,012444.002,A,1926.9258,S,06958.0596,W,0.18,98.39,010511,,,A*50
$GPGGA,012444.998,1926.9260,S,06958.0600,W,1,07,1.6,1035.2,M,35.0,M,,0000*6A
$GPGSA,M,3,24,23,11,13,20,32,31,,,,,,2.8,1.6,2.3*36
$GPRMC,012444.998,A,1926.9260,S,06958.0600,W,0.23,297.51,010511,,,A*66
$GPGGA,012446.000,1926.9261,S,06958.0602,W,1,07,1.6,1035.0,M,35.0,M,,0000*61
$GPGSA,M,3,24,23,11,13,20,32,31,,,,,,2.8,1.6,2.3*36
$GPRMC,012446.000,A,1926.9261,S,06958.0602,W,0.63,354.03,010511,,,A*62
$GPGGA,012447.004,1926.9263,S,06958.0601,W,1,07,1.6,1035.3,M,35.0,M,,0000*66
$GPGSA,M,3,24,23,11,13,20,32,31,,,,,,2.8,1.6,2.3*36
$GPRMC,012447.004,A,1926.9263,S,06958.0601,W,0.52,244.21,010511,,,A*64
$GPGGA,012448.000,1926.9265,S,06958.0599,W,1,07,1.6,1036.3,M,35.0,M,,0000*6A
$GPGSA,M,3,24,23,11,13,20,32,31,,,,,,2.8,1.6,2.3*36
$GPGSV,3,1,10,24,73,072,35,23,67,214,30,11,61,019,35,13,49,288,29*70
$GPGSV,3,2,10,20,47,179,33,32,39,142,33,17,22,249,,31,12,135,27*71
$GPGSV,3,3,10,07,09,343,35,19,06,012,*79
$GPRMC,012448.000,A,1926.9265,S,06958.0599,W,0.97,95.56,010511,,,A*5C
$GPGGA,012449.000,1926.9262,S,06958.0597,W,1,07,1.6,1036.4,M,35.0,M,,0000*65
$GPGSA,M,3,24,23,11,13,20,32,31,,,,,,2.8,1.6,2.3*36
$GPRMC,012449.000,A,1926.9262,S,06958.0597,W,0.47,31.58,010511,,,A*59
$GPGGA,012450.000,1926.9261,S,06958.0597,W,1,07,1.6,1035.8,M,35.0,M,,0000*61
$GPGSA,M,3,24,23,11,13,20,32,31,,,,,,2.8,1.6,2.3*36
$GPRMC,012450.000,A,1926.9261,S,06958.0597,W,0.67,17.85,010511,,,A*54
$GPGGA,012451.000,1926.9259,S,06958.0598,W,1,07,1.6,1035.9,M,35.0,M,,0000*65
$GPGSA,M,3,24,23,11,13,20,32,31,,,,,,2.8,1.6,2.3*36
$GPRMC,012451.000,A,1926.9259,S,06958.0598,W,0.18,279.42,010511,,,A*68
$GPGGA,012452.000,1926.9260,S,06958.0595,W,1,07,1.6,1036.1,M,35.0,M,,0000*6A
$GPGSA,M,3,24,23,11,13,20,32,31,,,,,,2.8,1.6,2.3*36
$GPRMC,012452.000,A,1926.9260,S,06958.0595,W,0.31,319.97,010511,,,A*68
$GPGGA,012452.999,1926.9264,S,06958.0597,W,1,07,1.6,1035.8,M,35.0,M,,0000*6F
$GPGSA,M,3,24,23,11,13,20,32,31,,,,,,2.8,1.6,2.3*36
$GPGSV,3,1,10,24,73,072,35,23,67,214,29,11,61,019,35,13,49,288,30*70
$GPGSV,3,2,10,20,47,179,33,32,39,142,33,17,22,249,,31,12,135,28*7E
$GPGSV,3,3,10,07,09,343,36,19,06,012,*7A
$GPRMC,012452.999,A,1926.9264,S,06958.0597,W,0.24,314.97,010511,,,A*6E
$GPGGA,012453.998,1926.9262,S,06958.0598,W,1,06,1.7,1035.7,M,35.0,M,,0000*69
$GPGSA,M,3,24,23,11,13,20,32,,,,,,,4.6,1.7,4.3*3B
$GPRMC,012453.998,A,1926.9262,S,06958.0598,W,0.37,246.62,010511,,,A*69
$GPGGA,012455.001,1926.9262,S,06958.0602,W,1,07,1.6,1036.0,M,35.0,M,,0000*62
$GPGSA,M,3,24,23,11,13,20,32,31,,,,,,2.8,1.6,2.3*36
$GPRMC,012455.001,A,1926.9262,S,06958.0602,W,1.05,281.38,010511,,,A*62
$GPGGA,012456.002,1926.9254,S,06958.0596,W,1,07,1.6,1036.3,M,35.0,M,,0000*6A
$GPGSA,M,3,24,23,11,13,20,32,31,,,,,,2.8,1.6,2.3*36
$GPRMC,012456.002,A,1926.9254,S,06958.0596,W,0.80,24.91,010511,,,A*5B
$GPGGA,012456.997,1926.9253,S,06958.0597,W,1,06,1.7,1036.7,M,35.0,M,,0000*6D
$GPGSA,M,3,24,23,11,13,20,32,,,,,,,4.6,1.7,4.3*3B
$GPRMC,012456.997,A,1926.9253,S,06958.0597,W,0.48,40.43,010511,,,A*51
$GPGGA,012458.002,1926.9251,S,06958.0593,W,1,07,1.6,1036.9,M,35.0,M,,0000*6E
$GPGSA,M,3,24,23,11,13,20,32,31,,,,,,2.8,1.6,2.3*36
$GPGSV,3,1,10,24,73,072,34,23,67,214,29,11,61,019,35,13,49,288,29*79
$GPGSV,3,2,10,20,47,179,32,32,39,142,32,17,22,249,,31,12,135,25*73
$GPGSV,3,3,10,07,09,343,34,19,06,012,*78
$GPRMC,012458.002,A,1926.9251,S,06958.0593,W,0.87,74.04,010511,,,A*5B
$GPGGA,012458.998,1926.9249,S,06958.0595,W,1,06,1.7,1034.8,M,35.0,M,,0000*68
$GPGSA,M,3,24,23,11,13,20,32,,,,,,,4.6,1.7,4.3*3B
$GPRMC,012458.998,A,1926.9249,S,06958.0595,W,1.16,44.38,010511,,,A*5B
$GPGGA,012500.001,1926.9249,S,06958.0590,W,1,06,1.7,1035.4,M,35.0,M,,0000*65
$GPGSA,M,3,24,23,11,13,20,32,,,,,,,4.6,1.7,4.3*3B
$GPRMC,012500.001,A,1926.9249,S,06958.0590,W,0.80,37.66,010511,,,A*5A
$GPGGA,012501.001,1926.9243,S,06958.0590,W,1,07,1.6,1035.4,M,35.0,M,,0000*6E
$GPGSA,M,3,24,23,11,13,20,32,31,,,,,,2.8,1.6,2.3*36
$GPRMC,012501.001,A,1926.9243,S,06958.0590,W,0.48,333.07,010511,,,A*65
$GPGGA,012502.000,1926.9241,S,06958.0586,W,1,07,1.6,1036.4,M,35.0,M,,0000*6A
$GPGSA,M,3,24,23,11,13,20,32,31,,,,,,2.8,1.6,2.3*36
$GPRMC,012502.000,A,1926.9241,S,06958.0586,W,0.84,318.84,010511,,,A*60
$GPGGA,012503.001,1926.9241,S,06958.0589,W,1,07,1.6,1035.3,M,35.0,M,,0000*61
$GPGSA,M,3,24,23,11,13,20,32,31,,,,,,2.8,1.6,2.3*36
$GPGSV,3,1,10,24,73,072,35,23,67,214,28,11,61,019,35,13,49,288,30*71
$GPGSV,3,2,10,20,47,179,34,32,39,142,33,17,22,249,,31,12,135,29*78
$GPGSV,3,3,10,07,09,343,35,19,06,012,*79
$GPRMC,012503.001,A,1926.9241,S,06958.0589,W,0.65,358.90,010511,,,A*61
$GPGGA,012503.997,1926.9239,S,06958.0586,W,1,07,1.6,1036.3,M,35.0,M,,0000*64
$GPGSA,M,3,24,23,11,13,20,32,31,,,,,,2.8,1.6,2.3*36
$GPRMC,012503.997,A,1926.9239,S,06958.0586,W,0.41,352.32,010511,,,A*63
$GPGGA,012504.998,1926.9238,S,06958.0589,W,1,07,1.6,1034.5,M,35.0,M,,0000*66
$GPGSA,M,3,24,23,11,13,20,32,31,,,,,,2.8,1.6,2.3*36
$GPRMC,012504.998,A,1926.9238,S,06958.0589,W,0.50,39.68,010511,,,A*54
$GPGGA,012506.002,1926.9241,S,06958.0590,W,1,06,1.7,1035.5,M,35.0,M,,0000*69
$GPGSA,M,3,24,23,11,13,20,32,,,,,,,4.6,1.7,4.3*3B
$GPRMC,012506.002,A,1926.9241,S,06958.0590,W,0.55,290.18,010511,,,A*69
$GPGGA,012507.000,1926.9238,S,06958.0595,W,1,06,1.7,1032.8,M,35.0,M,,0000*6B
$GPGSA,M,3,24,23,11,13,20,32,,,,,,,4.6,1.7,4.3*3B
$GPRMC,012507.000,A,1926.9238,S,06958.0595,W,0.90,45.23,010511,,,A*5A
$GPGGA,012507.999,1926.9240,S,06958.0596,W,1,06,1.7,1034.8,M,35.0,M,,0000*68
$GPGSA,M,3,24,23,11,13,20,32,,,,,,,4.6,1.7,4.3*3B
$GPGSV,3,1,10,24,73,072,35,23,67,214,29,11,61,019,35,13,49,288,29*78
$GPGSV,3,2,10,20,47,179,31,32,39,142,34,17,22,249,,31,12,135,*71
$GPGSV,3,3,10,07,09,343,35,19,06,012,*79
$GPRMC,012507.999,A,1926.9240,S,06958.0596,W,0.50,311.60,010511,,,A*66
$GPGGA,012508.998,1926.9240,S,06958.0599,W,1,07,1.6,1034.2,M,35.0,M,,0000*63
$GPGSA,M,3,24,23,11,13,20,32,31,,,,,,2.8,1.6,2.3*36
$GPRMC,012508.998,A,1926.9240,S,06958.0599,W,0.62,83.96,010511,,,A*57
$GPGGA,012509.999,1926.9242,S,06958.0600,W,1,07,1.6,1033.7,M,35.0,M,,0000*60
$GPGSA,M,3,24,23,11,13,20,32,31,,,,,,2.8,1.6,2.3*36
$GPRMC,012509.999,A,1926.9242,S,06958.0600,W,1.21,235.01,010511,,,A*61
$GPGGA,012511.000,1926.9247,S,06958.0607,W,1,07,1.6,1034.4,M,35.0,M,,0000*66
$GPGSA,M,3,24,23,11,13,20,32,31,,,,,,2.8,1.6,2.3*36
$GPRMC,012511.000,A,1926.9247,S,06958.0607,W,0.75,301.53,010511,,,A*62
$GPGGA,012511.999,1926.9248,S,06958.0604,W,1,07,1.6,1035.0,M,35.0,M,,0000*66
$GPGSA,M,3,24,23,11,13,20,32,31,,,,,,2.8,1.6,2.3*36
$GPRMC,012511.999,A,1926.9248,S,06958.0604,W,0.49,25.20,010511,,,A*59
$GPGGA,012513.003,1926.9248,S,06958.0606,W,1,07,1.6,1034.2,M,35.0,M,,0000*6F
$GPGSA,M,3,24,23,11,13,20,32,31,,,,,,2.8,1.6,2.3*36
$GPGSV,3,1,10,24,73,072,33,23,67,214,27,11,61,019,34,13,49,288,31*78
$GPGSV,3,2,10,20,47,179,30,32,39,142,32,17,22,249,,31,12,135,27*73
$GPGSV,3,3,10,07,09,343,34,19,06,012,*78
$GPRMC,012513.003,A,1926.9248,S,06958.0606,W,0.24,348.86,010511,,,A*6C
$GPGGA,012514.002,1926.9249,S,06958.0600,W,1,08,1.3,1035.3,M,35.0,M,,0000*64
$GPGSA,M,3,24,23,11,13,20,32,17,31,,,,,2.2,1.3,1.8*37
$GPRMC,012514.002,A,1926.9249,S,06958.0600,W,0.35,5.01,010511,,,A*68
$GPGGA,012514.995,1926.9249,S,06958.0605,W,1,07,1.6,1034.0,M,35.0,M,,0000*6E
$GPGSA,M,3,24,23,11,13,20,32,31,,,,,,2.8,1.6,2.3*36
$GPRMC,012514.995,A,1926.9249,S,06958.0605,W,0.27,212.57,010511,,,A*6E
$GPGGA,012516.000,1926.9253,S,06958.0607,W,1,07,1.6,1035.4,M,35.0,M,,0000*65
$GPGSA,M,3,24,23,11,13,20,32,31,,,,,,2.8,1.6,2.3*36
$GPRMC,012516.000,A,1926.9253,S,06958.0607,W,0.53,359.43,010511,,,A*68
$GPGGA,012517.000,1926.9250,S,06958.0605,W,1,07,1.6,1035.3,M,35.0,M,,0000*62
$GPGSA,M,3,24,23,11,13,20,32,31,,,,,,2.8,1.6,2.3*36
$GPRMC,012517.000,A,1926.9250,S,06958.0605,W,0.41,50.68,010511,,,A*58
$GPGGA,012518.001,1926.9246,S,06958.0604,W,1,08,1.3,1033.1,M,35.0,M,,0000*64
$GPGSA,M,3,24,23,11,13,20,32,17,31,,,,,2.2,1.3,1.8*37
$GPGSV,3,1,10,24,73,072,35,23,67,214,30,11,61,019,36,13,49,288,29*73
$GPGSV,3,2,10,20,47,179,32,32,39,142,35,17,22,249,26,31,12,135,28*7D
$GPGSV,3,3,10,07,09,343,34,19,06,012,*78
$GPRMC,012518.001,A,1926.9246,S,06958.0604,W,0.75,74.95,010511,,,A*53
$GPGGA,012518.999,1926.9244,S,06958.0604,W,1,07,1.6,1032.0,M,35.0,M,,0000*64
$GPGSA,M,3,24,23,11,13,20,32,31,,,,,,2.8,1.6,2.3*36
$GPRMC,012518.999,A,1926.9244,S,06958.0604,W,0.81,42.72,010511,,,A*5E
$GPGGA,012520.005,1926.9243,S,06958.0603,W,1,07,1.6,1032.4,M,35.0,M,,0000*67
$GPGSA,M,3,24,23,11,13,20,32,31,,,,,,2.8,1.6,2.3*36
$GPRMC,012520.005,A,1926.9243,S,06958.0603,W,1.25,16.58,010511,,,A*5F
$GPGGA,012520.999,1926.9242,S,06958.0597,W,1,07,1.6,1033.6,M,35.0,M,,0000*67
$GPGSA,M,3,24,23,11,13,20,32,31,,,,,,2.8,1.6,2.3*36
$GPRMC,012520.999,A,1926.9242,S,06958.0597,W,1.20,36.04,010511,,,A*52
$GPGGA,012522.017,1926.9243,S,06958.0603,W,1,08,1.3,1034.2,M,35.0,M,,0000*6C
$GPGSA,M,3,24,23,11,13,20,32,17,31,,,,,2.2,1.3,1.8*37
$GPRMC,012522.017,A,1926.9243,S,06958.0603,W,0.09,225.49,010511,,,A*63
$GPGGA,012522.977,1926.9249,S,06958.0604,W,1,06,1.7,1034.5,M,35.0,M,,0000*63
$GPGSA,M,3,24,23,11,13,20,32,,,,,,,4.6,1.7,4.3*3B
$GPGSV,3,1,10,24,73,072,34,23,67,214,28,11,61,019,36,13,49,288,30*73
$GPGSV,3,2,10,20,47,179,32,32,39,142,36,17,22,249,,31,12,135,*70
$GPGSV,3,3,10,07,09,343,36,19,06,012,*7A
$GPRMC,012522.977,A,1926.9249,S,06958.0604,W,0.66,215.79,010511,,,A*68
$GPGGA,012524.003,1926.9249,S,06958.0601,W,1,07,1.6,1034.3,M,35.0,M,,0000*6C
$GPGSA,M,3,24,23,11,13,20,32,31,,,,,,2.8,1.6,2.3*36
$GPRMC,012524.003,A,1926.9249,S,06958.0601,W,0.32,135.79,010511,,,A*61
$GPGGA,012524.999,1926.9253,S,06958.0604,W,1,07,1.6,1034.0,M,35.0,M,,0000*6B
$GPGSA,M,3,24,23,11,13,20,32,31,,,,,,2.8,1.6,2.3*36
$GPRMC,012524.999,A,1926.9253,S,06958.0604,W,0.58,307.85,010511,,,A*69
$GPGGA,012526.000,1926.9251,S,06958.0601,W,1,07,1.6,1033.7,M,35.0,M,,0000*67
$GPGSA,M,3,24,23,11,13,20,32,31,,,,,,2.8,1.6,2.3*36
$GPRMC,012526.000,A,1926.9251,S,06958.0601,W,0.37,130.57,010511,,,A*65
$GPGGA,012526.999,1926.9252,S,06958.0606,W,1,07,1.6,1032.2,M,35.0,M,,0000*6E
$GPGSA,M,3,24,23,11,13,20,32,31,,,,,,2.8,1.6,2.3*36
$GPRMC,012526.999,A,1926.9252,S,06958.0606,W,0.48,307.58,010511,,,A*69
$GPGGA,012527.998,1926.9252,S,06958.0605,W,1,06,1.7,1031.3,M,35.0,M,,0000*6F
$GPGSA,M,3,24,23,11,13,20,32,,,,,,,4.6,1.7,4.3*3B
$GPGSV,3,1,10,24,73,072,35,23,67,214,29,11,61,019,35,13,49,288,32*72
$GPGSV,3,2,10,20,47,179,28,32,39,142,33,17,22,249,,31,12,135,*7E
$GPGSV,3,3,10,07,09,343,32,19,06,012,*7E
$GPRMC,012527.998,A,1926.9252,S,06958.0605,W,0.50,11.08,010511,,,A*52
$GPGGA,012529.000,1926.9250,S,06958.0605,W,1,06,1.7,1031.1,M,35.0,M,,0000*69
$GPGSA,M,3,24,23,11,13,20,32,,,,,,,4.6,1.7,4.3*3B
$GPRMC,012529.000,A,1926.9250,S,06958.0605,W,0.61,354.29,010511,,,A*65
$GPGGA,012530.000,1926.9248,S,06958.0606,W,1,06,1.7,1033.7,M,35.0,M,,0000*6F
$GPGSA,M,3,24,23,11,13,20,32,,,,,,,4.6,1.7,4.3*3B
$GPRMC,012530.000,A,1926.9248,S,06958.0606,W,0.29,45.38,010511,,,A*58
$GPGGA,012531.000,1926.9249,S,06958.0610,W,1,06,1.7,1034.3,M,35.0,M,,0000*6B
$GPGSA,M,3,24,23,11,13,20,32,,,,,,,4.6,1.7,4.3*3B
$GPRMC,012531.000,A,1926.9249,S,06958.0610,W,0.75,279.00,010511,,,A*60
$GPGGA,012532.002,1926.9247,S,06958.0618,W,1,07,1.6,1031.9,M,35.0,M,,0000*63
$GPGSA,M,3,24,23,11,13,20,32,31,,,,,,2.8,1.6,2.3*36
$GPRMC,012532.002,A,1926.9247,S,06958.0618,W,1.49,271.88,010511,,,A*61
$GPGGA,012532.998,1926.9252,S,06958.0624,W,1,06,1.7,1032.2,M,35.0,M,,0000*6A
$GPGSA,M,3,24,23,11,13,20,32,,,,,,,4.6,1.7,4.3*3B
$GPGSV,3,1,10,24,73,072,34,23,67,214,30,11,61,019,34,13,49,288,30*78
$GPGSV,3,2,10,20,47,179,31,32,39,142,32,17,22,249,,31,12,135,*77
$GPGSV,3,3,10,07,09,343,26,19,06,012,*7B
$GPRMC,012532.998,A,1926.9252,S,06958.0624,W,1.24,249.16,010511,,,A*67
$GPGGA,012534.002,1926.9252,S,06958.0623,W,1,06,1.7,1032.1,M,35.0,M,,0000*62
$GPGSA,M,3,24,23,11,13,20,32,,,,,,,4.6,1.7,4.3*3B
$GPRMC,012534.002,A,1926.9252,S,06958.0623,W,1.01,266.03,010511,,,A*62
$GPGGA,012534.998,1926.9249,S,06958.0621,W,1,08,1.3,1033.2,M,35.0,M,,0000*68
$GPGSA,M,3,24,23,11,13,20,32,17,31,,,,,2.2,1.3,1.8*37
$GPRMC,012534.998,A,1926.9249,S,06958.0621,W,0.68,339.96,010511,,,A*69
$GPGGA,012535.998,1926.9249,S,06958.0622,W,1,07,1.6,1034.9,M,35.0,M,,0000*6C
$GPGSA,M,3,24,23,11,13,20,32,31,,,,,,2.8,1.6,2.3*36
$GPRMC,012535.998,A,1926.9249,S,06958.0622,W,0.05,357.65,010511,,,A*64
$GPGGA,012537.004,1926.9248,S,06958.0624,W,1,07,1.6,1034.6,M,35.0,M,,0000*6A
$GPGSA,M,3,24,23,11,13,20,32,31,,,,,,2.8,1.6,2.3*36
$GPRMC,012537.004,A,1926.9248,S,06958.0624,W,0.55,292.95,010511,,,A*6F
$GPGGA,012537.995,1926.9248,S,06958.0626,W,1,07,1.6,1035.5,M,35.0,M,,0000*6B
$GPGSA,M,3,24,23,11,13,20,32,31,,,,,,2.8,1.6,2.3*36
$GPGSV,3,1,10,24,73,072,35,23,67,214,26,11,61,019,33,13,49,288,27*7F
$GPGSV,3,2,10,20,47,179,34,32,39,142,33,17,22,249,,31,12,135,24*75
$GPGSV,3,3,10,07,09,343,29,19,06,012,*74
$GPRMC,012537.995,A,1926.9248,S,06958.0626,W,0.43,249.39,010511,,,A*6B
$GPGGA,012539.001,1926.9243,S,06958.0628,W,1,07,1.6,1033.8,M,35.0,M,,0000*6F
$GPGSA,M,3,24,23,11,13,20,32,31,,,,,,2.8,1.6,2.3*36
$GPRMC,012539.001,A,1926.9243,S,06958.0628,W,0.16,315.83,010511,,,A*6D
$GPGGA,012540.002,1926.9245,S,06958.0628,W,1,06,1.7,1033.3,M,35.0,M,,0000*6F
$GPGSA,M,3,24,23,11,13,20,32,,,,,,,4.6,1.7,4.3*3B
$GPRMC,012540.002,A,1926.9245,S,06958.0628,W,0.73,98.02,010511,,,A*5A
$GPGGA,012540.998,1926.9248,S,06958.0624,W,1,07,1.6,1032.4,M,35.0,M,,0000*62
$GPGSA,M,3,24,23,11,13,20,32,31,,,,,,2.8,1.6,2.3*36
$GPRMC,012540.998,A,1926.9248,S,06958.0624,W,0.43,200.30,010511,,,A*60
$GPGGA,012542.002,1926.9247,S,06958.0621,W,1,07,1.6,1034.3,M,35.0,M,,0000*61
$GPGSA,M,3,24,23,11,13,20,32,31,,,,,,2.8,1.6,2.3*36
$GPRMC,012542.002,A,1926.9247,S,06958.0621,W,0.35,352.40,010511,,,A*62
$GPGGA,012542.999,1926.9248,S,06958.0618,W,1,07,1.6,1035.5,M,35.0,M,,0000*68
$GPGSA,M,3,24,23,11,13,20,32,31,,,,,,2.8,1.6,2.3*36
$GPGSV,3,1,10,24,73,072,29,23,67,214,29,11,61,019,34,13,49,288,33*7F
$GPGSV,3,2,10,20,47,179,33,32,39,142,32,17,22,249,,31,12,135,27*70
$GPGSV,3,3,10,07,09,343,31,19,06,012,*7D
$GPRMC,012542.999,A,1926.9248,S,06958.0618,W,0.07,334.46,010511,,,A*6B
$GPGGA,012544.001,1926.9240,S,06958.0610,W,1,08,1.3,1034.8,M,35.0,M,,0000*60
$GPGSA,M,3,24,23,11,13,20,32,17,31,,,,,2.2,1.3,1.8*37
$GPRMC,012544.001,A,1926.9240,S,06958.0610,W,1.80,11.92,010511,,,A*56
$GPGGA,012544.997,1926.9232,S,06958.0606,W,1,07,1.6,1034.0,M,35.0,M,,0000*66
$GPGSA,M,3,24,23,11,13,20,32,17,,,,,,3.3,1.6,2.9*32
$GPRMC,012544.997,A,1926.9232,S,06958.0606,W,0.67,42.51,010511,,,A*53
$GPGGA,012546.000,1926.9237,S,06958.0606,W,1,07,1.6,1035.6,M,35.0,M,,0000*61
$GPGSA,M,3,24,23,11,13,20,32,17,,,,,,3.3,1.6,2.9*32
$GPRMC,012546.000,A,1926.9237,S,06958.0606,W,1.37,55.34,010511,,,A*52
$GPGGA,012547.003,1926.9230,S,06958.0606,W,1,07,1.6,1034.0,M,35.0,M,,0000*63
$GPGSA,M,3,24,23,11,13,20,32,17,,,,,,3.3,1.6,2.9*32
$GPRMC,012547.003,A,1926.9230,S,06958.0606,W,0.98,12.85,010511,,,A*5A
$GPGGA,012548.000,1926.9226,S,06958.0600,W,1,07,1.6,1036.1,M,35.0,M,,0000*6D
$GPGSA,M,3,24,23,11,13,20,32,17,,,,,,3.3,1.6,2.9*32
$GPGSV,3,1,10,24,73,072,36,23,67,214,35,11,61,019,36,13,49,288,31*7C
$GPGSV,3,2,10,20,47,179,33,32,39,142,35,17,22,249,30,31,12,135,*71
$GPGSV,3,3,10,07,09,343,35,19,06,012,*79
$GPRMC,012548.000,A,1926.9226,S,06958.0600,W,0.53,14.95,010511,,,A*57
$GPGGA,012549.000,1926.9228,S,06958.0600,W,1,07,1.6,1037.2,M,35.0,M,,0000*60
$GPGSA,M,3,24,23,11,13,20,32,17,,,,,,3.3,1.6,2.9*32
$GPRMC,012549.000,A,1926.9228,S,06958.0600,W,1.07,70.59,010511,,,A*5A
$GPGGA,012550.000,1926.9224,S,06958.0596,W,1,07,1.4,1036.6,M,35.0,M,,0000*6F
$GPGSA,M,3,24,23,11,20,32,17,31,,,,,,2.3,1.4,1.8*33
$GPRMC,012550.000,A,1926.9224,S,06958.0596,W,0.67,27.13,010511,,,A*59
$GPGGA,012550.998,1926.9219,S,06958.0592,W,1,08,1.3,1036.4,M,35.0,M,,0000*67
$GPGSA,M,3,24,23,11,13,20,32,17,31,,,,,2.2,1.3,1.8*37
$GPRMC,012550.998,A,1926.9219,S,06958.0592,W,0.86,348.15,010511,,,A*68
$GPGGA,012552.002,1926.9213,S,06958.0591,W,1,07,1.6,1035.0,M,35.0,M,,0000*6B
$GPGSA,M,3,24,23,11,13,20,32,17,,,,,,3.3,1.6,2.9*32
$GPRMC,012552.002,A,1926.9213,S,06958.0591,W,0.56,47.04,010511,,,A*58
$GPGGA,012552.997,1926.9213,S,06958.0589,W,1,08,1.3,1034.4,M,35.0,M,,0000*68
$GPGSA,M,3,24,23,11,13,20,32,17,31,,,,,2.2,1.3,1.8*37
$GPGSV,3,1,10,24,73,072,36,23,67,214,35,11,61,019,36,13,49,288,30*7D
$GPGSV,3,2,10,20,47,179,33,32,39,142,34,17,22,249,27,31,12,135,26*72
$GPGSV,3,3,10,07,09,343,34,19,06,012,*78
$GPRMC,012552.997,A,1926.9213,S,06958.0589,W,0.37,36.75,010511,,,A*53
$GPGGA,012554.003,1926.9218,S,06958.0589,W,1,07,1.6,1034.9,M,35.0,M,,0000*66
$GPGSA,M,3,24,23,11,13,20,32,17,,,,,,3.3,1.6,2.9*32
$GPRMC,012554.003,A,1926.9218,S,06958.0589,W,0.73,262.95,010511,,,A*67
$GPGGA,012554.998,1926.9218,S,06958.0592,W,1,08,1.3,1035.1,M,35.0,M,,0000*64
$GPGSA,M,3,24,23,11,13,20,32,17,31,,,,,2.2,1.3,1.8*37
$GPRMC,012554.998,A,1926.9218,S,06958.0592,W,0.43,297.66,010511,,,A*63
$GPGGA,012556.002,1926.9216,S,06958.0598,W,1,07,1.6,1034.0,M,35.0,M,,0000*62
$GPGSA,M,3,24,23,11,13,20,32,17,,,,,,3.3,1.6,2.9*32
$GPRMC,012556.002,A,1926.9216,S,06958.0598,W,0.63,2.31,010511,,,A*61
$GPGGA,012557.000,1926.9216,S,06958.0600,W,1,07,1.6,1032.5,M,35.0,M,,0000*60
$GPGSA,M,3,24,23,11,13,20,32,17,,,,,,3.3,1.6,2.9*32
$GPRMC,012557.000,A,1926.9216,S,06958.0600,W,0.88,12.72,010511,,,A*53
$GPGGA,012558.000,1926.9215,S,06958.0601,W,1,07,1.6,1032.4,M,35.0,M,,0000*6C
$GPGSA,M,3,24,23,11,13,20,32,17,,,,,,3.3,1.6,2.9*32
$GPGSV,3,1,10,24,73,072,36,23,67,214,33,11,61,019,36,13,49,288,27*7D
$GPGSV,3,2,10,20,47,179,34,32,39,142,33,17,22,249,27,31,12,135,*76
$GPGSV,3,3,10,07,09,343,32,19,06,012,*7E
$GPRMC,012558.000,A,1926.9215,S,06958.0601,W,0.27,72.14,010511,,,A*5D
$GPGGA,012559.000,1926.9218,S,06958.0597,W,1,07,1.6,1035.4,M,35.0,M,,0000*6B
$GPGSA,M,3,24,23,11,13,20,32,17,,,,,,3.3,1.6,2.9*32
$GPRMC,012559.000,A,1926.9218,S,06958.0597,W,0.95,190.46,010511,,,A*6E
$GPGGA,012600.000,1926.9220,S,06958.0599,W,1,07,1.6,1035.2,M,35.0,M,,0000*67
$GPGSA,M,3,24,23,11,13,20,32,17,,,,,,3.3,1.6,2.9*32
$GPRMC,012600.000,A,1926.9220,S,06958.0599,W,0.39,188.85,010511,,,A*64
$GPGGA,012601.000,1926.9219,S,06958.0595,W,1,07,1.6,1035.8,M,35.0,M,,0000*6A
$GPGSA,M,3,24,23,11,13,20,32,17,,,,,,3.3,1.6,2.9*32
$GPRMC,012601.000,A,1926.9219,S,06958.0595,W,0.42,64.33,010511,,,A*51
$GPGGA,012601.998,1926.9223,S,06958.0595,W,1,06,1.7,1036.8,M,35.0,M,,0000*68
$GPGSA,M,3,24,23,11,13,20,32,,,,,,,4.6,1.7,4.3*3B
$GPRMC,012601.998,A,1926.9223,S,06958.0595,W,0.76,87.28,010511,,,A*50
$GPGGA,012603.001,1926.9223,S,06958.0595,W,1,08,1.3,1037.7,M,35.0,M,,0000*67
$GPGSA,M,3,24,23,11,13,20,32,17,31,,,,,2.2,1.3,1.8*37
$GPGSV,3,1,10,24,73,072,33,23,67,214,31,11,61,019,37,13,49,288,29*75
$GPGSV,3,2,10,20,47,179,33,32,39,142,35,17,22,249,25,31,12,135,26*71
$GPGSV,3,3,10,07,09,343,35,19,06,012,*79
$GPRMC,012603.001,A,1926.9223,S,06958.0595,W,0.31,54.80,010511,,,A*54
$GPGGA,012603.999,1926.9228,S,06958.0595,W,1,07,1.6,1039.7,M,35.0,M,,0000*60
$GPGSA,M,3,24,23,11,13,20,32,17,,,,,,3.3,1.6,2.9*32
$GPRMC,012603.999,A,1926.9228,S,06958.0595,W,0.37,121.26,010511,,,A*6E
$GPGGA,012604.997,1926.9236,S,06958.0594,W,1,07,1.6,1041.4,M,35.0,M,,0000*6B
$GPGSA,M,3,24,23,11,13,20,32,17,,,,,,3.3,1.6,2.9*32
$GPRMC,012604.997,A,1926.9236,S,06958.0594,W,0.28,47.72,010511,,,A*57
$GPGGA,012606.000,1926.9238,S,06958.0593,W,1,07,1.6,1041.7,M,35.0,M,,0000*64
$GPGSA,M,3,24,23,11,13,20,32,31,,,,,,2.8,1.6,2.3*36
$GPRMC,012606.000,A,1926.9238,S,06958.0593,W,1.11,255.83,010511,,,A*6F
$GPGGA,012607.002,1926.9241,S,06958.0597,W,1,08,1.3,1044.4,M,35.0,M,,0000*61
$GPGSA,M,3,24,23,11,13,20,32,17,31,,,,,2.2,1.3,1.8*37
$GPRMC,012607.002,A,1926.9241,S,06958.0597,W,1.00,227.80,010511,,,A*60
$GPGGA,012608.001,1926.9239,S,06958.0601,W,1,08,1.3,1046.0,M,35.0,M,,0000*68
$GPGSA,M,3,24,23,11,13,20,32,17,31,,,,,2.2,1.3,1.8*37
$GPGSV,3,1,10,24,73,072,33,23,67,214,34,11,61,019,37,13,49,288,30*78
$GPGSV,3,2,10,20,47,179,34,32,39,142,34,17,22,249,29,31,12,135,26*7B
$GPGSV,3,3,10,07,09,343,36,19,06,012,*7A
$GPRMC,012608.001,A,1926.9239,S,06958.0601,W,1.00,297.55,010511,,,A*6C
$GPGGA,012608.999,1926.9240,S,06958.0603,W,1,06,1.7,1046.2,M,35.0,M,,0000*64
$GPGSA,M,3,24,23,11,13,20,32,,,,,,,4.6,1.7,4.3*3B
$GPRMC,012608.999,A,1926.9240,S,06958.0603,W,0.65,45.88,010511,,,A*57
$GPGGA,012609.997,1926.9237,S,06958.0597,W,1,07,1.6,1046.5,M,35.0,M,,0000*62
$GPGSA,M,3,24,23,11,13,20,32,17,,,,,,3.3,1.6,2.9*32
$GPRMC,012609.997,A,1926.9237,S,06958.0597,W,0.85,36.40,010511,,,A*58
$GPGGA,012611.000,1926.9234,S,06958.0593,W,1,07,1.6,1044.9,M,35.0,M,,0000*65
$GPGSA,M,3,24,23,11,13,20,32,17,,,,,,3.3,1.6,2.9*32
$GPRMC,012611.000,A,1926.9234,S,06958.0593,W,0.73,105.34,010511,,,A*6A
$GPGGA,012612.000,1926.9239,S,06958.0593,W,1,07,1.6,1047.3,M,35.0,M,,0000*62
$GPGSA,M,3,24,23,11,13,20,32,17,,,,,,3.3,1.6,2.9*32
$GPRMC,012612.000,A,1926.9239,S,06958.0593,W,0.56,19.06,010511,,,A*5E
$GPGGA,012613.000,1926.9237,S,06958.0591,W,1,07,1.6,1046.1,M,35.0,M,,0000*6C
$GPGSA,M,3,24,23,11,13,20,32,17,,,,,,3.3,1.6,2.9*32
$GPGSV,3,1,10,24,73,072,32,23,67,214,32,11,61,019,36,13,49,288,29*76
$GPGSV,3,2,10,20,47,179,34,32,39,142,32,17,22,249,28,31,12,135,*78
$GPGSV,3,3,10,07,09,343,36,19,06,012,*7A
$GPRMC,012613.000,A,1926.9237,S,06958.0591,W,0.15,262.79,010511,,,A*62
$GPGGA,012614.000,1926.9232,S,06958.0591,W,1,07,1.6,1043.7,M,35.0,M,,0000*6D
$GPGSA,M,3,24,23,11,13,20,32,17,,,,,,3.3,1.6,2.9*32
$GPRMC,012614.000,A,1926.9232,S,06958.0591,W,0.28,262.68,010511,,,A*6E
$GPGGA,012615.000,1926.9233,S,06958.0590,W,1,07,1.6,1044.3,M,35.0,M,,0000*6F
$GPGSA,M,3,24,23,11,13,20,32,17,,,,,,3.3,1.6,2.9*32
$GPRMC,012615.000,A,1926.9233,S,06958.0590,W,0.49,300.84,010511,,,A*6F
$GPGGA,012616.000,1926.9236,S,06958.0593,W,1,07,1.6,1045.0,M,35.0,M,,0000*68
$GPGSA,M,3,24,23,11,13,20,32,17,,,,,,3.3,1.6,2.9*32
$GPRMC,012616.000,A,1926.9236,S,06958.0593,W,0.73,357.46,010511,,,A*6F
$GPGGA,012617.000,1926.9238,S,06958.0597,W,1,07,1.6,1044.5,M,35.0,M,,0000*67
$GPGSA,M,3,24,23,11,13,20,32,17,,,,,,3.3,1.6,2.9*32
$GPRMC,012617.000,A,1926.9238,S,06958.0597,W,0.84,55.47,010511,,,A*5C
$GPGGA,012618.002,1926.9238,S,06958.0598,W,1,08,1.3,1043.3,M,35.0,M,,0000*6E
$GPGSA,M,3,24,23,11,13,20,32,17,31,,,,,2.2,1.3,1.8*37
$GPGSV,3,1,10,24,73,072,36,23,67,214,31,11,61,019,37,13,49,288,28*71
$GPGSV,3,2,10,20,47,179,34,32,39,142,35,17,22,249,27,31,12,135,21*73
$GPGSV,3,3,10,07,09,343,35,19,06,012,*79
$GPRMC,012618.002,A,1926.9238,S,06958.0598,W,0.24,12.97,010511,,,A*5A
$GPGGA,012619.000,1926.9236,S,06958.0601,W,1,06,1.7,1041.0,M,35.0,M,,0000*6B
$GPGSA,M,3,24,23,11,13,20,32,,,,,,,4.6,1.7,4.3*3B
$GPRMC,012619.000,A,1926.9236,S,06958.0601,W,1.25,286.92,010511,,,A*6E
$GPGGA,012620.000,1926.9234,S,06958.0602,W,1,07,1.6,1041.4,M,35.0,M,,0000*64
$GPGSA,M,3,24,23,11,13,20,32,17,,,,,,3.3,1.6,2.9*32
$GPRMC,012620.000,A,1926.9234,S,06958.0602,W,0.29,12.02,010511,,,A*5E
$GPGGA,012621.000,1926.9238,S,06958.0602,W,1,06,1.7,1041.3,M,35.0,M,,0000*6E
$GPGSA,M,3,24,23,11,13,20,32,,,,,,,4.6,1.7,4.3*3B
$GPRMC,012621.000,A,1926.9238,S,06958.0602,W,0.24,29.39,010511,,,A*5E
$GPGGA,012622.000,1926.9241,S,06958.0600,W,1,07,1.6,1041.0,M,35.0,M,,0000*62
$GPGSA,M,3,24,23,11,13,20,32,17,,,,,,3.3,1.6,2.9*32
$GPRMC,012622.000,A,1926.9241,S,06958.0600,W,0.90,96.72,010511,,,A*55
$GPGGA,012623.000,1926.9242,S,06958.0603,W,1,07,1.6,1039.9,M,35.0,M,,0000*65
$GPGSA,M,3,24,23,11,13,20,32,17,,,,,,3.3,1.6,2.9*32
$GPGSV,3,1,10,24,73,072,36,23,67,214,31,11,61,019,37,13,49,288,30*78
$GPGSV,3,2,10,20,47,179,34,32,39,142,34,17,22,249,28,31,12,135,*7E
$GPGSV,3,3,10,07,09,343,35,19,06,012,*79
$GPRMC,012623.000,A,1926.9242,S,06958.0603,W,0.45,89.60,010511,,,A*51
$GPGGA,012624.001,1926.9243,S,06958.0603,W,1,07,1.6,1039.3,M,35.0,M,,0000*68
$GPGSA,M,3,24,23,11,13,20,32,17,,,,,,3.3,1.6,2.9*32
$GPRMC,012624.001,A,1926.9243,S,06958.0603,W,0.30,136.19,010511,,,A*6F
$GPGGA,012624.998,1926.9244,S,06958.0604,W,1,06,1.7,1040.3,M,35.0,M,,0000*6F
$GPGSA,M,3,24,23,11,13,20,32,,,,,,,4.6,1.7,4.3*3B
$GPRMC,012624.998,A,1926.9244,S,06958.0604,W,0.22,339.29,010511,,,A*6B
$GPGGA,012626.002,1926.9246,S,06958.0606,W,1,07,1.6,1042.8,M,35.0,M,,0000*6E
$GPGSA,M,3,24,23,11,13,20,32,17,,,,,,3.3,1.6,2.9*32
$GPRMC,012626.002,A,1926.9246,S,06958.0606,W,0.30,2.57,010511,,,A*62
$GPGGA,012627.000,1926.9245,S,06958.0608,W,1,07,1.6,1043.0,M,35.0,M,,0000*69
$GPGSA,M,3,24,23,11,13,20,32,17,,,,,,3.3,1.6,2.9*32
$GPRMC,012627.000,A,1926.9245,S,06958.0608,W,0.76,239.54,010511,,,A*67
$GPGGA,012627.998,1926.9251,S,06958.0610,W,1,06,1.7,1044.4,M,35.0,M,,0000*6E
$GPGSA,M,3,24,23,11,13,20,32,,,,,,,4.6,1.7,4.3*3B
$GPGSV,3,1,10,24,73,072,36,23,67,214,32,11,61,019,35,13,49,288,30*79
$GPGSV,3,2,10,20,47,179,31,32,39,142,33,17,22,249,,31,12,135,*76
$GPGSV,3,3,10,07,09,343,32,19,06,012,*7E
$GPRMC,012627.998,A,1926.9251,S,06958.0610,W,0.84,211.40,010511,,,A*61
$GPGGA,012629.001,1926.9256,S,06958.0611,W,1,06,1.7,1043.6,M,35.0,M,,0000*6A
$GPGSA,M,3,24,23,11,20,32,17,,,,,,,3.4,1.7,2.9*36
$GPRMC,012629.001,A,1926.9256,S,06958.0611,W,0.33,19.94,010511,,,A*5F
$GPGGA,012629.998,1926.9249,S,06958.0607,W,1,06,1.7,1041.2,M,35.0,M,,0000*6C
$GPGSA,M,3,24,23,11,13,20,32,,,,,,,4.6,1.7,4.3*3B
$GPRMC,012629.998,A,1926.9249,S,06958.0607,W,0.49,26.09,010511,,,A*5A
$GPGGA,012630.999,1926.9253,S,06958.0605,W,1,07,1.6,1043.5,M,35.0,M,,0000*69
$GPGSA,M,3,24,23,11,13,20,32,17,,,,,,3.3,1.6,2.9*32
$GPRMC,012630.999,A,1926.9253,S,06958.0605,W,0.34,61.45,010511,,,A*5B
$GPGGA,012632.000,1926.9250,S,06958.0603,W,1,05,3.2,1042.6,M,35.0,M,,0000*61
$GPGSA,M,3,24,23,11,20,32,,,,,,,,7.8,3.2,7.1*32
$GPRMC,012632.000,A,1926.9250,S,06958.0603,W,1.67,41.32,010511,,,A*50
$GPGGA,012632.999,1926.9248,S,06958.0602,W,1,07,1.6,1040.6,M,35.0,M,,0000*66
$GPGSA,M,3,24,23,11,13,20,32,17,,,,,,3.3,1.6,2.9*32
$GPGSV,3,1,10,24,73,072,35,23,67,214,31,11,61,019,36,13,49,288,25*7E
$GPGSV,3,2,10,20,47,179,35,32,39,142,35,17,22,249,27,31,12,135,*71
$GPGSV,3,3,10,07,09,343,35,19,06,012,*79
$GPRMC,012632.999,A,1926.9248,S,06958.0602,W,0.56,334.88,010511,,,A*62
$GPGGA,012634.001,1926.9247,S,06958.0605,W,1,06,1.7,1039.7,M,35.0,M,,0000*6F
$GPGSA,M,3,24,23,11,13,20,32,,,,,,,4.6,1.7,4.3*3B
$GPRMC,012634.001,A,1926.9247,S,06958.0605,W,0.47,79.99,010511,,,A*5E
$GPGGA,012635.005,1926.9245,S,06958.0603,W,1,07,1.6,1040.5,M,35.0,M,,0000*62
$GPGSA,M,3,24,23,11,13,20,32,17,,,,,,3.3,1.6,2.9*32
$GPRMC,012635.005,A,1926.9245,S,06958.0603,W,0.31,326.64,010511,,,A*65
$GPGGA,012635.992,1926.9244,S,06958.0603,W,1,07,1.6,1040.7,M,35.0,M,,0000*66
$GPGSA,M,3,24,23,11,13,20,32,17,,,,,,3.3,1.6,2.9*32
$GPRMC,012635.992,A,1926.9244,S,06958.0603,W,0.38,294.71,010511,,,A*66
$GPGGA,012637.009,1926.9245,S,06958.0602,W,1,07,1.6,1040.6,M,35.0,M,,0000*6E
$GPGSA,M,3,24,23,11,13,20,32,17,,,,,,3.3,1.6,2.9*32
$GPRMC,012637.009,A,1926.9245,S,06958.0602,W,1.12,320.75,010511,,,A*6C
$GPGGA,012637.992,1926.9243,S,06958.0606,W,1,07,1.6,1040.6,M,35.0,M,,0000*67
$GPGSA,M,3,24,23,11,13,20,32,17,,,,,,3.3,1.6,2.9*32
$GPGSV,3,1,10,24,72,067,35,23,66,210,32,11,59,019,38,13,50,286,28*73
$GPGSV,3,2,10,20,47,177,33,32,38,140,34,17,23,250,28,31,12,136,*7E
$GPGSV,3,3,10,07,10,344,35,19,05,012,*75
$GPRMC,012637.992,A,1926.9243,S,06958.0606,W,0.36,305.74,010511,,,A*64
$GPGGA,012639.000,1926.9244,S,06958.0609,W,1,07,1.6,1040.2,M,35.0,M,,0000*67
$GPGSA,M,3,24,23,11,13,20,32,17,,,,,,3.3,1.6,2.9*32
$GPRMC,012639.000,A,1926.9244,S,06958.0609,W,0.65,322.84,010511,,,A*6C
$GPGGA,012640.001,1926.9241,S,06958.0609,W,1,07,1.5,1040.0,M,35.0,M,,0000*6C
$GPGSA,M,3,24,23,11,13,20,32,17,,,,,,3.3,1.5,2.9*31
$GPRMC,012640.001,A,1926.9241,S,06958.0609,W,0.90,296.50,010511,,,A*6B
$GPGGA,012641.001,1926.9243,S,06958.0612,W,1,07,1.5,1040.0,M,35.0,M,,0000*65
$GPGSA,M,3,24,23,11,13,20,32,17,,,,,,3.3,1.5,2.9*31
$GPRMC,012641.001,A,1926.9243,S,06958.0612,W,0.27,336.04,010511,,,A*64
$GPGGA,012641.999,1926.9242,S,06958.0611,W,1,07,1.5,1040.0,M,35.0,M,,0000*6F
$GPGSA,M,3,24,23,11,13,20,32,17,,,,,,3.3,1.5,2.9*31
$GPRMC,012641.999,A,1926.9242,S,06958.0611,W,0.33,34.21,010511,,,A*5D
$GPGGA,012642.998,1926.9244,S,06958.0612,W,1,07,1.5,1039.2,M,35.0,M,,0000*64
$GPGSA,M,3,24,23,11,13,20,32,17,,,,,,3.3,1.5,2.9*31
$GPGSV,3,1,10,24,72,067,34,23,66,210,31,11,59,019,37,13,50,286,27*71
$GPGSV,3,2,10,20,47,177,34,32,38,140,34,17,23,250,26,31,12,136,*77
$GPGSV,3,3,10,07,10,344,35,19,05,012,*75
$GPRMC,012642.998,A,1926.9244,S,06958.0612,W,0.37,312.23,010511,,,A*6B
$GPGGA,012644.000,1926.9241,S,06958.0608,W,1,07,1.5,1036.6,M,35.0,M,,0000*6F
$GPGSA,M,3,24,23,11,13,20,32,17,,,,,,3.3,1.5,2.9*31
$GPRMC,012644.000,A,1926.9241,S,06958.0608,W,1.26,352.44,010511,,,A*6F
$GPGGA,012645.000,1926.9242,S,06958.0611,W,1,07,1.5,1037.5,M,35.0,M,,0000*67
$GPGSA,M,3,24,23,11,13,20,32,17,,,,,,3.3,1.5,2.9*31
$GPRMC,012645.000,A,1926.9242,S,06958.0611,W,0.87,351.24,010511,,,A*6A
$GPGGA,012646.000,1926.9244,S,06958.0609,W,1,07,1.5,1040.2,M,35.0,M,,0000*6C
$GPGSA,M,3,24,23,11,13,20,32,17,,,,,,3.3,1.5,2.9*31
$GPRMC,012646.000,A,1926.9244,S,06958.0609,W,0.17,1.09,010511,,,A*66
$GPGGA,012647.000,1926.9234,S,06958.0602,W,1,07,1.5,1036.5,M,35.0,M,,0000*67
$GPGSA,M,3,24,23,11,13,20,32,17,,,,,,3.3,1.5,2.9*31
$GPRMC,012647.000,A,1926.9234,S,06958.0602,W,0.87,359.22,010511,,,A*65
$GPGGA,012648.000,1926.9235,S,06958.0601,W,1,07,1.5,1037.9,M,35.0,M,,0000*67
$GPGSA,M,3,24,23,11,13,20,32,17,,,,,,3.3,1.5,2.9*31
$GPGSV,3,1,10,24,72,067,35,23,66,210,32,11,59,019,37,13,50,286,27*73
$GPGSV,3,2,10,20,47,177,34,32,38,140,35,17,23,250,27,31,12,136,*77
$GPGSV,3,3,10,07,10,344,35,19,05,012,*75
$GPRMC,012648.000,A,1926.9235,S,06958.0601,W,0.50,323.26,010511,,,A*6B
$GPGGA,012649.000,1926.9234,S,06958.0608,W,1,07,1.5,1037.7,M,35.0,M,,0000*60
$GPGSA,M,3,24,23,11,13,20,32,17,,,,,,3.3,1.5,2.9*31
$GPRMC,012649.000,A,1926.9234,S,06958.0608,W,0.43,278.20,010511,,,A*69
$GPGGA,012650.001,1926.9234,S,06958.0612,W,1,07,1.5,1037.7,M,35.0,M,,0000*62
$GPGSA,M,3,24,23,11,13,20,32,17,,,,,,3.3,1.5,2.9*31
$GPRMC,012650.001,A,1926.9234,S,06958.0612,W,0.80,301.90,010511,,,A*60
$GPGGA,012650.999,1926.9235,S,06958.0613,W,1,07,1.5,1038.7,M,35.0,M,,0000*65
$GPGSA,M,3,24,23,11,13,20,32,17,,,,,,3.3,1.5,2.9*31
$GPRMC,012650.999,A,1926.9235,S,06958.0613,W,0.87,0.84,010511,,,A*68
$GPGGA,012651.999,1926.9233,S,06958.0616,W,1,05,3.2,1039.1,M,35.0,M,,0000*67
$GPGSA,M,3,24,23,11,20,32,,,,,,,,7.8,3.2,7.1*32
$GPRMC,012651.999,A,1926.9233,S,06958.0616,W,1.22,323.35,010511,,,A*6C
$GPGGA,012653.002,1926.9237,S,06958.0617,W,1,07,1.5,1041.9,M,35.0,M,,0000*6B
$GPGSA,M,3,24,23,11,13,20,32,17,,,,,,3.3,1.5,2.9*31
$GPGSV,3,1,10,24,72,067,35,23,66,210,33,11,59,019,37,13,50,286,26*73
$GPGSV,3,2,10,20,47,177,34,32,38,140,35,17,23,250,27,31,12,136,*77
$GPGSV,3,3,10,07,10,344,36,19,05,012,*76
$GPRMC,012653.002,A,1926.9237,S,06958.0617,W,0.42,299.06,010511,,,A*67
$GPGGA,012654.000,1926.9237,S,06958.0620,W,1,07,1.5,1042.0,M,35.0,M,,0000*60
$GPGSA,M,3,24,23,11,13,20,32,17,,,,,,3.3,1.5,2.9*31
$GPRMC,012654.000,A,1926.9237,S,06958.0620,W,0.34,321.86,010511,,,A*6D
$GPGGA,012655.000,1926.9236,S,06958.0620,W,1,07,1.5,1041.2,M,35.0,M,,0000*61
$GPGSA,M,3,24,23,11,13,20,32,17,,,,,,3.3,1.5,2.9*31
$GPRMC,012655.000,A,1926.9236,S,06958.0620,W,0.45,43.71,010511,,,A*54
$GPGGA,012655.999,1926.9239,S,06958.0617,W,1,07,1.5,1042.7,M,35.0,M,,0000*65
$GPGSA,M,3,24,23,11,13,20,32,17,,,,,,3.3,1.5,2.9*31
$GPRMC,012655.999,A,1926.9239,S,06958.0617,W,1.23,23.84,010511,,,A*5B
$GPGGA,012656.995,1926.9235,S,06958.0616,W,1,07,1.5,1042.1,M,35.0,M,,0000*61
$GPGSA,M,3,24,23,11,13,20,32,17,,,,,,3.3,1.5,2.9*31
$GPRMC,012656.995,A,1926.9235,S,06958.0616,W,0.91,359.41,010511,,,A*66
$GPGGA,012658.006,1926.9237,S,06958.0619,W,1,07,1.5,1045.9,M,35.0,M,,0000*6E
$GPGSA,M,3,24,23,11,13,20,32,17,,,,,,3.3,1.5,2.9*31
$GPGSV,3,1,10,24,72,067,35,23,66,210,30,11,59,019,36,13,50,286,25*72
$GPGSV,3,2,10,20,47,177,31,32,38,140,33,17,23,250,28,31,12,136,*7B
$GPGSV,3,3,10,07,10,344,36,19,05,012,*76
$GPRMC,012658.006,A,1926.9237,S,06958.0619,W,1.10,9.84,010511,,,A*61
$GPGGA,012659.000,1926.9233,S,06958.0617,W,1,07,1.5,1045.7,M,35.0,M,,0000*6D
$GPGSA,M,3,24,23,11,13,20,32,17,,,,,,3.3,1.5,2.9*31
$GPRMC,012659.000,A,1926.9233,S,06958.0617,W,0.55,61.78,010511,,,A*51
$GPGGA,012659.995,1926.9234,S,06958.0611,W,1,07,1.5,1045.3,M,35.0,M,,0000*6D
$GPGSA,M,3,24,23,11,13,20,32,17,,,,,,3.3,1.5,2.9*31
$GPRMC,012659.995,A,1926.9234,S,06958.0611,W,0.40,44.67,010511,,,A*58
$GPGGA,012701.000,1926.9239,S,06958.0613,W,1,07,1.5,1046.1,M,35.0,M,,0000*6A
$GPGSA,M,3,24,23,11,13,20,32,17,,,,,,3.3,1.5,2.9*31
$GPRMC,012701.000,A,1926.9239,S,06958.0613,W,0.71,37.42,010511,,,A*5F
$GPGGA,012702.000,1926.9233,S,06958.0606,W,1,07,1.5,1044.7,M,35.0,M,,0000*63
$GPGSA,M,3,24,23,11,13,20,32,17,,,,,,3.3,1.5,2.9*31
$GPRMC,012702.000,A,1926.9233,S,06958.0606,W,0.21,32.45,010511,,,A*55
$GPGGA,012703.000,1926.9230,S,06958.0604,W,1,07,1.5,1043.6,M,35.0,M,,0000*65
$GPGSA,M,3,24,23,11,13,20,32,17,,,,,,3.3,1.5,2.9*31
$GPGSV,3,1,10,24,72,067,35,23,66,210,31,11,59,019,36,13,50,286,28*7E
$GPGSV,3,2,10,20,47,177,34,32,38,140,35,17,23,250,28,31,12,136,*78
$GPGSV,3,3,10,07,10,344,36,19,05,012,*76
$GPRMC,012703.000,A,1926.9230,S,06958.0604,W,0.50,29.53,010511,,,A*5E
$GPGGA,012704.000,1926.9229,S,06958.0602,W,1,07,1.5,1041.9,M,35.0,M,,0000*61
$GPGSA,M,3,24,23,11,13,20,32,17,,,,,,3.3,1.5,2.9*31
$GPRMC,012704.000,A,1926.9229,S,06958.0602,W,0.52,83.65,010511,,,A*50
$GPGGA,012705.000,1926.9232,S,06958.0599,W,1,07,1.5,1041.5,M,35.0,M,,0000*67
$GPGSA,M,3,24,23,11,13,20,32,17,,,,,,3.3,1.5,2.9*31
$GPRMC,012705.000,A,1926.9232,S,06958.0599,W,0.26,49.84,010511,,,A*50
$GPGGA,012705.999,1926.9232,S,06958.0597,W,1,07,1.5,1041.3,M,35.0,M,,0000*66
$GPGSA,M,3,24,23,11,13,20,32,17,,,,,,3.3,1.5,2.9*31
$GPRMC,012705.999,A,1926.9232,S,06958.0597,W,0.26,54.27,010511,,,A*52
$GPGGA,012707.000,1926.9234,S,06958.0597,W,1,07,1.5,1038.2,M,35.0,M,,0000*64
$GPGSA,M,3,24,23,11,13,20,32,17,,,,,,3.3,1.5,2.9*31
$GPRMC,012707.000,A,1926.9234,S,06958.0597,W,0.25,314.62,010511,,,A*6A
$GPGGA,012708.000,1926.9233,S,06958.0596,W,1,07,1.5,1038.2,M,35.0,M,,0000*6D
$GPGSA,M,3,24,23,11,13,20,32,17,,,,,,3.3,1.5,2.9*31
$GPGSV,3,1,10,24,72,067,35,23,66,210,32,11,59,019,37,13,50,286,29*7D
$GPGSV,3,2,10,20,47,177,34,32,38,140,35,17,23,250,29,31,12,136,*79
$GPGSV,3,3,10,07,10,344,35,19,05,012,*75
$GPRMC,012708.000,A,1926.9233,S,06958.0596,W,1.06,53.98,010511,,,A*56
$GPGGA,012709.000,1926.9237,S,06958.0595,W,1,07,1.5,1040.4,M,35.0,M,,0000*62
$GPGSA,M,3,24,23,11,13,20,32,17,,,,,,3.3,1.5,2.9*31
$GPRMC,012709.000,A,1926.9237,S,06958.0595,W,0.78,20.28,010511,,,A*57
$GPGGA,012710.000,1926.9234,S,06958.0598,W,1,07,1.5,1040.5,M,35.0,M,,0000*65
$GPGSA,M,3,24,23,11,13,20,32,17,,,,,,3.3,1.5,2.9*31
$GPRMC,012710.000,A,1926.9234,S,06958.0598,W,0.40,17.86,010511,,,A*5A
$GPGGA,012711.000,1926.9231,S,06958.0595,W,1,07,1.5,1039.0,M,35.0,M,,0000*67
$GPGSA,M,3,24,23,11,13,20,32,17,,,,,,3.3,1.5,2.9*31
$GPRMC,012711.000,A,1926.9231,S,06958.0595,W,0.70,4.06,010511,,,A*6A
$GPGGA,012712.000,1926.9229,S,06958.0591,W,1,07,1.5,1038.8,M,35.0,M,,0000*60
$GPGSA,M,3,24,23,11,13,20,32,17,,,,,,3.3,1.5,2.9*31
$GPRMC,012712.000,A,1926.9229,S,06958.0591,W,0.85,337.51,010511,,,A*6F
$GPGGA,012713.000,1926.9228,S,06958.0590,W,1,07,1.5,1037.2,M,35.0,M,,0000*64
$GPGSA,M,3,24,23,11,13,20,32,17,,,,,,3.3,1.5,2.9*31
$GPGSV,3,1,10,24,72,067,34,23,66,210,30,11,59,019,37,13,50,286,27*70
$GPGSV,3,2,10,20,47,177,32,32,38,140,33,17,23,250,28,31,12,136,*78
$GPGSV,3,3,10,07,10,344,35,19,05,012,*75
$GPRMC,012713.000,A,1926.9228,S,06958.0590,W,0.47,306.21,010511,,,A*65
$GPGGA,012714.001,1926.9230,S,06958.0589,W,1,07,1.5,1038.6,M,35.0,M,,0000*68
$GPGSA,M,3,24,23,11,13,20,32,17,,,,,,3.3,1.5,2.9*31
$GPRMC,012714.001,A,1926.9230,S,06958.0589,W,0.33,324.45,010511,,,A*63
$GPGGA,012715.001,1926.9231,S,06958.0588,W,1,07,1.5,1038.0,M,35.0,M,,0000*6F
$GPGSA,M,3,24,23,11,13,20,32,17,,,,,,3.3,1.5,2.9*31
$GPRMC,012715.001,A,1926.9231,S,06958.0588,W,0.53,29.57,010511,,,A*59
$GPGGA,012716.000,1926.9231,S,06958.0588,W,1,07,1.5,1038.4,M,35.0,M,,0000*69
$GPGSA,M,3,24,23,11,13,20,32,17,,,,,,3.3,1.5,2.9*31
$GPRMC,012716.000,A,1926.9231,S,06958.0588,W,0.15,22.66,010511,,,A*50
$GPGGA,012716.997,1926.9229,S,06958.0594,W,1,07,1.5,1039.7,M,35.0,M,,0000*68
$GPGSA,M,3,24,23,11,13,20,32,17,,,,,,3.3,1.5,2.9*31
$GPRMC,012716.997,A,1926.9229,S,06958.0594,W,0.44,24.96,010511,,,A*5E
$GPGGA,012718.002,1926.9230,S,06958.0590,W,1,07,1.5,1038.7,M,35.0,M,,0000*6E
$GPGSA,M,3,24,23,11,13,20,32,17,,,,,,3.3,1.5,2.9*31
$GPGSV,3,1,10,24,72,067,34,23,66,210,30,11,59,019,37,13,50,286,27*70
$GPGSV,3,2,10,20,47,177,31,32,38,140,35,17,23,250,27,31,12,136,*72
$GPGSV,3,3,10,07,10,344,36,19,05,012,*76
$GPRMC,012718.002,A,1926.9230,S,06958.0590,W,0.43,342.72,010511,,,A*67
$GPGGA,012718.998,1926.9236,S,06958.0589,W,1,07,1.5,1040.1,M,35.0,M,,0000*63
$GPGSA,M,3,24,23,11,13,20,32,17,,,,,,3.3,1.5,2.9*31
$GPRMC,012718.998,A,1926.9236,S,06958.0589,W,1.45,99.13,010511,,,A*56
$GPGGA,012720.001,1926.9239,S,06958.0585,W,1,07,1.5,1039.7,M,35.0,M,,0000*6A
$GPGSA,M,3,24,23,11,13,20,32,17,,,,,,3.3,1.5,2.9*31
$GPRMC,012720.001,A,1926.9239,S,06958.0585,W,0.53,17.71,010511,,,A*53
$GPGGA,012720.999,1926.9239,S,06958.0581,W,1,07,1.5,1039.1,M,35.0,M,,0000*60
$GPGSA,M,3,24,23,11,13,20,32,17,,,,,,3.3,1.5,2.9*31
$GPRMC,012720.999,A,1926.9239,S,06958.0581,W,0.98,51.15,010511,,,A*58
$GPGGA,012722.000,1926.9236,S,06958.0580,W,1,07,1.5,1037.3,M,35.0,M,,0000*69
$GPGSA,M,3,24,23,11,13,20,32,17,,,,,,3.3,1.5,2.9*31
$GPRMC,012722.000,A,1926.9236,S,06958.0580,W,0.79,73.32,010511,,,A*57
$GPGGA,012723.003,1926.9238,S,06958.0585,W,1,07,1.5,1039.7,M,35.0,M,,0000*6A
$GPGSA,M,3,24,23,11,13,20,32,17,,,,,,3.3,1.5,2.9*31
$GPGSV,3,1,10,24,72,067,35,23,66,210,32,11,59,019,36,13,50,286,30*74
$GPGSV,3,2,10,20,47,177,34,32,38,140,34,17,23,250,27,31,12,136,*76
$GPGSV,3,3,10,07,10,344,36,19,05,012,*76
$GPRMC,012723.003,A,1926.9238,S,06958.0585,W,0.42,36.91,010511,,,A*5E
$GPGGA,012724.000,1926.9242,S,06958.0587,W,1,07,1.5,1040.6,M,35.0,M,,0000*6E
$GPGSA,M,3,24,23,11,13,20,32,17,,,,,,3.3,1.5,2.9*31
$GPRMC,012724.000,A,1926.9242,S,06958.0587,W,0.39,5.56,010511,,,A*62
$GPGGA,012724.998,1926.9244,S,06958.0589,W,1,08,1.3,1040.0,M,35.0,M,,0000*61
$GPGSA,M,3,24,23,11,13,20,32,17,31,,,,,2.2,1.3,1.8*37
$GPRMC,012724.998,A,1926.9244,S,06958.0589,W,0.38,85.70,010511,,,A*5F
$GPGGA,012726.002,1926.9248,S,06958.0588,W,1,07,1.5,1039.8,M,35.0,M,,0000*6B
$GPGSA,M,3,24,23,11,13,20,32,17,,,,,,3.3,1.5,2.9*31
$GPRMC,012726.002,A,1926.9248,S,06958.0588,W,0.28,138.28,010511,,,A*61
$GPGGA,012727.000,1926.9251,S,06958.0590,W,1,07,1.5,1040.4,M,35.0,M,,0000*6B
$GPGSA,M,3,24,23,11,13,20,32,17,,,,,,3.3,1.5,2.9*31
$GPRMC,012727.000,A,1926.9251,S,06958.0590,W,0.13,168.00,010511,,,A*64
$GPGGA,012728.000,1926.9251,S,06958.0590,W,1,06,1.7,1040.4,M,35.0,M,,0000*67
$GPGSA,M,3,24,23,11,13,20,32,,,,,,,4.7,1.7,4.4*3D
$GPGSV,3,1,10,24,72,067,35,23,66,210,32,11,59,019,37,13,50,286,29*7D
$GPGSV,3,2,10,20,47,177,33,32,38,140,35,17,23,250,,31,12,136,*75
$GPGSV,3,3,10,07,10,344,35,19,05,012,*75
$GPRMC,012728.000,A,1926.9251,S,06958.0590,W,0.28,58.35,010511,,,A*57
$GPGGA,012729.001,1926.9254,S,06958.0592,W,1,07,1.5,1042.4,M,35.0,M,,0000*61
$GPGSA,M,3,24,23,11,13,20,32,17,,,,,,3.3,1.5,2.9*31
$GPRMC,012729.001,A,1926.9254,S,06958.0592,W,0.93,56.48,010511,,,A*54
$GPGGA,012729.999,1926.9246,S,06958.0586,W,1,07,1.5,1039.6,M,35.0,M,,0000*61
$GPGSA,M,3,24,23,11,13,20,32,17,,,,,,3.3,1.5,2.9*31
$GPRMC,012729.999,A,1926.9246,S,06958.0586,W,0.85,340.43,010511,,,A*62
$GPGGA,012730.999,1926.9245,S,06958.0585,W,1,07,1.5,1041.7,M,35.0,M,,0000*67
$GPGSA,M,3,24,23,11,13,20,32,17,,,,,,3.3,1.5,2.9*31
$GPRMC,012730.999,A,1926.9245,S,06958.0585,W,0.28,83.67,010511,,,A*57
$GPGGA,012731.998,1926.9243,S,06958.0580,W,1,07,1.5,1040.9,M,35.0,M,,0000*6B
$GPGSA,M,3,24,23,11,13,20,32,17,,,,,,3.3,1.5,2.9*31
$GPRMC,012731.998,A,1926.9243,S,06958.0580,W,0.52,60.14,010511,,,A*50
$GPGGA,012733.002,1926.9243,S,06958.0580,W,1,07,1.5,1040.2,M,35.0,M,,0000*68
$GPGSA,M,3,24,23,11,13,20,32,17,,,,,,3.3,1.5,2.9*31
$GPGSV,3,1,10,24,72,067,34,23,66,210,30,11,59,019,37,13,50,286,30*76
$GPGSV,3,2,10,20,47,177,34,32,38,140,34,17,23,250,28,31,12,136,*79
$GPGSV,3,3,10,07,10,344,36,19,05,012,*76
$GPRMC,012733.002,A,1926.9243,S,06958.0580,W,0.86,75.12,010511,,,A*53
$GPGGA,012733.994,1926.9244,S,06958.0578,W,1,07,1.5,1039.1,M,35.0,M,,0000*63
$GPGSA,M,3,24,23,11,13,20,32,17,,,,,,3.3,1.5,2.9*31
$GPRMC,012733.994,A,1926.9244,S,06958.0578,W,0.51,235.32,010511,,,A*6B
$GPGGA,012735.003,1926.9242,S,06958.0578,W,1,07,1.5,1039.3,M,35.0,M,,0000*66
$GPGSA,M,3,24,23,11,13,20,32,17,,,,,,3.3,1.5,2.9*31
$GPRMC,012735.003,A,1926.9242,S,06958.0578,W,0.46,338.77,010511,,,A*67
$GPGGA,012735.997,1926.9241,S,06958.0580,W,1,07,1.5,1039.0,M,35.0,M,,0000*65
$GPGSA,M,3,24,23,11,13,20,32,17,,,,,,3.3,1.5,2.9*31
$GPRMC,012735.997,A,1926.9241,S,06958.0580,W,0.21,313.21,010511,,,A*6C
$GPGGA,012737.004,1926.9242,S,06958.0576,W,1,06,1.7,1038.8,M,35.0,M,,0000*64
$GPGSA,M,3,24,23,11,13,20,32,,,,,,,4.7,1.7,4.4*3D
$GPRMC,012737.004,A,1926.9242,S,06958.0576,W,1.42,56.27,010511,,,A*57
$GPGGA,012737.997,1926.9240,S,06958.0578,W,1,07,1.5,1037.7,M,35.0,M,,0000*68
$GPGSA,M,3,24,23,11,13,20,32,17,,,,,,3.3,1.5,2.9*31
$GPGSV,3,1,10,24,72,067,34,23,66,210,32,11,59,019,37,13,50,286,29*7C
$GPGSV,3,2,10,20,47,177,34,32,38,140,35,17,23,250,28,31,12,136,*78
$GPGSV,3,3,10,07,10,344,35,19,05,012,*75
$GPRMC,012737.997,A,1926.9240,S,06958.0578,W,0.44,85.17,010511,,,A*52
$GPGGA,012739.000,1926.9237,S,06958.0578,W,1,07,1.5,1039.1,M,35.0,M,,0000*69
$GPGSA,M,3,24,23,11,13,20,32,17,,,,,,3.3,1.5,2.9*31
$GPRMC,012739.000,A,1926.9237,S,06958.0578,W,1.01,337.67,010511,,,A*66
$GPGGA,012740.000,1926.9231,S,06958.0578,W,1,07,1.5,1038.4,M,35.0,M,,0000*65
$GPGSA,M,3,24,23,11,13,20,32,17,,,,,,3.3,1.5,2.9*31
$GPRMC,012740.000,A,1926.9231,S,06958.0578,W,0.59,25.07,010511,,,A*54
$GPGGA,012741.000,1926.9234,S,06958.0578,W,1,07,1.5,1038.2,M,35.0,M,,0000*67
$GPGSA,M,3,24,23,11,13,20,32,17,,,,,,3.3,1.5,2.9*31
$GPRMC,012741.000,A,1926.9234,S,06958.0578,W,0.69,2.42,010511,,,A*67
$GPGGA,012742.000,1926.9234,S,06958.0578,W,1,07,1.5,1038.2,M,35.0,M,,0000*64
$GPGSA,M,3,24,23,11,13,20,32,17,,,,,,3.3,1.5,2.9*31
$GPRMC,012742.000,A,1926.9234,S,06958.0578,W,0.63,347.63,010511,,,A*6F
$GPGGA,012743.000,1926.9234,S,06958.0581,W,1,07,1.5,1039.6,M,35.0,M,,0000*66
$GPGSA,M,3,24,23,11,13,20,32,17,,,,,,3.3,1.5,2.9*31
$GPGSV,3,1,10,24,72,067,35,23,66,210,31,11,59,019,37,13,50,286,29*7E
$GPGSV,3,2,10,20,47,177,33,32,38,140,35,17,23,250,28,31,12,136,*7F
$GPGSV,3,3,10,07,10,344,35,19,05,012,*75
$GPRMC,012743.000,A,1926.9234,S,06958.0581,W,0.24,295.10,010511,,,A*61
$GPGGA,012744.000,1926.9232,S,06958.0583,W,1,07,1.5,1040.6,M,35.0,M,,0000*6B
$GPGSA,M,3,24,23,11,13,20,32,17,,,,,,3.3,1.5,2.9*31
$GPRMC,012744.000,A,1926.9232,S,06958.0583,W,0.32,4.36,010511,,,A*6B
$GPGGA,012745.000,1926.9231,S,06958.0580,W,1,07,1.5,1040.9,M,35.0,M,,0000*65
$GPGSA,M,3,24,23,11,13,20,32,17,,,,,,3.3,1.5,2.9*31
$GPRMC,012745.000,A,1926.9231,S,06958.0580,W,0.28,357.07,010511,,,A*66
$GPGGA,012746.000,1926.9235,S,06958.0584,W,1,07,1.5,1042.6,M,35.0,M,,0000*6B
$GPGSA,M,3,24,23,11,13,20,32,17,,,,,,3.3,1.5,2.9*31
$GPRMC,012746.000,A,1926.9235,S,06958.0584,W,0.68,27.42,010511,,,A*54
$GPGGA,012746.999,1926.9230,S,06958.0582,W,1,07,1.5,1041.2,M,35.0,M,,0000*66
$GPGSA,M,3,24,23,11,13,20,32,17,,,,,,3.3,1.5,2.9*31
$GPRMC,012746.999,A,1926.9230,S,06958.0582,W,0.14,20.44,010511,,,A*54
$GPGGA,012748.001,1926.9229,S,06958.0580,W,1,07,1.5,1041.9,M,35.0,M,,0000*61
$GPGSA,M,3,24,23,11,13,20,32,17,,,,,,3.3,1.5,2.9*31
$GPGSV,3,1,10,24,72,067,34,23,66,210,31,11,59,019,37,13,50,286,27*71
$GPGSV,3,2,10,20,47,177,31,32,38,140,33,17,23,250,28,31,12,136,*7B
$GPGSV,3,3,10,07,10,344,35,19,05,012,*75
$GPRMC,012748.001,A,1926.9229,S,06958.0580,W,1.14,30.84,010511,,,A*54
$GPGGA,012748.998,1926.9231,S,06958.0579,W,1,07,1.5,1042.7,M,35.0,M,,0000*6A
$GPGSA,M,3,24,23,11,13,20,32,17,,,,,,3.3,1.5,2.9*31
$GPRMC,012748.998,A,1926.9231,S,06958.0579,W,0.26,149.45,010511,,,A*60
$GPGGA,012750.002,1926.9233,S,06958.0574,W,1,07,1.5,1041.0,M,35.0,M,,0000*62
$GPGSA,M,3,24,23,11,13,20,32,17,,,,,,3.3,1.5,2.9*31
$GPRMC,012750.002,A,1926.9233,S,06958.0574,W,0.52,113.08,010511,,,A*69
$GPGGA,012750.998,1926.9232,S,06958.0573,W,1,07,1.5,1042.0,M,35.0,M,,0000*6D
$GPGSA,M,3,24,23,11,13,20,32,17,,,,,,3.3,1.5,2.9*31
$GPRMC,012750.998,A,1926.9232,S,06958.0573,W,0.56,339.94,010511,,,A*6E
$GPGGA,012752.001,1926.9232,S,06958.0576,W,1,07,1.5,1041.8,M,35.0,M,,0000*68
$GPGSA,M,3,24,23,11,13,20,32,17,,,,,,3.3,1.5,2.9*31
$GPRMC,012752.001,A,1926.9232,S,06958.0576,W,0.35,301.81,010511,,,A*6A
$GPGGA,012753.001,1926.9232,S,06958.0578,W,1,07,1.5,1041.9,M,35.0,M,,0000*66
$GPGSA,M,3,24,23,11,13,20,32,17,,,,,,3.3,1.5,2.9*31
$GPGSV,3,1,10,24,72,067,35,23,66,210,33,11,59,019,37,13,50,286,28*7D
$GPGSV,3,2,10,20,47,177,35,32,38,140,34,17,23,250,29,31,12,136,*79
$GPGSV,3,3,10,07,10,344,36,19,05,012,*76
$GPRMC,012753.001,A,1926.9232,S,06958.0578,W,0.40,317.55,010511,,,A*69
$GPGGA,012753.998,1926.9232,S,06958.0581,W,1,07,1.5,1040.5,M,35.0,M,,0000*64
$GPGSA,M,3,24,23,11,13,20,32,17,,,,,,3.3,1.5,2.9*31
$GPRMC,012753.998,A,1926.9232,S,06958.0581,W,0.69,302.11,010511,,,A*69
$GPGGA,012755.000,1926.9226,S,06958.0581,W,1,07,1.5,1038.1,M,35.0,M,,0000*64
$GPGSA,M,3,24,23,11,13,20,32,17,,,,,,3.3,1.5,2.9*31
$GPRMC,012755.000,A,1926.9226,S,06958.0581,W,0.21,67.86,010511,,,A*50
$GPGGA,012756.005,1926.9228,S,06958.0582,W,1,07,1.5,1037.3,M,35.0,M,,0000*62
$GPGSA,M,3,24,23,11,13,20,32,17,,,,,,3.2,1.5,2.9*30
$GPRMC,012756.005,A,1926.9228,S,06958.0582,W,0.57,321.31,010511,,,A*67
$GPGGA,012756.996,1926.9228,S,06958.0587,W,1,07,1.5,1037.5,M,35.0,M,,0000*62
$GPGSA,M,3,24,23,11,13,20,32,17,,,,,,3.2,1.5,2.9*30
$GPRMC,012756.996,A,1926.9228,S,06958.0587,W,0.38,355.34,010511,,,A*6E
$GPGGA,012757.999,1926.9235,S,06958.0588,W,1,07,1.5,1039.2,M,35.0,M,,0000*66
$GPGSA,M,3,24,23,11,13,20,32,17,,,,,,3.2,1.5,2.9*30
$GPGSV,3,1,10,24,72,067,35,23,66,210,33,11,59,019,37,13,50,286,29*7C
$GPGSV,3,2,10,20,47,177,34,32,38,140,35,17,23,250,29,31,12,136,*79
$GPGSV,3,3,10,07,10,344,35,19,05,012,*75
$GPRMC,012757.999,A,1926.9235,S,06958.0588,W,0.17,128.84,010511,,,A*6D
$GPGGA,012759.003,1926.9238,S,06958.0590,W,1,07,1.5,1038.0,M,35.0,M,,0000*65
$GPGSA,M,3,24,23,11,13,20,32,17,,,,,,3.2,1.5,2.9*30
$GPRMC,012759.003,A,1926.9238,S,06958.0590,W,0.68,332.04,010511,,,A*64
$GPGGA,012759.999,1926.9244,S,06958.0593,W,1,07,1.5,1039.3,M,35.0,M,,0000*65
$GPGSA,M,3,24,23,11,13,20,32,17,,,,,,3.2,1.5,2.9*30
$GPRMC,012759.999,A,1926.9244,S,06958.0593,W,0.21,14.96,010511,,,A*57
$GPGGA,012801.000,1926.9240,S,06958.0595,W,1,07,1.5,1038.3,M,35.0,M,,0000*6D
$GPGSA,M,3,24,23,11,13,20,32,17,,,,,,3.2,1.5,2.9*30
$GPRMC,012801.000,A,1926.9240,S,06958.0595,W,0.83,282.45,010511,,,A*65
$GPGGA,012801.997,1926.9241,S,06958.0594,W,1,08,1.3,1038.0,M,35.0,M,,0000*60
$GPGSA,M,3,24,23,11,13,20,32,17,31,,,,,2.2,1.3,1.8*37
$GPRMC,012801.997,A,1926.9241,S,06958.0594,W,0.47,66.29,010511,,,A*58
$GPGGA,012803.002,1926.9244,S,06958.0600,W,1,06,1.7,1040.6,M,35.0,M,,0000*6F
$GPGSA,M,3,24,23,11,13,20,32,,,,,,,4.7,1.7,4.4*3D
$GPGSV,3,1,10,24,72,067,36,23,66,210,33,11,59,019,37,13,50,286,28*7E
$GPGSV,3,2,10,20,47,177,32,32,38,140,35,17,23,250,,31,12,136,*74
$GPGSV,3,3,10,07,10,344,34,19,05,012,*74
$GPRMC,012803.002,A,1926.9244,S,06958.0600,W,0.70,338.10,010511,,,A*62
$GPGGA,012804.000,1926.9241,S,06958.0602,W,1,07,1.5,1041.4,M,35.0,M,,0000*6D
$GPGSA,M,3,24,23,11,13,20,32,17,,,,,,3.2,1.5,2.9*30
$GPRMC,012804.000,A,1926.9241,S,06958.0602,W,0.11,261.43,010511,,,A*6C
$GPGGA,012805.001,1926.9243,S,06958.0602,W,1,07,1.5,1041.5,M,35.0,M,,0000*6E
$GPGSA,M,3,24,23,11,13,20,32,17,,,,,,3.2,1.5,2.9*30
$GPRMC,012805.001,A,1926.9243,S,06958.0602,W,0.21,170.37,010511,,,A*6D
$GPGGA,012805.997,1926.9243,S,06958.0599,W,1,08,1.3,1041.6,M,35.0,M,,0000*63
$GPGSA,M,3,24,23,11,13,20,32,17,31,,,,,2.2,1.3,1.8*37
$GPRMC,012805.997,A,1926.9243,S,06958.0599,W,0.80,76.55,010511,,,A*52
$GPGGA,012807.003,1926.9241,S,06958.0596,W,1,07,1.5,1040.5,M,35.0,M,,0000*63
$GPGSA,M,3,24,23,11,13,20,32,17,,,,,,3.2,1.5,2.9*30
$GPRMC,012807.003,A,1926.9241,S,06958.0596,W,0.05,5.44,010511,,,A*60
$GPGGA,012807.996,1926.9243,S,06958.0601,W,1,07,1.5,1042.1,M,35.0,M,,0000*6F
$GPGSA,M,3,24,23,11,13,20,32,17,,,,,,3.2,1.5,2.9*30
$GPGSV,3,1,10,24,72,067,36,23,66,210,35,11,59,019,36,13,50,286,32*72
$GPGSV,3,2,10,20,47,177,33,32,38,140,35,17,23,250,30,31,12,136,*76
$GPGSV,3,3,10,07,10,344,35,19,05,012,*75
$GPRMC,012807.996,A,1926.9243,S,06958.0601,W,0.84,283.59,010511,,,A*63
$GPGGA,012809.001,1926.9240,S,06958.0602,W,1,07,1.5,1041.4,M,35.0,M,,0000*60
$GPGSA,M,3,24,23,11,13,20,32,17,,,,,,3.2,1.5,2.9*30
$GPRMC,012809.001,A,1926.9240,S,06958.0602,W,0.33,93.41,010511,,,A*5C
$GPGGA,012810.002,1926.9242,S,06958.0599,W,1,07,1.5,1041.8,M,35.0,M,,0000*64
$GPGSA,M,3,24,23,11,13,20,32,17,,,,,,3.2,1.5,2.9*30
$GPRMC,012810.002,A,1926.9242,S,06958.0599,W,0.74,155.62,010511,,,A*6D
$GPGGA,012810.997,1926.9241,S,06958.0594,W,1,07,1.5,1038.9,M,35.0,M,,0000*60
$GPGSA,M,3,24,23,11,13,20,32,17,,,,,,3.2,1.5,2.9*30
$GPRMC,012810.997,A,1926.9241,S,06958.0594,W,0.26,38.95,010511,,,A*53
$GPGGA,012812.003,1926.9243,S,06958.0597,W,1,08,1.3,1040.4,M,35.0,M,,0000*6C
$GPGSA,M,3,24,23,11,13,20,32,17,31,,,,,2.2,1.3,1.8*37
$GPRMC,012812.003,A,1926.9243,S,06958.0597,W,0.12,332.29,010511,,,A*6D
$GPGGA,012812.998,1926.9241,S,06958.0592,W,1,08,1.3,1039.3,M,35.0,M,,0000*69
$GPGSA,M,3,24,23,11,13,20,32,17,31,,,,,2.2,1.3,1.8*37
$GPGSV,3,1,10,24,72,067,37,23,66,210,32,11,59,019,36,13,50,286,30*76
$GPGSV,3,2,10,20,47,177,32,32,38,140,35,17,23,250,28,31,12,136,26*7A
$GPGSV,3,3,10,07,10,344,35,19,05,012,*75
$GPRMC,012812.998,A,1926.9241,S,06958.0592,W,1.01,49.11,010511,,,A*56
$GPGGA,012814.003,1926.9240,S,06958.0592,W,1,08,1.3,1040.5,M,35.0,M,,0000*6D
$GPGSA,M,3,24,23,11,13,20,32,17,31,,,,,2.2,1.3,1.8*37
$GPRMC,012814.003,A,1926.9240,S,06958.0592,W,0.25,329.55,010511,,,A*68
$GPGGA,012814.997,1926.9244,S,06958.0591,W,1,08,1.3,1040.9,M,35.0,M,,0000*62
$GPGSA,M,3,24,23,11,13,20,32,17,31,,,,,2.2,1.3,1.8*37
$GPRMC,012814.997,A,1926.9244,S,06958.0591,W,0.16,190.66,010511,,,A*6B
$GPGGA,012816.000,1926.9250,S,06958.0593,W,1,07,1.5,1043.0,M,35.0,M,,0000*63
$GPGSA,M,3,24,23,11,13,20,32,17,,,,,,3.2,1.5,2.9*30
$GPRMC,012816.000,A,1926.9250,S,06958.0593,W,0.13,38.97,010511,,,A*51
$GPGGA,012816.998,1926.9249,S,06958.0596,W,1,07,1.5,1042.7,M,35.0,M,,0000*60
$GPGSA,M,3,24,23,11,13,20,32,17,,,,,,3.2,1.5,2.9*30
$GPRMC,012816.998,A,1926.9249,S,06958.0596,W,0.49,295.36,010511,,,A*65
$GPGGA,012818.001,1926.9252,S,06958.0597,W,1,07,1.5,1042.1,M,35.0,M,,0000*6A
$GPGSA,M,3,24,23,11,13,20,32,17,,,,,,3.2,1.5,2.9*30
$GPGSV,3,1,10,24,72,067,37,23,66,210,35,11,59,019,35,13,50,286,31*73
$GPGSV,3,2,10,20,47,177,30,32,38,140,34,17,23,250,30,31,12,136,*74
$GPGSV,3,3,10,07,10,344,34,19,05,012,*74
$GPRMC,012818.001,A,1926.9252,S,06958.0597,W,0.31,148.56,010511,,,A*63
$GPGGA,012818.999,1926.9259,S,06958.0601,W,1,07,1.5,1044.3,M,35.0,M,,0000*61
$GPGSA,M,3,24,23,11,13,20,32,17,,,,,,3.2,1.5,2.9*30
$GPRMC,012818.999,A,1926.9259,S,06958.0601,W,0.45,258.31,010511,,,A*6C
$GPGGA,012820.000,1926.9255,S,06958.0601,W,1,07,1.5,1042.7,M,35.0,M,,0000*6D
$GPGSA,M,3,24,23,11,13,20,32,17,,,,,,3.2,1.5,2.9*30
$GPRMC,012820.000,A,1926.9255,S,06958.0601,W,0.95,18.82,010511,,,A*51
$GPGGA,012820.999,1926.9257,S,06958.0602,W,1,07,1.5,1042.8,M,35.0,M,,0000*6A
$GPGSA,M,3,24,23,11,13,20,32,17,,,,,,3.2,1.5,2.9*30
$GPRMC,012820.999,A,1926.9257,S,06958.0602,W,0.54,25.94,010511,,,A*5D
$GPGGA,012822.000,1926.9260,S,06958.0598,W,1,07,1.5,1043.7,M,35.0,M,,0000*6B
$GPGSA,M,3,24,23,11,13,20,32,17,,,,,,3.2,1.5,2.9*30
$GPRMC,012822.000,A,1926.9260,S,06958.0598,W,0.71,276.23,010511,,,A*6D
$GPGGA,012823.000,1926.9263,S,06958.0600,W,1,07,1.5,1045.0,M,35.0,M,,0000*6A
$GPGSA,M,3,24,23,11,13,20,32,17,,,,,,3.2,1.5,2.9*30
$GPGSV,3,1,10,24,72,067,37,23,66,210,34,11,59,019,36,13,50,286,32*72
$GPGSV,3,2,10,20,47,177,33,32,38,140,36,17,23,250,30,31,12,136,*75
$GPGSV,3,3,10,07,10,344,35,19,05,012,*75
$GPRMC,012823.000,A,1926.9263,S,06958.0600,W,0.48,0.11,010511,,,A*65
$GPGGA,012824.000,1926.9269,S,06958.0603,W,1,07,1.5,1046.4,M,35.0,M,,0000*63
$GPGSA,M,3,24,23,11,13,20,32,17,,,,,,3.2,1.5,2.9*30
$GPRMC,012824.000,A,1926.9269,S,06958.0603,W,0.23,180.37,010511,,,A*6B
$GPGGA,012825.000,1926.9265,S,06958.0602,W,1,07,1.5,1046.4,M,35.0,M,,0000*6F
$GPGSA,M,3,24,23,11,13,20,32,17,,,,,,3.2,1.5,2.9*30
$GPRMC,012825.000,A,1926.9265,S,06958.0602,W,0.57,264.76,010511,,,A*68
$GPGGA,012826.000,1926.9269,S,06958.0604,W,1,07,1.5,1047.3,M,35.0,M,,0000*60
$GPGSA,M,3,24,23,11,13,20,32,17,,,,,,3.2,1.5,2.9*30
$GPRMC,012826.000,A,1926.9269,S,06958.0604,W,0.40,246.14,010511,,,A*63
$GPGGA,012827.001,1926.9267,S,06958.0605,W,1,08,1.3,1047.8,M,35.0,M,,0000*6D
$GPGSA,M,3,24,23,11,13,20,32,17,31,,,,,2.2,1.3,1.8*37
$GPRMC,012827.001,A,1926.9267,S,06958.0605,W,0.70,355.52,010511,,,A*6E
$GPGGA,012827.999,1926.9266,S,06958.0604,W,1,07,1.5,1048.6,M,35.0,M,,0000*6D
$GPGSA,M,3,24,23,11,13,20,32,17,,,,,,3.2,1.5,2.9*30
$GPGSV,3,1,10,24,72,067,34,23,66,210,35,11,59,019,37,13,50,286,28*7A
$GPGSV,3,2,10,20,47,177,31,32,38,140,34,17,23,250,29,31,12,136,*7D
$GPGSV,3,3,10,07,10,344,35,19,05,012,*75
$GPRMC,012827.999,A,1926.9266,S,06958.0604,W,0.45,35.72,010511,,,A*57
$GPGGA,012829.002,1926.9266,S,06958.0603,W,1,07,1.5,1048.1,M,35.0,M,,0000*68
$GPGSA,M,3,24,23,11,13,20,32,17,,,,,,3.2,1.5,2.9*30
$GPRMC,012829.002,A,1926.9266,S,06958.0603,W,0.63,50.13,010511,,,A*55
$GPGGA,012830.000,1926.9267,S,06958.0604,W,1,07,1.5,1049.0,M,35.0,M,,0000*64
$GPGSA,M,3,24,23,11,13,20,32,17,,,,,,3.2,1.5,2.9*30
$GPRMC,012830.000,A,1926.9267,S,06958.0604,W,0.06,275.95,010511,,,A*61
$GPGGA,012830.999,1926.9266,S,06958.0603,W,1,08,1.3,1049.5,M,35.0,M,,0000*67
$GPGSA,M,3,24,23,11,13,20,32,17,31,,,,,2.2,1.3,1.8*37
$GPRMC,012830.999,A,1926.9266,S,06958.0603,W,0.81,37.63,010511,,,A*5C
$GPGGA,012831.997,1926.9266,S,06958.0603,W,1,08,1.3,1048.8,M,35.0,M,,0000*64
$GPGSA,M,3,24,23,11,13,20,32,17,31,,,,,2.2,1.3,1.8*37
$GPRMC,012831.997,A,1926.9266,S,06958.0603,W,0.57,81.57,010511,,,A*52
$GPGGA,012833.001,1926.9264,S,06958.0597,W,1,08,1.3,1050.2,M,35.0,M,,0000*6F
$GPGSA,M,3,24,23,11,13,20,32,17,31,,,,,2.2,1.3,1.8*37
$GPGSV,3,1,10,24,72,067,35,23,66,210,32,11,59,019,36,13,50,286,29*7C
$GPGSV,3,2,10,20,47,177,30,32,38,140,33,17,23,250,29,31,12,136,26*7F
$GPGSV,3,3,10,07,10,344,35,19,05,012,*75
$GPRMC,012833.001,A,1926.9264,S,06958.0597,W,1.09,81.96,010511,,,A*5D
$GPGGA,012833.999,1926.9268,S,06958.0595,W,1,08,1.3,1051.4,M,35.0,M,,0000*6E
$GPGSA,M,3,24,23,11,13,20,32,17,31,,,,,2.2,1.3,1.8*37
$GPRMC,012833.999,A,1926.9268,S,06958.0595,W,0.50,9.13,010511,,,A*6B
$GPGGA,012835.000,1926.9267,S,06958.0596,W,1,08,1.3,1053.1,M,35.0,M,,0000*6A
$GPGSA,M,3,24,23,11,13,20,32,17,31,,,,,2.2,1.3,1.8*37
$GPRMC,012835.000,A,1926.9267,S,06958.0596,W,0.88,59.05,010511,,,A*5F
$GPGGA,012835.999,1926.9263,S,06958.0595,W,1,06,1.7,1053.3,M,35.0,M,,0000*6C
$GPGSA,M,3,24,23,11,13,20,32,,,,,,,4.7,1.7,4.4*3D
$GPRMC,012835.999,A,1926.9263,S,06958.0595,W,0.39,26.93,010511,,,A*5C
$GPGGA,012837.001,1926.9261,S,06958.0593,W,1,06,1.7,1052.1,M,35.0,M,,0000*61
$GPGSA,M,3,24,23,11,13,20,32,,,,,,,4.7,1.7,4.4*3D
$GPRMC,012837.001,A,1926.9261,S,06958.0593,W,0.46,80.98,010511,,,A*5D
$GPGGA,012837.999,1926.9263,S,06958.0592,W,1,08,1.3,1053.5,M,35.0,M,,0000*65
$GPGSA,M,3,24,23,11,13,20,32,17,31,,,,,2.2,1.3,1.8*37
$GPGSV,3,1,10,24,72,067,35,23,66,210,34,11,59,019,35,13,50,286,28*78
$GPGSV,3,2,10,20,47,177,32,32,38,140,35,17,23,250,28,31,12,136,26*7A
$GPGSV,3,3,10,07,10,344,35,19,05,012,*75
$GPRMC,012837.999,A,1926.9263,S,06958.0592,W,0.52,90.06,010511,,,A*55
$GPGGA,012838.999,1926.9261,S,06958.0591,W,1,06,1.7,1053.3,M,35.0,M,,0000*67
$GPGSA,M,3,24,23,11,13,20,32,,,,,,,4.7,1.7,4.4*3D
$GPRMC,012838.999,A,1926.9261,S,06958.0591,W,0.58,36.82,010511,,,A*51
$GPGGA,012840.001,1926.9258,S,06958.0589,W,1,07,1.5,1052.4,M,35.0,M,,0000*66
$GPGSA,M,3,24,23,11,13,20,32,17,,,,,,3.2,1.5,2.9*30
$GPRMC,012840.001,A,1926.9258,S,06958.0589,W,0.52,38.75,010511,,,A*59
$GPGGA,012841.000,1926.9250,S,06958.0586,W,1,07,1.5,1050.5,M,35.0,M,,0000*62
$GPGSA,M,3,24,23,11,13,20,32,17,,,,,,3.2,1.5,2.9*30
$GPRMC,012841.000,A,1926.9250,S,06958.0586,W,0.59,2.98,010511,,,A*6F
$GPGGA,012842.000,1926.9253,S,06958.0592,W,1,07,1.5,1050.4,M,35.0,M,,0000*66
$GPGSA,M,3,24,23,11,13,20,32,17,,,,,,3.2,1.5,2.9*30
$GPRMC,012842.000,A,1926.9253,S,06958.0592,W,0.35,284.50,010511,,,A*68
$GPGGA,012842.995,1926.9248,S,06958.0593,W,1,07,1.5,1050.3,M,35.0,M,,0000*6F
$GPGSA,M,3,24,23,11,13,20,32,17,,,,,,3.2,1.5,2.9*30
$GPGSV,3,1,10,24,72,067,36,23,66,210,34,11,59,019,37,13,50,286,31*71
$GPGSV,3,2,10,20,47,177,33,32,38,140,35,17,23,250,29,31,12,136,*7E
$GPGSV,3,3,10,07,10,344,34,19,05,012,*74
$GPRMC,012842.995,A,1926.9248,S,06958.0593,W,0.54,8.55,010511,,,A*62
$GPGGA,012844.001,1926.9249,S,06958.0595,W,1,07,1.5,1051.2,M,35.0,M,,0000*6A
$GPGSA,M,3,24,23,11,13,20,32,17,,,,,,3.2,1.5,2.9*30
$GPRMC,012844.001,A,1926.9249,S,06958.0595,W,0.86,37.90,010511,,,A*5D
$GPGGA,012845.001,1926.9250,S,06958.0594,W,1,06,1.7,1052.3,M,35.0,M,,0000*63
$GPGSA,M,3,24,23,11,13,20,32,,,,,,,4.7,1.7,4.4*3D
$GPRMC,012845.001,A,1926.9250,S,06958.0594,W,0.72,63.60,010511,,,A*50
$GPGGA,012845.999,1926.9252,S,06958.0595,W,1,07,1.5,1053.5,M,35.0,M,,0000*6C
$GPGSA,M,3,24,23,11,13,20,32,17,,,,,,3.2,1.5,2.9*30
$GPRMC,012845.999,A,1926.9252,S,06958.0595,W,0.32,1.17,010511,,,A*6B
$GPGGA,012846.998,1926.9252,S,06958.0600,W,1,07,1.5,1053.1,M,35.0,M,,0000*65
$GPGSA,M,3,24,23,11,13,20,32,17,,,,,,3.2,1.5,2.9*30
$GPRMC,012846.998,A,1926.9252,S,06958.0600,W,0.98,343.70,010511,,,A*62
$GPGGA,012848.003,1926.9243,S,06958.0595,W,1,06,1.7,1053.8,M,35.0,M,,0000*65
$GPGSA,M,3,24,23,11,13,20,32,,,,,,,4.7,1.7,4.4*3D
$GPGSV,3,1,10,24,72,067,36,23,66,210,32,11,59,019,36,13,50,286,29*7F
$GPGSV,3,2,10,20,47,177,32,32,38,140,34,17,23,250,,31,12,136,*75
$GPGSV,3,3,10,07,10,344,34,19,05,012,*74
$GPRMC,012848.003,A,1926.9243,S,06958.0595,W,1.14,44.32,010511,,,A*5F
$GPGGA,012848.999,1926.9241,S,06958.0595,W,1,06,1.7,1052.6,M,35.0,M,,0000*62
$GPGSA,M,3,24,23,11,13,20,32,,,,,,,4.7,1.7,4.4*3D
$GPRMC,012848.999,A,1926.9241,S,06958.0595,W,0.35,98.94,010511,,,A*58
$GPGGA,012849.999,1926.9239,S,06958.0592,W,1,07,1.6,1050.5,M,35.0,M,,0000*6A
$GPGSA,M,3,24,23,11,13,20,32,31,,,,,,2.8,1.6,2.3*36
$GPRMC,012849.999,A,1926.9239,S,06958.0592,W,0.52,12.58,010511,,,A*52
$GPGGA,012850.997,1926.9239,S,06958.0593,W,1,07,1.5,1049.5,M,35.0,M,,0000*66
$GPGSA,M,3,24,23,11,13,20,32,17,,,,,,3.2,1.5,2.9*30
$GPRMC,012850.997,A,1926.9239,S,06958.0593,W,0.62,20.51,010511,,,A*5E
$GPGGA,012852.001,1926.9239,S,06958.0591,W,1,07,1.5,1050.0,M,35.0,M,,0000*6D
$GPGSA,M,3,24,23,11,13,20,32,17,,,,,,3.2,1.5,2.9*30
$GPRMC,012852.001,A,1926.9239,S,06958.0591,W,0.35,5.93,010511,,,A*63
$GPGGA,012853.000,1926.9239,S,06958.0593,W,1,07,1.5,1050.7,M,35.0,M,,0000*68
$GPGSA,M,3,24,23,11,13,20,32,17,,,,,,3.2,1.5,2.9*30
$GPGSV,3,1,10,24,72,067,36,23,66,210,35,11,59,019,37,13,50,286,31*70
$GPGSV,3,2,10,20,47,177,31,32,38,140,36,17,23,250,26,31,12,136,*70
$GPGSV,3,3,10,07,10,344,34,19,05,012,*74
$GPRMC,012853.000,A,1926.9239,S,06958.0593,W,0.33,25.63,010511,,,A*5A
$GPGGA,012854.000,1926.9242,S,06958.0594,W,1,07,1.6,1050.1,M,35.0,M,,0000*61
$GPGSA,M,3,24,23,11,13,20,32,31,,,,,,2.8,1.6,2.3*36
$GPRMC,012854.000,A,1926.9242,S,06958.0594,W,0.44,61.87,010511,,,A*5C
$GPGGA,012855.000,1926.9241,S,06958.0594,W,1,07,1.5,1048.7,M,35.0,M,,0000*6F
$GPGSA,M,3,24,23,11,13,20,32,17,,,,,,3.2,1.5,2.9*30
$GPRMC,012855.000,A,1926.9241,S,06958.0594,W,0.50,319.61,010511,,,A*6F
$GPGGA,012856.000,1926.9240,S,06958.0598,W,1,07,1.5,1047.6,M,35.0,M,,0000*6F
$GPGSA,M,3,24,23,11,13,20,32,17,,,,,,3.2,1.5,2.9*30
$GPRMC,012856.000,A,1926.9240,S,06958.0598,W,0.56,14.56,010511,,,A*5D
$GPGGA,012857.002,1926.9240,S,06958.0598,W,1,06,1.7,1047.5,M,35.0,M,,0000*6C
$GPGSA,M,3,24,23,11,13,20,32,,,,,,,4.7,1.7,4.4*3D
$GPRMC,012857.002,A,1926.9240,S,06958.0598,W,0.43,319.11,010511,,,A*67
$GPGGA,012857.997,1926.9244,S,06958.0599,W,1,07,1.5,1049.1,M,35.0,M,,0000*65
$GPGSA,M,3,24,23,11,13,20,32,17,,,,,,3.2,1.5,2.9*30
$GPGSV,3,1,10,24,72,067,36,23,66,210,34,11,59,019,37,13,50,286,31*71
$GPGSV,3,2,10,20,47,177,34,32,38,140,35,17,23,250,26,31,12,136,*76
$GPGSV,3,3,10,07,10,344,34,19,05,012,*74
$GPRMC,012857.997,A,1926.9244,S,06958.0599,W,0.45,3.39,010511,,,A*63
$GPGGA,012859.001,1926.9246,S,06958.0602,W,1,07,1.5,1047.3,M,35.0,M,,0000*62
$GPGSA,M,3,24,23,11,13,20,32,17,,,,,,3.2,1.5,2.9*30
