$GPGGA,192243.001,2116.2670,S,07004.4872,W,1,08,1.5,-17.2,M,34.9,M,,0000*4B
$GPGSA,M,3,22,16,30,06,18,03,21,19,,,,,2.5,1.5,2.0*3C
$GPRMC,192243.001,A,2116.2670,S,07004.4872,W,0.48,59.15,010511,,,A*52
$GPGGA,192243.999,2116.2671,S,07004.4872,W,1,08,1.5,-16.7,M,34.9,M,,0000*46
$GPGSA,M,3,22,16,30,06,18,03,21,19,,,,,2.5,1.5,2.0*3C
$GPRMC,192243.999,A,2116.2671,S,07004.4872,W,0.26,34.72,010511,,,A*59
$GPGGA,192245.004,2116.2670,S,07004.4873,W,1,08,1.5,-17.1,M,34.9,M,,0000*4A
$GPGSA,M,3,22,16,30,06,18,03,21,19,,,,,2.5,1.5,2.0*3C
$GPGSV,3,1,11,22,81,066,39,16,63,270,40,30,59,324,36,06,49,198,39*75
$GPGSV,3,2,11,18,49,133,39,03,38,211,37,21,19,129,30,14,17,031,*7A
$GPGSV,3,3,11,19,12,226,36,29,04,065,,31,03,349,*42
$GPRMC,192245.004,A,2116.2670,S,07004.4873,W,0.23,347.09,010511,,,A*6C
$GPGGA,192245.998,2116.2666,S,07004.4872,W,1,08,1.5,-17.9,M,34.9,M,,0000*48
$GPGSA,M,3,22,16,30,06,18,03,21,19,,,,,2.5,1.5,2.0*3C
$GPRMC,192245.998,A,2116.2666,S,07004.4872,W,0.22,326.84,010511,,,A*65
$GPGGA,192247.000,2116.2668,S,07004.4872,W,1,08,1.5,-17.4,M,34.9,M,,0000*41
$GPGSA,M,3,22,16,30,06,18,03,21,19,,,,,2.5,1.5,2.0*3C
$GPRMC,192247.000,A,2116.2668,S,07004.4872,W,0.12,66.25,010511,,,A*5E
$GPGGA,192247.998,2116.2673,S,07004.4875,W,1,08,1.5,-16.3,M,34.9,M,,0000*42
$GPGSA,M,3,22,16,30,06,18,03,21,19,,,,,2.5,1.5,2.0*3C
$GPRMC,192247.998,A,2116.2673,S,07004.4875,W,0.49,25.10,010511,,,A*54
$GPGGA,192249.000,2116.2673,S,07004.4873,W,1,08,1.5,-16.8,M,34.9,M,,0000*49
$GPGSA,M,3,22,16,30,06,18,03,21,19,,,,,2.5,1.5,2.0*3C
$GPRMC,192249.000,A,2116.2673,S,07004.4873,W,0.30,226.62,010511,,,A*6E
$GPGGA,192250.002,2116.2679,S,07004.4873,W,1,08,1.5,-15.9,M,34.9,M,,0000*4B
$GPGSA,M,3,22,16,30,06,18,03,21,19,,,,,2.5,1.5,2.0*3C
$GPGSV,3,1,11,22,81,066,40,16,63,270,40,30,59,324,36,06,49,198,39*7B
$GPGSV,3,2,11,18,49,133,40,03,38,211,37,21,19,129,29,14,17,031,*7C
$GPGSV,3,3,11,19,12,226,38,29,04,065,,31,03,349,*4C
$GPRMC,192250.002,A,2116.2679,S,07004.4873,W,0.22,208.24,010511,,,A*63
$GPGGA,192250.999,2116.2680,S,07004.4875,W,1,08,1.5,-15.8,M,34.9,M,,0000*41
$GPGSA,M,3,22,16,30,06,18,03,21,19,,,,,2.5,1.5,2.0*3C
$GPRMC,192250.999,A,2116.2680,S,07004.4875,W,0.06,275.82,010511,,,A*68
$GPGGA,192251.999,2116.2685,S,07004.4876,W,1,08,1.5,-14.6,M,34.9,M,,0000*49
$GPGSA,M,3,22,16,30,06,18,03,21,19,,,,,2.5,1.5,2.0*3C
$GPRMC,192251.999,A,2116.2685,S,07004.4876,W,0.37,86.04,010511,,,A*5D
$GPGGA,192253.000,2116.2686,S,07004.4876,W,1,08,1.5,-14.9,M,34.9,M,,0000*4E
$GPGSA,M,3,22,16,30,06,18,03,21,19,,,,,2.5,1.5,2.0*3C
$GPRMC,192253.000,A,2116.2686,S,07004.4876,W,0.38,260.38,010511,,,A*6F
$GPGGA,192254.000,2116.2680,S,07004.4877,W,1,08,1.5,-16.2,M,34.9,M,,0000*47
$GPGSA,M,3,22,16,30,06,18,03,21,19,,,,,2.5,1.5,2.0*3C
$GPRMC,192254.000,A,2116.2680,S,07004.4877,W,0.30,48.48,010511,,,A*58
$GPGGA,192255.001,2116.2678,S,07004.4876,W,1,08,1.5,-16.9,M,34.9,M,,0000*4A
$GPGSA,M,3,22,16,30,06,18,03,21,19,,,,,2.5,1.5,2.0*3C
$GPGSV,3,1,11,22,81,066,39,16,63,270,40,30,59,324,37,06,49,198,38*75
$GPGSV,3,2,11,18,49,133,38,03,38,211,36,21,19,129,31,14,17,031,*7B
$GPGSV,3,3,11,19,12,226,38,29,04,065,,31,03,349,*4C
$GPRMC,192255.001,A,2116.2678,S,07004.4876,W,0.37,327.56,010511,,,A*6C
$GPGGA,192256.000,2116.2685,S,07004.4879,W,1,08,1.5,-15.7,M,34.9,M,,0000*48
$GPGSA,M,3,22,16,30,06,18,03,21,19,,,,,2.5,1.5,2.0*3C
$GPRMC,192256.000,A,2116.2685,S,07004.4879,W,0.24,284.63,010511,,,A*6F
$GPGGA,192257.000,2116.2684,S,07004.4878,W,1,08,1.5,-16.0,M,34.9,M,,0000*4D
$GPGSA,M,3,22,16,30,06,18,03,21,19,,,,,2.5,1.5,2.0*3C
$GPRMC,192257.000,A,2116.2684,S,07004.4878,W,0.32,237.51,010511,,,A*60
$GPGGA,192258.003,2116.2689,S,07004.4880,W,1,07,1.7,-14.4,M,34.9,M,,0000*40
$GPGSA,M,3,22,16,30,06,18,03,21,,,,,,3.4,1.7,2.9*3F
$GPRMC,192258.003,A,2116.2689,S,07004.4880,W,0.53,233.43,010511,,,A*66
$GPGGA,192259.000,2116.2688,S,07004.4882,W,1,08,1.5,-14.7,M,34.9,M,,0000*4F
$GPGSA,M,3,22,16,30,06,18,03,21,19,,,,,2.5,1.5,2.0*3C
$GPRMC,192259.000,A,2116.2688,S,07004.4882,W,0.38,196.32,010511,,,A*60
$GPGGA,192259.998,2116.2684,S,07004.4882,W,1,08,1.5,-16.1,M,34.9,M,,0000*4F
$GPGSA,M,3,22,16,30,06,18,03,21,19,,,,,2.5,1.5,2.0*3C
$GPGSV,3,1,11,22,81,066,40,16,63,270,40,30,59,324,37,06,49,198,39*7A
$GPGSV,3,2,11,18,49,133,38,03,38,211,36,21,19,129,30,14,17,031,*7A
$GPGSV,3,3,11,19,12,226,38,29,04,065,,31,03,349,*4C
$GPRMC,192259.998,A,2116.2684,S,07004.4882,W,0.08,356.68,010511,,,A*66
$GPGGA,192301.000,2116.2679,S,07004.4882,W,1,08,1.5,-16.9,M,34.9,M,,0000*41
$GPGSA,M,3,22,16,30,06,18,03,21,19,,,,,2.5,1.5,2.0*3C
$GPRMC,192301.000,A,2116.2679,S,07004.4882,W,0.05,180.21,010511,,,A*69
$GPGGA,192301.999,2116.2682,S,07004.4880,W,1,08,1.5,-15.8,M,34.9,M,,0000*4C
$GPGSA,M,3,22,16,30,06,18,03,21,19,,,,,2.5,1.5,2.0*3C
$GPRMC,192301.999,A,2116.2682,S,07004.4880,W,0.13,9.33,010511,,,A*62
$GPGGA,192303.001,2116.2682,S,07004.4878,W,1,08,1.5,-16.5,M,34.9,M,,0000*4F
$GPGSA,M,3,22,16,30,06,18,03,21,19,,,,,2.5,1.5,2.0*3C
$GPRMC,192303.001,A,2116.2682,S,07004.4878,W,0.48,90.16,010511,,,A*56
$GPGGA,192304.000,2116.2679,S,07004.4877,W,1,08,1.5,-17.2,M,34.9,M,,0000*44
$GPGSA,M,3,22,16,30,06,18,03,21,19,,,,,2.5,1.5,2.0*3C
$GPRMC,192304.000,A,2116.2679,S,07004.4877,W,0.49,27.29,010511,,,A*5A
$GPGGA,192305.001,2116.2679,S,07004.4875,W,1,08,1.5,-17.2,M,34.9,M,,0000*46
$GPGSA,M,3,22,16,30,06,18,03,21,19,,,,,2.5,1.5,2.0*3C
$GPGSV,3,1,11,22,81,066,40,16,63,270,39,30,59,324,36,06,49,198,39*75
$GPGSV,3,2,11,18,49,133,40,03,38,211,36,21,19,129,31,14,17,031,*74
$GPGSV,3,3,11,19,12,226,37,29,04,065,,31,03,349,*43
$GPRMC,192305.001,A,2116.2679,S,07004.4875,W,0.60,71.91,010511,,,A*53
$GPGGA,192306.000,2116.2679,S,07004.4874,W,1,08,1.5,-17.1,M,34.9,M,,0000*46
$GPGSA,M,3,22,16,30,06,18,03,21,19,,,,,2.5,1.5,2.0*3C
$GPRMC,192306.000,A,2116.2679,S,07004.4874,W,0.19,177.95,010511,,,A*6D
$GPGGA,192307.001,2116.2679,S,07004.4876,W,1,08,1.5,-17.0,M,34.9,M,,0000*45
$GPGSA,M,3,22,16,30,06,18,03,21,19,,,,,2.5,1.5,2.0*3C
$GPRMC,192307.001,A,2116.2679,S,07004.4876,W,0.41,128.99,010511,,,A*64
$GPGGA,192308.000,2116.2682,S,07004.4874,W,1,08,1.5,-15.6,M,34.9,M,,0000*49
$GPGSA,M,3,22,16,30,06,18,03,21,19,,,,,2.5,1.5,2.0*3C
$GPRMC,192308.000,A,2116.2682,S,07004.4874,W,0.57,12.23,010511,,,A*52
$GPGGA,192309.002,2116.2678,S,07004.4873,W,1,07,2.0,-16.5,M,34.9,M,,0000*41
$GPGSA,M,3,22,16,30,06,18,03,19,,,,,,3.5,2.0,2.9*31
$GPRMC,192309.002,A,2116.2678,S,07004.4873,W,0.40,53.50,010511,,,A*54
$GPGGA,192309.998,2116.2678,S,07004.4876,W,1,08,1.5,-16.1,M,34.9,M,,0000*43
$GPGSA,M,3,22,16,30,06,18,03,21,19,,,,,2.5,1.5,2.0*3C
$GPGSV,3,1,11,22,81,066,40,16,63,270,40,30,59,324,37,06,49,198,39*7A
$GPGSV,3,2,11,18,49,133,39,03,38,211,37,21,19,129,30,14,17,031,*7A
$GPGSV,3,3,11,19,12,226,36,29,04,065,,31,03,349,*42
$GPRMC,192309.998,A,2116.2678,S,07004.4876,W,0.40,264.44,010511,,,A*68
$GPGGA,192311.003,2116.2679,S,07004.4873,W,1,08,1.5,-16.0,M,34.9,M,,0000*44
$GPGSA,M,3,22,16,30,06,18,03,21,19,,,,,2.5,1.5,2.0*3C
$GPRMC,192311.003,A,2116.2679,S,07004.4873,W,0.28,30.65,010511,,,A*50
$GPGGA,192311.998,2116.2682,S,07004.4873,W,1,08,1.5,-15.6,M,34.9,M,,0000*4E
$GPGSA,M,3,22,16,30,06,18,03,21,19,,,,,2.5,1.5,2.0*3C
$GPRMC,192311.998,A,2116.2682,S,07004.4873,W,0.07,139.11,010511,,,A*69
$GPGGA,192313.002,2116.2680,S,07004.4875,W,1,08,1.5,-16.1,M,34.9,M,,0000*46
$GPGSA,M,3,22,16,30,06,18,03,21,19,,,,,2.5,1.5,2.0*3C
$GPRMC,192313.002,A,2116.2680,S,07004.4875,W,0.47,344.24,010511,,,A*6F
$GPGGA,192313.998,2116.2677,S,07004.4874,W,1,08,1.5,-16.8,M,34.9,M,,0000*4C
$GPGSA,M,3,22,16,30,06,18,03,21,19,,,,,2.5,1.5,2.0*3C
$GPRMC,192313.998,A,2116.2677,S,07004.4874,W,0.13,327.54,010511,,,A*6F
$GPGGA,192314.998,2116.2675,S,07004.4873,W,1,08,1.5,-17.3,M,34.9,M,,0000*44
$GPGSA,M,3,22,16,30,06,18,03,21,19,,,,,2.5,1.5,2.0*3C
$GPGSV,3,1,11,22,81,066,40,16,63,270,40,30,59,324,37,06,49,198,38*7B
$GPGSV,3,2,11,18,49,133,40,03,38,211,36,21,19,129,28,14,17,031,*7C
$GPGSV,3,3,11,19,12,226,37,29,04,065,,31,03,349,*43
$GPRMC,192314.998,A,2116.2675,S,07004.4873,W,0.35,91.97,010511,,,A*58
$GPGGA,192316.002,2116.2678,S,07004.4872,W,1,08,1.5,-16.8,M,34.9,M,,0000*4A
$GPGSA,M,3,22,16,30,06,18,03,21,19,,,,,2.5,1.5,2.0*3C
$GPRMC,192316.002,A,2116.2678,S,07004.4872,W,0.29,237.39,010511,,,A*6B
$GPGGA,192316.998,2116.2674,S,07004.4870,W,1,08,1.5,-18.1,M,34.9,M,,0000*49
$GPGSA,M,3,22,16,30,06,18,03,21,19,,,,,2.5,1.5,2.0*3C
$GPRMC,192316.998,A,2116.2674,S,07004.4870,W,0.25,82.40,010511,,,A*51
$GPGGA,192318.005,2116.2669,S,07004.4870,W,1,08,1.5,-18.9,M,34.9,M,,0000*4E
$GPGSA,M,3,22,16,30,06,18,03,21,19,,,,,2.5,1.5,2.0*3C
$GPRMC,192318.005,A,2116.2669,S,07004.4870,W,0.39,355.26,010511,,,A*6A
$GPGGA,192318.995,2116.2669,S,07004.4870,W,1,08,1.5,-18.1,M,34.9,M,,0000*46
$GPGSA,M,3,22,16,30,06,18,03,21,19,,,,,2.5,1.5,2.0*3C
$GPRMC,192318.995,A,2116.2669,S,07004.4870,W,0.11,331.80,010511,,,A*6E
$GPGGA,192320.001,2116.2669,S,07004.4871,W,1,08,1.5,-17.6,M,34.9,M,,0000*40
$GPGSA,M,3,22,16,30,06,18,03,21,19,,,,,2.5,1.5,2.0*3C
$GPGSV,3,1,11,22,81,066,40,16,63,270,40,30,59,324,38,06,49,198,39*75
$GPGSV,3,2,11,18,49,133,40,03,38,211,38,21,19,129,28,14,17,031,*72
$GPGSV,3,3,11,19,12,226,35,29,04,065,,31,03,349,*41
$GPRMC,192320.001,A,2116.2669,S,07004.4871,W,0.28,125.99,010511,,,A*65
$GPGGA,192321.000,2116.2671,S,07004.4869,W,1,08,1.5,-17.2,M,34.9,M,,0000*44
$GPGSA,M,3,22,16,30,06,18,03,21,19,,,,,2.5,1.5,2.0*3C
$GPRMC,192321.000,A,2116.2671,S,07004.4869,W,1.12,181.92,010511,,,A*68
$GPGGA,192322.003,2116.2676,S,07004.4873,W,1,08,1.5,-17.4,M,34.9,M,,0000*4E
$GPGSA,M,3,22,16,30,06,18,03,21,19,,,,,2.5,1.5,2.0*3C
$GPRMC,192322.003,A,2116.2676,S,07004.4873,W,2.55,204.74,010511,,,A*62
$GPGGA,192322.997,2116.2682,S,07004.4875,W,1,08,1.5,-17.3,M,34.9,M,,0000*40
$GPGSA,M,3,22,16,30,06,18,03,21,19,,,,,2.5,1.5,2.0*3C
$GPRMC,192322.997,A,2116.2682,S,07004.4875,W,1.63,223.82,010511,,,A*61
$GPGGA,192324.001,2116.2681,S,07004.4878,W,1,08,1.5,-17.3,M,34.9,M,,0000*4E
$GPGSA,M,3,22,16,30,06,18,03,21,19,,,,,2.5,1.5,2.0*3C
$GPRMC,192324.001,A,2116.2681,S,07004.4878,W,0.13,199.29,010511,,,A*6A
$GPGGA,192325.002,2116.2682,S,07004.4877,W,1,07,1.9,-17.2,M,34.9,M,,0000*42
$GPGSA,M,3,22,16,30,06,18,03,19,,,,,,3.5,1.9,2.9*3B
$GPGSV,3,1,11,22,81,066,39,16,63,270,38,30,59,324,38,06,49,198,38*75
$GPGSV,3,2,11,18,49,133,38,03,38,211,27,21,19,129,,14,17,031,*79
$GPGSV,3,3,11,19,12,226,31,29,04,065,,31,03,349,*45
$GPRMC,192325.002,A,2116.2682,S,07004.4877,W,0.10,319.87,010511,,,A*69
$GPGGA,192325.998,2116.2680,S,07004.4876,W,1,08,1.5,-17.3,M,34.9,M,,0000*49
$GPGSA,M,3,22,16,30,06,18,03,21,19,,,,,2.5,1.5,2.0*3C
$GPRMC,192325.998,A,2116.2680,S,07004.4876,W,0.16,81.73,010511,,,A*5F
$GPGGA,192327.000,2116.2679,S,07004.4874,W,1,08,1.5,-17.9,M,34.9,M,,0000*4D
$GPGSA,M,3,22,16,30,06,18,03,21,19,,,,,2.5,1.5,2.0*3C
$GPRMC,192327.000,A,2116.2679,S,07004.4874,W,0.34,225.30,010511,,,A*6A
$GPGGA,192328.002,2116.2687,S,07004.4879,W,1,07,1.7,-14.1,M,34.9,M,,0000*4A
$GPGSA,M,3,22,16,30,06,18,21,19,,,,,,2.6,1.7,2.0*3E
$GPRMC,192328.002,A,2116.2687,S,07004.4879,W,0.18,144.70,010511,,,A*65
$GPGGA,192328.998,2116.2688,S,07004.4879,W,1,08,1.5,-14.3,M,34.9,M,,0000*40
$GPGSA,M,3,22,16,30,06,18,03,21,19,,,,,2.5,1.5,2.0*3C
$GPRMC,192328.998,A,2116.2688,S,07004.4879,W,0.24,299.54,010511,,,A*6A
$GPGGA,192330.003,2116.2688,S,07004.4876,W,1,08,1.5,-14.3,M,34.9,M,,0000*4D
$GPGSA,M,3,22,16,30,06,18,03,21,19,,,,,2.5,1.5,2.0*3C
$GPGSV,3,1,11,22,81,066,32,16,63,270,36,30,59,324,32,06,49,198,37*75
$GPGSV,3,2,11,18,49,133,39,03,38,211,38,21,19,129,37,14,17,031,*72
$GPGSV,3,3,11,19,12,226,33,29,04,065,,31,03,349,*47
$GPRMC,192330.003,A,2116.2688,S,07004.4876,W,0.33,139.52,010511,,,A*6E
$GPGGA,192331.000,2116.2686,S,07004.4877,W,1,07,1.5,-14.4,M,34.9,M,,0000*48
$GPGSA,M,3,22,30,06,18,03,21,19,,,,,,2.5,1.5,2.0*3B
$GPRMC,192331.000,A,2116.2686,S,07004.4877,W,0.48,238.72,010511,,,A*6F
$GPGGA,192332.001,2116.2689,S,07004.4877,W,1,07,1.9,-13.7,M,34.9,M,,0000*4D
$GPGSA,M,3,22,16,30,06,18,03,19,,,,,,3.5,1.9,2.9*3B
$GPRMC,192332.001,A,2116.2689,S,07004.4877,W,0.28,87.09,010511,,,A*5E
$GPGGA,192333.001,2116.2688,S,07004.4877,W,1,07,1.7,-14.2,M,34.9,M,,0000*41
$GPGSA,M,3,22,16,30,18,03,21,19,,,,,,2.8,1.7,2.3*36
$GPRMC,192333.001,A,2116.2688,S,07004.4877,W,0.48,203.99,010511,,,A*6F
$GPGGA,192334.000,2116.2691,S,07004.4876,W,1,07,1.7,-12.7,M,34.9,M,,0000*4D
$GPGSA,M,3,22,16,30,06,18,21,19,,,,,,2.6,1.7,2.0*3E
$GPRMC,192334.000,A,2116.2691,S,07004.4876,W,0.37,56.34,010511,,,A*5D
$GPGGA,192335.000,2116.2689,S,07004.4873,W,1,07,1.7,-13.5,M,34.9,M,,0000*43
$GPGSA,M,3,22,16,30,06,18,21,19,,,,,,2.6,1.7,2.0*3E
$GPGSV,3,1,11,22,81,066,40,16,63,270,38,30,59,324,40,06,49,198,32*7E
$GPGSV,3,2,11,18,49,133,40,03,38,211,,21,19,129,29,14,17,031,*78
$GPGSV,3,3,11,19,12,226,36,29,04,065,,31,03,349,*42
$GPRMC,192335.000,A,2116.2689,S,07004.4873,W,0.28,205.64,010511,,,A*6F
$GPGGA,192335.997,2116.2691,S,07004.4869,W,1,06,2.2,-14.2,M,34.9,M,,0000*41
$GPGSA,M,3,22,16,30,06,18,19,,,,,,,3.7,2.2,3.1*3B
$GPRMC,192335.997,A,2116.2691,S,07004.4869,W,0.17,348.01,010511,,,A*6D
$GPGGA,192337.002,2116.2692,S,07004.4869,W,1,07,1.7,-13.6,M,34.9,M,,0000*41
$GPGSA,M,3,22,16,30,06,18,21,19,,,,,,2.6,1.7,2.0*3E
$GPRMC,192337.002,A,2116.2692,S,07004.4869,W,0.19,87.13,010511,,,A*54
$GPGGA,192337.998,2116.2690,S,07004.4866,W,1,06,2.2,-14.9,M,34.9,M,,0000*49
$GPGSA,M,3,22,16,30,06,18,19,,,,,,,3.7,2.2,3.1*3B
$GPRMC,192337.998,A,2116.2690,S,07004.4866,W,0.76,38.74,010511,,,A*5F
$GPGGA,192339.000,2116.2688,S,07004.4865,W,1,08,1.5,-15.5,M,34.9,M,,0000*42
$GPGSA,M,3,22,16,30,06,18,03,21,19,,,,,2.5,1.5,2.0*3C
$GPRMC,192339.000,A,2116.2688,S,07004.4865,W,0.58,16.46,010511,,,A*52
$GPGGA,192340.003,2116.2688,S,07004.4863,W,1,07,1.7,-15.3,M,34.9,M,,0000*42
$GPGSA,M,3,22,16,30,06,18,03,21,,,,,,3.3,1.7,2.9*38
$GPGSV,3,1,11,22,81,066,38,16,63,270,38,30,59,324,37,06,49,198,28*7A
$GPGSV,3,2,11,18,49,133,38,03,38,211,28,21,19,129,35,14,17,031,*70
$GPGSV,3,3,11,19,12,226,,29,04,065,,31,03,349,*47
$GPRMC,192340.003,A,2116.2688,S,07004.4863,W,0.75,40.37,010511,,,A*53
$GPGGA,192340.999,2116.2689,S,07004.4861,W,1,07,1.7,-13.7,M,34.9,M,,0000*49
$GPGSA,M,3,22,16,30,06,18,21,19,,,,,,2.6,1.7,2.0*3E
$GPRMC,192340.999,A,2116.2689,S,07004.4861,W,0.30,26.33,010511,,,A*5F
$GPGGA,192342.002,2116.2688,S,07004.4859,W,1,07,1.7,-13.8,M,34.9,M,,0000*45
$GPGSA,M,3,22,16,30,18,03,21,19,,,,,,2.8,1.7,2.3*36
$GPRMC,192342.002,A,2116.2688,S,07004.4859,W,0.36,96.36,010511,,,A*54
$GPGGA,192342.996,2116.2685,S,07004.4860,W,1,08,1.5,-14.5,M,34.9,M,,0000*41
$GPGSA,M,3,22,16,30,06,18,03,21,19,,,,,2.5,1.5,2.0*3C
$GPRMC,192342.996,A,2116.2685,S,07004.4860,W,0.36,237.39,010511,,,A*61
$GPGGA,192344.002,2116.2688,S,07004.4861,W,1,07,1.9,-14.6,M,34.9,M,,0000*4F
$GPGSA,M,3,22,16,30,06,18,03,19,,,,,,3.5,1.9,2.9*3B
$GPRMC,192344.002,A,2116.2688,S,07004.4861,W,0.47,217.82,010511,,,A*6B
$GPGGA,192345.002,2116.2689,S,07004.4861,W,1,06,2.2,-14.1,M,34.9,M,,0000*41
$GPGSA,M,3,22,16,30,18,21,19,,,,,,,3.5,2.2,2.7*3B
$GPGSV,3,1,11,22,81,066,36,16,63,270,41,30,59,324,40,06,49,198,*70
$GPGSV,3,2,11,18,49,133,39,03,38,211,,21,19,129,32,14,17,031,*7C
$GPGSV,3,3,11,19,12,226,33,29,04,065,22,31,03,349,*47
$GPRMC,192345.002,A,2116.2689,S,07004.4861,W,0.53,82.46,010511,,,A*58
$GPGGA,192345.999,2116.2690,S,07004.4864,W,1,07,1.7,-13.3,M,34.9,M,,0000*45
$GPGSA,M,3,22,16,30,06,18,21,19,,,,,,2.6,1.7,2.0*3E
$GPRMC,192345.999,A,2116.2690,S,07004.4864,W,0.47,61.63,010511,,,A*51
$GPGGA,192346.998,2116.2690,S,07004.4867,W,1,07,1.7,-12.9,M,34.9,M,,0000*4F
$GPGSA,M,3,22,16,30,06,18,21,19,,,,,,2.6,1.7,2.0*3E
$GPRMC,192346.998,A,2116.2690,S,07004.4867,W,0.04,159.05,010511,,,A*6D
$GPGGA,192347.999,2116.2690,S,07004.4871,W,1,06,2.2,-11.9,M,34.9,M,,0000*4C
$GPGSA,M,3,22,16,30,18,21,19,,,,,,,3.5,2.2,2.7*3B
$GPRMC,192347.999,A,2116.2690,S,07004.4871,W,0.09,301.92,010511,,,A*66
$GPGGA,192349.000,2116.2693,S,07004.4877,W,1,06,2.2,-9.2,M,34.9,M,,0000*7C
$GPGSA,M,3,22,16,30,18,21,19,,,,,,,3.5,2.2,2.7*3B
$GPRMC,192349.000,A,2116.2693,S,07004.4877,W,0.56,167.60,010511,,,A*61
$GPGGA,192349.999,2116.2698,S,07004.4877,W,1,08,1.5,-7.2,M,34.9,M,,0000*7A
$GPGSA,M,3,22,16,30,06,18,03,21,19,,,,,2.5,1.5,2.0*3C
$GPGSV,3,1,11,22,81,066,34,16,63,270,39,30,59,324,39,06,49,198,24*75
$GPGSV,3,2,11,18,49,133,31,03,38,211,31,21,19,129,36,14,17,031,*72
$GPGSV,3,3,11,19,12,226,27,29,04,065,,31,03,349,*42
$GPRMC,192349.999,A,2116.2698,S,07004.4877,W,0.17,105.27,010511,,,A*61
$GPGGA,192351.004,2116.2703,S,07004.4880,W,1,07,1.6,-5.5,M,34.9,M,,0000*7C
$GPGSA,M,3,22,16,30,06,03,21,19,,,,,,2.6,1.6,2.0*35
$GPRMC,192351.004,A,2116.2703,S,07004.4880,W,0.19,220.59,010511,,,A*6D
$GPGGA,192351.998,2116.2701,S,07004.4879,W,1,07,1.7,-5.5,M,34.9,M,,0000*75
$GPGSA,M,3,22,16,30,06,18,21,19,,,,,,2.6,1.7,2.0*3E
$GPRMC,192351.998,A,2116.2701,S,07004.4879,W,0.25,351.07,010511,,,A*66
$GPGGA,192352.998,2116.2701,S,07004.4880,W,1,08,1.5,-5.7,M,34.9,M,,0000*7F
$GPGSA,M,3,22,16,30,06,18,03,21,19,,,,,2.5,1.5,2.0*3C
$GPRMC,192352.998,A,2116.2701,S,07004.4880,W,0.34,301.25,010511,,,A*66
$GPGGA,192354.000,2116.2702,S,07004.4882,W,1,08,1.5,-5.3,M,34.9,M,,0000*74
$GPGSA,M,3,22,16,30,06,18,03,21,19,,,,,2.5,1.5,2.0*3C
$GPRMC,192354.000,A,2116.2702,S,07004.4882,W,0.57,273.11,010511,,,A*6F
$GPGGA,192355.002,2116.2704,S,07004.4884,W,1,08,1.5,-6.0,M,34.9,M,,0000*77
$GPGSA,M,3,22,16,30,06,18,03,21,19,,,,,2.5,1.5,2.0*3C
$GPGSV,3,1,11,22,81,066,36,16,63,270,38,30,59,324,31,06,49,198,30*7B
$GPGSV,3,2,11,18,49,133,30,03,38,211,31,21,19,129,29,14,17,031,*7D
$GPGSV,3,3,11,19,12,226,31,29,04,065,,31,03,349,*45
$GPRMC,192355.002,A,2116.2704,S,07004.4884,W,0.86,177.51,010511,,,A*63
$GPGGA,192355.998,2116.2699,S,07004.4882,W,1,06,2.2,-5.9,M,34.9,M,,0000*7E
$GPGSA,M,3,22,16,30,18,03,19,,,,,,,4.0,2.2,3.4*3B
$GPRMC,192355.998,A,2116.2699,S,07004.4882,W,0.50,293.43,010511,,,A*6B
$GPGGA,192357.002,2116.2700,S,07004.4882,W,1,07,1.9,-6.0,M,34.9,M,,0000*74
$GPGSA,M,3,22,16,30,06,18,03,19,,,,,,3.5,1.9,2.9*3B
$GPRMC,192357.002,A,2116.2700,S,07004.4882,W,0.40,96.32,010511,,,A*52
$GPGGA,192358.000,2116.2700,S,07004.4882,W,1,07,1.9,-5.7,M,34.9,M,,0000*7D
$GPGSA,M,3,22,16,30,06,18,03,19,,,,,,3.5,1.9,2.9*3B
$GPRMC,192358.000,A,2116.2700,S,07004.4882,W,0.11,72.56,010511,,,A*53
$GPGGA,192359.000,2116.2697,S,07004.4882,W,1,06,2.2,-6.3,M,34.9,M,,0000*7D
$GPGSA,M,3,22,16,30,06,18,19,,,,,,,3.7,2.2,3.1*3B
$GPRMC,192359.000,A,2116.2697,S,07004.4882,W,0.22,168.67,010511,,,A*65
$GPGGA,192359.998,2116.2698,S,07004.4883,W,1,08,1.5,-5.5,M,34.9,M,,0000*74
$GPGSA,M,3,22,16,30,06,18,03,21,19,,,,,2.5,1.5,2.0*3C
$GPGSV,3,1,11,22,81,066,38,16,63,270,39,30,59,324,38,06,49,198,31*7C
$GPGSV,3,2,11,18,49,133,39,03,38,211,27,21,19,129,29,14,17,031,*73
$GPGSV,3,3,11,19,12,226,31,29,04,065,,31,03,349,*45
$GPRMC,192359.998,A,2116.2698,S,07004.4883,W,0.05,344.40,010511,,,A*6F
$GPGGA,192401.002,2116.2697,S,07004.4883,W,1,08,1.5,-6.3,M,34.9,M,,0000*7E
$GPGSA,M,3,22,16,30,06,18,03,21,19,,,,,2.5,1.5,2.0*3C
$GPRMC,192401.002,A,2116.2697,S,07004.4883,W,0.12,103.15,010511,,,A*67
$GPGGA,192401.998,2116.2696,S,07004.4883,W,1,08,1.5,-5.7,M,34.9,M,,0000*72
$GPGSA,M,3,22,16,30,06,18,03,21,19,,,,,2.5,1.5,2.0*3C
$GPRMC,192401.998,A,2116.2696,S,07004.4883,W,0.81,20.25,010511,,,A*55
$GPGGA,192403.002,2116.2691,S,07004.4884,W,1,08,1.5,-7.4,M,34.9,M,,0000*7B
$GPGSA,M,3,22,16,30,06,18,03,21,19,,,,,2.5,1.5,2.0*3C
$GPRMC,192403.002,A,2116.2691,S,07004.4884,W,0.89,347.64,010511,,,A*62
$GPGGA,192403.998,2116.2690,S,07004.4886,W,1,08,1.5,-7.2,M,34.9,M,,0000*74
$GPGSA,M,3,22,16,30,06,18,03,21,19,,,,,2.5,1.5,2.0*3C
$GPRMC,192403.998,A,2116.2690,S,07004.4886,W,0.76,286.51,010511,,,A*61
$GPGGA,192405.002,2116.2689,S,07004.4887,W,1,07,1.9,-8.2,M,34.9,M,,0000*7D
$GPGSA,M,3,22,16,30,06,18,03,19,,,,,,3.5,1.9,2.9*3B
$GPGSV,3,1,11,22,81,077,33,16,63,273,37,30,58,326,37,06,51,197,31*70
$GPGSV,3,2,11,18,48,134,26,03,39,210,32,21,18,128,,14,18,032,*78
$GPGSV,3,3,11,19,13,225,29,29,03,064,,31,03,350,*40
$GPRMC,192405.002,A,2116.2689,S,07004.4887,W,0.68,288.65,010511,,,A*62
$GPGGA,192406.001,2116.2689,S,07004.4888,W,1,07,1.9,-9.2,M,34.9,M,,0000*73
$GPGSA,M,3,22,16,30,06,18,03,19,,,,,,3.5,1.9,2.9*3B
$GPRMC,192406.001,A,2116.2689,S,07004.4888,W,0.63,75.86,010511,,,A*5B
$GPGGA,192407.000,2116.2689,S,07004.4890,W,1,08,1.5,-9.6,M,34.9,M,,0000*7D
$GPGSA,M,3,22,16,30,06,18,03,21,19,,,,,2.5,1.5,2.0*3C
$GPRMC,192407.000,A,2116.2689,S,07004.4890,W,0.70,82.16,010511,,,A*51
$GPGGA,192407.998,2116.2686,S,07004.4884,W,1,08,1.5,-11.1,M,34.9,M,,0000*41
$GPGSA,M,3,22,16,30,06,18,03,21,19,,,,,2.5,1.5,2.0*3C
$GPRMC,192407.998,A,2116.2686,S,07004.4884,W,0.61,7.36,010511,,,A*6C
$GPGGA,192409.000,2116.2691,S,07004.4886,W,1,08,1.5,-10.0,M,34.9,M,,0000*43
$GPGSA,M,3,22,16,30,06,18,03,21,19,,,,,2.5,1.5,2.0*3C
$GPRMC,192409.000,A,2116.2691,S,07004.4886,W,0.72,63.20,010511,,,A*59
$GPGGA,192410.000,2116.2697,S,07004.4885,W,1,08,1.5,-9.0,M,34.9,M,,0000*76
$GPGSA,M,3,22,16,30,06,18,03,21,19,,,,,2.5,1.5,1.9*36
$GPGSV,3,1,11,22,81,077,36,16,63,273,37,30,58,326,35,06,51,197,29*7E
$GPGSV,3,2,11,18,48,134,37,03,39,210,31,21,18,128,27,14,18,032,*7E
$GPGSV,3,3,11,19,13,225,30,29,03,064,,31,03,350,*48
$GPRMC,192410.000,A,2116.2697,S,07004.4885,W,0.75,185.53,010511,,,A*6E
$GPGGA,192411.001,2116.2704,S,07004.4889,W,1,08,1.5,-8.3,M,34.9,M,,0000*73
$GPGSA,M,3,22,16,30,06,18,03,21,19,,,,,2.5,1.5,1.9*36
$GPRMC,192411.001,A,2116.2704,S,07004.4889,W,0.47,169.38,010511,,,A*67
$GPGGA,192412.003,2116.2706,S,07004.4888,W,1,07,1.6,-8.2,M,34.9,M,,0000*7C
$GPGSA,M,3,22,16,30,06,03,21,19,,,,,,2.6,1.6,2.0*35
$GPRMC,192412.003,A,2116.2706,S,07004.4888,W,0.46,324.17,010511,,,A*62
$GPGGA,192413.003,2116.2709,S,07004.4890,W,1,08,1.5,-7.1,M,34.9,M,,0000*7B
$GPGSA,M,3,22,16,30,06,18,03,21,19,,,,,2.5,1.5,1.9*36
$GPRMC,192413.003,A,2116.2709,S,07004.4890,W,0.44,256.61,010511,,,A*62
$GPGGA,192413.993,2116.2713,S,07004.4890,W,1,08,1.5,-6.4,M,34.9,M,,0000*74
$GPGSA,M,3,22,16,30,06,18,03,21,19,,,,,2.5,1.5,1.9*36
$GPRMC,192413.993,A,2116.2713,S,07004.4890,W,0.02,125.02,010511,,,A*69
$GPGGA,192415.002,2116.2710,S,07004.4894,W,1,07,1.7,-6.0,M,34.9,M,,0000*7D
$GPGSA,M,3,22,16,30,18,03,21,19,,,,,,2.8,1.7,2.2*37
$GPGSV,3,1,11,22,81,077,37,16,63,273,39,30,58,326,36,06,51,197,*79
$GPGSV,3,2,11,18,48,134,37,03,39,210,30,21,18,128,34,14,18,032,*7D
$GPGSV,3,3,11,19,13,225,33,29,03,064,,31,03,350,*4B
$GPRMC,192415.002,A,2116.2710,S,07004.4894,W,0.13,339.93,010511,,,A*6E
$GPGGA,192415.998,2116.2709,S,07004.4897,W,1,08,1.5,-5.1,M,34.9,M,,0000*73
$GPGSA,M,3,22,16,30,06,18,03,21,19,,,,,2.5,1.5,1.9*36
$GPRMC,192415.998,A,2116.2709,S,07004.4897,W,0.45,4.01,010511,,,A*6A
$GPGGA,192417.001,2116.2708,S,07004.4896,W,1,06,2.2,-5.8,M,34.9,M,,0000*7B
$GPGSA,M,3,22,16,30,18,21,19,,,,,,,3.4,2.2,2.7*3A
$GPRMC,192417.001,A,2116.2708,S,07004.4896,W,0.29,90.20,010511,,,A*55
$GPGGA,192418.003,2116.2711,S,07004.4899,W,1,07,1.7,-4.3,M,34.9,M,,0000*7C
$GPGSA,M,3,22,16,30,18,03,21,19,,,,,,2.8,1.7,2.2*37
$GPRMC,192418.003,A,2116.2711,S,07004.4899,W,0.89,204.19,010511,,,A*60
$GPGGA,192418.999,2116.2714,S,07004.4901,W,1,07,1.7,-2.2,M,34.9,M,,0000*74
$GPGSA,M,3,22,16,30,06,18,03,21,,,,,,3.3,1.7,2.8*39
$GPRMC,192418.999,A,2116.2714,S,07004.4901,W,0.22,41.80,010511,,,A*5D
$GPGGA,192420.000,2116.2718,S,07004.4903,W,1,07,1.9,-2.4,M,34.9,M,,0000*70
$GPGSA,M,3,22,16,30,06,18,03,19,,,,,,3.5,1.9,2.9*3B
$GPGSV,3,1,11,22,81,077,36,16,63,273,38,30,58,326,37,06,51,197,28*72
$GPGSV,3,2,11,18,48,134,38,03,39,210,32,21,18,128,,14,18,032,*77
$GPGSV,3,3,11,19,13,225,28,29,03,064,,31,03,350,*41
$GPRMC,192420.000,A,2116.2718,S,07004.4903,W,0.48,24.54,010511,,,A*57
$GPGGA,192420.998,2116.2710,S,07004.4899,W,1,08,1.5,-4.0,M,34.9,M,,0000*73
$GPGSA,M,3,22,16,30,06,18,03,21,19,,,,,2.5,1.5,1.9*36
$GPRMC,192420.998,A,2116.2710,S,07004.4899,W,0.25,253.54,010511,,,A*6C
$GPGGA,192422.001,2116.2706,S,07004.4896,W,1,08,1.5,-5.9,M,34.9,M,,0000*78
$GPGSA,M,3,22,16,30,06,18,03,21,19,,,,,2.5,1.5,1.9*36
$GPRMC,192422.001,A,2116.2706,S,07004.4896,W,0.85,43.21,010511,,,A*54
$GPGGA,192423.001,2116.2705,S,07004.4895,W,1,08,1.5,-6.6,M,34.9,M,,0000*75
$GPGSA,M,3,22,16,30,06,18,03,21,19,,,,,2.4,1.5,1.9*37
$GPRMC,192423.001,A,2116.2705,S,07004.4895,W,0.33,20.32,010511,,,A*5F
$GPGGA,192424.000,2116.2704,S,07004.4897,W,1,08,1.5,-6.5,M,34.9,M,,0000*73
$GPGSA,M,3,22,16,30,06,18,03,21,19,,,,,2.4,1.5,1.9*37
$GPRMC,192424.000,A,2116.2704,S,07004.4897,W,0.69,349.20,010511,,,A*6A
$GPGGA,192425.002,2116.2702,S,07004.4898,W,1,07,1.6,-7.1,M,34.9,M,,0000*70
$GPGSA,M,3,22,16,30,06,18,21,19,,,,,,2.6,1.6,2.0*3F
$GPGSV,3,1,11,22,81,077,39,16,63,273,37,30,58,326,30,06,51,197,26*7B
$GPGSV,3,2,11,18,48,134,37,03,39,210,,21,18,128,28,14,18,032,*73
$GPGSV,3,3,11,19,13,225,28,29,03,064,,31,03,350,*41
$GPRMC,192425.002,A,2116.2702,S,07004.4898,W,0.60,125.73,010511,,,A*67
$GPGGA,192426.000,2116.2703,S,07004.4902,W,1,07,1.7,-8.0,M,34.9,M,,0000*7D
$GPGSA,M,3,22,16,30,18,03,21,19,,,,,,2.8,1.7,2.2*37
$GPRMC,192426.000,A,2116.2703,S,07004.4902,W,0.42,122.60,010511,,,A*60
$GPGGA,192426.999,2116.2706,S,07004.4901,W,1,08,1.5,-6.9,M,34.9,M,,0000*78
$GPGSA,M,3,22,16,30,06,18,03,21,19,,,,,2.4,1.5,1.9*37
$GPRMC,192426.999,A,2116.2706,S,07004.4901,W,1.23,142.23,010511,,,A*68
$GPGGA,192428.002,2116.2705,S,07004.4894,W,1,07,1.7,-8.1,M,34.9,M,,0000*78
$GPGSA,M,3,22,16,30,06,18,03,21,,,,,,3.3,1.7,2.8*39
$GPRMC,192428.002,A,2116.2705,S,07004.4894,W,0.55,21.58,010511,,,A*5B
$GPGGA,192428.997,2116.2706,S,07004.4892,W,1,08,1.5,-7.8,M,34.9,M,,0000*73
$GPGSA,M,3,22,16,30,06,18,03,21,19,,,,,2.4,1.5,1.9*37
$GPRMC,192428.997,A,2116.2706,S,07004.4892,W,0.41,19.56,010511,,,A*5B
$GPGGA,192430.002,2116.2698,S,07004.4891,W,1,07,1.9,-8.7,M,34.9,M,,0000*79
$GPGSA,M,3,22,16,30,06,18,03,19,,,,,,3.5,1.9,2.9*3B
$GPGSV,3,1,11,22,81,077,32,16,63,273,34,30,58,326,37,06,51,197,25*77
$GPGSV,3,2,11,18,48,134,38,03,39,210,28,21,18,128,,14,18,032,*7C
$GPGSV,3,3,11,19,13,225,27,29,03,064,,31,03,350,*4E
$GPRMC,192430.002,A,2116.2698,S,07004.4891,W,0.90,12.84,010511,,,A*5A
$GPGGA,192431.000,2116.2695,S,07004.4889,W,1,07,1.6,-9.7,M,34.9,M,,0000*70
$GPGSA,M,3,22,16,30,06,18,21,19,,,,,,2.6,1.6,2.0*3F
$GPRMC,192431.000,A,2116.2695,S,07004.4889,W,0.83,53.18,010511,,,A*5F
$GPGGA,192432.000,2116.2690,S,07004.4889,W,1,07,1.9,-11.1,M,34.9,M,,0000*46
$GPGSA,M,3,22,16,30,06,18,03,19,,,,,,3.5,1.9,2.9*3B
$GPRMC,192432.000,A,2116.2690,S,07004.4889,W,0.47,26.25,010511,,,A*5D
$GPGGA,192433.000,2116.2693,S,07004.4892,W,1,07,1.9,-10.6,M,34.9,M,,0000*48
$GPGSA,M,3,22,16,30,06,18,03,19,,,,,,3.5,1.9,2.9*3B
$GPRMC,192433.000,A,2116.2693,S,07004.4892,W,0.30,337.04,010511,,,A*65
$GPGGA,192434.000,2116.2691,S,07004.4896,W,1,07,1.9,-11.2,M,34.9,M,,0000*4C
$GPGSA,M,3,22,16,30,06,18,03,19,,,,,,3.5,1.9,2.9*3B
$GPRMC,192434.000,A,2116.2691,S,07004.4896,W,0.26,60.41,010511,,,A*53
$GPGGA,192435.000,2116.2692,S,07004.4895,W,1,07,1.9,-11.1,M,34.9,M,,0000*4E
$GPGSA,M,3,22,16,30,06,18,03,19,,,,,,3.5,1.9,2.9*3B
$GPGSV,3,1,11,22,81,077,36,16,63,273,37,30,58,326,36,06,51,197,31*74
$GPGSV,3,2,11,18,48,134,39,03,39,210,33,21,18,128,,14,18,032,*77
$GPGSV,3,3,11,19,13,225,33,29,03,064,,31,03,350,*4B
$GPRMC,192435.000,A,2116.2692,S,07004.4895,W,0.29,40.57,010511,,,A*58
$GPGGA,192436.000,2116.2692,S,07004.4896,W,1,07,1.9,-11.1,M,34.9,M,,0000*4E
$GPGSA,M,3,22,16,30,06,18,03,19,,,,,,3.5,1.9,2.9*3B
$GPRMC,192436.000,A,2116.2692,S,07004.4896,W,0.42,80.86,010511,,,A*55
$GPGGA,192437.000,2116.2691,S,07004.4894,W,1,07,1.9,-11.3,M,34.9,M,,0000*4C
$GPGSA,M,3,22,16,30,06,18,03,19,,,,,,3.5,1.9,2.9*3B
$GPRMC,192437.000,A,2116.2691,S,07004.4894,W,0.54,157.21,010511,,,A*64
$GPGGA,192438.000,2116.2698,S,07004.4888,W,1,07,1.9,-11.2,M,34.9,M,,0000*46
$GPGSA,M,3,22,16,30,06,18,03,19,,,,,,3.5,1.9,2.9*3B
$GPRMC,192438.000,A,2116.2698,S,07004.4888,W,0.65,53.16,010511,,,A*5C
$GPGGA,192439.000,2116.2693,S,07004.4887,W,1,07,1.9,-11.9,M,34.9,M,,0000*48
$GPGSA,M,3,22,16,30,06,18,03,19,,,,,,3.5,1.9,2.9*3B
$GPRMC,192439.000,A,2116.2693,S,07004.4887,W,0.57,56.17,010511,,,A*5C
$GPGGA,192440.000,2116.2689,S,07004.4886,W,1,07,1.9,-12.8,M,34.9,M,,0000*4E
$GPGSA,M,3,22,16,30,06,18,03,19,,,,,,3.5,1.9,2.9*3B
$GPGSV,3,1,11,22,81,077,36,16,63,273,38,30,58,326,36,06,51,197,29*72
$GPGSV,3,2,11,18,48,134,38,03,39,210,31,21,18,128,,14,18,032,*74
$GPGSV,3,3,11,19,13,225,36,29,03,064,,31,03,350,*4E
$GPRMC,192440.000,A,2116.2689,S,07004.4886,W,0.27,94.39,010511,,,A*5D
$GPGGA,192441.000,2116.2694,S,07004.4889,W,1,07,1.9,-12.7,M,34.9,M,,0000*43
$GPGSA,M,3,22,16,30,06,18,03,19,,,,,,3.5,1.9,2.9*3B
$GPRMC,192441.000,A,2116.2694,S,07004.4889,W,0.39,244.77,010511,,,A*65
$GPGGA,192442.000,2116.2696,S,07004.4890,W,1,07,1.9,-12.9,M,34.9,M,,0000*44
$GPGSA,M,3,22,16,30,06,18,03,19,,,,,,3.5,1.9,2.9*3B
$GPRMC,192442.000,A,2116.2696,S,07004.4890,W,0.25,4.15,010511,,,A*63
$GPGGA,192443.000,2116.2697,S,07004.4889,W,1,07,1.9,-13.5,M,34.9,M,,0000*41
$GPGSA,M,3,22,16,30,06,18,03,19,,,,,,3.5,1.9,2.9*3B
$GPRMC,192443.000,A,2116.2697,S,07004.4889,W,0.28,173.28,010511,,,A*69
$GPGGA,192444.000,2116.2693,S,07004.4887,W,1,07,1.9,-15.1,M,34.9,M,,0000*4E
$GPGSA,M,3,22,16,30,06,18,03,19,,,,,,3.5,1.9,2.9*3B
$GPRMC,192444.000,A,2116.2693,S,07004.4887,W,0.62,138.66,010511,,,A*6F
$GPGGA,192445.000,2116.2693,S,07004.4885,W,1,07,1.9,-15.8,M,34.9,M,,0000*44
$GPGSA,M,3,22,16,30,06,18,03,19,,,,,,3.5,1.9,2.9*3B
$GPGSV,3,1,11,22,81,077,36,16,63,273,36,30,58,326,36,06,51,197,30*74
$GPGSV,3,2,11,18,48,134,37,03,39,210,30,21,18,128,,14,18,032,*7A
$GPGSV,3,3,11,19,13,225,35,29,03,064,,31,03,350,*4D
$GPRMC,192445.000,A,2116.2693,S,07004.4885,W,0.90,195.14,010511,,,A*63
$GPGGA,192445.999,2116.2692,S,07004.4880,W,1,07,1.9,-17.1,M,34.9,M,,0000*42
$GPGSA,M,3,22,16,30,06,18,03,19,,,,,,3.5,1.9,2.9*3B
$GPRMC,192445.999,A,2116.2692,S,07004.4880,W,0.36,111.38,010511,,,A*60
$GPGGA,192447.001,2116.2689,S,07004.4880,W,1,07,1.9,-17.9,M,34.9,M,,0000*4A
$GPGSA,M,3,22,16,30,06,18,03,19,,,,,,3.5,1.9,2.9*3B
$GPRMC,192447.001,A,2116.2689,S,07004.4880,W,0.26,329.40,010511,,,A*67
$GPGGA,192448.001,2116.2688,S,07004.4879,W,1,07,1.9,-18.4,M,34.9,M,,0000*40
$GPGSA,M,3,22,16,30,06,18,03,19,,,,,,3.5,1.9,2.9*3B
$GPRMC,192448.001,A,2116.2688,S,07004.4879,W,0.63,32.78,010511,,,A*5C
$GPGGA,192449.000,2116.2684,S,07004.4875,W,1,07,1.9,-20.2,M,34.9,M,,0000*4D
$GPGSA,M,3,22,16,30,06,18,03,19,,,,,,3.5,1.9,2.9*3B
$GPRMC,192449.000,A,2116.2684,S,07004.4875,W,0.91,14.08,010511,,,A*52
$GPGGA,192450.000,2116.2692,S,07004.4882,W,1,07,1.9,-17.5,M,34.9,M,,0000*49
$GPGSA,M,3,22,16,30,06,18,03,19,,,,,,3.5,1.9,2.9*3B
$GPGSV,3,1,11,22,81,077,36,16,63,273,38,30,58,326,37,06,51,197,32*79
$GPGSV,3,2,11,18,48,134,37,03,39,210,34,21,18,128,,14,18,032,*7E
$GPGSV,3,3,11,19,13,225,31,29,03,064,,31,03,350,*49
$GPRMC,192450.000,A,2116.2692,S,07004.4882,W,0.83,63.39,010511,,,A*54
$GPGGA,192451.001,2116.2694,S,07004.4879,W,1,07,1.9,-17.4,M,34.9,M,,0000*4A
$GPGSA,M,3,22,16,30,06,18,03,19,,,,,,3.5,1.9,2.9*3B
$GPRMC,192451.001,A,2116.2694,S,07004.4879,W,0.62,92.48,010511,,,A*51
$GPGGA,192452.000,2116.2693,S,07004.4881,W,1,07,1.9,-17.4,M,34.9,M,,0000*48
$GPGSA,M,3,22,16,30,06,18,03,19,,,,,,3.5,1.9,2.9*3B
$GPRMC,192452.000,A,2116.2693,S,07004.4881,W,0.16,256.96,010511,,,A*69
$GPGGA,192453.000,2116.2685,S,07004.4875,W,1,07,1.9,-19.7,M,34.9,M,,0000*48
$GPGSA,M,3,22,16,30,06,18,03,19,,,,,,3.5,1.9,2.9*3B
$GPRMC,192453.000,A,2116.2685,S,07004.4875,W,0.61,24.57,010511,,,A*5E
$GPGGA,192454.000,2116.2685,S,07004.4875,W,1,07,1.9,-19.9,M,34.9,M,,0000*41
$GPGSA,M,3,22,16,30,06,18,03,19,,,,,,3.5,1.9,2.9*3B
$GPRMC,192454.000,A,2116.2685,S,07004.4875,W,0.57,12.24,010511,,,A*5D
$GPGGA,192455.000,2116.2685,S,07004.4876,W,1,07,1.9,-20.3,M,34.9,M,,0000*43
$GPGSA,M,3,22,16,30,06,18,03,19,,,,,,3.5,1.9,2.9*3B
$GPGSV,3,1,11,22,81,077,35,16,63,273,37,30,58,326,36,06,51,197,31*77
$GPGSV,3,2,11,18,48,134,37,03,39,210,34,21,18,128,,14,18,032,*7E
$GPGSV,3,3,11,19,13,225,37,29,03,064,,31,03,350,*4F
$GPRMC,192455.000,A,2116.2685,S,07004.4876,W,0.13,215.68,010511,,,A*62
$GPGGA,192456.000,2116.2687,S,07004.4875,W,1,07,1.9,-21.1,M,34.9,M,,0000*42
$GPGSA,M,3,22,16,30,06,18,03,19,,,,,,3.5,1.9,2.9*3B
$GPRMC,192456.000,A,2116.2687,S,07004.4875,W,0.58,45.34,010511,,,A*51
$GPGGA,192457.000,2116.2682,S,07004.4872,W,1,07,1.9,-22.2,M,34.9,M,,0000*41
$GPGSA,M,3,22,16,30,06,18,03,19,,,,,,3.5,1.9,2.9*3B
$GPRMC,192457.000,A,2116.2682,S,07004.4872,W,0.78,46.18,010511,,,A*5D
$GPGGA,192458.000,2116.2680,S,07004.4870,W,1,07,1.9,-22.6,M,34.9,M,,0000*4A
$GPGSA,M,3,22,16,30,06,18,03,19,,,,,,3.5,1.9,2.9*3B
$GPRMC,192458.000,A,2116.2680,S,07004.4870,W,0.22,128.77,010511,,,A*6D
$GPGGA,192459.000,2116.2677,S,07004.4873,W,1,07,1.9,-21.9,M,34.9,M,,0000*4C
$GPGSA,M,3,22,16,30,06,18,03,19,,,,,,3.5,1.9,2.9*3B
$GPRMC,192459.000,A,2116.2677,S,07004.4873,W,0.27,41.85,010511,,,A*51
$GPGGA,192500.000,2116.2677,S,07004.4876,W,1,07,1.9,-22.5,M,34.9,M,,0000*4B
$GPGSA,M,3,22,16,30,06,18,03,19,,,,,,3.5,1.9,2.9*3B
$GPGSV,3,1,11,22,81,077,36,16,63,273,37,30,58,326,37,06,51,197,30*74
$GPGSV,3,2,11,18,48,134,37,03,39,210,33,21,18,128,,14,18,032,*79
$GPGSV,3,3,11,19,13,225,36,29,03,064,,31,03,350,*4E
$GPRMC,192500.000,A,2116.2677,S,07004.4876,W,0.51,15.37,010511,,,A*50
$GPGGA,192501.000,2116.2675,S,07004.4873,W,1,07,1.9,-23.3,M,34.9,M,,0000*4A
$GPGSA,M,3,22,16,30,06,18,03,19,,,,,,3.5,1.9,2.9*3B
$GPRMC,192501.000,A,2116.2675,S,07004.4873,W,0.46,49.82,010511,,,A*57
$GPGGA,192502.000,2116.2672,S,07004.4864,W,1,07,1.9,-24.5,M,34.9,M,,0000*49
$GPGSA,M,3,22,16,30,06,18,03,19,,,,,,3.5,1.9,2.9*3B
$GPRMC,192502.000,A,2116.2672,S,07004.4864,W,0.55,69.32,010511,,,A*5E
$GPGGA,192502.998,2116.2668,S,07004.4862,W,1,08,1.5,-26.0,M,34.9,M,,0000*48
$GPGSA,M,3,22,16,30,06,18,03,21,19,,,,,2.4,1.5,1.9*37
$GPRMC,192502.998,A,2116.2668,S,07004.4862,W,0.44,125.79,010511,,,A*6D
$GPGGA,192504.002,2116.2671,S,07004.4869,W,1,07,1.9,-24.8,M,34.9,M,,0000*4E
$GPGSA,M,3,22,16,30,06,18,03,19,,,,,,3.5,1.9,2.9*3B
$GPRMC,192504.002,A,2116.2671,S,07004.4869,W,0.31,23.13,010511,,,A*5B
$GPGGA,192505.000,2116.2669,S,07004.4869,W,1,07,1.9,-24.8,M,34.9,M,,0000*44
$GPGSA,M,3,22,16,30,06,18,03,19,,,,,,3.5,1.9,2.9*3B
$GPGSV,3,1,11,22,81,077,37,16,63,273,37,30,58,326,38,06,51,197,34*7E
$GPGSV,3,2,11,18,48,134,39,03,39,210,35,21,18,128,,14,18,032,*71
$GPGSV,3,3,11,19,13,225,36,29,03,064,,31,03,350,*4E
$GPRMC,192505.000,A,2116.2669,S,07004.4869,W,1.01,25.33,010511,,,A*57
$GPGGA,192506.000,2116.2675,S,07004.4866,W,1,07,1.9,-23.7,M,34.9,M,,0000*4D
$GPGSA,M,3,22,16,30,06,18,03,19,,,,,,3.5,1.9,2.9*3B
$GPRMC,192506.000,A,2116.2675,S,07004.4866,W,0.51,68.17,010511,,,A*5D
$GPGGA,192507.000,2116.2674,S,07004.4861,W,1,07,1.9,-24.3,M,34.9,M,,0000*49
$GPGSA,M,3,22,16,30,06,18,03,19,,,,,,3.5,1.9,2.9*3B
$GPRMC,192507.000,A,2116.2674,S,07004.4861,W,1.10,45.16,010511,,,A*50
$GPGGA,192508.000,2116.2673,S,07004.4861,W,1,07,1.9,-23.4,M,34.9,M,,0000*41
$GPGSA,M,3,22,16,30,06,18,03,19,,,,,,3.5,1.9,2.9*3B
$GPRMC,192508.000,A,2116.2673,S,07004.4861,W,0.95,31.05,010511,,,A*55
$GPGGA,192509.000,2116.2673,S,07004.4860,W,1,07,1.9,-24.0,M,34.9,M,,0000*42
$GPGSA,M,3,22,16,30,06,18,03,19,,,,,,3.5,1.9,2.9*3B
$GPRMC,192509.000,A,2116.2673,S,07004.4860,W,0.33,53.18,010511,,,A*51
$GPGGA,192509.998,2116.2671,S,07004.4860,W,1,08,1.5,-25.1,M,34.9,M,,0000*4B
$GPGSA,M,3,22,16,30,06,18,03,21,19,,,,,2.4,1.5,1.9*37
$GPGSV,3,1,11,22,81,077,36,16,63,273,37,30,58,326,37,06,51,197,33*77
$GPGSV,3,2,11,18,48,134,38,03,39,210,34,21,18,128,22,14,18,032,*71
$GPGSV,3,3,11,19,13,225,34,29,03,064,,31,03,350,*4C
$GPRMC,192509.998,A,2116.2671,S,07004.4860,W,0.72,50.53,010511,,,A*52
$GPGGA,192511.002,2116.2674,S,07004.4855,W,1,07,1.9,-25.5,M,34.9,M,,0000*4C
$GPGSA,M,3,22,16,30,06,18,03,19,,,,,,3.5,1.9,2.9*3B
$GPRMC,192511.002,A,2116.2674,S,07004.4855,W,0.78,39.12,010511,,,A*52
$GPGGA,192512.000,2116.2668,S,07004.4850,W,1,07,1.9,-27.2,M,34.9,M,,0000*40
$GPGSA,M,3,22,16,30,06,18,03,19,,,,,,3.5,1.9,2.9*3B
$GPRMC,192512.000,A,2116.2668,S,07004.4850,W,0.69,42.61,010511,,,A*53
$GPGGA,192513.000,2116.2671,S,07004.4852,W,1,07,1.9,-25.6,M,34.9,M,,0000*4D
$GPGSA,M,3,22,16,30,06,18,03,19,,,,,,3.5,1.9,2.9*3B
$GPRMC,192513.000,A,2116.2671,S,07004.4852,W,0.63,29.88,010511,,,A*58
$GPGGA,192514.000,2116.2666,S,07004.4845,W,1,07,1.9,-27.5,M,34.9,M,,0000*4B
$GPGSA,M,3,22,16,30,06,18,03,19,,,,,,3.4,1.9,2.9*3A
$GPRMC,192514.000,A,2116.2666,S,07004.4845,W,0.81,45.79,010511,,,A*57
$GPGGA,192515.000,2116.2660,S,07004.4841,W,1,07,1.9,-29.3,M,34.9,M,,0000*40
$GPGSA,M,3,22,16,30,06,18,03,19,,,,,,3.4,1.9,2.9*3A
$GPGSV,3,1,11,22,81,077,35,16,63,273,35,30,58,326,36,06,51,197,34*70
$GPGSV,3,2,11,18,48,134,37,03,39,210,31,21,18,128,,14,18,032,*7B
$GPGSV,3,3,11,19,13,225,33,29,03,064,,31,03,350,*4B
$GPRMC,192515.000,A,2116.2660,S,07004.4841,W,1.17,65.86,010511,,,A*58
$GPGGA,192516.000,2116.2653,S,07004.4835,W,1,07,1.9,-31.3,M,34.9,M,,0000*49
$GPGSA,M,3,22,16,30,06,18,03,19,,,,,,3.4,1.9,2.9*3A
$GPRMC,192516.000,A,2116.2653,S,07004.4835,W,1.44,58.05,010511,,,A*5B
$GPGGA,192517.000,2116.2644,S,07004.4828,W,1,07,1.9,-33.7,M,34.9,M,,0000*44
$GPGSA,M,3,22,16,30,06,18,03,19,,,,,,3.4,1.9,2.9*3A
$GPRMC,192517.000,A,2116.2644,S,07004.4828,W,0.79,40.73,010511,,,A*57
$GPGGA,192518.000,2116.2644,S,07004.4828,W,1,07,1.9,-34.0,M,34.9,M,,0000*4B
$GPGSA,M,3,22,16,30,06,18,03,19,,,,,,3.4,1.9,2.9*3A
$GPRMC,192518.000,A,2116.2644,S,07004.4828,W,0.62,1.00,010511,,,A*63
$GPGGA,192519.000,2116.2639,S,07004.4831,W,1,07,1.9,-34.6,M,34.9,M,,0000*4E
$GPGSA,M,3,22,16,30,06,18,03,19,,,,,,3.4,1.9,2.9*3A
$GPRMC,192519.000,A,2116.2639,S,07004.4831,W,0.91,41.56,010511,,,A*5B
$GPGGA,192520.000,2116.2646,S,07004.4831,W,1,07,1.9,-33.2,M,34.9,M,,0000*4F
$GPGSA,M,3,22,16,30,06,18,03,19,,,,,,3.4,1.9,2.9*3A
$GPGSV,3,1,11,22,81,077,37,16,63,273,37,30,58,326,37,06,51,197,34*71
$GPGSV,3,2,11,18,48,134,37,03,39,210,33,21,18,128,,14,18,032,*79
$GPGSV,3,3,11,19,13,225,30,29,03,064,,31,03,350,*48
$GPRMC,192520.000,A,2116.2646,S,07004.4831,W,0.56,130.05,010511,,,A*63
$GPGGA,192521.000,2116.2653,S,07004.4833,W,1,07,1.9,-31.5,M,34.9,M,,0000*4D
$GPGSA,M,3,22,16,30,06,18,03,19,,,,,,3.4,1.9,2.9*3A
$GPRMC,192521.000,A,2116.2653,S,07004.4833,W,0.64,65.54,010511,,,A*50
$GPGGA,192521.997,2116.2648,S,07004.4832,W,1,08,1.5,-32.4,M,34.9,M,,0000*40
$GPGSA,M,3,22,16,30,06,18,03,21,19,,,,,2.4,1.5,1.9*37
$GPRMC,192521.997,A,2116.2648,S,07004.4832,W,1.06,40.04,010511,,,A*5B
$GPGGA,192523.004,2116.2654,S,07004.4839,W,1,08,1.5,-30.6,M,34.9,M,,0000*47
$GPGSA,M,3,22,16,30,06,18,03,21,19,,,,,2.4,1.5,1.9*37
$GPRMC,192523.004,A,2116.2654,S,07004.4839,W,0.65,21.65,010511,,,A*58
$GPGGA,192523.998,2116.2648,S,07004.4835,W,1,07,1.9,-31.8,M,34.9,M,,0000*46
$GPGSA,M,3,22,16,30,06,18,03,19,,,,,,3.4,1.9,2.9*3A
$GPRMC,192523.998,A,2116.2648,S,07004.4835,W,0.88,28.14,010511,,,A*59
$GPGGA,192525.001,2116.2651,S,07004.4829,W,1,07,1.7,-31.6,M,34.9,M,,0000*4C
$GPGSA,M,3,22,16,30,06,18,03,21,,,,,,3.3,1.7,2.8*39
$GPGSV,3,1,11,22,81,077,36,16,63,273,36,30,58,326,37,06,51,197,32*77
$GPGSV,3,2,11,18,48,134,38,03,39,210,33,21,18,128,25,14,18,032,*71
$GPGSV,3,3,11,19,13,225,,29,03,064,,31,03,350,*4B
$GPRMC,192525.001,A,2116.2651,S,07004.4829,W,0.64,55.95,010511,,,A*52
$GPGGA,192526.000,2116.2647,S,07004.4828,W,1,07,1.9,-32.9,M,34.9,M,,0000*4A
$GPGSA,M,3,22,16,30,06,18,03,19,,,,,,3.4,1.9,2.9*3A
$GPRMC,192526.000,A,2116.2647,S,07004.4828,W,0.25,349.08,010511,,,A*69
$GPGGA,192527.000,2116.2650,S,07004.4831,W,1,07,1.9,-31.5,M,34.9,M,,0000*4A
$GPGSA,M,3,22,16,30,06,18,03,19,,,,,,3.4,1.9,2.9*3A
$GPRMC,192527.000,A,2116.2650,S,07004.4831,W,0.83,11.80,010511,,,A*54
$GPGGA,192528.001,2116.2648,S,07004.4829,W,1,07,1.9,-33.5,M,34.9,M,,0000*46
$GPGSA,M,3,22,16,30,06,18,03,19,,,,,,3.4,1.9,2.9*3A
$GPRMC,192528.001,A,2116.2648,S,07004.4829,W,0.36,302.80,010511,,,A*65
$GPGGA,192529.000,2116.2650,S,07004.4827,W,1,07,1.9,-34.1,M,34.9,M,,0000*42
$GPGSA,M,3,22,16,30,06,18,03,19,,,,,,3.4,1.9,2.9*3A
$GPRMC,192529.000,A,2116.2650,S,07004.4827,W,0.82,57.75,010511,,,A*54
$GPGGA,192530.000,2116.2644,S,07004.4829,W,1,07,1.9,-35.2,M,34.9,M,,0000*43
$GPGSA,M,3,22,16,30,06,18,03,19,,,,,,3.4,1.9,2.9*3A
$GPGSV,3,1,11,22,81,077,36,16,63,273,36,30,58,326,36,06,51,197,32*76
$GPGSV,3,2,11,18,48,134,37,03,39,210,32,21,18,128,,14,18,032,*78
$GPGSV,3,3,11,19,13,225,29,29,03,064,,31,03,350,*40
$GPRMC,192530.000,A,2116.2644,S,07004.4829,W,0.55,41.02,010511,,,A*5A
$GPGGA,192531.000,2116.2640,S,07004.4829,W,1,07,1.9,-36.7,M,34.9,M,,0000*40
$GPGSA,M,3,22,16,30,06,18,03,19,,,,,,3.4,1.9,2.9*3A
$GPRMC,192531.000,A,2116.2640,S,07004.4829,W,0.44,29.63,010511,,,A*56
$GPGGA,192532.000,2116.2640,S,07004.4833,W,1,07,1.9,-36.2,M,34.9,M,,0000*4D
$GPGSA,M,3,22,16,30,06,18,03,19,,,,,,3.4,1.9,2.9*3A
$GPRMC,192532.000,A,2116.2640,S,07004.4833,W,0.53,55.02,010511,,,A*54
$GPGGA,192533.000,2116.2638,S,07004.4830,W,1,07,1.9,-37.6,M,34.9,M,,0000*45
$GPGSA,M,3,22,16,30,06,18,03,19,,,,,,3.4,1.9,2.9*3A
$GPRMC,192533.000,A,2116.2638,S,07004.4830,W,0.89,13.23,010511,,,A*5F
$GPGGA,192534.000,2116.2635,S,07004.4826,W,1,07,1.9,-40.1,M,34.9,M,,0000*4F
$GPGSA,M,3,22,16,30,06,18,03,19,,,,,,3.4,1.9,2.9*3A
$GPRMC,192534.000,A,2116.2635,S,07004.4826,W,0.79,37.60,010511,,,A*5C
$GPGGA,192534.998,2116.2635,S,07004.4829,W,1,08,1.5,-40.8,M,34.9,M,,0000*42
$GPGSA,M,3,22,16,30,06,18,03,21,19,,,,,2.4,1.5,1.9*37
$GPGSV,3,1,11,22,81,077,36,16,63,273,36,30,58,326,36,06,51,197,32*76
$GPGSV,3,2,11,18,48,134,38,03,39,210,33,21,18,128,23,14,18,032,*77
$GPGSV,3,3,11,19,13,225,31,29,03,064,,31,03,350,*49
$GPRMC,192534.998,A,2116.2635,S,07004.4829,W,0.95,66.12,010511,,,A*58
$GPGGA,192536.002,2116.2644,S,07004.4836,W,1,07,1.9,-38.4,M,34.9,M,,0000*42
$GPGSA,M,3,22,16,30,06,18,03,19,,,,,,3.4,1.9,2.9*3A
$GPRMC,192536.002,A,2116.2644,S,07004.4836,W,0.79,88.38,010511,,,A*52
$GPGGA,192537.000,2116.2644,S,07004.4836,W,1,07,1.9,-39.3,M,34.9,M,,0000*47
$GPGSA,M,3,22,16,30,06,18,03,19,,,,,,3.4,1.9,2.9*3A
$GPRMC,192537.000,A,2116.2644,S,07004.4836,W,0.26,120.11,010511,,,A*63
$GPGGA,192538.000,2116.2642,S,07004.4833,W,1,07,1.9,-40.0,M,34.9,M,,0000*46
$GPGSA,M,3,22,16,30,06,18,03,19,,,,,,3.4,1.9,2.9*3A
$GPRMC,192538.000,A,2116.2642,S,07004.4833,W,0.83,45.23,010511,,,A*53
$GPGGA,192539.000,2116.2642,S,07004.4834,W,1,07,1.9,-38.5,M,34.9,M,,0000*4A
$GPGSA,M,3,22,16,30,06,18,03,19,,,,,,3.4,1.9,2.9*3A
$GPRMC,192539.000,A,2116.2642,S,07004.4834,W,1.21,29.83,010511,,,A*5C
$GPGGA,192539.998,2116.2640,S,07004.4837,W,1,08,1.5,-38.5,M,34.9,M,,0000*40
$GPGSA,M,3,22,16,30,06,18,03,21,19,,,,,2.4,1.5,1.9*37
$GPGSV,3,1,11,22,81,077,36,16,63,273,37,30,58,326,36,06,51,197,33*76
$GPGSV,3,2,11,18,48,134,38,03,39,210,31,21,18,128,27,14,18,032,*71
$GPGSV,3,3,11,19,13,225,34,29,03,064,,31,03,350,*4C
$GPRMC,192539.998,A,2116.2640,S,07004.4837,W,0.89,61.87,010511,,,A*5E
$GPGGA,192541.000,2116.2636,S,07004.4840,W,1,08,1.5,-39.8,M,34.9,M,,0000*4A
$GPGSA,M,3,22,16,30,06,18,03,21,19,,,,,2.4,1.5,1.9*37
$GPRMC,192541.000,A,2116.2636,S,07004.4840,W,0.15,357.79,010511,,,A*6A
$GPGGA,192542.000,2116.2628,S,07004.4838,W,1,08,1.5,-42.3,M,34.9,M,,0000*4E
$GPGSA,M,3,22,16,30,06,18,03,21,19,,,,,2.4,1.5,1.9*37
$GPRMC,192542.000,A,2116.2628,S,07004.4838,W,1.15,21.34,010511,,,A*53
$GPGGA,192543.002,2116.2628,S,07004.4842,W,1,07,1.9,-41.1,M,34.9,M,,0000*42
$GPGSA,M,3,22,16,30,06,18,03,19,,,,,,3.4,1.9,2.9*3A
$GPRMC,192543.002,A,2116.2628,S,07004.4842,W,0.91,9.86,010511,,,A*63
$GPGGA,192543.998,2116.2625,S,07004.4841,W,1,08,1.5,-41.6,M,34.9,M,,0000*42
$GPGSA,M,3,22,16,30,06,18,03,21,19,,,,,2.4,1.5,1.9*37
$GPRMC,192543.998,A,2116.2625,S,07004.4841,W,0.91,50.36,010511,,,A*50
$GPGGA,192545.002,2116.2628,S,07004.4840,W,1,07,1.9,-40.8,M,34.9,M,,0000*4E
$GPGSA,M,3,22,16,30,06,18,03,19,,,,,,3.4,1.9,2.9*3A
$GPGSV,3,1,11,22,81,077,36,16,63,273,36,30,58,326,35,06,51,197,34*73
$GPGSV,3,2,11,18,48,134,37,03,39,210,33,21,18,128,,14,18,032,*79
$GPGSV,3,3,11,19,13,225,35,29,03,064,,31,03,350,*4D
$GPRMC,192545.002,A,2116.2628,S,07004.4840,W,0.10,241.61,010511,,,A*69
$GPGGA,192546.000,2116.2632,S,07004.4843,W,1,07,1.9,-39.6,M,34.9,M,,0000*47
$GPGSA,M,3,22,16,30,06,18,03,19,,,,,,3.4,1.9,2.9*3A
$GPRMC,192546.000,A,2116.2632,S,07004.4843,W,0.41,31.71,010511,,,A*50
$GPGGA,192547.000,2116.2631,S,07004.4842,W,1,07,1.9,-40.6,M,34.9,M,,0000*4A
$GPGSA,M,3,22,16,30,06,18,03,19,,,,,,3.4,1.9,2.9*3A
$GPRMC,192547.000,A,2116.2631,S,07004.4842,W,0.26,318.09,010511,,,A*65
$GPGGA,192548.000,2116.2637,S,07004.4847,W,1,07,1.9,-39.3,M,34.9,M,,0000*4D
$GPGSA,M,3,22,16,30,06,18,03,19,,,,,,3.4,1.9,2.9*3A
$GPRMC,192548.000,A,2116.2637,S,07004.4847,W,0.30,209.06,010511,,,A*60
$GPGGA,192549.000,2116.2638,S,07004.4851,W,1,07,1.9,-38.3,M,34.9,M,,0000*45
$GPGSA,M,3,22,16,30,06,18,03,19,,,,,,3.4,1.9,2.9*3A
$GPRMC,192549.000,A,2116.2638,S,07004.4851,W,0.21,344.78,010511,,,A*68
$GPGGA,192549.998,2116.2639,S,07004.4851,W,1,08,1.5,-38.7,M,34.9,M,,0000*4B
$GPGSA,M,3,22,16,30,06,18,03,21,19,,,,,2.4,1.5,1.9*37
$GPGSV,3,1,11,22,81,077,36,16,63,273,36,30,58,326,36,06,51,197,34*70
$GPGSV,3,2,11,18,48,134,37,03,39,210,33,21,18,128,25,14,18,032,*7E
$GPGSV,3,3,11,19,13,225,34,29,03,064,,31,03,350,*4C
$GPRMC,192549.998,A,2116.2639,S,07004.4851,W,0.38,80.59,010511,,,A*51
$GPGGA,192551.002,2116.2634,S,07004.4849,W,1,07,1.9,-41.2,M,34.9,M,,0000*44
$GPGSA,M,3,22,16,30,06,18,03,19,,,,,,3.4,1.9,2.9*3A
$GPRMC,192551.002,A,2116.2634,S,07004.4849,W,0.49,79.28,010511,,,A*50
$GPGGA,192552.000,2116.2634,S,07004.4853,W,1,07,1.9,-42.2,M,34.9,M,,0000*4D
$GPGSA,M,3,22,16,30,06,18,03,19,,,,,,3.4,1.9,2.9*3A
$GPRMC,192552.000,A,2116.2634,S,07004.4853,W,0.28,23.99,010511,,,A*58
$GPGGA,192553.000,2116.2633,S,07004.4860,W,1,07,1.9,-42.2,M,34.9,M,,0000*4B
$GPGSA,M,3,22,16,30,06,18,03,19,,,,,,3.4,1.9,2.9*3A
$GPRMC,192553.000,A,2116.2633,S,07004.4860,W,0.45,64.02,010511,,,A*54
$GPGGA,192554.000,2116.2630,S,07004.4857,W,1,07,1.9,-43.6,M,34.9,M,,0000*4E
$GPGSA,M,3,22,16,30,06,18,03,19,,,,,,3.4,1.9,2.9*3A
$GPRMC,192554.000,A,2116.2630,S,07004.4857,W,0.40,336.27,010511,,,A*62
$GPGGA,192555.000,2116.2641,S,07004.4862,W,1,07,1.9,-40.9,M,34.9,M,,0000*43
$GPGSA,M,3,22,16,30,06,18,03,19,,,,,,3.4,1.9,2.9*3A
$GPGSV,3,1,11,22,81,077,36,16,63,273,36,30,58,326,36,06,51,197,36*72
$GPGSV,3,2,11,18,48,134,38,03,39,210,34,21,18,128,,14,18,032,*71
$GPGSV,3,3,11,19,13,225,32,29,03,064,,31,03,350,*4A
$GPRMC,192555.000,A,2116.2641,S,07004.4862,W,0.55,93.92,010511,,,A*55
$GPGGA,192555.998,2116.2647,S,07004.4863,W,1,06,2.1,-40.1,M,34.9,M,,0000*4E
$GPGSA,M,3,22,16,30,06,18,03,,,,,,,6.0,2.1,5.6*30
$GPRMC,192555.998,A,2116.2647,S,07004.4863,W,0.41,96.97,010511,,,A*5F
$GPGGA,192557.003,2116.2645,S,07004.4862,W,1,08,1.5,-41.3,M,34.9,M,,0000*4E
$GPGSA,M,3,22,16,30,06,18,03,21,19,,,,,2.4,1.5,1.9*37
$GPRMC,192557.003,A,2116.2645,S,07004.4862,W,0.95,77.82,010511,,,A*57
$GPGGA,192557.998,2116.2645,S,07004.4859,W,1,07,1.9,-42.6,M,34.9,M,,0000*48
$GPGSA,M,3,22,16,30,06,18,03,19,,,,,,3.4,1.9,2.9*3A
$GPRMC,192557.998,A,2116.2645,S,07004.4859,W,0.78,50.45,010511,,,A*59
$GPGGA,192559.000,2116.2647,S,07004.4857,W,1,07,1.9,-41.7,M,34.9,M,,0000*40
$GPGSA,M,3,22,16,30,06,18,03,19,,,,,,3.4,1.9,2.9*3A
$GPRMC,192559.000,A,2116.2647,S,07004.4857,W,1.09,67.70,010511,,,A*56
$GPGGA,192559.998,2116.2653,S,07004.4857,W,1,08,1.5,-40.5,M,34.9,M,,0000*4D
$GPGSA,M,3,22,16,30,06,18,03,21,19,,,,,2.4,1.5,1.9*37
$GPGSV,3,1,11,22,81,077,36,16,63,273,36,30,58,326,36,06,51,197,32*76
$GPGSV,3,2,11,18,48,134,37,03,39,210,32,21,18,128,26,14,18,032,*7C
$GPGSV,3,3,11,19,13,225,27,29,03,064,,31,03,350,*4E
$GPRMC,192559.998,A,2116.2653,S,07004.4857,W,0.27,167.30,010511,,,A*63
$GPGGA,192601.002,2116.2659,S,07004.4863,W,1,07,1.9,-39.5,M,34.9,M,,0000*49
$GPGSA,M,3,22,16,30,06,18,03,19,,,,,,3.4,1.9,2.9*3A
$GPRMC,192601.002,A,2116.2659,S,07004.4863,W,0.37,273.81,010511,,,A*67
$GPGGA,192602.000,2116.2666,S,07004.4864,W,1,07,1.9,-38.3,M,34.9,M,,0000*44
$GPGSA,M,3,22,16,30,06,18,03,19,,,,,,3.4,1.9,2.9*3A
$GPRMC,192602.000,A,2116.2666,S,07004.4864,W,0.32,8.03,010511,,,A*6C
$GPGGA,192603.001,2116.2667,S,07004.4875,W,1,07,1.9,-36.8,M,34.9,M,,0000*40
$GPGSA,M,3,22,16,30,06,18,03,19,,,,,,3.4,1.9,2.9*3A
$GPRMC,192603.001,A,2116.2667,S,07004.4875,W,0.32,312.44,010511,,,A*66
$GPGGA,192603.998,2116.2668,S,07004.4874,W,1,08,1.5,-37.8,M,34.9,M,,0000*45
$GPGSA,M,3,22,16,30,06,18,03,21,19,,,,,2.4,1.5,1.9*37
$GPRMC,192603.998,A,2116.2668,S,07004.4874,W,0.36,261.42,010511,,,A*66
$GPGGA,192605.002,2116.2671,S,07004.4876,W,1,07,1.9,-38.3,M,34.9,M,,0000*44
$GPGSA,M,3,22,16,30,06,18,03,19,,,,,,3.4,1.9,2.9*3A
$GPGSV,3,1,11,22,81,077,37,16,63,273,37,30,58,326,37,06,51,197,30*75
$GPGSV,3,2,11,18,48,134,38,03,39,210,34,21,18,128,,14,18,032,*71
$GPGSV,3,3,11,19,13,225,30,29,03,064,,31,03,350,*48
$GPRMC,192605.002,A,2116.2671,S,07004.4876,W,0.43,223.04,010511,,,A*66
$GPGGA,192606.000,2116.2674,S,07004.4881,W,1,07,1.9,-36.8,M,34.9,M,,0000*4D
$GPGSA,M,3,22,16,30,06,18,03,19,,,,,,3.4,1.9,2.9*3A
$GPRMC,192606.000,A,2116.2674,S,07004.4881,W,0.55,23.20,010511,,,A*59
$GPGGA,192607.000,2116.2674,S,07004.4883,W,1,07,1.9,-38.1,M,34.9,M,,0000*49
$GPGSA,M,3,22,16,30,06,18,03,19,,,,,,3.4,1.9,2.9*3A
$GPRMC,192607.000,A,2116.2674,S,07004.4883,W,0.33,83.76,010511,,,A*53
$GPGGA,192608.000,2116.2674,S,07004.4884,W,1,07,1.9,-38.5,M,34.9,M,,0000*45
$GPGSA,M,3,22,16,30,06,18,03,19,,,,,,3.4,1.9,2.9*3A
$GPRMC,192608.000,A,2116.2674,S,07004.4884,W,0.69,40.94,010511,,,A*57
$GPGGA,192609.000,2116.2675,S,07004.4881,W,1,07,1.9,-37.5,M,34.9,M,,0000*4F
$GPGSA,M,3,22,16,30,06,18,03,19,,,,,,3.4,1.9,2.9*3A
$GPRMC,192609.000,A,2116.2675,S,07004.4881,W,0.97,70.02,010511,,,A*5F
$GPGGA,192610.000,2116.2674,S,07004.4883,W,1,07,1.9,-36.4,M,34.9,M,,0000*44
$GPGSA,M,3,22,16,30,06,18,03,19,,,,,,3.4,1.9,2.9*3A
$GPGSV,3,1,11,22,81,077,33,16,63,273,37,30,58,326,36,06,51,197,30*70
$GPGSV,3,2,11,18,48,134,38,03,39,210,31,21,18,128,,14,18,032,*74
$GPGSV,3,3,11,19,13,225,37,29,03,064,,31,03,350,*4F
$GPRMC,192610.000,A,2116.2674,S,07004.4883,W,0.73,22.57,010511,,,A*59
$GPGGA,192611.000,2116.2669,S,07004.4880,W,1,07,1.9,-37.9,M,34.9,M,,0000*46
$GPGSA,M,3,22,16,30,06,18,03,19,,,,,,3.4,1.9,2.9*3A
$GPRMC,192611.000,A,2116.2669,S,07004.4880,W,0.29,29.33,010511,,,A*51
$GPGGA,192612.000,2116.2667,S,07004.4879,W,1,07,1.9,-39.1,M,34.9,M,,0000*4B
$GPGSA,M,3,22,16,30,06,18,03,19,,,,,,3.4,1.9,2.9*3A
$GPRMC,192612.000,A,2116.2667,S,07004.4879,W,0.42,8.78,010511,,,A*6B
$GPGGA,192613.000,2116.2671,S,07004.4884,W,1,07,1.9,-36.8,M,34.9,M,,0000*49
$GPGSA,M,3,22,16,30,06,18,03,19,,,,,,3.4,1.9,2.9*3A
$GPRMC,192613.000,A,2116.2671,S,07004.4884,W,0.53,40.75,010511,,,A*5E
$GPGGA,192614.000,2116.2670,S,07004.4883,W,1,07,1.9,-36.2,M,34.9,M,,0000*42
$GPGSA,M,3,22,16,30,06,18,03,19,,,,,,3.4,1.9,2.9*3A
$GPRMC,192614.000,A,2116.2670,S,07004.4883,W,0.36,4.95,010511,,,A*62
$GPGGA,192615.000,2116.2665,S,07004.4878,W,1,07,1.9,-37.6,M,34.9,M,,0000*46
$GPGSA,M,3,22,16,30,06,18,03,19,,,,,,3.4,1.9,2.9*3A
$GPGSV,3,1,11,22,81,077,34,16,63,273,37,30,58,326,37,06,51,197,31*77
$GPGSV,3,2,11,18,48,134,37,03,39,210,31,21,18,128,,14,18,032,*7B
$GPGSV,3,3,11,19,13,225,36,29,03,064,,31,03,350,*4E
$GPRMC,192615.000,A,2116.2665,S,07004.4878,W,1.23,23.06,010511,,,A*59
$GPGGA,192616.000,2116.2668,S,07004.4880,W,1,07,1.9,-35.7,M,34.9,M,,0000*4C
$GPGSA,M,3,22,16,30,06,18,03,19,,,,,,3.4,1.9,2.9*3A
$GPRMC,192616.000,A,2116.2668,S,07004.4880,W,0.46,21.28,010511,,,A*5C
$GPGGA,192617.000,2116.2677,S,07004.4882,W,1,07,1.9,-32.7,M,34.9,M,,0000*46
$GPGSA,M,3,22,16,30,06,18,03,19,,,,,,3.4,1.9,2.9*3A
$GPRMC,192617.000,A,2116.2677,S,07004.4882,W,0.40,69.26,010511,,,A*55
$GPGGA,192618.000,2116.2676,S,07004.4884,W,1,07,1.9,-32.0,M,34.9,M,,0000*49
$GPGSA,M,3,22,16,30,06,18,03,19,,,,,,3.4,1.9,2.9*3A
$GPRMC,192618.000,A,2116.2676,S,07004.4884,W,0.66,6.95,010511,,,A*68
$GPGGA,192619.000,2116.2679,S,07004.4884,W,1,07,1.9,-31.5,M,34.9,M,,0000*41
$GPGSA,M,3,22,16,30,06,18,03,19,,,,,,3.4,1.9,2.9*3A
$GPRMC,192619.000,A,2116.2679,S,07004.4884,W,0.38,3.50,010511,,,A*61
$GPGGA,192620.000,2116.2682,S,07004.4884,W,1,07,1.9,-31.9,M,34.9,M,,0000*43
$GPGSA,M,3,22,16,30,06,18,03,19,,,,,,3.4,1.9,2.9*3A
$GPGSV,3,1,11,22,81,077,36,16,63,273,37,30,58,326,37,06,51,197,33*77
$GPGSV,3,2,11,18,48,134,39,03,39,210,34,21,18,128,,14,18,032,*70
$GPGSV,3,3,11,19,13,225,34,29,03,064,,31,03,350,*4C
$GPRMC,192620.000,A,2116.2682,S,07004.4884,W,0.45,328.79,010511,,,A*64
$GPGGA,192621.000,2116.2682,S,07004.4884,W,1,07,1.9,-32.8,M,34.9,M,,0000*40
$GPGSA,M,3,22,16,30,06,18,03,19,,,,,,3.4,1.9,2.9*3A
$GPRMC,192621.000,A,2116.2682,S,07004.4884,W,0.33,90.42,010511,,,A*5C
$GPGGA,192622.000,2116.2677,S,07004.4882,W,1,07,1.9,-33.2,M,34.9,M,,0000*44
$GPGSA,M,3,22,16,30,06,18,03,19,,,,,,3.4,1.9,2.9*3A
$GPRMC,192622.000,A,2116.2677,S,07004.4882,W,0.15,85.56,010511,,,A*56
$GPGGA,192623.000,2116.2676,S,07004.4881,W,1,07,1.9,-32.9,M,34.9,M,,0000*4D
$GPGSA,M,3,22,16,30,06,18,03,19,,,,,,3.4,1.9,2.9*3A
$GPRMC,192623.000,A,2116.2676,S,07004.4881,W,0.53,29.27,010511,,,A*57
$GPGGA,192624.000,2116.2679,S,07004.4883,W,1,07,1.9,-32.0,M,34.9,M,,0000*4E
$GPGSA,M,3,22,16,30,06,18,03,19,,,,,,3.4,1.9,2.9*3A
$GPRMC,192624.000,A,2116.2679,S,07004.4883,W,0.65,343.89,010511,,,A*63
$GPGGA,192625.000,2116.2673,S,07004.4880,W,1,07,1.9,-35.0,M,34.9,M,,0000*41
$GPGSA,M,3,22,16,30,06,18,03,19,,,,,,3.4,1.9,2.9*3A
$GPGSV,3,1,11,22,81,077,36,16,63,273,36,30,58,326,36,06,51,197,31*75
$GPGSV,3,2,11,18,48,134,38,03,39,210,34,21,18,128,,14,18,032,*71
$GPGSV,3,3,11,19,13,225,32,29,03,064,,31,03,350,*4A
$GPRMC,192625.000,A,2116.2673,S,07004.4880,W,0.36,303.49,010511,,,A*65
$GPGGA,192626.001,2116.2671,S,07004.4878,W,1,08,1.5,-35.5,M,34.9,M,,0000*40
$GPGSA,M,3,22,16,30,06,18,03,21,19,,,,,2.4,1.5,1.9*37
$GPRMC,192626.001,A,2116.2671,S,07004.4878,W,0.63,34.73,010511,,,A*5C
$GPGGA,192627.000,2116.2675,S,07004.4881,W,1,07,1.9,-34.0,M,34.9,M,,0000*45
$GPGSA,M,3,22,16,30,06,18,03,19,,,,,,3.4,1.9,2.9*3A
$GPRMC,192627.000,A,2116.2675,S,07004.4881,W,0.15,328.33,010511,,,A*65
$GPGGA,192628.000,2116.2678,S,07004.4884,W,1,07,1.9,-32.9,M,34.9,M,,0000*4D
$GPGSA,M,3,22,16,30,06,18,03,19,,,,,,3.4,1.9,2.9*3A
$GPRMC,192628.000,A,2116.2678,S,07004.4884,W,0.48,24.79,010511,,,A*5B
$GPGGA,192629.000,2116.2675,S,07004.4882,W,1,07,1.9,-33.2,M,34.9,M,,0000*4D
$GPGSA,M,3,22,16,30,06,18,03,19,,,,,,3.4,1.9,2.9*3A
$GPRMC,192629.000,A,2116.2675,S,07004.4882,W,0.61,16.24,010511,,,A*53
$GPGGA,192629.999,2116.2672,S,07004.4879,W,1,07,1.9,-34.6,M,34.9,M,,0000*44
$GPGSA,M,3,22,16,30,06,18,03,19,,,,,,3.4,1.9,2.9*3A
$GPGSV,3,1,11,22,81,077,35,16,63,273,35,30,58,326,37,06,51,197,30*75
$GPGSV,3,2,11,18,48,134,37,03,39,210,32,21,18,128,,14,18,032,*78
$GPGSV,3,3,11,19,13,225,30,29,03,064,,31,03,350,*48
$GPRMC,192629.999,A,2116.2672,S,07004.4879,W,0.31,45.17,010511,,,A*5A
$GPGGA,192631.001,2116.2677,S,07004.4886,W,1,07,1.9,-32.4,M,34.9,M,,0000*44
$GPGSA,M,3,22,16,30,06,18,03,19,,,,,,3.4,1.9,2.9*3A
$GPRMC,192631.001,A,2116.2677,S,07004.4886,W,0.18,125.51,010511,,,A*60
$GPGGA,192632.000,2116.2678,S,07004.4883,W,1,07,1.9,-32.7,M,34.9,M,,0000*4F
$GPGSA,M,3,22,16,30,06,18,03,19,,,,,,3.4,1.9,2.9*3A
$GPRMC,192632.000,A,2116.2678,S,07004.4883,W,0.26,59.33,010511,,,A*5B
$GPGGA,192633.001,2116.2676,S,07004.4882,W,1,07,1.9,-33.1,M,34.9,M,,0000*47
$GPGSA,M,3,22,16,30,06,18,03,19,,,,,,3.4,1.9,2.9*3A
$GPRMC,192633.001,A,2116.2676,S,07004.4882,W,0.59,344.87,010511,,,A*6C
$GPGGA,192633.998,2116.2677,S,07004.4885,W,1,08,1.5,-32.0,M,34.9,M,,0000*4B
$GPGSA,M,3,22,16,30,06,18,03,21,19,,,,,2.4,1.5,1.9*37
$GPRMC,192633.998,A,2116.2677,S,07004.4885,W,0.87,16.76,010511,,,A*5A
$GPGGA,192635.003,2116.2679,S,07004.4888,W,1,07,1.9,-30.9,M,34.9,M,,0000*4D
$GPGSA,M,3,22,16,30,06,18,03,19,,,,,,3.4,1.9,2.9*3A
$GPGSV,3,1,11,22,81,077,36,16,63,273,37,30,58,326,37,06,51,197,30*74
$GPGSV,3,2,11,18,48,134,38,03,39,210,31,21,18,128,,14,18,032,*74
$GPGSV,3,3,11,19,13,225,36,29,03,064,,31,03,350,*4E
$GPRMC,192635.003,A,2116.2679,S,07004.4888,W,0.45,33.95,010511,,,A*50
$GPGGA,192635.999,2116.2680,S,07004.4887,W,1,07,1.9,-30.7,M,34.9,M,,0000*40
$GPGSA,M,3,22,16,30,06,18,03,19,,,,,,3.4,1.9,2.9*3A
$GPRMC,192635.999,A,2116.2680,S,07004.4887,W,0.52,46.12,010511,,,A*58
$GPGGA,192637.000,2116.2682,S,07004.4888,W,1,07,1.9,-30.1,M,34.9,M,,0000*40
$GPGSA,M,3,22,16,30,06,18,03,19,,,,,,3.4,1.9,2.9*3A
$GPRMC,192637.000,A,2116.2682,S,07004.4888,W,0.82,18.81,010511,,,A*52
$GPGGA,192638.000,2116.2676,S,07004.4883,W,1,07,1.9,-32.2,M,34.9,M,,0000*4E
$GPGSA,M,3,22,16,30,06,18,03,19,,,,,,3.4,1.9,2.9*3A
$GPRMC,192638.000,A,2116.2676,S,07004.4883,W,0.93,30.87,010511,,,A*51
$GPGGA,192639.000,2116.2683,S,07004.4876,W,1,07,1.9,-31.7,M,34.9,M,,0000*49
$GPGSA,M,3,22,16,30,06,18,03,19,,,,,,3.4,1.9,2.9*3A
$GPRMC,192639.000,A,2116.2683,S,07004.4876,W,0.80,104.41,010511,,,A*6E
$GPGGA,192640.000,2116.2690,S,07004.4874,W,1,07,1.9,-30.4,M,34.9,M,,0000*45
$GPGSA,M,3,22,16,30,06,18,03,19,,,,,,3.4,1.9,2.9*3A
$GPGSV,3,1,11,22,81,077,35,16,63,273,37,30,58,326,37,06,51,197,31*76
$GPGSV,3,2,11,18,48,134,38,03,39,210,32,21,18,128,,14,18,032,*77
$GPGSV,3,3,11,19,13,225,37,29,03,064,,31,03,350,*4F
$GPRMC,192640.000,A,2116.2690,S,07004.4874,W,0.62,41.21,010511,,,A*5A
$GPGGA,192641.000,2116.2688,S,07004.4873,W,1,07,1.9,-30.7,M,34.9,M,,0000*49
$GPGSA,M,3,22,16,30,06,18,03,19,,,,,,3.4,1.9,2.9*3A
$GPRMC,192641.000,A,2116.2688,S,07004.4873,W,0.68,69.68,010511,,,A*58
$GPGGA,192642.000,2116.2693,S,07004.4873,W,1,07,1.9,-28.8,M,34.9,M,,0000*46
$GPGSA,M,3,22,16,30,06,18,03,19,,,,,,3.4,1.9,2.9*3A
$GPRMC,192642.000,A,2116.2693,S,07004.4873,W,0.49,76.60,010511,,,A*54
$GPGGA,192643.000,2116.2690,S,07004.4874,W,1,07,1.9,-28.9,M,34.9,M,,0000*42
$GPGSA,M,3,22,16,30,06,18,03,19,,,,,,3.4,1.9,2.9*3A
$GPRMC,192643.000,A,2116.2690,S,07004.4874,W,0.59,64.47,010511,,,A*56
$GPGGA,192644.000,2116.2696,S,07004.4875,W,1,07,1.9,-26.3,M,34.9,M,,0000*46
$GPGSA,M,3,22,16,30,06,18,03,19,,,,,,3.4,1.9,2.9*3A
$GPRMC,192644.000,A,2116.2696,S,07004.4875,W,0.28,63.73,010511,,,A*50
$GPGGA,192645.000,2116.2696,S,07004.4877,W,1,07,1.9,-25.7,M,34.9,M,,0000*42
$GPGSA,M,3,22,16,30,06,18,03,19,,,,,,3.4,1.9,2.9*3A
$GPGSV,3,1,11,22,81,077,35,16,63,273,36,30,58,326,37,06,51,197,31*77
$GPGSV,3,2,11,18,48,134,38,03,39,210,34,21,18,128,,14,18,032,*71
$GPGSV,3,3,11,19,13,225,36,29,03,064,,31,03,350,*4E
$GPRMC,192645.000,A,2116.2696,S,07004.4877,W,0.55,34.51,010511,,,A*5B
$GPGGA,192646.000,2116.2689,S,07004.4872,W,1,07,1.9,-27.8,M,34.9,M,,0000*47
$GPGSA,M,3,22,16,30,06,18,03,19,,,,,,3.4,1.9,2.9*3A
$GPRMC,192646.000,A,2116.2689,S,07004.4872,W,0.37,102.01,010511,,,A*66
$GPGGA,192647.000,2116.2681,S,07004.4871,W,1,07,1.9,-31.3,M,34.9,M,,0000*41
$GPGSA,M,3,22,16,30,06,18,03,19,,,,,,3.4,1.9,2.9*3A
$GPRMC,192647.000,A,2116.2681,S,07004.4871,W,0.70,43.05,010511,,,A*5F
$GPGGA,192648.000,2116.2683,S,07004.4869,W,1,07,1.9,-30.7,M,34.9,M,,0000*40
$GPGSA,M,3,22,16,30,06,18,03,19,,,,,,3.4,1.9,2.9*3A
$GPRMC,192648.000,A,2116.2683,S,07004.4869,W,0.98,357.84,010511,,,A*62
$GPGGA,192649.000,2116.2676,S,07004.4873,W,1,07,1.9,-31.3,M,34.9,M,,0000*45
$GPGSA,M,3,22,16,30,06,18,03,19,,,,,,3.4,1.9,2.9*3A
$GPRMC,192649.000,A,2116.2676,S,07004.4873,W,0.89,6.13,010511,,,A*6B
$GPGGA,192650.000,2116.2668,S,07004.4873,W,1,07,1.9,-33.5,M,34.9,M,,0000*46
$GPGSA,M,3,22,16,30,06,18,03,19,,,,,,3.4,1.9,2.9*3A
$GPGSV,3,1,11,22,81,077,36,16,63,273,37,30,58,326,37,06,51,197,31*75
$GPGSV,3,2,11,18,48,134,39,03,39,210,34,21,18,128,,14,18,032,*70
$GPGSV,3,3,11,19,13,225,37,29,03,064,,31,03,350,*4F
$GPRMC,192650.000,A,2116.2668,S,07004.4873,W,0.46,10.32,010511,,,A*5B
$GPGGA,192651.000,2116.2669,S,07004.4870,W,1,07,1.9,-34.5,M,34.9,M,,0000*42
$GPGSA,M,3,22,16,30,06,18,03,19,,,,,,3.4,1.9,2.9*3A
$GPRMC,192651.000,A,2116.2669,S,07004.4870,W,0.45,100.57,010511,,,A*68
$GPGGA,192652.000,2116.2674,S,07004.4873,W,1,07,1.9,-33.2,M,34.9,M,,0000*4E
$GPGSA,M,3,22,16,30,06,18,03,19,,,,,,3.4,1.9,2.9*3A
$GPRMC,192652.000,A,2116.2674,S,07004.4873,W,0.58,44.03,010511,,,A*58
$GPGGA,192653.000,2116.2668,S,07004.4872,W,1,07,1.9,-34.2,M,34.9,M,,0000*44
$GPGSA,M,3,22,16,30,06,18,03,19,,,,,,3.4,1.9,2.9*3A
$GPRMC,192653.000,A,2116.2668,S,07004.4872,W,0.97,35.96,010511,,,A*5C
$GPGGA,192653.998,2116.2663,S,07004.4868,W,1,08,1.4,-37.2,M,34.9,M,,0000*4D
$GPGSA,M,3,22,16,30,06,18,03,21,19,,,,,2.4,1.4,1.9*36
$GPRMC,192653.998,A,2116.2663,S,07004.4868,W,0.83,17.15,010511,,,A*5A
$GPGGA,192655.000,2116.2655,S,07004.4863,W,1,08,1.4,-38.9,M,34.9,M,,0000*49
$GPGSA,M,3,22,16,30,06,18,03,21,19,,,,,2.4,1.4,1.9*36
$GPGSV,3,1,11,22,81,077,34,16,63,273,36,30,58,326,37,06,51,197,33*74
$GPGSV,3,2,11,18,48,134,39,03,39,210,35,21,18,128,25,14,18,032,*76
$GPGSV,3,3,11,19,13,225,38,29,03,064,,31,03,350,*40
$GPRMC,192655.000,A,2116.2655,S,07004.4863,W,0.76,22.81,010511,,,A*5B
$GPGGA,192656.002,2116.2655,S,07004.4863,W,1,07,1.9,-38.4,M,34.9,M,,0000*47
$GPGSA,M,3,22,16,30,06,18,03,19,,,,,,3.4,1.9,2.9*3A
