$GPGGA,140900.837,,,,,0,00,,,M,0.0,M,,0000*56
$GPGSA,M,1,,,,,,,,,,,,,,,*12
$GPRMC,140900.837,V,,,,,,,110511,,,N*48
$GPGGA,140901.837,,,,,0,00,,,M,0.0,M,,0000*57
$GPGSA,M,1,,,,,,,,,,,,,,,*12
$GPRMC,140901.837,V,,,,,,,110511,,,N*49
$GPGGA,140902.837,,,,,0,00,,,M,0.0,M,,0000*54
$GPGSA,M,1,,,,,,,,,,,,,,,*12
$GPGSV,3,1,10,25,71,153,47,29,70,220,48,12,43,084,42,31,34,229,45*7C
$GPGSV,3,2,10,21,23,342,46,02,21,135,34,05,12,088,34,09,12,016,41*74
$GPGSV,3,3,10,14,10,298,,30,01,237,*7B
$GPRMC,140902.837,V,,,,,,,110511,,,N*4A
$GPGGA,140903.837,,,,,0,00,,,M,0.0,M,,0000*55
$GPGSA,M,1,,,,,,,,,,,,,,,*12
$GPRMC,140903.837,V,,,,,,,110511,,,N*4B
$GPGGA,140904.837,3720.2401,S,07001.7568,W,1,05,1.8,1566.9,M,24.6,M,,0000*6D
$GPGSA,M,3,31,25,21,12,29,,,,,,,,3.4,1.8,2.9*35
$GPRMC,140904.837,A,3720.2401,S,07001.7568,W,0.11,138.57,110511,,,A*63
$GPGGA,140906.000,3720.2399,S,07001.7568,W,1,05,1.8,1567.0,M,24.6,M,,0000*6D
$GPGSA,M,3,31,25,21,12,29,,,,,,,,3.4,1.8,2.9*35
$GPRMC,140906.000,A,3720.2399,S,07001.7568,W,0.11,146.45,110511,,,A*61
$GPGGA,140907.000,3720.2399,S,07001.7568,W,1,05,1.8,1567.0,M,24.6,M,,0000*6C
$GPGSA,M,3,31,25,21,12,29,,,,,,,,3.4,1.8,2.9*35
$GPGSV,3,1,10,25,74,145,48,29,72,225,48,12,42,082,42,31,36,231,47*78
$GPGSV,3,2,10,21,21,344,46,02,22,134,35,05,11,088,35,14,09,299,*77
$GPGSV,3,3,10,09,09,016,41,30,03,238,*73
$GPRMC,140907.000,A,3720.2399,S,07001.7568,W,0.14,148.92,110511,,,A*61
$GPGGA,140908.000,3720.2399,S,07001.7568,W,1,05,1.8,1567.1,M,24.6,M,,0000*62
$GPGSA,M,3,31,25,21,12,29,,,,,,,,3.4,1.8,2.9*35
$GPRMC,140908.000,A,3720.2399,S,07001.7568,W,0.15,142.64,110511,,,A*6C
$GPGGA,140909.000,3720.2400,S,07001.7568,W,1,05,1.8,1567.1,M,24.6,M,,0000*64
$GPGSA,M,3,31,25,21,12,29,,,,,,,,3.4,1.8,2.9*35
$GPRMC,140909.000,A,3720.2400,S,07001.7568,W,0.13,145.59,110511,,,A*65
$GPGGA,140910.000,3720.2400,S,07001.7568,W,1,05,1.8,1567.2,M,24.6,M,,0000*6F
$GPGSA,M,3,31,25,21,12,29,,,,,,,,3.4,1.8,2.9*35
$GPRMC,140910.000,A,3720.2400,S,07001.7568,W,0.13,148.61,110511,,,A*6B
$GPGGA,140911.000,3720.2400,S,07001.7568,W,1,05,1.8,1567.2,M,24.6,M,,0000*6E
$GPGSA,M,3,31,25,21,12,29,,,,,,,,3.4,1.8,2.9*35
$GPRMC,140911.000,A,3720.2400,S,07001.7568,W,0.16,145.76,110511,,,A*64
$GPGGA,140912.000,3720.2400,S,07001.7568,W,1,05,1.8,1567.2,M,24.6,M,,0000*6D
$GPGSA,M,3,31,25,21,12,29,,,,,,,,3.4,1.8,2.9*35
$GPGSV,3,1,10,25,74,145,48,29,72,225,47,12,42,082,42,31,36,231,47*77
$GPGSV,3,2,10,21,21,344,45,02,22,134,36,05,11,088,35,14,09,299,*77
$GPGSV,3,3,10,09,09,016,41,30,03,238,*73
$GPRMC,140912.000,A,3720.2400,S,07001.7568,W,0.12,144.91,110511,,,A*6B
$GPGGA,140913.000,3720.2400,S,07001.7568,W,1,05,1.8,1567.2,M,24.6,M,,0000*6C
$GPGSA,M,3,31,25,21,12,29,,,,,,,,3.4,1.8,2.9*35
$GPRMC,140913.000,A,3720.2400,S,07001.7568,W,0.14,148.87,110511,,,A*67
$GPGGA,140914.000,3720.2400,S,07001.7568,W,1,05,1.8,1567.2,M,24.6,M,,0000*6B
$GPGSA,M,3,31,25,21,12,29,,,,,,,,3.4,1.8,2.9*35
$GPRMC,140914.000,A,3720.2400,S,07001.7568,W,0.13,144.58,110511,,,A*69
$GPGGA,140915.000,3720.2400,S,07001.7568,W,1,05,1.8,1567.2,M,24.6,M,,0000*6A
$GPGSA,M,3,31,25,21,12,29,,,,,,,,3.4,1.8,2.9*35
$GPRMC,140915.000,A,3720.2400,S,07001.7568,W,0.14,142.77,110511,,,A*64
$GPGGA,140916.000,3720.2400,S,07001.7568,W,1,05,1.8,1567.2,M,24.6,M,,0000*69
$GPGSA,M,3,31,25,21,12,29,,,,,,,,3.4,1.8,2.9*35
$GPRMC,140916.000,A,3720.2400,S,07001.7568,W,0.15,143.52,110511,,,A*60
$GPGGA,140917.000,3720.2400,S,07001.7568,W,1,05,1.8,1567.2,M,24.6,M,,0000*68
$GPGSA,M,3,31,25,21,12,29,,,,,,,,3.4,1.8,2.9*35
$GPGSV,3,1,10,25,74,145,49,29,72,225,47,12,42,082,42,31,36,231,47*76
$GPGSV,3,2,10,02,22,134,36,21,21,344,45,05,11,088,36,14,09,299,*74
$GPGSV,3,3,10,09,09,016,41,30,03,238,*73
$GPRMC,140917.000,A,3720.2400,S,07001.7568,W,0.15,145.05,110511,,,A*65
$GPGGA,140918.000,3720.2401,S,07001.7568,W,1,05,1.8,1567.2,M,24.6,M,,0000*66
$GPGSA,M,3,31,25,21,12,29,,,,,,,,3.4,1.8,2.9*35
$GPRMC,140918.000,A,3720.2401,S,07001.7568,W,0.15,144.69,110511,,,A*60
$GPGGA,140919.000,3720.2401,S,07001.7568,W,1,05,1.8,1567.2,M,24.6,M,,0000*67
$GPGSA,M,3,31,25,21,12,29,,,,,,,,3.4,1.8,2.9*35
$GPRMC,140919.000,A,3720.2401,S,07001.7568,W,0.13,148.67,110511,,,A*65
$GPGGA,140920.000,3720.2401,S,07001.7568,W,1,05,1.8,1567.3,M,24.6,M,,0000*6C
$GPGSA,M,3,31,25,21,12,29,,,,,,,,3.4,1.8,2.9*35
$GPRMC,140920.000,A,3720.2401,S,07001.7568,W,0.15,139.43,110511,,,A*69
$GPGGA,140921.000,3720.2401,S,07001.7568,W,1,05,1.8,1567.3,M,24.6,M,,0000*6D
$GPGSA,M,3,31,25,21,12,29,,,,,,,,3.4,1.8,2.9*35
$GPRMC,140921.000,A,3720.2401,S,07001.7568,W,0.13,147.33,110511,,,A*60
$GPGGA,140922.000,3720.2397,S,07001.7571,W,1,06,1.2,1568.6,M,24.6,M,,0000*6D
$GPGSA,M,3,31,25,21,12,29,02,,,,,,,2.1,1.2,1.8*3B
$GPGSV,3,1,10,25,74,145,49,29,72,225,47,12,42,082,42,31,36,231,48*79
$GPGSV,3,2,10,02,22,134,37,21,21,344,44,05,11,088,36,14,09,299,*74
$GPGSV,3,3,10,09,09,016,40,30,03,238,*72
$GPRMC,140922.000,A,3720.2397,S,07001.7571,W,0.13,141.17,110511,,,A*63
$GPGGA,140923.000,3720.2395,S,07001.7573,W,1,06,1.2,1569.5,M,24.6,M,,0000*6E
$GPGSA,M,3,31,25,21,12,29,02,,,,,,,2.1,1.2,1.8*3B
$GPRMC,140923.000,A,3720.2395,S,07001.7573,W,0.11,147.51,110511,,,A*64
$GPGGA,140924.000,3720.2393,S,07001.7575,W,1,06,1.2,1570.2,M,24.6,M,,0000*66
$GPGSA,M,3,31,25,21,12,29,02,,,,,,,2.1,1.2,1.8*3B
$GPRMC,140924.000,A,3720.2393,S,07001.7575,W,0.12,143.97,110511,,,A*6E
$GPGGA,140925.000,3720.2391,S,07001.7576,W,1,06,1.2,1570.7,M,24.6,M,,0000*63
$GPGSA,M,3,31,25,21,12,29,02,,,,,,,2.1,1.2,1.8*3B
$GPRMC,140925.000,A,3720.2391,S,07001.7576,W,0.11,143.96,110511,,,A*6C
$GPGGA,140926.000,3720.2390,S,07001.7577,W,1,06,1.2,1571.2,M,24.6,M,,0000*64
$GPGSA,M,3,31,25,21,12,29,02,,,,,,,2.1,1.2,1.8*3B
$GPRMC,140926.000,A,3720.2390,S,07001.7577,W,0.11,149.93,110511,,,A*60
$GPGGA,140927.000,3720.2390,S,07001.7578,W,1,06,1.2,1571.5,M,24.6,M,,0000*6D
$GPGSA,M,3,31,25,21,12,29,02,,,,,,,2.1,1.2,1.8*3B
$GPGSV,3,1,10,25,74,145,49,29,72,224,46,12,42,082,42,31,36,231,48*79
$GPGSV,3,2,10,02,22,134,38,21,21,344,43,05,11,088,37,14,09,299,*7D
$GPGSV,3,3,10,09,09,016,40,30,03,238,*72
$GPRMC,140927.000,A,3720.2390,S,07001.7578,W,0.13,141.54,110511,,,A*6F
$GPGGA,140928.000,3720.2389,S,07001.7578,W,1,06,1.2,1571.8,M,24.6,M,,0000*67
$GPGSA,M,3,31,25,21,12,29,02,,,,,,,2.1,1.2,1.8*3B
$GPRMC,140928.000,A,3720.2389,S,07001.7578,W,0.10,143.66,110511,,,A*68
$GPGGA,140929.000,3720.2388,S,07001.7579,W,1,06,1.2,1572.0,M,24.6,M,,0000*6D
$GPGSA,M,3,31,25,21,12,29,02,,,,,,,2.1,1.2,1.8*3B
$GPRMC,140929.000,A,3720.2388,S,07001.7579,W,0.12,142.05,110511,,,A*6F
$GPGGA,140930.000,3720.2388,S,07001.7579,W,1,06,1.2,1572.2,M,24.6,M,,0000*67
$GPGSA,M,3,31,25,21,12,29,02,,,,,,,2.1,1.2,1.8*3B
$GPRMC,140930.000,A,3720.2388,S,07001.7579,W,0.13,149.98,110511,,,A*69
$GPGGA,140931.000,3720.2388,S,07001.7580,W,1,06,1.2,1572.4,M,24.6,M,,0000*66
$GPGSA,M,3,31,25,21,12,29,02,,,,,,,2.1,1.2,1.8*3B
$GPRMC,140931.000,A,3720.2388,S,07001.7580,W,0.10,142.15,110511,,,A*63
$GPGGA,140932.000,3720.2387,S,07001.7580,W,1,06,1.2,1572.6,M,24.6,M,,0000*68
$GPGSA,M,3,31,25,21,12,29,02,,,,,,,2.1,1.2,1.8*3B
$GPGSV,3,1,10,25,74,145,49,29,72,224,46,12,42,082,42,31,36,231,48*79
$GPGSV,3,2,10,02,22,134,38,21,21,344,42,05,11,088,37,14,09,299,*7C
$GPGSV,3,3,10,09,09,016,40,30,03,238,*72
$GPRMC,140932.000,A,3720.2387,S,07001.7580,W,0.12,146.45,110511,,,A*6C
$GPGGA,140933.000,3720.2387,S,07001.7580,W,1,06,1.2,1572.7,M,24.6,M,,0000*68
$GPGSA,M,3,31,25,21,12,29,02,,,,,,,2.1,1.2,1.8*3B
$GPRMC,140933.000,A,3720.2387,S,07001.7580,W,0.10,144.88,110511,,,A*6C
$GPGGA,140934.000,3720.2387,S,07001.7581,W,1,07,1.1,1572.9,M,24.6,M,,0000*62
$GPGSA,M,3,31,25,21,12,29,05,02,,,,,,2.0,1.1,1.6*32
$GPRMC,140934.000,A,3720.2387,S,07001.7581,W,0.12,147.30,110511,,,A*68
$GPGGA,140935.000,3720.2387,S,07001.7581,W,1,07,1.1,1573.0,M,24.6,M,,0000*6B
$GPGSA,M,3,31,25,21,12,29,05,02,,,,,,2.0,1.1,1.6*32
$GPRMC,140935.000,A,3720.2387,S,07001.7581,W,0.11,147.07,110511,,,A*6E
$GPGGA,140936.104,3720.2386,S,07001.7580,W,1,07,1.1,1573.0,M,24.6,M,,0000*6D
$GPGSA,M,3,25,29,12,31,02,21,05,,,,,,2.0,1.1,1.6*32
$GPRMC,140936.104,A,3720.2386,S,07001.7580,W,0.34,24.19,110511,,,A*54
$GPGGA,140937.001,3720.2386,S,07001.7580,W,1,07,1.1,1573.1,M,24.6,M,,0000*69
$GPGSA,M,3,25,29,12,31,02,21,05,,,,,,2.0,1.1,1.6*32
$GPGSV,3,1,10,25,74,144,41,29,72,224,41,12,42,081,38,31,36,231,41*70
$GPGSV,3,2,10,02,22,134,36,21,22,344,38,05,11,088,37,14,09,299,*7C
$GPGSV,3,3,10,09,09,016,38,30,03,238,*7D
$GPRMC,140937.001,A,3720.2386,S,07001.7580,W,0.30,151.92,110511,,,A*65
$GPGGA,140938.001,3720.2387,S,07001.7580,W,1,07,1.1,1573.1,M,24.6,M,,0000*67
$GPGSA,M,3,25,29,12,31,02,21,05,,,,,,2.0,1.1,1.6*32
$GPRMC,140938.001,A,3720.2387,S,07001.7580,W,0.17,300.71,110511,,,A*65
$GPGGA,140939.001,3720.2388,S,07001.7583,W,1,07,1.1,1573.3,M,24.6,M,,0000*68
$GPGSA,M,3,25,29,12,31,02,21,05,,,,,,2.0,1.1,1.6*32
$GPRMC,140939.001,A,3720.2388,S,07001.7583,W,1.83,252.54,110511,,,A*65
$GPGGA,140940.003,3720.2388,S,07001.7586,W,1,07,1.1,1573.2,M,24.6,M,,0000*60
$GPGSA,M,3,25,29,12,31,02,21,05,,,,,,2.0,1.1,1.6*32
$GPRMC,140940.003,A,3720.2388,S,07001.7586,W,0.78,315.76,110511,,,A*6B
$GPGGA,140940.998,3720.2387,S,07001.7587,W,1,07,1.1,1573.4,M,24.6,M,,0000*63
$GPGSA,M,3,25,29,12,31,02,21,05,,,,,,2.0,1.1,1.6*32
$GPRMC,140940.998,A,3720.2387,S,07001.7587,W,0.16,345.32,110511,,,A*63
$GPGGA,140942.000,3720.2386,S,07001.7588,W,1,07,1.1,1573.4,M,24.6,M,,0000*67
$GPGSA,M,3,25,29,12,31,02,21,05,,,,,,2.0,1.1,1.6*32
$GPGSV,3,1,10,25,74,144,38,29,72,224,31,12,42,081,34,31,36,231,38*7B
$GPGSV,3,2,10,02,22,134,37,21,22,344,33,05,11,088,30,14,09,299,*71
$GPGSV,3,3,10,09,09,016,31,30,03,238,*74
$GPRMC,140942.000,A,3720.2386,S,07001.7588,W,0.24,304.54,110511,,,A*63
$GPGGA,140943.000,3720.2387,S,07001.7587,W,1,07,1.1,1573.4,M,24.6,M,,0000*68
$GPGSA,M,3,25,29,12,31,02,21,05,,,,,,2.0,1.1,1.6*32
$GPRMC,140943.000,A,3720.2387,S,07001.7587,W,0.50,189.74,110511,,,A*6A
$GPGGA,140944.000,3720.2387,S,07001.7588,W,1,07,1.1,1573.4,M,24.6,M,,0000*60
$GPGSA,M,3,25,29,12,31,02,21,05,,,,,,2.0,1.1,1.6*32
$GPRMC,140944.000,A,3720.2387,S,07001.7588,W,0.48,230.91,110511,,,A*61
$GPGGA,140945.001,3720.2387,S,07001.7588,W,1,07,1.1,1573.4,M,24.6,M,,0000*60
$GPGSA,M,3,25,29,12,31,02,21,05,,,,,,2.0,1.1,1.6*32
$GPRMC,140945.001,A,3720.2387,S,07001.7588,W,0.53,204.63,110511,,,A*61
$GPGGA,140946.001,3720.2388,S,07001.7587,W,1,07,1.1,1573.5,M,24.6,M,,0000*62
$GPGSA,M,3,25,29,12,31,02,21,05,,,,,,2.0,1.1,1.6*32
$GPRMC,140946.001,A,3720.2388,S,07001.7587,W,0.66,166.53,110511,,,A*60
$GPGGA,140947.001,3720.2388,S,07001.7590,W,1,07,1.1,1573.3,M,24.6,M,,0000*63
$GPGSA,M,3,25,29,12,31,02,21,05,,,,,,2.0,1.1,1.6*32
$GPGSV,3,1,10,25,74,144,37,29,72,224,31,12,42,081,36,31,36,231,38*76
$GPGSV,3,2,10,02,22,134,37,21,22,344,34,05,11,088,30,14,09,299,*76
$GPGSV,3,3,10,09,09,016,30,30,03,238,*75
$GPRMC,140947.001,A,3720.2388,S,07001.7590,W,0.44,270.19,110511,,,A*6D
$GPGGA,140947.998,3720.2388,S,07001.7589,W,1,07,1.1,1573.3,M,24.6,M,,0000*62
$GPGSA,M,3,25,29,12,31,02,21,05,,,,,,2.0,1.1,1.6*32
$GPRMC,140947.998,A,3720.2388,S,07001.7589,W,0.32,166.14,110511,,,A*64
$GPGGA,140949.000,3720.2388,S,07001.7589,W,1,07,1.1,1573.3,M,24.6,M,,0000*64
$GPGSA,M,3,25,29,12,31,02,21,05,,,,,,2.0,1.1,1.6*32
$GPRMC,140949.000,A,3720.2388,S,07001.7589,W,0.38,200.41,110511,,,A*6B
$GPGGA,140950.004,3720.2388,S,07001.7588,W,1,07,1.1,1573.7,M,24.6,M,,0000*6D
$GPGSA,M,3,25,29,12,31,02,21,05,,,,,,2.0,1.1,1.6*32
$GPRMC,140950.004,A,3720.2388,S,07001.7588,W,0.27,328.68,110511,,,A*68
$GPGGA,140950.996,3720.2389,S,07001.7590,W,1,07,1.1,1573.7,M,24.6,M,,0000*67
$GPGSA,M,3,25,29,12,31,02,21,05,,,,,,2.0,1.1,1.6*32
$GPRMC,140950.996,A,3720.2389,S,07001.7590,W,0.50,205.33,110511,,,A*62
$GPGGA,140952.002,3720.2390,S,07001.7591,W,1,07,1.1,1573.8,M,24.6,M,,0000*67
$GPGSA,M,3,25,29,12,31,02,21,05,,,,,,2.0,1.1,1.6*32
$GPGSV,3,1,10,25,74,144,38,29,72,224,32,12,42,081,36,31,36,231,39*7B
$GPGSV,3,2,10,02,22,134,37,21,22,344,36,05,11,088,30,14,09,299,*74
$GPGSV,3,3,10,09,09,016,30,30,03,238,*75
$GPRMC,140952.002,A,3720.2390,S,07001.7591,W,0.69,199.42,110511,,,A*67
$GPGGA,140952.996,3720.2391,S,07001.7591,W,1,07,1.1,1574.1,M,24.6,M,,0000*6C
$GPGSA,M,3,25,29,12,31,02,21,05,,,,,,2.0,1.1,1.6*32
$GPRMC,140952.996,A,3720.2391,S,07001.7591,W,0.37,174.46,110511,,,A*6E
$GPGGA,140954.000,3720.2392,S,07001.7591,W,1,07,1.1,1574.0,M,24.6,M,,0000*6E
$GPGSA,M,3,25,29,12,31,02,21,05,,,,,,2.0,1.1,1.6*32
$GPRMC,140954.000,A,3720.2392,S,07001.7591,W,0.81,189.35,110511,,,A*66
$GPGGA,140955.001,3720.2393,S,07001.7591,W,1,07,1.1,1573.8,M,24.6,M,,0000*60
$GPGSA,M,3,25,29,12,31,02,21,05,,,,,,2.0,1.1,1.6*32
$GPRMC,140955.001,A,3720.2393,S,07001.7591,W,0.62,189.16,110511,,,A*6B
$GPGGA,140956.002,3720.2393,S,07001.7590,W,1,07,1.1,1573.3,M,24.6,M,,0000*6A
$GPGSA,M,3,25,29,12,31,02,21,05,,,,,,2.0,1.1,1.6*32
$GPRMC,140956.002,A,3720.2393,S,07001.7590,W,0.16,190.99,110511,,,A*66
$GPGGA,140957.044,3720.2393,S,07001.7588,W,1,06,2.2,1573.1,M,24.6,M,,0000*63
$GPGSA,M,3,25,29,12,31,02,05,,,,,,,3.0,2.2,2.0*35
$GPGSV,3,1,10,25,74,144,37,29,72,224,32,12,42,081,34,31,36,231,38*77
$GPGSV,3,2,10,02,22,134,29,21,22,344,,05,11,088,28,14,09,299,*77
$GPGSV,3,3,10,09,09,016,,30,03,238,*76
$GPRMC,140957.044,A,3720.2393,S,07001.7588,W,0.60,134.19,110511,,,A*6B
$GPGGA,140957.957,3720.2393,S,07001.7587,W,1,07,1.1,1573.0,M,24.6,M,,0000*67
$GPGSA,M,3,25,29,12,31,02,21,05,,,,,,2.0,1.1,1.6*32
$GPRMC,140957.957,A,3720.2393,S,07001.7587,W,0.20,132.97,110511,,,A*6B
$GPGGA,140959.001,3720.2392,S,07001.7587,W,1,06,1.2,1572.8,M,24.6,M,,0000*69
$GPGSA,M,3,25,29,12,31,02,21,,,,,,,2.1,1.2,1.8*3B
$GPRMC,140959.001,A,3720.2392,S,07001.7587,W,0.10,345.60,110511,,,A*67
$GPGGA,141000.000,3720.2392,S,07001.7584,W,1,07,1.1,1573.2,M,24.6,M,,0000*66
$GPGSA,M,3,25,29,12,31,02,21,05,,,,,,2.0,1.1,1.6*32
$GPRMC,141000.000,A,3720.2392,S,07001.7584,W,0.55,124.01,110511,,,A*62
$GPGGA,141000.999,3720.2392,S,07001.7583,W,1,07,1.1,1573.8,M,24.6,M,,0000*62
$GPGSA,M,3,25,29,12,31,02,21,05,,,,,,2.0,1.1,1.6*32
$GPRMC,141000.999,A,3720.2392,S,07001.7583,W,0.18,152.41,110511,,,A*60
$GPGGA,141002.002,3720.2393,S,07001.7582,W,1,06,1.2,1573.4,M,24.6,M,,0000*65
$GPGSA,M,3,25,29,12,31,02,21,,,,,,,2.1,1.2,1.8*3B
$GPGSV,3,1,10,25,74,144,38,29,72,224,34,12,42,081,38,31,36,231,39*73
$GPGSV,3,2,10,02,22,134,36,21,22,344,33,05,11,088,,14,09,299,*73
$GPGSV,3,3,10,09,09,016,38,30,03,238,*7D
$GPRMC,141002.002,A,3720.2393,S,07001.7582,W,0.45,175.69,110511,,,A*6E
$GPGGA,141003.005,3720.2394,S,07001.7585,W,1,07,1.1,1572.9,M,24.6,M,,0000*6D
$GPGSA,M,3,25,29,12,31,02,21,05,,,,,,2.0,1.1,1.6*32
$GPRMC,141003.005,A,3720.2394,S,07001.7585,W,0.27,221.25,110511,,,A*66
$GPGGA,141003.996,3720.2394,S,07001.7585,W,1,07,1.1,1572.6,M,24.6,M,,0000*61
$GPGSA,M,3,25,29,12,31,02,21,05,,,,,,2.0,1.1,1.6*32
$GPRMC,141003.996,A,3720.2394,S,07001.7585,W,0.35,136.79,110511,,,A*6A
$GPGGA,141005.000,3720.2395,S,07001.7585,W,1,07,1.1,1572.1,M,24.6,M,,0000*67
$GPGSA,M,3,25,29,12,31,02,21,05,,,,,,2.0,1.1,1.6*32
$GPRMC,141005.000,A,3720.2395,S,07001.7585,W,0.21,123.05,110511,,,A*61
$GPGGA,141006.000,3720.2394,S,07001.7585,W,1,07,1.1,1572.5,M,24.6,M,,0000*61
$GPGSA,M,3,25,29,12,31,02,21,05,,,,,,2.0,1.1,1.6*32
$GPRMC,141006.000,A,3720.2394,S,07001.7585,W,0.17,125.98,110511,,,A*64
$GPGGA,141006.998,3720.2394,S,07001.7586,W,1,07,1.1,1572.5,M,24.6,M,,0000*6A
$GPGSA,M,3,25,29,12,31,02,21,05,,,,,,2.0,1.1,1.6*32
$GPGSV,3,1,10,25,74,144,41,29,72,224,40,12,42,081,39,31,36,231,39*7F
$GPGSV,3,2,10,02,22,134,37,21,22,344,36,05,11,088,37,14,09,299,*73
$GPGSV,3,3,10,09,09,016,37,30,03,238,*72
$GPRMC,141006.998,A,3720.2394,S,07001.7586,W,0.34,100.14,110511,,,A*6D
$GPGGA,141008.000,3720.2395,S,07001.7585,W,1,07,1.1,1572.4,M,24.6,M,,0000*6F
$GPGSA,M,3,25,29,12,31,02,21,05,,,,,,2.0,1.1,1.6*32
$GPRMC,141008.000,A,3720.2395,S,07001.7585,W,0.31,176.35,110511,,,A*6E
$GPGGA,141009.000,3720.2396,S,07001.7584,W,1,07,1.1,1572.1,M,24.6,M,,0000*69
$GPGSA,M,3,25,29,12,31,02,21,05,,,,,,2.0,1.1,1.6*32
$GPRMC,141009.000,A,3720.2396,S,07001.7584,W,0.01,268.89,110511,,,A*65
$GPGGA,141010.001,3720.2393,S,07001.7585,W,1,07,1.1,1572.0,M,24.6,M,,0000*65
$GPGSA,M,3,25,29,12,31,02,21,05,,,,,,2.0,1.1,1.6*32
$GPRMC,141010.001,A,3720.2393,S,07001.7585,W,0.35,134.02,110511,,,A*66
$GPGGA,141011.003,3720.2391,S,07001.7583,W,1,07,1.1,1572.3,M,24.6,M,,0000*61
$GPGSA,M,3,25,29,12,31,02,21,05,,,,,,2.0,1.1,1.6*32
$GPRMC,141011.003,A,3720.2391,S,07001.7583,W,0.21,300.10,110511,,,A*62
$GPGGA,141011.997,3720.2390,S,07001.7584,W,1,07,1.1,1572.9,M,24.6,M,,0000*69
$GPGSA,M,3,25,29,12,31,02,21,05,,,,,,2.0,1.1,1.6*32
$GPGSV,3,1,10,25,74,144,41,29,72,224,40,12,42,081,38,31,36,231,37*70
$GPGSV,3,2,10,02,22,134,37,21,22,344,35,05,11,088,37,14,09,299,*70
$GPGSV,3,3,10,09,09,016,37,30,03,238,*72
$GPRMC,141011.997,A,3720.2390,S,07001.7584,W,0.15,258.55,110511,,,A*6A
$GPGGA,141013.001,3720.2389,S,07001.7586,W,1,07,1.1,1573.0,M,24.6,M,,0000*6F
$GPGSA,M,3,25,29,12,31,02,21,05,,,,,,2.0,1.1,1.6*32
$GPRMC,141013.001,A,3720.2389,S,07001.7586,W,0.38,354.38,110511,,,A*6D
$GPGGA,141014.001,3720.2388,S,07001.7586,W,1,07,1.1,1572.6,M,24.6,M,,0000*6E
$GPGSA,M,3,25,29,12,31,02,21,05,,,,,,2.0,1.1,1.6*32
$GPRMC,141014.001,A,3720.2388,S,07001.7586,W,0.20,198.60,110511,,,A*6D
$GPGGA,141015.001,3720.2389,S,07001.7587,W,1,07,1.1,1572.7,M,24.6,M,,0000*6E
$GPGSA,M,3,25,29,12,31,02,21,05,,,,,,2.0,1.1,1.6*32
$GPRMC,141015.001,A,3720.2389,S,07001.7587,W,0.30,189.91,110511,,,A*63
$GPGGA,141016.001,3720.2387,S,07001.7587,W,1,07,1.1,1573.1,M,24.6,M,,0000*64
$GPGSA,M,3,25,29,12,31,02,21,05,,,,,,2.0,1.1,1.6*32
$GPRMC,141016.001,A,3720.2387,S,07001.7587,W,0.04,163.12,110511,,,A*66
$GPGGA,141017.001,3720.2388,S,07001.7589,W,1,07,1.1,1572.3,M,24.6,M,,0000*67
$GPGSA,M,3,25,29,12,31,02,21,05,,,,,,2.0,1.1,1.6*32
$GPGSV,3,1,10,25,74,144,41,29,72,224,39,12,42,081,39,31,36,231,37*7F
$GPGSV,3,2,10,02,22,134,38,21,22,344,34,05,11,088,38,14,09,299,*71
$GPGSV,3,3,10,09,09,016,37,30,03,238,*72
$GPRMC,141017.001,A,3720.2388,S,07001.7589,W,0.13,2.05,110511,,,A*60
$GPGGA,141018.001,3720.2388,S,07001.7585,W,1,07,1.1,1572.7,M,24.6,M,,0000*60
$GPGSA,M,3,25,29,12,31,02,21,05,,,,,,2.0,1.1,1.6*32
$GPRMC,141018.001,A,3720.2388,S,07001.7585,W,0.83,135.47,110511,,,A*69
$GPGGA,141019.001,3720.2388,S,07001.7588,W,1,07,1.1,1572.3,M,24.6,M,,0000*68
$GPGSA,M,3,25,29,12,31,02,21,05,,,,,,2.0,1.1,1.6*32
$GPRMC,141019.001,A,3720.2388,S,07001.7588,W,0.37,121.09,110511,,,A*65
$GPGGA,141020.002,3720.2387,S,07001.7587,W,1,07,1.1,1572.6,M,24.6,M,,0000*64
$GPGSA,M,3,25,29,12,31,02,21,05,,,,,,2.0,1.1,1.6*32
$GPRMC,141020.002,A,3720.2387,S,07001.7587,W,0.39,67.62,110511,,,A*5C
$GPGGA,141021.000,3720.2386,S,07001.7585,W,1,07,1.1,1573.0,M,24.6,M,,0000*63
$GPGSA,M,3,25,29,12,31,02,21,05,,,,,,2.0,1.1,1.6*32
$GPRMC,141021.000,A,3720.2386,S,07001.7585,W,0.14,22.18,110511,,,A*5F
$GPGGA,141021.998,3720.2387,S,07001.7583,W,1,07,1.1,1572.8,M,24.6,M,,0000*65
$GPGSA,M,3,25,29,12,31,02,21,05,,,,,,2.0,1.1,1.6*32
$GPGSV,3,1,10,25,74,144,41,29,72,224,39,12,42,081,40,31,36,231,39*7F
$GPGSV,3,2,10,02,22,134,38,21,22,344,32,05,11,088,38,14,09,299,*77
$GPGSV,3,3,10,09,09,016,38,30,03,238,*7D
$GPRMC,141021.998,A,3720.2387,S,07001.7583,W,0.32,140.70,110511,,,A*6F
$GPGGA,141022.999,3720.2388,S,07001.7587,W,1,07,1.1,1572.5,M,24.6,M,,0000*61
$GPGSA,M,3,25,29,12,31,02,21,05,,,,,,2.0,1.1,1.6*32
$GPRMC,141022.999,A,3720.2388,S,07001.7587,W,0.21,261.82,110511,,,A*69
$GPGGA,141024.001,3720.2387,S,07001.7588,W,1,07,1.1,1572.0,M,24.6,M,,0000*6A
$GPGSA,M,3,25,29,12,31,02,21,05,,,,,,2.0,1.1,1.6*32
$GPRMC,141024.001,A,3720.2387,S,07001.7588,W,0.30,207.17,110511,,,A*6B
$GPGGA,141025.003,3720.2386,S,07001.7588,W,1,07,1.1,1572.3,M,24.6,M,,0000*6B
$GPGSA,M,3,25,29,12,31,02,21,05,,,,,,2.0,1.1,1.6*32
$GPRMC,141025.003,A,3720.2386,S,07001.7588,W,0.52,227.99,110511,,,A*69
$GPGGA,141025.998,3720.2386,S,07001.7588,W,1,07,1.1,1572.4,M,24.6,M,,0000*67
$GPGSA,M,3,25,29,12,31,02,21,05,,,,,,2.0,1.1,1.6*32
$GPRMC,141025.998,A,3720.2386,S,07001.7588,W,0.49,156.61,110511,,,A*6A
$GPGGA,141027.001,3720.2385,S,07001.7586,W,1,07,1.1,1572.2,M,24.6,M,,0000*67
$GPGSA,M,3,25,29,12,31,02,21,05,,,,,,2.0,1.1,1.6*32
$GPGSV,3,1,10,25,74,144,40,29,72,224,39,12,42,081,39,31,36,231,38*71
$GPGSV,3,2,10,02,22,134,37,21,22,344,29,05,11,088,38,14,09,299,*72
$GPGSV,3,3,10,09,09,016,37,30,03,238,*72
$GPRMC,141027.001,A,3720.2385,S,07001.7586,W,0.24,42.23,110511,,,A*55
$GPGGA,141028.001,3720.2384,S,07001.7585,W,1,07,1.1,1572.6,M,24.6,M,,0000*6E
$GPGSA,M,3,25,29,12,31,02,21,05,,,,,,2.0,1.1,1.6*32
$GPRMC,141028.001,A,3720.2384,S,07001.7585,W,0.32,114.74,110511,,,A*6F
$GPGGA,141029.001,3720.2385,S,07001.7584,W,1,07,1.1,1572.4,M,24.6,M,,0000*6D
$GPGSA,M,3,25,29,12,31,02,21,05,,,,,,2.0,1.1,1.6*32
$GPRMC,141029.001,A,3720.2385,S,07001.7584,W,0.51,160.52,110511,,,A*6C
$GPGGA,141029.999,3720.2384,S,07001.7584,W,1,06,2.2,1572.8,M,24.6,M,,0000*69
$GPGSA,M,3,25,29,12,31,02,05,,,,,,,3.0,2.2,2.0*35
$GPRMC,141029.999,A,3720.2384,S,07001.7584,W,0.29,180.02,110511,,,A*61
$GPGGA,141030.998,3720.2384,S,07001.7582,W,1,07,1.1,1573.0,M,24.6,M,,0000*6E
$GPGSA,M,3,25,29,12,31,02,21,05,,,,,,2.0,1.1,1.6*32
$GPRMC,141030.998,A,3720.2384,S,07001.7582,W,0.36,146.73,110511,,,A*6C
$GPGGA,141032.006,3720.2385,S,07001.7578,W,1,07,1.1,1572.8,M,24.6,M,,0000*6F
$GPGSA,M,3,25,29,12,31,02,21,05,,,,,,2.0,1.1,1.6*32
$GPGSV,3,1,10,25,74,144,41,29,72,224,38,12,42,081,40,31,36,231,40*70
$GPGSV,3,2,10,02,22,134,38,21,22,344,30,05,11,088,37,14,09,299,*7A
$GPGSV,3,3,10,09,09,016,38,30,03,238,*7D
$GPRMC,141032.006,A,3720.2385,S,07001.7578,W,0.48,178.22,110511,,,A*64
$GPGGA,141032.998,3720.2387,S,07001.7579,W,1,07,1.1,1572.2,M,24.6,M,,0000*68
$GPGSA,M,3,25,29,12,31,02,21,05,,,,,,2.0,1.1,1.6*32
$GPRMC,141032.998,A,3720.2387,S,07001.7579,W,0.14,166.47,110511,,,A*6C
$GPGGA,141033.998,3720.2388,S,07001.7581,W,1,07,1.1,1572.1,M,24.6,M,,0000*62
$GPGSA,M,3,25,29,12,31,02,21,05,,,,,,2.0,1.1,1.6*32
$GPRMC,141033.998,A,3720.2388,S,07001.7581,W,0.46,96.79,110511,,,A*51
$GPGGA,141035.000,3720.2384,S,07001.7582,W,1,07,1.1,1571.8,M,24.6,M,,0000*69
$GPGSA,M,3,25,29,12,31,02,21,05,,,,,,2.0,1.1,1.6*32
$GPRMC,141035.000,A,3720.2384,S,07001.7582,W,0.11,50.52,110511,,,A*51
$GPGGA,141036.000,3720.2385,S,07001.7580,W,1,07,1.1,1571.6,M,24.6,M,,0000*67
$GPGSA,M,3,25,29,12,31,02,21,05,,,,,,2.0,1.1,1.6*32
$GPRMC,141036.000,A,3720.2385,S,07001.7580,W,0.63,164.59,110511,,,A*69
$GPGGA,141037.000,3720.2386,S,07001.7581,W,1,07,1.1,1571.3,M,24.6,M,,0000*61
$GPGSA,M,3,25,29,12,31,02,21,05,,,,,,2.0,1.1,1.6*32
$GPGSV,3,1,10,25,74,144,40,29,72,224,39,12,42,081,39,31,36,231,40*7E
$GPGSV,3,2,10,02,22,134,37,21,22,344,32,05,11,088,38,14,09,299,*78
$GPGSV,3,3,10,09,09,016,38,30,03,238,*7D
$GPRMC,141037.000,A,3720.2386,S,07001.7581,W,0.28,114.14,110511,,,A*6B
$GPGGA,141038.000,3720.2387,S,07001.7578,W,1,07,1.1,1571.5,M,24.6,M,,0000*6F
$GPGSA,M,3,25,29,12,31,02,21,05,,,,,,2.0,1.1,1.6*32
$GPRMC,141038.000,A,3720.2387,S,07001.7578,W,0.62,163.98,110511,,,A*69
$GPGGA,141039.000,3720.2389,S,07001.7581,W,1,07,1.1,1571.8,M,24.6,M,,0000*6B
$GPGSA,M,3,25,29,12,31,02,21,05,,,,,,2.0,1.1,1.6*32
$GPRMC,141039.000,A,3720.2389,S,07001.7581,W,0.56,196.29,110511,,,A*67
$GPGGA,141040.000,3720.2389,S,07001.7582,W,1,07,1.1,1571.6,M,24.6,M,,0000*68
$GPGSA,M,3,25,29,12,31,02,21,05,,,,,,2.0,1.1,1.6*32
$GPRMC,141040.000,A,3720.2389,S,07001.7582,W,0.21,219.65,110511,,,A*66
$GPGGA,141041.000,3720.2389,S,07001.7579,W,1,07,1.1,1571.8,M,24.6,M,,0000*63
$GPGSA,M,3,25,29,12,31,02,21,05,,,,,,2.0,1.1,1.6*32
$GPRMC,141041.000,A,3720.2389,S,07001.7579,W,0.27,148.50,110511,,,A*64
$GPGGA,141042.000,3720.2388,S,07001.7577,W,1,07,1.1,1571.8,M,24.6,M,,0000*6F
$GPGSA,M,3,25,29,12,31,02,21,05,,,,,,2.0,1.1,1.6*32
$GPGSV,3,1,10,25,74,144,41,29,72,224,37,12,42,081,38,31,36,231,38*7F
$GPGSV,3,2,10,02,22,134,37,21,22,344,31,05,11,088,37,14,09,299,*74
$GPGSV,3,3,10,09,09,016,37,30,03,238,*72
$GPRMC,141042.000,A,3720.2388,S,07001.7577,W,0.55,348.46,110511,,,A*68
$GPGGA,141043.000,3720.2386,S,07001.7575,W,1,07,1.1,1571.9,M,24.6,M,,0000*63
$GPGSA,M,3,25,29,12,31,02,21,05,,,,,,2.0,1.1,1.6*32
$GPRMC,141043.000,A,3720.2386,S,07001.7575,W,0.44,167.22,110511,,,A*68
$GPGGA,141044.000,3720.2385,S,07001.7571,W,1,07,1.1,1571.9,M,24.6,M,,0000*63
$GPGSA,M,3,25,29,12,31,02,21,05,,,,,,2.0,1.1,1.6*32
$GPRMC,141044.000,A,3720.2385,S,07001.7571,W,0.42,148.04,110511,,,A*67
$GPGGA,141045.000,3720.2385,S,07001.7571,W,1,07,1.1,1571.9,M,24.6,M,,0000*62
$GPGSA,M,3,25,29,12,31,02,21,05,,,,,,2.0,1.1,1.6*32
$GPRMC,141045.000,A,3720.2385,S,07001.7571,W,0.38,182.10,110511,,,A*68
$GPGGA,141046.000,3720.2385,S,07001.7571,W,1,07,1.1,1571.9,M,24.6,M,,0000*61
$GPGSA,M,3,25,29,12,31,02,21,05,,,,,,2.0,1.1,1.6*32
$GPRMC,141046.000,A,3720.2385,S,07001.7571,W,0.22,262.60,110511,,,A*6A
$GPGGA,141047.000,3720.2383,S,07001.7570,W,1,07,1.1,1571.9,M,24.6,M,,0000*67
$GPGSA,M,3,25,29,12,31,02,21,05,,,,,,2.0,1.1,1.6*32
$GPGSV,3,1,10,25,74,144,41,29,72,224,40,12,42,081,38,31,36,231,39*7E
$GPGSV,3,2,10,02,22,134,37,21,22,344,36,05,11,088,38,14,09,299,*7C
$GPGSV,3,3,10,09,09,016,38,30,03,238,*7D
$GPRMC,141047.000,A,3720.2383,S,07001.7570,W,0.37,165.22,110511,,,A*6A
$GPGGA,141048.000,3720.2384,S,07001.7569,W,1,07,1.1,1572.0,M,24.6,M,,0000*6D
$GPGSA,M,3,25,29,12,31,02,21,05,,,,,,2.0,1.1,1.6*32
$GPRMC,141048.000,A,3720.2384,S,07001.7569,W,0.60,183.83,110511,,,A*6B
$GPGGA,141049.000,3720.2382,S,07001.7570,W,1,07,1.1,1571.4,M,24.6,M,,0000*65
$GPGSA,M,3,25,29,12,31,02,21,05,,,,,,2.0,1.1,1.6*32
$GPRMC,141049.000,A,3720.2382,S,07001.7570,W,0.25,140.92,110511,,,A*6A
$GPGGA,141050.000,3720.2378,S,07001.7571,W,1,07,1.1,1571.2,M,24.6,M,,0000*6F
$GPGSA,M,3,25,29,12,31,02,21,05,,,,,,2.0,1.1,1.6*32
$GPRMC,141050.000,A,3720.2378,S,07001.7571,W,0.69,347.71,110511,,,A*66
$GPGGA,141051.000,3720.2377,S,07001.7573,W,1,07,1.1,1570.1,M,24.6,M,,0000*61
$GPGSA,M,3,25,29,12,31,02,21,05,,,,,,2.0,1.1,1.6*32
$GPRMC,141051.000,A,3720.2377,S,07001.7573,W,0.34,123.96,110511,,,A*6B
$GPGGA,141052.000,3720.2378,S,07001.7573,W,1,07,1.1,1569.7,M,24.6,M,,0000*63
$GPGSA,M,3,25,29,12,31,02,21,05,,,,,,2.0,1.1,1.6*32
$GPGSV,3,1,10,25,74,144,41,29,72,224,39,12,42,081,39,31,36,231,39*71
$GPGSV,3,2,10,02,22,134,38,21,22,344,36,05,11,088,38,14,09,299,*73
$GPGSV,3,3,10,09,09,016,38,30,03,238,*7D
$GPRMC,141052.000,A,3720.2378,S,07001.7573,W,0.25,20.51,110511,,,A*5E
$GPGGA,141053.000,3720.2373,S,07001.7574,W,1,07,1.1,1569.7,M,24.6,M,,0000*6E
$GPGSA,M,3,25,29,12,31,02,21,05,,,,,,2.0,1.1,1.6*32
$GPRMC,141053.000,A,3720.2373,S,07001.7574,W,0.25,42.45,110511,,,A*52
$GPGGA,141054.000,3720.2374,S,07001.7572,W,1,07,1.1,1569.4,M,24.6,M,,0000*6B
$GPGSA,M,3,25,29,12,31,02,21,05,,,,,,2.0,1.1,1.6*32
$GPRMC,141054.000,A,3720.2374,S,07001.7572,W,0.28,159.01,110511,,,A*62
$GPGGA,141055.000,3720.2372,S,07001.7572,W,1,07,1.1,1569.3,M,24.6,M,,0000*6B
$GPGSA,M,3,25,29,12,31,02,21,05,,,,,,2.0,1.1,1.6*32
$GPRMC,141055.000,A,3720.2372,S,07001.7572,W,0.51,174.30,110511,,,A*66
$GPGGA,141056.000,3720.2373,S,07001.7570,W,1,07,1.1,1569.3,M,24.6,M,,0000*6B
$GPGSA,M,3,25,29,12,31,02,21,05,,,,,,2.0,1.1,1.6*32
$GPRMC,141056.000,A,3720.2373,S,07001.7570,W,0.51,162.16,110511,,,A*65
$GPGGA,141056.998,3720.2373,S,07001.7569,W,1,07,1.1,1568.9,M,24.6,M,,0000*60
$GPGSA,M,3,25,29,12,31,02,21,05,,,,,,2.0,1.1,1.6*32
$GPGSV,3,1,10,25,74,144,40,29,72,224,38,12,42,081,38,31,36,231,38*71
$GPGSV,3,2,10,02,22,134,37,21,22,344,36,05,11,088,37,14,09,299,21*70
$GPGSV,3,3,10,09,09,016,38,30,03,238,*7D
$GPRMC,141056.998,A,3720.2373,S,07001.7569,W,0.26,126.19,110511,,,A*6A
$GPGGA,141058.001,3720.2371,S,07001.7570,W,1,07,1.1,1569.1,M,24.6,M,,0000*64
$GPGSA,M,3,25,29,12,31,02,21,05,,,,,,2.0,1.1,1.6*32
$GPRMC,141058.001,A,3720.2371,S,07001.7570,W,0.12,272.15,110511,,,A*6E
$GPGGA,141059.002,3720.2370,S,07001.7568,W,1,07,1.1,1569.2,M,24.6,M,,0000*6D
$GPGSA,M,3,25,29,12,31,02,21,05,,,,,,2.0,1.1,1.6*32
$GPRMC,141059.002,A,3720.2370,S,07001.7568,W,0.09,61.65,110511,,,A*59
$GPGGA,141100.001,3720.2370,S,07001.7568,W,1,07,1.1,1568.9,M,24.6,M,,0000*69
$GPGSA,M,3,25,29,12,31,02,21,05,,,,,,2.0,1.1,1.6*32
$GPRMC,141100.001,A,3720.2370,S,07001.7568,W,0.23,185.88,110511,,,A*67
$GPGGA,141101.000,3720.2368,S,07001.7567,W,1,07,1.1,1569.0,M,24.6,M,,0000*67
$GPGSA,M,3,25,29,12,31,02,21,05,,,,,,2.0,1.1,1.6*32
$GPRMC,141101.000,A,3720.2368,S,07001.7567,W,0.46,164.29,110511,,,A*66
$GPGGA,141102.000,3720.2368,S,07001.7568,W,1,07,1.1,1568.7,M,24.6,M,,0000*6D
$GPGSA,M,3,25,29,12,31,02,21,05,,,,,,2.0,1.1,1.6*32
$GPGSV,3,1,10,25,74,142,41,29,72,222,39,12,41,081,39,31,37,232,39*70
$GPGSV,3,2,10,21,22,344,37,02,21,134,37,05,12,089,38,09,08,016,38*7F
$GPGSV,3,3,10,14,09,300,,30,03,238,*7E
$GPRMC,141102.000,A,3720.2368,S,07001.7568,W,0.19,177.09,110511,,,A*60
$GPGGA,141103.000,3720.2368,S,07001.7569,W,1,07,1.1,1568.4,M,24.6,M,,0000*6E
$GPGSA,M,3,25,29,12,31,02,21,05,,,,,,2.0,1.1,1.6*32
$GPRMC,141103.000,A,3720.2368,S,07001.7569,W,0.25,154.43,110511,,,A*60
$GPGGA,141104.000,3720.2370,S,07001.7574,W,1,07,1.1,1568.6,M,24.6,M,,0000*6E
$GPGSA,M,3,25,29,12,31,02,21,05,,,,,,2.0,1.1,1.6*32
$GPRMC,141104.000,A,3720.2370,S,07001.7574,W,0.08,47.43,110511,,,A*5E
$GPGGA,141105.000,3720.2372,S,07001.7575,W,1,07,1.1,1568.9,M,24.6,M,,0000*63
$GPGSA,M,3,25,29,12,31,02,21,05,,,,,,2.0,1.1,1.6*32
$GPRMC,141105.000,A,3720.2372,S,07001.7575,W,0.09,150.60,110511,,,A*6B
$GPGGA,141106.000,3720.2372,S,07001.7576,W,1,07,1.1,1569.4,M,24.6,M,,0000*6F
$GPGSA,M,3,25,29,12,31,02,21,05,,,,,,2.0,1.1,1.6*32
$GPRMC,141106.000,A,3720.2372,S,07001.7576,W,0.11,150.66,110511,,,A*64
$GPGGA,141107.000,3720.2373,S,07001.7579,W,1,07,1.1,1569.7,M,24.6,M,,0000*63
$GPGSA,M,3,25,29,12,31,02,21,05,,,,,,2.0,1.1,1.6*32
$GPGSV,3,1,10,25,74,142,49,29,72,222,44,12,41,081,43,31,37,232,44*75
$GPGSV,3,2,10,21,22,344,38,02,21,134,40,05,12,089,40,09,08,016,42*72
$GPGSV,3,3,10,14,09,300,,30,03,238,*7E
$GPRMC,141107.000,A,3720.2373,S,07001.7579,W,0.09,150.42,110511,,,A*64
$GPGGA,141108.000,3720.2374,S,07001.7581,W,1,07,1.1,1569.8,M,24.6,M,,0000*63
$GPGSA,M,3,25,29,12,31,02,21,05,,,,,,2.0,1.1,1.6*32
$GPRMC,141108.000,A,3720.2374,S,07001.7581,W,0.11,150.26,110511,,,A*60
$GPGGA,141109.000,3720.2375,S,07001.7583,W,1,07,1.1,1569.6,M,24.6,M,,0000*6F
$GPGSA,M,3,25,29,12,31,02,21,05,,,,,,2.0,1.1,1.6*32
$GPRMC,141109.000,A,3720.2375,S,07001.7583,W,0.10,153.54,110511,,,A*65
$GPGGA,141109.000,3720.2376,S,07001.7584,W,1,07,1.1,1569.8,M,24.6,M,,0000*65
$GPGSA,M,3,25,29,12,31,02,21,05,,,,,,2.0,1.1,1.6*32
$GPRMC,141109.000,A,3720.2376,S,07001.7584,W,0.10,148.19,110511,,,A*62
$GPGGA,141110.000,3720.2375,S,07001.7585,W,1,07,1.1,1570.2,M,24.6,M,,0000*6D
$GPGSA,M,3,25,29,12,31,02,21,05,,,,,,2.0,1.1,1.6*32
$GPRMC,141110.000,A,3720.2375,S,07001.7585,W,0.09,157.74,110511,,,A*65
$GPGGA,141111.000,3720.2375,S,07001.7584,W,1,07,1.1,1570.3,M,24.6,M,,0000*6C
$GPGSA,M,3,25,29,12,31,21,02,05,,,,,,2.0,1.1,1.6*32
$GPGSV,3,1,10,25,74,142,40,29,72,222,39,12,41,081,38,31,37,232,39*70
$GPGSV,3,2,10,21,22,344,35,02,21,134,36,05,12,089,37,14,09,300,*71
$GPGSV,3,3,10,09,08,016,37,30,03,238,*73
$GPRMC,141111.000,A,3720.2375,S,07001.7584,W,0.08,349.98,110511,,,A*6B
$GPGGA,141112.000,3720.2375,S,07001.7584,W,1,07,1.1,1569.9,M,24.6,M,,0000*6D
$GPGSA,M,3,25,29,12,31,21,02,05,,,,,,2.0,1.1,1.6*32
$GPRMC,141112.000,A,3720.2375,S,07001.7584,W,0.34,128.27,110511,,,A*66
$GPGGA,141113.000,3720.2374,S,07001.7582,W,1,07,1.1,1570.0,M,24.6,M,,0000*6A
$GPGSA,M,3,25,29,12,31,21,02,05,,,,,,2.0,1.1,1.6*32
$GPRMC,141113.000,A,3720.2374,S,07001.7582,W,0.31,73.56,110511,,,A*5C
$GPGGA,141113.996,3720.2374,S,07001.7581,W,1,07,1.1,1570.0,M,24.6,M,,0000*6F
$GPGSA,M,3,25,29,12,31,21,02,05,,,,,,2.0,1.1,1.6*32
$GPRMC,141113.996,A,3720.2374,S,07001.7581,W,0.20,250.36,110511,,,A*6C
$GPGGA,141115.000,3720.2374,S,07001.7581,W,1,07,1.1,1570.1,M,24.6,M,,0000*6E
$GPGSA,M,3,25,29,12,31,21,02,05,,,,,,2.0,1.1,1.6*32
$GPRMC,141115.000,A,3720.2374,S,07001.7581,W,0.15,300.28,110511,,,A*61
$GPGGA,141116.000,3720.2374,S,07001.7582,W,1,07,1.1,1570.0,M,24.6,M,,0000*6F
$GPGSA,M,3,25,29,12,31,21,02,05,,,,,,2.0,1.1,1.6*32
$GPGSV,3,1,10,25,74,142,41,29,72,222,39,12,41,081,40,31,37,232,40*70
$GPGSV,3,2,10,21,22,344,33,02,21,134,37,05,12,089,39,14,09,300,*78
$GPGSV,3,3,10,09,08,016,38,30,03,238,*7C
$GPRMC,141116.000,A,3720.2374,S,07001.7582,W,0.65,333.19,110511,,,A*64
$GPGGA,141117.000,3720.2374,S,07001.7582,W,1,07,1.1,1569.9,M,24.6,M,,0000*6F
$GPGSA,M,3,25,29,12,31,21,02,05,,,,,,2.0,1.1,1.6*32
$GPRMC,141117.000,A,3720.2374,S,07001.7582,W,0.23,192.43,110511,,,A*61
$GPGGA,141118.003,3720.2375,S,07001.7581,W,1,07,1.1,1569.9,M,24.6,M,,0000*61
$GPGSA,M,3,25,29,12,31,21,02,05,,,,,,2.0,1.1,1.6*32
$GPRMC,141118.003,A,3720.2375,S,07001.7581,W,0.36,155.37,110511,,,A*63
$GPGGA,141118.999,3720.2375,S,07001.7579,W,1,07,1.1,1570.3,M,24.6,M,,0000*6E
$GPGSA,M,3,25,29,12,31,21,02,05,,,,,,2.0,1.1,1.6*32
$GPRMC,141118.999,A,3720.2375,S,07001.7579,W,0.34,170.01,110511,,,A*6E
$GPGGA,141120.001,3720.2375,S,07001.7579,W,1,07,1.1,1570.1,M,24.6,M,,0000*6F
$GPGSA,M,3,25,29,12,31,21,02,05,,,,,,2.0,1.1,1.6*32
$GPRMC,141120.001,A,3720.2375,S,07001.7579,W,0.12,23.29,110511,,,A*54
$GPGGA,141121.001,3720.2375,S,07001.7578,W,1,07,1.1,1570.1,M,24.6,M,,0000*6F
$GPGSA,M,3,25,29,12,31,21,02,05,,,,,,2.0,1.1,1.6*32
$GPGSV,3,1,10,25,74,142,42,29,72,222,39,12,41,081,38,31,37,232,39*72
$GPGSV,3,2,10,21,22,344,31,02,21,134,38,05,12,089,38,14,09,300,*74
$GPGSV,3,3,10,09,08,016,38,30,03,238,*7C
$GPRMC,141121.001,A,3720.2375,S,07001.7578,W,0.20,136.55,110511,,,A*6B
$GPGGA,141121.999,3720.2374,S,07001.7578,W,1,06,1.3,1570.2,M,24.6,M,,0000*66
$GPGSA,M,3,25,29,12,31,21,05,,,,,,,2.2,1.3,1.8*3E
$GPRMC,141121.999,A,3720.2374,S,07001.7578,W,0.97,346.13,110511,,,A*69
$GPGGA,141122.999,3720.2372,S,07001.7577,W,1,06,2.2,1570.0,M,24.6,M,,0000*6C
$GPGSA,M,3,25,29,12,31,02,05,,,,,,,3.0,2.2,2.0*35
$GPRMC,141122.999,A,3720.2372,S,07001.7577,W,0.25,15.08,110511,,,A*55
$GPGGA,141124.002,3720.2370,S,07001.7576,W,1,06,2.2,1570.3,M,24.6,M,,0000*61
$GPGSA,M,3,25,29,12,31,02,05,,,,,,,3.0,2.2,2.0*35
$GPRMC,141124.002,A,3720.2370,S,07001.7576,W,0.75,347.81,110511,,,A*6B
$GPGGA,141125.002,3720.2366,S,07001.7576,W,1,07,1.1,1570.5,M,24.6,M,,0000*60
$GPGSA,M,3,25,29,12,31,21,02,05,,,,,,2.0,1.1,1.6*32
$GPRMC,141125.002,A,3720.2366,S,07001.7576,W,1.29,343.24,110511,,,A*6E
$GPGGA,141125.997,3720.2364,S,07001.7577,W,1,06,2.2,1570.4,M,24.6,M,,0000*66
$GPGSA,M,3,25,29,12,31,02,05,,,,,,,3.0,2.2,2.0*35
$GPGSV,3,1,10,25,74,142,41,29,72,222,39,12,41,081,39,31,37,232,40*7E
$GPGSV,3,2,10,21,22,344,,02,21,134,37,05,12,089,37,14,09,300,*76
$GPGSV,3,3,10,09,08,016,37,30,03,238,*73
$GPRMC,141125.997,A,3720.2364,S,07001.7577,W,0.41,332.26,110511,,,A*63
$GPGGA,141127.001,3720.2364,S,07001.7578,W,1,06,2.2,1570.4,M,24.6,M,,0000*6D
$GPGSA,M,3,25,29,12,31,02,05,,,,,,,3.0,2.2,2.0*35
$GPRMC,141127.001,A,3720.2364,S,07001.7578,W,0.41,286.55,110511,,,A*62
$GPGGA,141128.000,3720.2364,S,07001.7578,W,1,06,2.2,1570.4,M,24.6,M,,0000*63
$GPGSA,M,3,25,29,12,31,02,05,,,,,,,3.0,2.2,2.0*35
$GPRMC,141128.000,A,3720.2364,S,07001.7578,W,0.38,177.18,110511,,,A*66
$GPGGA,141129.001,3720.2365,S,07001.7578,W,1,06,2.2,1570.0,M,24.6,M,,0000*66
$GPGSA,M,3,25,29,12,31,02,05,,,,,,,3.0,2.2,2.0*35
$GPRMC,141129.001,A,3720.2365,S,07001.7578,W,0.40,268.32,110511,,,A*6D
$GPGGA,141130.002,3720.2365,S,07001.7579,W,1,07,1.1,1570.2,M,24.6,M,,0000*6F
$GPGSA,M,3,25,29,12,31,21,02,05,,,,,,2.0,1.1,1.6*32
$GPRMC,141130.002,A,3720.2365,S,07001.7579,W,0.24,143.82,110511,,,A*64
$GPGGA,141131.001,3720.2366,S,07001.7577,W,1,06,2.2,1569.9,M,24.6,M,,0000*62
$GPGSA,M,3,25,29,12,31,02,05,,,,,,,3.0,2.2,2.0*35
$GPGSV,3,1,10,25,74,142,42,29,72,222,40,12,41,081,40,31,37,232,40*7D
$GPGSV,3,2,10,21,22,344,,02,21,134,38,05,12,089,38,14,09,300,*76
$GPGSV,3,3,10,09,08,016,38,30,03,238,*7C
$GPRMC,141131.001,A,3720.2366,S,07001.7577,W,0.50,154.32,110511,,,A*65
$GPGGA,141132.001,3720.2367,S,07001.7576,W,1,07,1.1,1569.8,M,24.6,M,,0000*61
$GPGSA,M,3,25,29,12,31,21,02,05,,,,,,2.0,1.1,1.6*32
$GPRMC,141132.001,A,3720.2367,S,07001.7576,W,0.28,115.50,110511,,,A*68
$GPGGA,141133.001,3720.2367,S,07001.7574,W,1,07,1.1,1569.5,M,24.6,M,,0000*6F
$GPGSA,M,3,25,29,12,31,21,02,05,,,,,,2.0,1.1,1.6*32
$GPRMC,141133.001,A,3720.2367,S,07001.7574,W,0.45,93.38,110511,,,A*51
$GPGGA,141134.001,3720.2367,S,07001.7573,W,1,07,1.1,1569.3,M,24.6,M,,0000*69
$GPGSA,M,3,25,29,12,31,21,02,05,,,,,,2.0,1.1,1.6*32
$GPRMC,141134.001,A,3720.2367,S,07001.7573,W,0.08,343.11,110511,,,A*6D
$GPGGA,141135.002,3720.2368,S,07001.7572,W,1,07,1.1,1569.6,M,24.6,M,,0000*60
$GPGSA,M,3,25,29,12,31,21,02,05,,,,,,2.0,1.1,1.6*32
$GPRMC,141135.002,A,3720.2368,S,07001.7572,W,0.37,107.42,110511,,,A*69
$GPGGA,141135.999,3720.2369,S,07001.7570,W,1,07,1.1,1569.4,M,24.6,M,,0000*6A
$GPGSA,M,3,25,29,12,31,21,02,05,,,,,,2.0,1.1,1.6*32
$GPGSV,3,1,10,25,74,142,41,29,72,222,39,12,41,081,40,31,37,232,40*70
$GPGSV,3,2,10,21,22,344,31,02,21,134,38,05,12,089,37,14,09,300,*7B
$GPGSV,3,3,10,09,08,016,38,30,03,238,*7C
$GPRMC,141135.999,A,3720.2369,S,07001.7570,W,0.50,153.36,110511,,,A*62
$GPGGA,141137.000,3720.2368,S,07001.7570,W,1,07,1.1,1569.5,M,24.6,M,,0000*61
$GPGSA,M,3,25,29,12,31,21,02,05,,,,,,2.0,1.1,1.6*32
$GPRMC,141137.000,A,3720.2368,S,07001.7570,W,0.19,286.19,110511,,,A*63
$GPGGA,141138.002,3720.2369,S,07001.7569,W,1,07,1.1,1569.3,M,24.6,M,,0000*63
$GPGSA,M,3,25,29,12,31,21,02,05,,,,,,2.0,1.1,1.6*32
$GPRMC,141138.002,A,3720.2369,S,07001.7569,W,0.15,101.18,110511,,,A*66
$GPGGA,141139.003,3720.2371,S,07001.7566,W,1,07,1.1,1569.4,M,24.6,M,,0000*62
$GPGSA,M,3,25,29,12,31,21,02,05,,,,,,2.0,1.1,1.6*32
$GPRMC,141139.003,A,3720.2371,S,07001.7566,W,0.27,138.94,110511,,,A*6F
$GPGGA,141139.996,3720.2372,S,07001.7566,W,1,07,1.1,1569.1,M,24.6,M,,0000*61
$GPGSA,M,3,25,29,12,31,21,02,05,,,,,,2.0,1.1,1.6*32
$GPRMC,141139.996,A,3720.2372,S,07001.7566,W,0.32,145.86,110511,,,A*64
$GPGGA,141141.000,3720.2373,S,07001.7565,W,1,07,1.1,1569.3,M,24.6,M,,0000*68
$GPGSA,M,3,25,29,12,31,21,02,05,,,,,,2.0,1.1,1.6*32
$GPGSV,3,1,10,25,74,142,42,29,72,222,39,12,41,081,39,31,37,232,39*73
$GPGSV,3,2,10,21,22,344,36,02,21,134,37,05,12,089,36,14,09,300,*72
$GPGSV,3,3,10,09,08,016,37,30,03,238,*73
$GPRMC,141141.000,A,3720.2373,S,07001.7565,W,0.54,326.50,110511,,,A*63
$GPGGA,141142.000,3720.2373,S,07001.7565,W,1,07,1.1,1569.3,M,24.6,M,,0000*6B
$GPGSA,M,3,25,29,12,31,21,02,05,,,,,,2.0,1.1,1.6*32
$GPRMC,141142.000,A,3720.2373,S,07001.7565,W,0.42,139.42,110511,,,A*68
$GPGGA,141143.000,3720.2374,S,07001.7563,W,1,07,1.1,1569.7,M,24.6,M,,0000*6F
$GPGSA,M,3,25,29,12,31,21,02,05,,,,,,2.0,1.1,1.6*32
$GPRMC,141143.000,A,3720.2374,S,07001.7563,W,0.02,304.06,110511,,,A*60
$GPGGA,141143.996,3720.2373,S,07001.7563,W,1,07,1.1,1569.2,M,24.6,M,,0000*6B
$GPGSA,M,3,25,29,12,31,21,02,05,,,,,,2.0,1.1,1.6*32
$GPRMC,141143.996,A,3720.2373,S,07001.7563,W,0.12,144.85,110511,,,A*6D
$GPGGA,141145.004,3720.2372,S,07001.7562,W,1,07,1.1,1569.0,M,24.6,M,,0000*6D
$GPGSA,M,3,25,29,12,31,21,02,05,,,,,,2.0,1.1,1.6*32
$GPRMC,141145.004,A,3720.2372,S,07001.7562,W,0.21,41.68,110511,,,A*5E
$GPGGA,141146.000,3720.2370,S,07001.7563,W,1,07,1.1,1568.9,M,24.6,M,,0000*61
$GPGSA,M,3,25,29,12,31,21,02,05,,,,,,2.0,1.1,1.6*32
$GPGSV,3,1,10,25,74,142,41,29,72,222,39,12,41,081,39,31,37,232,39*70
$GPGSV,3,2,10,21,22,344,37,02,21,134,38,05,12,089,37,14,09,300,*7D
$GPGSV,3,3,10,09,08,016,38,30,03,238,*7C
$GPRMC,141146.000,A,3720.2370,S,07001.7563,W,0.06,321.64,110511,,,A*66
$GPGGA,141147.000,3720.2369,S,07001.7563,W,1,07,1.1,1568.8,M,24.6,M,,0000*69
$GPGSA,M,3,25,29,12,31,21,02,05,,,,,,2.0,1.1,1.6*32
$GPRMC,141147.000,A,3720.2369,S,07001.7563,W,0.23,301.21,110511,,,A*6B
$GPGGA,141147.995,3720.2368,S,07001.7563,W,1,07,1.1,1568.6,M,24.6,M,,0000*63
$GPGSA,M,3,25,29,12,31,21,02,05,,,,,,2.0,1.1,1.6*32
$GPRMC,141147.995,A,3720.2368,S,07001.7563,W,0.15,7.13,110511,,,A*6E
$GPGGA,141148.999,3720.2368,S,07001.7563,W,1,07,1.1,1568.6,M,24.6,M,,0000*60
$GPGSA,M,3,25,29,12,31,21,02,05,,,,,,2.0,1.1,1.6*32
$GPRMC,141148.999,A,3720.2368,S,07001.7563,W,0.43,179.87,110511,,,A*6B
$GPGGA,141150.001,3720.2368,S,07001.7562,W,1,07,1.1,1568.8,M,24.6,M,,0000*6E
$GPGSA,M,3,25,29,12,31,21,02,05,,,,,,2.0,1.1,1.6*32
$GPRMC,141150.001,A,3720.2368,S,07001.7562,W,0.22,36.78,110511,,,A*56
$GPGGA,141151.002,3720.2368,S,07001.7561,W,1,07,1.1,1568.6,M,24.6,M,,0000*61
$GPGSA,M,3,25,29,12,31,21,02,05,,,,,,2.0,1.1,1.6*32
$GPGSV,3,1,10,25,74,142,41,29,72,222,41,12,41,081,41,31,37,232,39*70
$GPGSV,3,2,10,21,22,344,38,02,21,134,38,05,12,089,38,14,09,300,*7D
$GPGSV,3,3,10,09,08,016,39,30,03,238,*7D
$GPRMC,141151.002,A,3720.2368,S,07001.7561,W,0.41,352.25,110511,,,A*6B
$GPGGA,141151.999,3720.2367,S,07001.7561,W,1,07,1.1,1568.5,M,24.6,M,,0000*66
$GPGSA,M,3,25,29,12,31,21,02,05,,,,,,2.0,1.1,1.6*32
$GPRMC,141151.999,A,3720.2367,S,07001.7561,W,0.05,204.72,110511,,,A*6F
$GPGGA,141153.000,3720.2367,S,07001.7560,W,1,07,1.1,1568.4,M,24.6,M,,0000*6D
$GPGSA,M,3,25,29,12,31,21,02,05,,,,,,2.0,1.1,1.6*32
$GPRMC,141153.000,A,3720.2367,S,07001.7560,W,0.23,99.98,110511,,,A*53
$GPGGA,141154.003,3720.2367,S,07001.7559,W,1,07,1.1,1568.6,M,24.6,M,,0000*61
$GPGSA,M,3,25,29,12,31,21,02,05,,,,,,2.0,1.1,1.6*32
$GPRMC,141154.003,A,3720.2367,S,07001.7559,W,0.08,36.35,110511,,,A*56
$GPGGA,141155.000,3720.2367,S,07001.7559,W,1,07,1.1,1568.5,M,24.6,M,,0000*60
$GPGSA,M,3,25,29,12,31,21,02,05,,,,,,2.0,1.1,1.6*32
$GPRMC,141155.000,A,3720.2367,S,07001.7559,W,0.13,236.61,110511,,,A*6D
$GPGGA,141155.997,3720.2367,S,07001.7558,W,1,07,1.1,1568.9,M,24.6,M,,0000*6A
$GPGSA,M,3,25,29,12,31,21,02,05,,,,,,2.0,1.1,1.6*32
$GPGSV,3,1,10,25,74,142,41,29,72,222,38,12,41,081,38,31,37,232,39*70
$GPGSV,3,2,10,21,22,344,38,02,21,134,37,05,12,089,37,14,09,300,*7D
$GPGSV,3,3,10,09,08,016,37,30,03,238,*73
$GPRMC,141155.997,A,3720.2367,S,07001.7558,W,0.07,146.17,110511,,,A*6B
$GPGGA,141157.000,3720.2368,S,07001.7557,W,1,07,1.1,1569.2,M,24.6,M,,0000*65
$GPGSA,M,3,25,29,12,31,21,02,05,,,,,,2.0,1.1,1.6*32
$GPRMC,141157.000,A,3720.2368,S,07001.7557,W,0.22,136.41,110511,,,A*6D
$GPGGA,141158.004,3720.2368,S,07001.7557,W,1,07,1.1,1568.9,M,24.6,M,,0000*64
$GPGSA,M,3,25,29,12,31,21,02,05,,,,,,2.0,1.1,1.6*32
$GPRMC,141158.004,A,3720.2368,S,07001.7557,W,0.24,8.30,110511,,,A*6A
$GPGGA,141159.000,3720.2365,S,07001.7557,W,1,07,1.1,1569.2,M,24.6,M,,0000*66
$GPGSA,M,3,25,29,12,31,21,02,05,,,,,,2.0,1.1,1.6*32
$GPRMC,141159.000,A,3720.2365,S,07001.7557,W,0.24,108.42,110511,,,A*66
$GPGGA,141200.000,3720.2364,S,07001.7556,W,1,07,1.1,1569.3,M,24.6,M,,0000*68
$GPGSA,M,3,25,29,12,31,21,02,05,,,,,,2.0,1.1,1.6*32
$GPRMC,141200.000,A,3720.2364,S,07001.7556,W,0.29,289.60,110511,,,A*6E
$GPGGA,141201.000,3720.2364,S,07001.7556,W,1,07,1.1,1569.6,M,24.6,M,,0000*6C
$GPGSA,M,3,25,29,12,31,21,02,05,,,,,,2.0,1.1,1.6*32
$GPGSV,3,1,10,25,74,142,41,29,72,222,40,12,41,081,40,31,37,232,40*7E
$GPGSV,3,2,10,21,22,344,38,02,21,134,37,05,12,089,37,14,09,300,*7D
$GPGSV,3,3,10,09,08,016,38,30,03,238,*7C
$GPRMC,141201.000,A,3720.2364,S,07001.7556,W,0.11,213.68,110511,,,A*6F
$GPGGA,141202.000,3720.2362,S,07001.7556,W,1,07,1.1,1569.5,M,24.6,M,,0000*6A
$GPGSA,M,3,25,29,12,31,21,02,05,,,,,,2.0,1.1,1.6*32
$GPRMC,141202.000,A,3720.2362,S,07001.7556,W,0.05,110.51,110511,,,A*65
$GPGGA,141203.000,3720.2361,S,07001.7554,W,1,07,1.1,1569.5,M,24.6,M,,0000*6A
$GPGSA,M,3,25,29,12,31,21,02,05,,,,,,2.0,1.1,1.6*32
$GPRMC,141203.000,A,3720.2361,S,07001.7554,W,0.19,308.26,110511,,,A*63
$GPGGA,141204.000,3720.2360,S,07001.7555,W,1,07,1.1,1569.7,M,24.6,M,,0000*6F
$GPGSA,M,3,25,29,12,31,21,02,05,,,,,,2.0,1.1,1.6*32
$GPRMC,141204.000,A,3720.2360,S,07001.7555,W,0.50,33.96,110511,,,A*59
$GPGGA,141205.000,3720.2360,S,07001.7555,W,1,07,1.1,1569.4,M,24.6,M,,0000*6D
$GPGSA,M,3,25,29,12,31,21,02,05,,,,,,2.0,1.1,1.6*32
$GPRMC,141205.000,A,3720.2360,S,07001.7555,W,0.13,132.44,110511,,,A*60
$GPGGA,141205.998,3720.2360,S,07001.7554,W,1,07,1.1,1569.6,M,24.6,M,,0000*66
$GPGSA,M,3,25,29,12,31,21,02,05,,,,,,2.0,1.1,1.6*32
$GPGSV,3,1,10,25,74,142,41,29,72,222,40,12,41,081,39,31,37,232,40*70
$GPGSV,3,2,10,21,22,344,38,02,21,134,37,05,12,089,36,14,09,300,*7C
$GPGSV,3,3,10,09,08,016,39,30,03,238,*7D
$GPRMC,141205.998,A,3720.2360,S,07001.7554,W,0.12,54.02,110511,,,A*5B
$GPGGA,141207.000,3720.2361,S,07001.7554,W,1,07,1.1,1569.5,M,24.6,M,,0000*6E
$GPGSA,M,3,25,29,12,31,21,02,05,,,,,,2.0,1.1,1.6*32
$GPRMC,141207.000,A,3720.2361,S,07001.7554,W,0.19,250.55,110511,,,A*6F
$GPGGA,141208.003,3720.2361,S,07001.7554,W,1,07,1.1,1569.5,M,24.6,M,,0000*62
$GPGSA,M,3,25,29,12,31,21,02,05,,,,,,2.0,1.1,1.6*32
$GPRMC,141208.003,A,3720.2361,S,07001.7554,W,0.21,311.53,110511,,,A*6A
$GPGGA,141208.998,3720.2360,S,07001.7554,W,1,07,1.1,1569.9,M,24.6,M,,0000*64
$GPGSA,M,3,25,29,12,31,21,02,05,,,,,,2.0,1.1,1.6*32
$GPRMC,141208.998,A,3720.2360,S,07001.7554,W,0.17,57.59,110511,,,A*5E
$GPGGA,141210.000,3720.2358,S,07001.7555,W,1,07,1.1,1569.4,M,24.6,M,,0000*62
$GPGSA,M,3,25,29,12,31,21,02,05,,,,,,2.0,1.1,1.6*32
$GPRMC,141210.000,A,3720.2358,S,07001.7555,W,0.18,170.44,110511,,,A*62
$GPGGA,141211.000,3720.2357,S,07001.7553,W,1,07,1.1,1569.4,M,24.6,M,,0000*6A
$GPGSA,M,3,25,29,12,31,21,02,05,,,,,,2.0,1.1,1.6*32
$GPGSV,3,1,10,25,74,142,41,29,72,222,38,12,41,081,37,31,37,232,39*7F
$GPGSV,3,2,10,21,22,344,37,02,21,134,37,05,12,089,37,14,09,300,*72
$GPGSV,3,3,10,09,08,016,38,30,03,238,*7C
$GPRMC,141211.000,A,3720.2357,S,07001.7553,W,0.27,100.27,110511,,,A*64
$GPGGA,141212.000,3720.2358,S,07001.7553,W,1,07,1.1,1569.5,M,24.6,M,,0000*67
$GPGSA,M,3,25,29,12,31,21,02,05,,,,,,2.0,1.1,1.6*32
$GPRMC,141212.000,A,3720.2358,S,07001.7553,W,0.23,146.87,110511,,,A*64
$GPGGA,141212.998,3720.2359,S,07001.7552,W,1,07,1.1,1569.7,M,24.6,M,,0000*6D
$GPGSA,M,3,25,29,12,31,21,02,05,,,,,,2.0,1.1,1.6*32
$GPRMC,141212.998,A,3720.2359,S,07001.7552,W,0.27,265.89,110511,,,A*64
$GPGGA,141214.002,3720.2358,S,07001.7552,W,1,07,1.1,1569.2,M,24.6,M,,0000*65
$GPGSA,M,3,25,29,12,31,21,02,05,,,,,,2.0,1.1,1.6*32
$GPRMC,141214.002,A,3720.2358,S,07001.7552,W,0.13,161.98,110511,,,A*69
$GPGGA,141215.001,3720.2359,S,07001.7552,W,1,07,1.1,1569.3,M,24.6,M,,0000*67
$GPGSA,M,3,25,29,12,31,21,02,05,,,,,,2.0,1.1,1.6*32
$GPRMC,141215.001,A,3720.2359,S,07001.7552,W,0.17,310.61,110511,,,A*6C
$GPGGA,141216.001,3720.2357,S,07001.7552,W,1,07,1.1,1568.9,M,24.6,M,,0000*61
$GPGSA,M,3,25,29,12,31,21,02,05,,,,,,2.0,1.1,1.6*32
$GPGSV,3,1,10,25,74,142,41,29,72,222,39,12,41,081,39,31,37,232,41*7F
$GPGSV,3,2,10,21,22,344,37,02,21,134,37,05,12,089,37,14,09,300,*72
$GPGSV,3,3,10,09,08,016,39,30,03,238,*7D
$GPRMC,141216.001,A,3720.2357,S,07001.7552,W,0.39,339.07,110511,,,A*66
$GPGGA,141217.001,3720.2356,S,07001.7553,W,1,07,1.1,1569.0,M,24.6,M,,0000*68
$GPGSA,M,3,25,29,12,31,21,02,05,,,,,,2.0,1.1,1.6*32
$GPRMC,141217.001,A,3720.2356,S,07001.7553,W,0.91,342.45,110511,,,A*6F
$GPGGA,141218.001,3720.2355,S,07001.7553,W,1,07,1.1,1569.0,M,24.6,M,,0000*64
$GPGSA,M,3,25,29,12,31,21,02,05,,,,,,2.0,1.1,1.6*32
$GPRMC,141218.001,A,3720.2355,S,07001.7553,W,0.16,161.99,110511,,,A*6E
$GPGGA,141219.001,3720.2356,S,07001.7552,W,1,07,1.1,1569.1,M,24.6,M,,0000*66
$GPGSA,M,3,25,29,12,31,21,02,05,,,,,,2.0,1.1,1.6*32
$GPRMC,141219.001,A,3720.2356,S,07001.7552,W,0.15,14.64,110511,,,A*5F
$GPGGA,141220.001,3720.2357,S,07001.7551,W,1,07,1.1,1569.3,M,24.6,M,,0000*6C
$GPGSA,M,3,25,29,12,31,21,02,05,,,,,,2.0,1.1,1.6*32
$GPRMC,141220.001,A,3720.2357,S,07001.7551,W,0.33,50.59,110511,,,A*5D
$GPGGA,141220.996,3720.2357,S,07001.7550,W,1,07,1.1,1569.1,M,24.6,M,,0000*68
$GPGSA,M,3,25,29,12,31,21,02,05,,,,,,2.0,1.1,1.6*32
$GPGSV,3,1,10,25,74,142,42,29,72,222,39,12,41,081,39,31,37,232,40*7D
$GPGSV,3,2,10,21,22,344,35,02,21,134,38,05,12,089,38,14,09,300,*70
$GPGSV,3,3,10,09,08,016,40,30,03,238,*73
$GPRMC,141220.996,A,3720.2357,S,07001.7550,W,0.22,160.31,110511,,,A*67
$GPGGA,141222.003,3720.2357,S,07001.7550,W,1,07,1.1,1569.2,M,24.6,M,,0000*6C
$GPGSA,M,3,25,29,12,31,21,02,05,,,,,,2.0,1.1,1.6*32
$GPRMC,141222.003,A,3720.2357,S,07001.7550,W,0.26,200.42,110511,,,A*65
$GPGGA,141222.996,3720.2359,S,07001.7550,W,1,07,1.1,1568.9,M,24.6,M,,0000*6D
$GPGSA,M,3,25,29,12,31,21,02,05,,,,,,2.0,1.1,1.6*32
$GPRMC,141222.996,A,3720.2359,S,07001.7550,W,0.50,136.27,110511,,,A*6A
$GPGGA,141224.001,3720.2360,S,07001.7549,W,1,07,1.1,1568.9,M,24.6,M,,0000*6E
$GPGSA,M,3,25,29,12,31,21,02,05,,,,,,2.0,1.1,1.6*32
$GPRMC,141224.001,A,3720.2360,S,07001.7549,W,0.05,37.64,110511,,,A*5E
$GPGGA,141225.001,3720.2360,S,07001.7548,W,1,07,1.1,1568.7,M,24.6,M,,0000*60
$GPGSA,M,3,25,29,12,31,21,02,05,,,,,,2.0,1.1,1.6*32
$GPRMC,141225.001,A,3720.2360,S,07001.7548,W,0.08,320.95,110511,,,A*68
$GPGGA,141226.001,3720.2360,S,07001.7548,W,1,07,1.1,1568.6,M,24.6,M,,0000*62
$GPGSA,M,3,25,29,12,31,21,02,05,,,,,,2.0,1.1,1.6*32
$GPGSV,3,1,10,25,74,142,41,29,72,222,39,12,41,081,38,31,37,232,39*71
$GPGSV,3,2,10,21,22,344,31,02,21,134,37,05,12,089,38,14,09,300,*7B
$GPGSV,3,3,10,09,08,016,39,30,03,238,*7D
$GPRMC,141226.001,A,3720.2360,S,07001.7548,W,0.04,283.46,110511,,,A*61
$GPGGA,141227.001,3720.2360,S,07001.7548,W,1,07,1.1,1568.3,M,24.6,M,,0000*66
$GPGSA,M,3,25,29,12,31,21,02,05,,,,,,2.0,1.1,1.6*32
$GPRMC,141227.001,A,3720.2360,S,07001.7548,W,0.40,176.80,110511,,,A*63
$GPGGA,141228.001,3720.2361,S,07001.7547,W,1,07,1.1,1568.2,M,24.6,M,,0000*66
$GPGSA,M,3,25,29,12,31,21,02,05,,,,,,2.0,1.1,1.6*32
$GPRMC,141228.001,A,3720.2361,S,07001.7547,W,0.07,43.78,110511,,,A*51
$GPGGA,141229.001,3720.2361,S,07001.7546,W,1,07,1.1,1568.0,M,24.6,M,,0000*64
$GPGSA,M,3,25,29,12,31,21,02,05,,,,,,2.0,1.1,1.6*32
$GPRMC,141229.001,A,3720.2361,S,07001.7546,W,0.36,12.73,110511,,,A*5C
$GPGGA,141230.001,3720.2360,S,07001.7546,W,1,07,1.1,1567.8,M,24.6,M,,0000*6A
$GPGSA,M,3,25,29,12,31,21,02,05,,,,,,2.0,1.1,1.6*32
$GPRMC,141230.001,A,3720.2360,S,07001.7546,W,0.16,336.46,110511,,,A*64
$GPGGA,141231.003,3720.2359,S,07001.7546,W,1,07,1.1,1567.9,M,24.6,M,,0000*62
$GPGSA,M,3,25,29,12,31,21,02,05,,,,,,2.0,1.1,1.6*32
$GPGSV,3,1,10,25,74,142,41,29,72,222,40,12,41,081,39,31,37,232,39*7E
$GPGSV,3,2,10,21,22,344,27,02,21,134,38,05,12,089,38,14,09,300,*73
$GPGSV,3,3,10,09,08,016,40,30,03,238,*73
$GPRMC,141231.003,A,3720.2359,S,07001.7546,W,0.46,357.17,110511,,,A*6B
$GPGGA,141232.001,3720.2357,S,07001.7547,W,1,06,2.2,1567.8,M,24.6,M,,0000*6C
$GPGSA,M,3,25,29,12,31,02,05,,,,,,,3.0,2.2,2.0*35
$GPRMC,141232.001,A,3720.2357,S,07001.7547,W,0.35,349.97,110511,,,A*66
$GPGGA,141233.001,3720.2356,S,07001.7547,W,1,06,2.2,1567.4,M,24.6,M,,0000*60
$GPGSA,M,3,25,29,12,31,02,05,,,,,,,3.0,2.2,2.0*35
$GPRMC,141233.001,A,3720.2356,S,07001.7547,W,0.24,49.19,110511,,,A*53
$GPGGA,141234.001,3720.2356,S,07001.7545,W,1,06,2.2,1567.7,M,24.6,M,,0000*66
$GPGSA,M,3,25,29,12,31,02,05,,,,,,,3.0,2.2,2.0*35
$GPRMC,141234.001,A,3720.2356,S,07001.7545,W,0.47,71.68,110511,,,A*5E
$GPGGA,141235.001,3720.2358,S,07001.7545,W,1,06,2.2,1567.6,M,24.6,M,,0000*68
$GPGSA,M,3,25,29,12,31,02,05,,,,,,,3.0,2.2,2.0*35
$GPRMC,141235.001,A,3720.2358,S,07001.7545,W,1.57,199.28,110511,,,A*62
$GPGGA,141236.001,3720.2359,S,07001.7545,W,1,06,2.2,1567.4,M,24.6,M,,0000*68
$GPGSA,M,3,25,29,12,31,02,05,,,,,,,3.0,2.2,2.0*35
$GPGSV,3,1,10,25,74,139,41,29,72,219,40,12,41,080,38,31,37,233,40*75
$GPGSV,3,2,10,21,23,343,,02,21,134,38,05,12,089,38,14,08,300,*71
$GPGSV,3,3,10,09,07,016,40,30,04,237,*74
$GPRMC,141236.001,A,3720.2359,S,07001.7545,W,0.55,167.29,110511,,,A*63
$GPGGA,141237.001,3720.2360,S,07001.7543,W,1,06,2.2,1567.6,M,24.6,M,,0000*67
$GPGSA,M,3,25,29,12,31,02,05,,,,,,,3.0,2.2,2.0*35
$GPRMC,141237.001,A,3720.2360,S,07001.7543,W,0.42,202.53,110511,,,A*65
$GPGGA,141238.002,3720.2362,S,07001.7543,W,1,07,1.1,1567.9,M,24.6,M,,0000*67
$GPGSA,M,3,25,29,12,31,21,02,05,,,,,,2.0,1.1,1.6*32
$GPRMC,141238.002,A,3720.2362,S,07001.7543,W,0.28,134.53,110511,,,A*61
$GPGGA,141238.995,3720.2361,S,07001.7542,W,1,07,1.1,1568.0,M,24.6,M,,0000*64
$GPGSA,M,3,25,29,12,31,21,02,05,,,,,,2.0,1.1,1.6*32
$GPRMC,141238.995,A,3720.2361,S,07001.7542,W,0.11,23.55,110511,,,A*5F
$GPGGA,141240.005,3720.2361,S,07001.7540,W,1,07,1.1,1568.2,M,24.6,M,,0000*6B
$GPGSA,M,3,25,29,12,31,21,02,05,,,,,,2.0,1.1,1.6*32
$GPRMC,141240.005,A,3720.2361,S,07001.7540,W,0.21,19.46,110511,,,A*5A
$GPGGA,141240.999,3720.2359,S,07001.7540,W,1,07,1.1,1568.1,M,24.6,M,,0000*6F
$GPGSA,M,3,25,29,12,31,21,02,05,,,,,,2.0,1.1,1.6*32
$GPGSV,3,1,10,25,74,139,41,29,72,219,39,12,41,080,39,31,37,233,39*74
$GPGSV,3,2,10,21,23,343,31,02,21,134,38,05,12,089,37,14,08,300,*7C
$GPGSV,3,3,10,09,07,016,39,30,04,237,*7A
$GPRMC,141240.999,A,3720.2359,S,07001.7540,W,0.24,32.36,110511,,,A*56
$GPGGA,141242.000,3720.2360,S,07001.7538,W,1,07,1.1,1567.8,M,24.6,M,,0000*67
$GPGSA,M,3,25,29,12,31,21,02,05,,,,,,2.0,1.1,1.6*32
$GPRMC,141242.000,A,3720.2360,S,07001.7538,W,0.48,140.84,110511,,,A*6F
$GPGGA,141243.000,3720.2361,S,07001.7538,W,1,07,1.1,1568.1,M,24.6,M,,0000*61
$GPGSA,M,3,25,29,12,31,21,02,05,,,,,,2.0,1.1,1.6*32
$GPRMC,141243.000,A,3720.2361,S,07001.7538,W,0.21,191.15,110511,,,A*64
$GPGGA,141244.000,3720.2361,S,07001.7537,W,1,07,1.1,1568.1,M,24.6,M,,0000*69
$GPGSA,M,3,25,29,12,31,21,02,05,,,,,,2.0,1.1,1.6*32
$GPRMC,141244.000,A,3720.2361,S,07001.7537,W,0.21,74.08,110511,,,A*5A
$GPGGA,141245.000,3720.2361,S,07001.7537,W,1,07,1.1,1567.9,M,24.6,M,,0000*6F
$GPGSA,M,3,25,29,12,31,21,02,05,,,,,,2.0,1.1,1.6*32
$GPRMC,141245.000,A,3720.2361,S,07001.7537,W,0.42,118.17,110511,,,A*6B
$GPGGA,141246.000,3720.2361,S,07001.7537,W,1,07,1.1,1568.3,M,24.6,M,,0000*69
$GPGSA,M,3,25,29,12,31,21,02,05,,,,,,2.0,1.1,1.6*32
$GPGSV,3,1,10,25,74,139,41,29,72,219,39,12,41,080,40,31,37,233,39*7A
$GPGSV,3,2,10,21,23,343,35,02,21,134,38,05,12,089,38,14,08,300,*77
$GPGSV,3,3,10,09,07,016,40,30,04,237,*74
$GPRMC,141246.000,A,3720.2361,S,07001.7537,W,0.49,129.15,110511,,,A*63
$GPGGA,141247.000,3720.2360,S,07001.7536,W,1,07,1.1,1568.7,M,24.6,M,,0000*6C
$GPGSA,M,3,25,29,12,31,21,02,05,,,,,,2.0,1.1,1.6*32
$GPRMC,141247.000,A,3720.2360,S,07001.7536,W,0.06,266.76,110511,,,A*64
$GPGGA,141248.002,3720.2365,S,07001.7534,W,1,07,1.1,1568.7,M,24.6,M,,0000*66
$GPGSA,M,3,25,29,12,31,21,02,05,,,,,,2.0,1.1,1.6*32
$GPRMC,141248.002,A,3720.2365,S,07001.7534,W,0.23,128.60,110511,,,A*67
$GPGGA,141248.998,3720.2367,S,07001.7533,W,1,07,1.1,1568.9,M,24.6,M,,0000*67
$GPGSA,M,3,25,29,12,31,21,02,05,,,,,,2.0,1.1,1.6*32
$GPRMC,141248.998,A,3720.2367,S,07001.7533,W,0.15,137.66,110511,,,A*65
$GPGGA,141249.999,3720.2368,S,07001.7532,W,1,07,1.1,1568.7,M,24.6,M,,0000*67
$GPGSA,M,3,25,29,12,31,21,02,05,,,,,,2.0,1.1,1.6*32
$GPRMC,141249.999,A,3720.2368,S,07001.7532,W,0.31,185.45,110511,,,A*65
$GPGGA,141251.001,3720.2369,S,07001.7531,W,1,07,1.1,1568.9,M,24.6,M,,0000*6A
$GPGSA,M,3,25,29,12,31,21,02,05,,,,,,2.0,1.1,1.6*32
$GPGSV,3,1,10,25,74,139,41,29,72,219,39,12,41,080,40,31,37,233,40*74
$GPGSV,3,2,10,21,23,343,37,02,21,134,37,05,12,089,38,14,08,300,*7A
$GPGSV,3,3,10,09,07,016,41,30,04,237,*75
$GPRMC,141251.001,A,3720.2369,S,07001.7531,W,0.29,99.85,110511,,,A*5F
$GPGGA,141252.002,3720.2369,S,07001.7531,W,1,07,1.1,1569.4,M,24.6,M,,0000*66
$GPGSA,M,3,25,29,12,31,21,02,05,,,,,,2.0,1.1,1.6*32
$GPRMC,141252.002,A,3720.2369,S,07001.7531,W,0.13,39.69,110511,,,A*5E
$GPGGA,141253.000,3720.2370,S,07001.7529,W,1,07,1.1,1569.8,M,24.6,M,,0000*68
$GPGSA,M,3,25,29,12,31,21,02,05,,,,,,2.0,1.1,1.6*32
$GPRMC,141253.000,A,3720.2370,S,07001.7529,W,0.35,82.36,110511,,,A*52
$GPGGA,141254.000,3720.2371,S,07001.7529,W,1,07,1.1,1569.7,M,24.6,M,,0000*61
$GPGSA,M,3,25,29,12,31,21,02,05,,,,,,2.0,1.1,1.6*32
$GPRMC,141254.000,A,3720.2371,S,07001.7529,W,0.37,314.02,110511,,,A*6D
$GPGGA,141254.996,3720.2369,S,07001.7529,W,1,07,1.1,1569.6,M,24.6,M,,0000*6F
$GPGSA,M,3,25,29,12,31,21,02,05,,,,,,2.0,1.1,1.6*32
$GPRMC,141254.996,A,3720.2369,S,07001.7529,W,0.21,88.11,110511,,,A*51
$GPGGA,141256.003,3720.2369,S,07001.7528,W,1,07,1.1,1569.5,M,24.6,M,,0000*6A
$GPGSA,M,3,25,29,12,31,21,02,05,,,,,,2.0,1.1,1.6*32
$GPGSV,3,1,10,25,74,139,41,29,72,219,38,12,41,080,38,31,37,233,39*74
$GPGSV,3,2,10,21,23,343,37,02,21,134,37,05,12,089,37,14,08,300,*75
$GPGSV,3,3,10,09,07,016,39,30,04,237,*7A
$GPRMC,141256.003,A,3720.2369,S,07001.7528,W,0.30,227.26,110511,,,A*64
$GPGGA,141256.997,3720.2370,S,07001.7528,W,1,07,1.1,1569.3,M,24.6,M,,0000*60
$GPGSA,M,3,25,29,12,31,21,02,05,,,,,,2.0,1.1,1.6*32
$GPRMC,141256.997,A,3720.2370,S,07001.7528,W,0.22,162.32,110511,,,A*6C
$GPGGA,141258.003,3720.2369,S,07001.7529,W,1,07,1.1,1569.0,M,24.6,M,,0000*60
$GPGSA,M,3,25,29,12,31,21,02,05,,,,,,2.0,1.1,1.6*32
$GPRMC,141258.003,A,3720.2369,S,07001.7529,W,0.21,221.91,110511,,,A*61
$GPGGA,141258.996,3720.2369,S,07001.7529,W,1,07,1.1,1568.8,M,24.6,M,,0000*6C
$GPGSA,M,3,25,29,12,31,21,02,05,,,,,,2.0,1.1,1.6*32
$GPRMC,141258.996,A,3720.2369,S,07001.7529,W,0.33,160.79,110511,,,A*67
$GPGGA,141300.000,3720.2369,S,07001.7527,W,1,07,1.1,1568.9,M,24.6,M,,0000*69
$GPGSA,M,3,25,29,12,31,21,02,05,,,,,,2.0,1.1,1.6*32
$GPRMC,141300.000,A,3720.2369,S,07001.7527,W,0.61,104.15,110511,,,A*6C
$GPGGA,141301.000,3720.2369,S,07001.7527,W,1,07,1.1,1568.7,M,24.6,M,,0000*66
$GPGSA,M,3,25,29,12,31,21,02,05,,,,,,2.0,1.1,1.6*32
$GPGSV,3,1,10,25,74,139,41,29,72,219,38,12,41,080,39,31,37,233,40*7B
$GPGSV,3,2,10,21,23,343,37,02,21,134,38,05,12,089,38,14,08,300,*75
$GPGSV,3,3,10,09,07,016,40,30,04,237,*74
$GPRMC,141301.000,A,3720.2369,S,07001.7527,W,0.30,207.75,110511,,,A*6F
$GPGGA,141302.000,3720.2368,S,07001.7528,W,1,07,1.1,1568.4,M,24.6,M,,0000*68
$GPGSA,M,3,25,29,12,31,21,02,05,,,,,,2.0,1.1,1.6*32
$GPRMC,141302.000,A,3720.2368,S,07001.7528,W,0.30,186.42,110511,,,A*6C
$GPGGA,141303.002,3720.2366,S,07001.7529,W,1,07,1.1,1568.2,M,24.6,M,,0000*62
$GPGSA,M,3,25,29,12,31,21,02,05,,,,,,2.0,1.1,1.6*32
$GPRMC,141303.002,A,3720.2366,S,07001.7529,W,0.21,172.55,110511,,,A*6D
$GPGGA,141303.997,3720.2366,S,07001.7529,W,1,07,1.1,1567.9,M,24.6,M,,0000*63
$GPGSA,M,3,25,29,12,31,21,02,05,,,,,,2.0,1.1,1.6*32
$GPRMC,141303.997,A,3720.2366,S,07001.7529,W,0.28,275.80,110511,,,A*6D
$GPGGA,141305.005,3720.2363,S,07001.7530,W,1,07,1.1,1567.8,M,24.6,M,,0000*6B
$GPGSA,M,3,25,29,12,31,21,02,05,,,,,,2.0,1.1,1.6*32
$GPRMC,141305.005,A,3720.2363,S,07001.7530,W,0.58,252.71,110511,,,A*68
$GPGGA,141306.002,3720.2361,S,07001.7531,W,1,07,1.1,1567.5,M,24.6,M,,0000*61
$GPGSA,M,3,25,29,12,31,21,02,05,,,,,,2.0,1.1,1.6*32
$GPGSV,3,1,10,25,74,139,41,29,72,219,39,12,41,080,39,31,37,233,41*7B
$GPGSV,3,2,10,21,23,343,37,02,21,134,38,05,12,089,37,14,08,300,*7A
$GPGSV,3,3,10,09,07,016,40,30,04,237,*74
$GPRMC,141306.002,A,3720.2361,S,07001.7531,W,0.18,99.33,110511,,,A*58
$GPGGA,141306.995,3720.2361,S,07001.7531,W,1,07,1.1,1567.5,M,24.6,M,,0000*66
$GPGSA,M,3,25,29,12,31,21,02,05,,,,,,2.0,1.1,1.6*32
$GPRMC,141306.995,A,3720.2361,S,07001.7531,W,0.17,92.01,110511,,,A*5A
$GPGGA,141308.000,3720.2360,S,07001.7530,W,1,07,1.1,1567.3,M,24.6,M,,0000*6B
$GPGSA,M,3,25,29,12,31,21,02,05,,,,,,2.0,1.1,1.6*32
$GPRMC,141308.000,A,3720.2360,S,07001.7530,W,0.12,60.43,110511,,,A*5F
$GPGGA,141309.000,3720.2359,S,07001.7530,W,1,07,1.1,1567.1,M,24.6,M,,0000*62
$GPGSA,M,3,25,29,12,31,21,02,05,,,,,,2.0,1.1,1.6*32
$GPRMC,141309.000,A,3720.2359,S,07001.7530,W,0.44,261.93,110511,,,A*69
$GPGGA,141310.000,3720.2359,S,07001.7530,W,1,07,1.1,1567.3,M,24.6,M,,0000*68
$GPGSA,M,3,25,29,12,31,21,02,05,,,,,,2.0,1.1,1.6*32
$GPRMC,141310.000,A,3720.2359,S,07001.7530,W,0.12,179.53,110511,,,A*64
$GPGGA,141311.000,3720.2359,S,07001.7531,W,1,07,1.1,1567.0,M,24.6,M,,0000*6B
$GPGSA,M,3,25,29,12,31,21,02,05,,,,,,2.0,1.1,1.6*32
$GPGSV,3,1,10,25,74,139,41,29,72,219,39,12,41,080,39,31,37,233,39*74
$GPGSV,3,2,10,21,23,343,37,02,21,134,37,05,12,089,37,14,08,300,*75
$GPGSV,3,3,10,09,07,016,39,30,04,237,*7A
$GPRMC,141311.000,A,3720.2359,S,07001.7531,W,0.24,230.60,110511,,,A*6F
$GPGGA,141312.000,3720.2358,S,07001.7532,W,1,07,1.1,1566.5,M,24.6,M,,0000*6E
$GPGSA,M,3,25,29,12,31,21,02,05,,,,,,2.0,1.1,1.6*32
$GPRMC,141312.000,A,3720.2358,S,07001.7532,W,0.20,349.91,110511,,,A*6B
$GPGGA,141313.000,3720.2357,S,07001.7531,W,1,07,1.1,1566.2,M,24.6,M,,0000*64
$GPGSA,M,3,25,29,12,31,21,02,05,,,,,,2.0,1.1,1.6*32
$GPRMC,141313.000,A,3720.2357,S,07001.7531,W,0.13,347.15,110511,,,A*64
$GPGGA,141314.001,3720.2357,S,07001.7530,W,1,07,1.1,1566.2,M,24.6,M,,0000*63
$GPGSA,M,3,25,29,12,31,21,02,05,,,,,,2.0,1.1,1.6*32
$GPRMC,141314.001,A,3720.2357,S,07001.7530,W,0.06,180.94,110511,,,A*67
$GPGGA,141314.999,3720.2359,S,07001.7531,W,1,07,1.1,1566.0,M,24.6,M,,0000*66
$GPGSA,M,3,25,29,12,31,21,02,05,,,,,,2.0,1.1,1.6*32
$GPRMC,141314.999,A,3720.2359,S,07001.7531,W,0.10,206.17,110511,,,A*61
$GPGGA,141316.003,3720.2362,S,07001.7530,W,1,07,1.1,1565.7,M,24.6,M,,0000*63
$GPGSA,M,3,25,29,12,31,21,02,05,,,,,,2.0,1.1,1.6*32
$GPGSV,3,1,10,25,74,139,42,29,72,219,40,12,41,080,40,31,37,233,41*78
$GPGSV,3,2,10,21,23,343,37,02,21,134,38,05,12,089,39,14,08,300,*74
