$GPGGA,191528.000,1704.3076,S,06941.8285,W,1,07,1.5,4205.1,M,34.3,M,,0000*6D
$GPGSA,M,3,22,30,16,18,06,03,31,,,,,,2.2,1.5,1.6*37
$GPRMC,191528.000,A,1704.3076,S,06941.8285,W,11.66,158.49,280411,,,A*55
$GPGGA,191529.000,1704.3102,S,06941.8277,W,1,07,1.5,4204.8,M,34.3,M,,0000*6B
$GPGSA,M,3,22,30,16,18,06,03,31,,,,,,2.2,1.5,1.6*37
$GPRMC,191529.000,A,1704.3102,S,06941.8277,W,11.02,156.89,280411,,,A*5B
$GPGGA,191529.998,1704.3134,S,06941.8270,W,1,08,1.1,4203.5,M,34.3,M,,0000*60
$GPGSA,M,3,22,30,16,18,06,03,21,31,,,,,1.7,1.1,1.3*33
$GPGSV,3,1,12,22,80,037,37,30,69,295,30,16,58,240,36,18,53,130,36*70
$GPGSV,3,2,12,06,38,202,29,03,27,213,32,21,21,138,25,14,16,025,*72
$GPGSV,3,3,12,31,11,342,28,29,10,073,,19,04,230,,25,00,028,*79
$GPRMC,191529.998,A,1704.3134,S,06941.8270,W,11.38,156.34,280411,,,A*5E
$GPGGA,191531.002,1704.3163,S,06941.8259,W,1,07,1.5,4204.1,M,34.3,M,,0000*62
$GPGSA,M,3,22,30,16,18,06,03,31,,,,,,2.2,1.5,1.6*37
$GPRMC,191531.002,A,1704.3163,S,06941.8259,W,10.85,153.94,280411,,,A*5C
$GPGGA,191531.998,1704.3193,S,06941.8251,W,1,06,3.5,4204.3,M,34.3,M,,0000*6E
$GPGSA,M,3,22,16,18,06,03,21,,,,,,,6.0,3.5,4.8*3A
$GPRMC,191531.998,A,1704.3193,S,06941.8251,W,10.82,157.27,280411,,,A*5A
$GPGGA,191533.002,1704.3222,S,06941.8243,W,1,06,3.9,4203.0,M,34.3,M,,0000*64
$GPGSA,M,3,22,30,16,18,06,03,,,,,,,8.5,3.9,7.6*30
$GPRMC,191533.002,A,1704.3222,S,06941.8243,W,11.24,164.76,280411,,,A*51
$GPGGA,191533.998,1704.3252,S,06941.8231,W,1,08,1.1,4202.5,M,34.3,M,,0000*6C
$GPGSA,M,3,22,30,16,18,06,03,21,31,,,,,1.7,1.1,1.3*33
$GPRMC,191533.998,A,1704.3252,S,06941.8231,W,11.61,155.76,280411,,,A*5A
$GPGGA,191535.002,1704.3282,S,06941.8218,W,1,07,1.5,4203.7,M,34.3,M,,0000*6E
$GPGSA,M,3,22,30,16,18,06,03,31,,,,,,2.2,1.5,1.6*37
$GPGSV,3,1,12,22,80,037,37,30,69,295,27,16,58,240,36,18,53,130,37*77
$GPGSV,3,2,12,06,38,202,28,03,27,213,34,21,21,138,,14,16,025,*72
$GPGSV,3,3,12,31,11,342,25,29,10,073,,19,04,230,,25,00,028,*74
$GPRMC,191535.002,A,1704.3282,S,06941.8218,W,11.71,155.70,280411,,,A*57
$GPGGA,191536.000,1704.3314,S,06941.8210,W,1,07,2.7,4203.1,M,34.3,M,,0000*6E
$GPGSA,M,3,22,30,16,18,06,03,21,,,,,,5.0,2.7,4.2*33
$GPRMC,191536.000,A,1704.3314,S,06941.8210,W,11.80,158.90,280411,,,A*5D
$GPGGA,191537.000,1704.3350,S,06941.8196,W,1,07,2.7,4201.3,M,34.3,M,,0000*62
$GPGSA,M,3,22,30,16,18,06,03,21,,,,,,5.0,2.7,4.2*33
$GPRMC,191537.000,A,1704.3350,S,06941.8196,W,11.84,163.09,280411,,,A*5D
$GPGGA,191537.998,1704.3379,S,06941.8189,W,1,06,3.9,4201.3,M,34.3,M,,0000*61
$GPGSA,M,3,22,30,16,18,06,03,,,,,,,8.6,3.9,7.6*33
$GPRMC,191537.998,A,1704.3379,S,06941.8189,W,11.41,163.62,280411,,,A*54
$GPGGA,191539.002,1704.3407,S,06941.8182,W,1,05,1.9,4201.3,M,34.3,M,,0000*61
$GPGSA,M,3,22,30,16,18,06,,,,,,,,2.2,1.9,1.0*3C
$GPRMC,191539.002,A,1704.3407,S,06941.8182,W,11.97,161.31,280411,,,A*5A
$GPGGA,191539.998,1704.3440,S,06941.8172,W,1,06,2.8,4201.1,M,34.3,M,,0000*64
$GPGSA,M,3,22,30,16,18,06,21,,,,,,,5.5,2.8,4.6*3E
$GPGSV,3,1,12,22,80,037,35,30,69,295,33,16,58,240,36,18,53,130,34*73
$GPGSV,3,2,12,06,38,202,27,03,27,213,,21,21,138,24,14,16,025,*7C
$GPGSV,3,3,12,31,11,342,,29,10,073,,19,04,230,,25,00,028,*73
$GPRMC,191539.998,A,1704.3440,S,06941.8172,W,11.43,155.35,280411,,,A*56
$GPGGA,191541.002,1704.3467,S,06941.8155,W,1,07,1.5,4201.0,M,34.3,M,,0000*6F
$GPGSA,M,3,22,30,16,18,06,03,31,,,,,,2.2,1.5,1.6*37
$GPRMC,191541.002,A,1704.3467,S,06941.8155,W,11.12,150.35,280411,,,A*52
$GPGGA,191542.000,1704.3497,S,06941.8134,W,1,07,1.5,4200.6,M,34.3,M,,0000*61
$GPGSA,M,3,22,30,16,18,06,03,31,,,,,,2.2,1.5,1.6*37
$GPRMC,191542.000,A,1704.3497,S,06941.8134,W,11.84,147.02,280411,,,A*56
$GPGGA,191543.000,1704.3524,S,06941.8115,W,1,07,1.5,4201.0,M,34.3,M,,0000*6D
$GPGSA,M,3,22,30,16,18,06,03,31,,,,,,2.2,1.5,1.6*37
$GPRMC,191543.000,A,1704.3524,S,06941.8115,W,10.53,144.34,280411,,,A*50
$GPGGA,191543.998,1704.3549,S,06941.8097,W,1,08,1.3,4201.8,M,34.3,M,,0000*64
$GPGSA,M,3,22,30,16,18,06,03,14,31,,,,,1.9,1.3,1.4*3E
$GPRMC,191543.998,A,1704.3549,S,06941.8097,W,11.18,149.35,280411,,,A*5A
$GPGGA,191545.002,1704.3576,S,06941.8078,W,1,07,2.7,4202.1,M,34.3,M,,0000*67
$GPGSA,M,3,22,30,16,18,06,03,21,,,,,,5.0,2.7,4.2*33
$GPGSV,3,1,12,22,80,037,37,30,69,295,32,16,58,240,36,18,53,130,33*77
$GPGSV,3,2,12,06,38,202,33,03,27,213,28,21,21,138,28,14,16,025,*7F
$GPGSV,3,3,12,31,11,342,,29,10,073,,19,04,230,,25,00,028,*73
$GPRMC,191545.002,A,1704.3576,S,06941.8078,W,12.13,149.38,280411,,,A*5E
$GPGGA,191546.001,1704.3606,S,06941.8062,W,1,08,1.1,4201.0,M,34.3,M,,0000*60
$GPGSA,M,3,22,30,16,18,06,03,21,31,,,,,1.7,1.1,1.3*33
$GPRMC,191546.001,A,1704.3606,S,06941.8062,W,11.72,145.98,280411,,,A*53
$GPGGA,191546.999,1704.3633,S,06941.8039,W,1,07,1.5,4200.0,M,34.3,M,,0000*6A
$GPGSA,M,3,22,30,16,18,06,03,31,,,,,,2.2,1.5,1.6*37
$GPRMC,191546.999,A,1704.3633,S,06941.8039,W,12.41,147.42,280411,,,A*55
$GPGGA,191547.999,1704.3662,S,06941.8019,W,1,07,1.5,4200.1,M,34.3,M,,0000*6C
$GPGSA,M,3,22,30,16,18,06,03,31,,,,,,2.2,1.5,1.6*37
$GPRMC,191547.999,A,1704.3662,S,06941.8019,W,12.59,144.74,280411,,,A*5D
$GPGGA,191548.998,1704.3687,S,06941.7998,W,1,07,1.5,4199.6,M,34.3,M,,0000*62
$GPGSA,M,3,22,30,16,18,06,03,31,,,,,,2.2,1.5,1.6*37
$GPRMC,191548.998,A,1704.3687,S,06941.7998,W,12.58,144.95,280411,,,A*59
$GPGGA,191550.000,1704.3718,S,06941.7971,W,1,07,1.5,4201.8,M,34.3,M,,0000*6F
$GPGSA,M,3,22,30,16,18,06,03,31,,,,,,2.2,1.5,1.6*37
$GPGSV,3,1,12,22,80,037,37,30,69,295,30,16,58,240,36,18,53,130,34*72
$GPGSV,3,2,12,06,38,202,27,03,27,213,35,21,21,138,,14,16,025,*7C
$GPGSV,3,3,12,31,11,342,32,29,10,073,,19,04,230,,25,00,028,*72
$GPRMC,191550.000,A,1704.3718,S,06941.7971,W,13.78,142.40,280411,,,A*55
$GPGGA,191551.001,1704.3746,S,06941.7950,W,1,08,1.3,4201.1,M,34.3,M,,0000*67
$GPGSA,M,3,22,30,16,18,06,03,14,31,,,,,1.9,1.3,1.4*3E
$GPRMC,191551.001,A,1704.3746,S,06941.7950,W,11.84,144.32,280411,,,A*5F
$GPGGA,191552.000,1704.3771,S,06941.7936,W,1,05,1.9,4201.2,M,34.3,M,,0000*65
$GPGSA,M,3,22,30,16,18,06,,,,,,,,2.2,1.9,1.0*3C
$GPRMC,191552.000,A,1704.3771,S,06941.7936,W,11.85,149.86,280411,,,A*5A
$GPGGA,191552.999,1704.3802,S,06941.7922,W,1,07,1.2,4201.7,M,34.3,M,,0000*6E
$GPGSA,M,3,22,30,16,18,03,21,31,,,,,,1.8,1.2,1.3*39
$GPRMC,191552.999,A,1704.3802,S,06941.7922,W,12.06,153.54,280411,,,A*51
$GPGGA,191553.999,1704.3831,S,06941.7915,W,1,07,1.5,4200.4,M,34.3,M,,0000*6E
$GPGSA,M,3,22,30,16,18,06,03,31,,,,,,2.2,1.5,1.6*37
$GPRMC,191553.999,A,1704.3831,S,06941.7915,W,12.64,157.48,280411,,,A*59
$GPGGA,191555.000,1704.3863,S,06941.7910,W,1,07,2.7,4200.4,M,34.3,M,,0000*62
$GPGSA,M,3,22,30,16,18,06,03,21,,,,,,5.0,2.7,4.2*33
$GPGSV,3,1,12,22,80,037,36,30,69,295,30,16,58,240,37,18,53,130,38*7E
$GPGSV,3,2,12,06,38,202,36,03,27,213,32,21,21,138,27,14,16,025,*7E
$GPGSV,3,3,12,31,11,342,,29,10,073,,19,04,230,,25,00,028,*73
$GPRMC,191555.000,A,1704.3863,S,06941.7910,W,12.21,161.69,280411,,,A*53
$GPGGA,191555.999,1704.3895,S,06941.7906,W,1,07,2.7,4201.4,M,34.3,M,,0000*64
$GPGSA,M,3,22,30,16,18,06,03,21,,,,,,5.0,2.7,4.2*33
$GPRMC,191555.999,A,1704.3895,S,06941.7906,W,11.54,167.20,280411,,,A*5E
$GPGGA,191557.000,1704.3925,S,06941.7898,W,1,08,1.2,4200.6,M,34.3,M,,0000*69
$GPGSA,M,3,22,30,16,18,06,03,21,14,,,,,1.9,1.2,1.5*3F
$GPRMC,191557.000,A,1704.3925,S,06941.7898,W,11.38,169.70,280411,,,A*58
$GPGGA,191557.997,1704.3955,S,06941.7896,W,1,06,1.4,4203.2,M,34.3,M,,0000*68
$GPGSA,M,3,22,16,06,03,21,14,,,,,,,2.3,1.4,1.8*37
$GPRMC,191557.997,A,1704.3955,S,06941.7896,W,10.78,168.70,280411,,,A*52
$GPGGA,191559.002,1704.3982,S,06941.7894,W,1,07,1.4,4203.7,M,34.3,M,,0000*6F
$GPGSA,M,3,22,30,16,06,03,21,14,,,,,,2.2,1.4,1.7*3A
$GPRMC,191559.002,A,1704.3982,S,06941.7894,W,9.99,177.21,280411,,,A*6C
$GPGGA,191600.001,1704.4009,S,06941.7897,W,1,08,1.1,4206.1,M,34.3,M,,0000*64
$GPGSA,M,3,22,30,16,18,06,03,21,31,,,,,1.7,1.1,1.3*33
$GPGSV,3,1,12,22,80,037,37,30,69,295,32,16,58,240,37,18,53,130,26*72
$GPGSV,3,2,12,06,38,202,33,03,27,213,29,21,21,138,29,14,16,025,*7F
$GPGSV,3,3,12,31,11,342,27,29,10,073,,19,04,230,,25,00,028,*76
$GPRMC,191600.001,A,1704.4009,S,06941.7897,W,9.65,179.48,280411,,,A*6C
$GPGGA,191600.997,1704.4030,S,06941.7900,W,1,08,1.1,4208.0,M,34.3,M,,0000*68
$GPGSA,M,3,22,30,16,18,06,03,21,31,,,,,1.7,1.1,1.3*33
$GPRMC,191600.997,A,1704.4030,S,06941.7900,W,9.26,179.35,280411,,,A*62
$GPGGA,191602.000,1704.4051,S,06941.7905,W,1,06,3.8,4208.7,M,34.3,M,,0000*6D
$GPGSA,M,3,22,30,16,06,03,21,,,,,,,7.1,3.8,6.0*37
$GPRMC,191602.000,A,1704.4051,S,06941.7905,W,8.26,181.92,280411,,,A*6E
$GPGGA,191603.002,1704.4071,S,06941.7907,W,1,07,1.3,4209.7,M,34.3,M,,0000*67
$GPGSA,M,3,22,30,16,06,03,21,31,,,,,,1.8,1.3,1.4*30
$GPRMC,191603.002,A,1704.4071,S,06941.7907,W,6.86,179.88,280411,,,A*65
$GPGGA,191603.998,1704.4085,S,06941.7907,W,1,06,3.7,4209.2,M,34.3,M,,0000*64
$GPGSA,M,3,22,30,16,06,03,21,,,,,,,7.1,3.7,6.0*38
$GPRMC,191603.998,A,1704.4085,S,06941.7907,W,6.14,196.55,280411,,,A*6E
$GPGGA,191605.002,1704.4102,S,06941.7913,W,1,07,2.7,4210.4,M,34.3,M,,0000*6D
$GPGSA,M,3,22,30,16,18,06,03,21,,,,,,5.0,2.7,4.2*33
$GPGSV,3,1,12,22,80,037,38,30,69,295,31,16,58,240,38,18,53,130,28*7F
$GPGSV,3,2,12,06,38,202,30,03,27,213,35,21,21,138,29,14,16,025,*71
$GPGSV,3,3,12,31,11,342,,29,10,073,,19,04,230,,25,00,028,*73
$GPRMC,191605.002,A,1704.4102,S,06941.7913,W,5.11,189.15,280411,,,A*65
$GPGGA,191605.998,1704.4117,S,06941.7911,W,1,08,1.1,4210.6,M,34.3,M,,0000*69
$GPGSA,M,3,22,30,16,18,06,03,21,31,,,,,1.7,1.1,1.3*33
$GPRMC,191605.998,A,1704.4117,S,06941.7911,W,4.76,193.09,280411,,,A*6F
$GPGGA,191607.001,1704.4132,S,06941.7912,W,1,09,1.0,4208.6,M,34.3,M,,0000*6F
$GPGSA,M,3,22,30,16,18,06,03,21,14,31,,,,1.6,1.0,1.3*36
$GPRMC,191607.001,A,1704.4132,S,06941.7912,W,6.38,180.80,280411,,,A*6B
$GPGGA,191608.001,1704.4148,S,06941.7909,W,1,05,1.8,4207.6,M,34.3,M,,0000*6C
$GPGSA,M,3,22,16,18,06,14,,,,,,,,2.8,1.8,2.2*30
$GPRMC,191608.001,A,1704.4148,S,06941.7909,W,5.86,176.64,280411,,,A*66
$GPGGA,191609.000,1704.4165,S,06941.7911,W,1,07,1.3,4208.0,M,34.3,M,,0000*6A
$GPGSA,M,3,22,30,16,06,03,21,31,,,,,,1.8,1.3,1.4*30
$GPRMC,191609.000,A,1704.4165,S,06941.7911,W,5.95,186.83,280411,,,A*64
$GPGGA,191610.000,1704.4181,S,06941.7911,W,1,07,1.5,4206.9,M,34.3,M,,0000*69
$GPGSA,M,3,22,30,16,18,06,03,31,,,,,,2.2,1.5,1.6*37
$GPGSV,3,1,12,22,80,037,37,30,69,295,34,16,58,240,39,18,53,130,27*7B
$GPGSV,3,2,12,06,38,202,32,03,27,213,30,21,21,138,,14,16,025,*7D
$GPGSV,3,3,12,31,11,342,29,29,10,073,,19,04,230,,25,00,028,*78
$GPRMC,191610.000,A,1704.4181,S,06941.7911,W,5.88,182.94,280411,,,A*68
$GPGGA,191611.000,1704.4200,S,06941.7914,W,1,07,1.5,4207.1,M,34.3,M,,0000*6E
$GPGSA,M,3,22,30,16,18,06,03,31,,,,,,2.2,1.5,1.6*37
$GPRMC,191611.000,A,1704.4200,S,06941.7914,W,6.43,182.79,280411,,,A*61
$GPGGA,191612.000,1704.4218,S,06941.7916,W,1,07,1.4,4206.9,M,34.3,M,,0000*6E
$GPGSA,M,3,22,30,16,18,06,21,14,,,,,,2.3,1.4,1.8*3E
$GPRMC,191612.000,A,1704.4218,S,06941.7916,W,6.10,185.23,280411,,,A*67
$GPGGA,191613.000,1704.4234,S,06941.7916,W,1,07,2.7,4206.7,M,34.3,M,,0000*6F
$GPGSA,M,3,22,30,16,18,06,03,21,,,,,,5.0,2.7,4.2*33
$GPRMC,191613.000,A,1704.4234,S,06941.7916,W,7.10,179.17,280411,,,A*6D
$GPGGA,191613.998,1704.4253,S,06941.7912,W,1,06,3.9,4206.2,M,34.3,M,,0000*69
$GPGSA,M,3,22,30,16,18,06,03,,,,,,,8.6,3.9,7.7*32
$GPRMC,191613.998,A,1704.4253,S,06941.7912,W,6.30,169.57,280411,,,A*66
$GPGGA,191615.002,1704.4273,S,06941.7908,W,1,07,2.7,4205.5,M,34.3,M,,0000*66
$GPGSA,M,3,22,30,16,18,06,03,21,,,,,,5.0,2.7,4.2*33
$GPGSV,3,1,12,22,80,037,36,30,69,295,29,16,58,240,35,18,53,130,36*7A
$GPGSV,3,2,12,06,38,202,33,03,27,213,34,21,21,138,26,14,16,025,*7C
$GPGSV,3,3,12,31,11,342,,29,10,073,,19,04,230,,25,00,028,*73
$GPRMC,191615.002,A,1704.4273,S,06941.7908,W,6.85,163.11,280411,,,A*65
$GPGGA,191615.998,1704.4295,S,06941.7901,W,1,06,3.9,4205.9,M,34.3,M,,0000*6F
$GPGSA,M,3,22,30,16,18,06,03,,,,,,,8.6,3.9,7.7*32
$GPRMC,191615.998,A,1704.4295,S,06941.7901,W,6.81,169.47,280411,,,A*63
$GPGGA,191617.003,1704.4314,S,06941.7898,W,1,08,1.2,4205.9,M,34.3,M,,0000*68
$GPGSA,M,3,22,30,16,18,06,03,21,14,,,,,1.9,1.2,1.5*3F
$GPRMC,191617.003,A,1704.4314,S,06941.7898,W,7.46,168.59,280411,,,A*67
$GPGGA,191617.998,1704.4334,S,06941.7891,W,1,07,1.2,4205.5,M,34.3,M,,0000*6B
$GPGSA,M,3,22,30,16,18,03,21,31,,,,,,1.8,1.2,1.3*39
$GPRMC,191617.998,A,1704.4334,S,06941.7891,W,7.79,163.29,280411,,,A*67
$GPGGA,191618.999,1704.4355,S,06941.7877,W,1,06,1.6,4206.3,M,34.3,M,,0000*6A
$GPGSA,M,3,22,16,18,06,03,31,,,,,,,2.6,1.6,1.9*3C
$GPRMC,191618.999,A,1704.4355,S,06941.7877,W,8.12,158.86,280411,,,A*69
$GPGGA,191620.000,1704.4380,S,06941.7864,W,1,07,1.5,4206.3,M,34.3,M,,0000*60
$GPGSA,M,3,22,30,16,18,06,03,31,,,,,,2.2,1.5,1.6*37
$GPGSV,3,1,12,22,80,037,37,30,69,295,29,16,58,240,37,18,53,130,37*78
$GPGSV,3,2,12,06,38,202,34,03,27,213,31,21,21,138,,14,16,025,*7A
$GPGSV,3,3,12,31,11,342,29,29,10,073,,19,04,230,,25,00,028,*78
$GPRMC,191620.000,A,1704.4380,S,06941.7864,W,8.91,154.27,280411,,,A*6D
$GPGGA,191620.999,1704.4402,S,06941.7857,W,1,06,3.9,4205.6,M,34.3,M,,0000*6D
$GPGSA,M,3,22,30,16,18,06,03,,,,,,,8.6,3.9,7.7*32
$GPRMC,191620.999,A,1704.4402,S,06941.7857,W,9.27,152.89,280411,,,A*67
$GPGGA,191622.000,1704.4427,S,06941.7846,W,1,07,2.7,4205.1,M,34.3,M,,0000*68
$GPGSA,M,3,22,30,16,18,06,03,21,,,,,,4.9,2.7,4.1*38
$GPRMC,191622.000,A,1704.4427,S,06941.7846,W,8.81,155.19,280411,,,A*68
$GPGGA,191623.000,1704.4446,S,06941.7840,W,1,07,1.5,4204.5,M,34.3,M,,0000*6C
$GPGSA,M,3,22,30,16,18,06,03,31,,,,,,2.2,1.5,1.6*37
$GPRMC,191623.000,A,1704.4446,S,06941.7840,W,8.07,155.16,280411,,,A*69
$GPGGA,191624.000,1704.4468,S,06941.7830,W,1,07,1.4,4204.5,M,34.3,M,,0000*61
$GPGSA,M,3,22,30,16,18,06,21,31,,,,,,2.0,1.4,1.4*36
$GPRMC,191624.000,A,1704.4468,S,06941.7830,W,9.61,156.91,280411,,,A*68
$GPGGA,191625.001,1704.4494,S,06941.7817,W,1,08,1.1,4205.1,M,34.3,M,,0000*68
$GPGSA,M,3,22,30,16,18,06,03,21,31,,,,,1.7,1.1,1.3*33
$GPGSV,3,1,12,22,80,037,36,30,69,295,28,16,58,240,38,18,53,130,37*77
$GPGSV,3,2,12,06,38,202,31,03,27,213,27,21,21,138,29,14,16,025,*73
$GPGSV,3,3,12,31,11,342,26,29,10,073,,19,04,230,,25,00,028,*77
$GPRMC,191625.001,A,1704.4494,S,06941.7817,W,10.23,164.93,280411,,,A*53
$GPGGA,191625.999,1704.4519,S,06941.7808,W,1,07,1.4,4205.1,M,34.3,M,,0000*60
$GPGSA,M,3,22,30,16,18,06,21,31,,,,,,2.0,1.4,1.4*36
$GPRMC,191625.999,A,1704.4519,S,06941.7808,W,10.06,159.68,280411,,,A*5C
$GPGGA,191626.998,1704.4543,S,06941.7803,W,1,06,3.9,4204.1,M,34.3,M,,0000*69
$GPGSA,M,3,22,30,16,18,06,03,,,,,,,8.6,3.9,7.7*32
$GPRMC,191626.998,A,1704.4543,S,06941.7803,W,9.04,161.16,280411,,,A*62
$GPGGA,191628.001,1704.4566,S,06941.7796,W,1,07,1.2,4204.6,M,34.3,M,,0000*65
$GPGSA,M,3,22,16,18,06,03,21,31,,,,,,1.9,1.2,1.4*3A
$GPRMC,191628.001,A,1704.4566,S,06941.7796,W,8.84,165.94,280411,,,A*66
$GPGGA,191629.021,1704.4591,S,06941.7789,W,0,00,,4204.7,M,34.3,M,,0000*4A
$GPGSA,M,1,,,,,,,,,,,,,,,*12
$GPRMC,191629.021,V,1704.4591,S,06941.7789,W,,,280411,,,N*70
$GPGGA,191629.726,1704.4608,S,06941.7785,W,0,00,,4204.8,M,34.3,M,,0000*4A
$GPGSA,M,1,,,,,,,,,,,,,,,*12
$GPGSV,3,1,11,22,81,042,,30,68,298,,16,59,242,,18,53,131,*79
$GPGSV,3,2,11,06,38,202,,03,28,212,,21,20,137,,14,17,026,*7E
$GPGSV,3,3,11,31,10,342,,29,09,073,,19,04,229,*4C
$GPRMC,191629.726,V,1704.4608,S,06941.7785,W,,,280411,,,N*7F
$GPGGA,191630.000,1704.4614,S,06941.7783,W,0,00,,4204.8,M,34.3,M,,0000*4A
$GPGSA,M,1,,,,,,,,,,,,,,,*12
$GPRMC,191630.000,V,1704.4614,S,06941.7783,W,,,280411,,,N*7F
$GPGGA,191631.000,1704.4638,S,06941.7777,W,0,00,,4204.9,M,34.3,M,,0000*4F
$GPGSA,M,1,,,,,,,,,,,,,,,*12
$GPRMC,191631.000,V,1704.4638,S,06941.7777,W,,,280411,,,N*7B
$GPGGA,191632.000,1704.4660,S,06941.7769,W,1,04,2.9,4205.2,M,34.3,M,,0000*64
$GPGSA,M,3,03,16,06,18,,,,,,,,,3.1,2.9,1.0*3D
$GPRMC,191632.000,A,1704.4660,S,06941.7769,W,9.36,155.82,280411,,,A*65
$GPGGA,191633.000,1704.4673,S,06941.7769,W,1,08,1.1,4207.5,M,34.3,M,,0000*65
$GPGSA,M,3,03,21,22,16,31,06,18,30,,,,,1.7,1.1,1.3*33
$GPRMC,191633.000,A,1704.4673,S,06941.7769,W,9.74,159.75,280411,,,A*64
$GPGGA,191634.000,1704.4699,S,06941.7759,W,1,08,1.1,4208.0,M,34.3,M,,0000*6F
$GPGSA,M,3,03,21,22,16,31,06,18,30,,,,,1.7,1.1,1.3*33
$GPGSV,3,1,11,22,81,042,38,30,68,298,32,16,59,242,38,18,53,131,39*72
$GPGSV,3,2,11,06,38,202,33,03,28,212,22,21,20,137,24,14,17,026,*78
$GPGSV,3,3,11,31,10,342,26,29,09,073,,19,04,229,*48
$GPRMC,191634.000,A,1704.4699,S,06941.7759,W,9.69,158.06,280411,,,A*6D
$GPGGA,191635.000,1704.4718,S,06941.7762,W,1,08,1.1,4212.0,M,34.3,M,,0000*65
$GPGSA,M,3,03,21,22,16,31,06,18,30,,,,,1.7,1.1,1.3*33
$GPRMC,191635.000,A,1704.4718,S,06941.7762,W,9.73,155.47,280411,,,A*6F
$GPGGA,191636.000,1704.4750,S,06941.7759,W,1,08,1.1,4216.5,M,34.3,M,,0000*63
$GPGSA,M,3,03,21,22,16,31,06,18,30,,,,,1.7,1.1,1.3*33
$GPRMC,191636.000,A,1704.4750,S,06941.7759,W,10.19,159.24,280411,,,A*55
$GPGGA,191637.000,1704.4789,S,06941.7749,W,1,08,1.1,4219.0,M,34.3,M,,0000*6D
$GPGSA,M,3,03,21,22,16,31,06,18,30,,,,,1.7,1.1,1.3*33
$GPRMC,191637.000,A,1704.4789,S,06941.7749,W,10.51,162.02,280411,,,A*51
$GPGGA,191638.000,1704.4818,S,06941.7741,W,1,09,1.0,4219.9,M,34.3,M,,0000*64
$GPGSA,M,3,03,21,22,16,31,06,18,30,14,,,,1.6,1.0,1.3*36
$GPRMC,191638.000,A,1704.4818,S,06941.7741,W,10.76,162.59,280411,,,A*5A
$GPGGA,191639.000,1704.4862,S,06941.7732,W,1,08,1.0,4224.6,M,34.3,M,,0000*6C
$GPGSA,M,3,03,21,22,16,31,06,18,14,,,,,1.7,1.0,1.4*33
$GPGSV,3,1,11,22,81,042,38,30,68,298,,16,59,242,37,18,53,131,40*72
$GPGSV,3,2,11,06,38,202,33,03,28,212,25,21,20,137,28,14,17,026,21*70
$GPGSV,3,3,11,31,10,342,27,29,09,073,,19,04,229,*49
$GPRMC,191639.000,A,1704.4862,S,06941.7732,W,10.92,161.25,280411,,,A*50
$GPGGA,191640.000,1704.4898,S,06941.7725,W,1,08,1.0,4227.0,M,34.3,M,,0000*64
$GPGSA,M,3,03,21,22,16,31,06,18,14,,,,,1.7,1.0,1.4*33
$GPRMC,191640.000,A,1704.4898,S,06941.7725,W,10.91,161.40,280411,,,A*5D
$GPGGA,191641.000,1704.4927,S,06941.7717,W,1,09,1.0,4226.6,M,34.3,M,,0000*67
$GPGSA,M,3,03,21,22,16,31,06,18,30,14,,,,1.6,1.0,1.3*36
$GPRMC,191641.000,A,1704.4927,S,06941.7717,W,11.04,163.93,280411,,,A*59
$GPGGA,191642.000,1704.4956,S,06941.7710,W,1,09,1.0,4226.5,M,34.3,M,,0000*66
$GPGSA,M,3,03,21,22,16,31,06,18,30,14,,,,1.6,1.0,1.3*36
$GPRMC,191642.000,A,1704.4956,S,06941.7710,W,11.19,165.61,280411,,,A*5C
$GPGGA,191643.007,1704.4986,S,06941.7703,W,1,08,1.0,4226.1,M,34.3,M,,0000*6A
$GPGSA,M,3,22,16,18,06,03,21,14,31,,,,,1.7,1.0,1.4*33
$GPRMC,191643.007,A,1704.4986,S,06941.7703,W,11.39,168.86,280411,,,A*53
$GPGGA,191643.990,1704.5017,S,06941.7698,W,1,08,1.2,4226.2,M,34.3,M,,0000*6F
$GPGSA,M,3,22,30,16,18,06,03,21,14,,,,,1.9,1.2,1.5*3F
$GPRMC,191643.990,A,1704.5017,S,06941.7698,W,11.07,173.30,280411,,,A*5D
$GPGGA,191645.000,1704.5048,S,06941.7697,W,1,08,1.1,4225.7,M,34.3,M,,0000*69
$GPGSA,M,3,22,30,16,18,06,03,21,31,,,,,1.7,1.1,1.3*33
$GPGSV,3,1,11,22,81,042,35,30,68,298,28,16,59,242,34,18,53,131,27*77
$GPGSV,3,2,11,06,38,202,36,03,28,212,34,21,20,137,28,14,17,026,*76
$GPGSV,3,3,11,31,10,342,30,29,09,073,,19,04,229,*4F
$GPRMC,191645.000,A,1704.5048,S,06941.7697,W,10.85,177.07,280411,,,A*55
$GPGGA,191646.000,1704.5077,S,06941.7697,W,1,06,3.7,4226.1,M,34.3,M,,0000*69
$GPGSA,M,3,22,30,16,06,03,21,,,,,,,6.9,3.7,5.9*3B
$GPRMC,191646.000,A,1704.5077,S,06941.7697,W,10.06,178.82,280411,,,A*53
$GPGGA,191647.002,1704.5106,S,06941.7698,W,1,07,1.4,4226.2,M,34.3,M,,0000*61
$GPGSA,M,3,22,30,16,06,03,21,14,,,,,,2.2,1.4,1.8*35
$GPRMC,191647.002,A,1704.5106,S,06941.7698,W,10.94,183.15,280411,,,A*59
$GPGGA,191647.998,1704.5140,S,06941.7702,W,1,08,1.0,4227.1,M,34.3,M,,0000*62
$GPGSA,M,3,22,16,18,06,03,21,14,31,,,,,1.7,1.0,1.4*33
$GPRMC,191647.998,A,1704.5140,S,06941.7702,W,11.85,183.91,280411,,,A*5E
$GPGGA,191649.002,1704.5173,S,06941.7706,W,1,07,1.1,4226.9,M,34.3,M,,0000*65
$GPGSA,M,3,22,16,06,03,21,14,31,,,,,,1.9,1.1,1.5*34
$GPRMC,191649.002,A,1704.5173,S,06941.7706,W,11.63,189.31,280411,,,A*56
$GPGGA,191650.000,1704.5204,S,06941.7710,W,1,07,1.3,4226.7,M,34.3,M,,0000*67
$GPGSA,M,3,22,30,16,06,21,14,31,,,,,,2.0,1.3,1.5*3C
$GPGSV,3,1,11,22,81,042,37,30,68,298,29,16,59,242,39,18,53,131,*7C
$GPGSV,3,2,11,06,38,202,36,03,28,212,,21,20,137,26,14,17,026,26*7B
$GPGSV,3,3,11,31,10,342,31,29,09,073,,19,04,229,*4E
$GPRMC,191650.000,A,1704.5204,S,06941.7710,W,10.74,191.55,280411,,,A*54
$GPGGA,191651.000,1704.5234,S,06941.7715,W,1,07,1.3,4227.0,M,34.3,M,,0000*66
$GPGSA,M,3,22,30,16,06,03,21,31,,,,,,1.8,1.3,1.4*30
$GPRMC,191651.000,A,1704.5234,S,06941.7715,W,11.61,188.87,280411,,,A*51
$GPGGA,191652.000,1704.5268,S,06941.7723,W,1,07,1.3,4227.1,M,34.3,M,,0000*68
$GPGSA,M,3,22,30,16,06,03,21,31,,,,,,1.8,1.3,1.4*30
$GPRMC,191652.000,A,1704.5268,S,06941.7723,W,12.20,192.18,280411,,,A*55
$GPGGA,191652.998,1704.5301,S,06941.7728,W,1,08,1.1,4226.1,M,34.3,M,,0000*69
$GPGSA,M,3,22,30,16,18,06,03,21,31,,,,,1.7,1.1,1.3*33
$GPRMC,191652.998,A,1704.5301,S,06941.7728,W,11.87,189.41,280411,,,A*50
$GPGGA,191654.002,1704.5332,S,06941.7728,W,1,07,1.3,4226.6,M,34.3,M,,0000*6F
$GPGSA,M,3,22,30,16,06,03,21,31,,,,,,1.8,1.3,1.4*30
$GPRMC,191654.002,A,1704.5332,S,06941.7728,W,11.64,183.19,280411,,,A*56
$GPGGA,191655.000,1704.5365,S,06941.7731,W,1,07,1.3,4226.3,M,34.3,M,,0000*63
$GPGSA,M,3,22,30,16,06,03,21,31,,,,,,1.8,1.3,1.4*30
$GPGSV,3,1,11,22,81,042,36,30,68,298,31,16,59,242,39,18,53,131,*74
$GPGSV,3,2,11,06,38,202,33,03,28,212,31,21,20,137,26,14,17,026,*78
$GPGSV,3,3,11,31,10,342,27,29,09,073,,19,04,229,*49
$GPRMC,191655.000,A,1704.5365,S,06941.7731,W,11.84,186.74,280411,,,A*5F
$GPGGA,191655.998,1704.5399,S,06941.7735,W,1,06,3.6,4225.5,M,34.3,M,,0000*6F
$GPGSA,M,3,22,30,16,06,03,21,,,,,,,6.9,3.6,5.9*3A
$GPRMC,191655.998,A,1704.5399,S,06941.7735,W,12.02,182.76,280411,,,A*5B
$GPGGA,191657.000,1704.5434,S,06941.7736,W,1,06,1.3,4225.1,M,34.3,M,,0000*65
$GPGSA,M,3,22,16,06,03,21,31,,,,,,,2.0,1.3,1.5*39
$GPRMC,191657.000,A,1704.5434,S,06941.7736,W,12.36,182.87,280411,,,A*5B
$GPGGA,191658.001,1704.5469,S,06941.7737,W,1,07,1.3,4225.7,M,34.3,M,,0000*65
$GPGSA,M,3,22,30,16,06,03,21,31,,,,,,1.8,1.3,1.4*30
$GPRMC,191658.001,A,1704.5469,S,06941.7737,W,11.80,183.20,280411,,,A*5E
$GPGGA,191659.003,1704.5501,S,06941.7740,W,1,08,1.1,4225.7,M,34.3,M,,0000*64
$GPGSA,M,3,22,30,16,18,06,03,21,31,,,,,1.7,1.1,1.3*33
$GPRMC,191659.003,A,1704.5501,S,06941.7740,W,11.76,185.66,280411,,,A*5F
$GPGGA,191659.997,1704.5535,S,06941.7745,W,1,06,2.8,4224.6,M,34.3,M,,0000*66
$GPGSA,M,3,22,30,16,06,03,31,,,,,,,3.3,2.8,1.7*31
$GPGSV,3,1,11,22,81,042,35,30,68,298,23,16,59,242,38,18,53,131,*75
$GPGSV,3,2,11,06,38,202,36,03,28,212,33,21,20,137,,14,17,026,*7B
$GPGSV,3,3,11,31,10,342,27,29,09,073,,19,04,229,*49
$GPRMC,191659.997,A,1704.5535,S,06941.7745,W,12.14,188.77,280411,,,A*53
$GPGGA,191701.001,1704.5567,S,06941.7747,W,1,07,1.7,4224.3,M,34.3,M,,0000*61
$GPGSA,M,3,22,30,16,06,03,14,31,,,,,,2.3,1.7,1.4*3A
$GPRMC,191701.001,A,1704.5567,S,06941.7747,W,11.91,186.40,280411,,,A*58
$GPGGA,191702.001,1704.5598,S,06941.7751,W,1,07,2.6,4225.5,M,34.3,M,,0000*60
$GPGSA,M,3,22,30,16,18,06,03,21,,,,,,4.9,2.6,4.1*39
$GPRMC,191702.001,A,1704.5598,S,06941.7751,W,11.36,182.75,280411,,,A*53
$GPGGA,191702.999,1704.5629,S,06941.7752,W,1,06,3.6,4225.3,M,34.3,M,,0000*64
$GPGSA,M,3,22,30,16,06,03,21,,,,,,,6.9,3.6,5.8*3B
$GPRMC,191702.999,A,1704.5629,S,06941.7752,W,11.17,182.12,280411,,,A*53
$GPGGA,191704.002,1704.5659,S,06941.7751,W,1,07,2.6,4225.7,M,34.3,M,,0000*69
$GPGSA,M,3,22,30,16,18,06,03,21,,,,,,4.9,2.6,4.1*39
$GPRMC,191704.002,A,1704.5659,S,06941.7751,W,10.64,174.55,280411,,,A*55
$GPGGA,191705.001,1704.5690,S,06941.7747,W,1,05,5.5,4225.7,M,34.3,M,,0000*6F
$GPGSA,M,3,22,16,06,03,21,,,,,,,,9.7,5.5,8.0*39
$GPGSV,3,1,11,22,81,042,36,30,68,298,,16,59,242,38,18,53,131,*77
$GPGSV,3,2,11,06,38,202,37,03,28,212,37,21,20,137,33,14,17,026,*7E
$GPGSV,3,3,11,31,10,342,,29,09,073,,19,04,229,*4C
$GPRMC,191705.001,A,1704.5690,S,06941.7747,W,11.86,176.00,280411,,,A*5A
$GPGGA,191706.002,1704.5722,S,06941.7746,W,1,08,1.1,4226.4,M,34.3,M,,0000*6B
$GPGSA,M,3,22,30,16,18,06,03,21,31,,,,,1.7,1.1,1.3*33
$GPRMC,191706.002,A,1704.5722,S,06941.7746,W,11.28,180.25,280411,,,A*59
$GPGGA,191706.996,1704.5754,S,06941.7745,W,1,06,1.3,4225.5,M,34.3,M,,0000*63
$GPGSA,M,3,22,16,06,03,21,31,,,,,,,2.0,1.3,1.5*39
$GPRMC,191706.996,A,1704.5754,S,06941.7745,W,11.21,183.65,280411,,,A*51
$GPGGA,191708.002,1704.5786,S,06941.7751,W,1,07,1.3,4226.0,M,34.3,M,,0000*64
$GPGSA,M,3,22,30,16,06,03,21,31,,,,,,1.8,1.3,1.4*30
$GPRMC,191708.002,A,1704.5786,S,06941.7751,W,11.09,191.20,280411,,,A*59
$GPGGA,191708.998,1704.5819,S,06941.7759,W,1,06,2.8,4226.6,M,34.3,M,,0000*60
$GPGSA,M,3,22,30,16,06,03,31,,,,,,,3.3,2.8,1.7*31
$GPRMC,191708.998,A,1704.5819,S,06941.7759,W,11.19,193.94,280411,,,A*5E
$GPGGA,191710.000,1704.5850,S,06941.7769,W,1,06,2.8,4225.5,M,34.3,M,,0000*6F
$GPGSA,M,3,22,30,16,06,03,31,,,,,,,3.3,2.8,1.7*31
$GPGSV,3,1,11,22,81,042,36,30,68,298,29,16,59,242,38,18,53,131,*7C
$GPGSV,3,2,11,06,38,202,32,03,28,212,31,21,20,137,,14,17,026,*7D
$GPGSV,3,3,11,31,10,342,30,29,09,073,,19,04,229,*4F
$GPRMC,191710.000,A,1704.5850,S,06941.7769,W,10.68,193.54,280411,,,A*5A
$GPGGA,191711.002,1704.5883,S,06941.7775,W,1,07,1.3,4226.1,M,34.3,M,,0000*61
$GPGSA,M,3,22,30,16,06,03,21,31,,,,,,1.8,1.3,1.4*30
$GPRMC,191711.002,A,1704.5883,S,06941.7775,W,11.06,186.72,280411,,,A*53
$GPGGA,191712.002,1704.5914,S,06941.7775,W,1,06,1.5,4225.4,M,34.3,M,,0000*6C
$GPGSA,M,3,22,30,16,06,21,31,,,,,,,2.1,1.5,1.5*3E
$GPRMC,191712.002,A,1704.5914,S,06941.7775,W,11.42,181.49,280411,,,A*50
$GPGGA,191712.996,1704.5946,S,06941.7778,W,1,06,2.8,4227.3,M,34.3,M,,0000*69
$GPGSA,M,3,22,30,16,06,03,31,,,,,,,3.3,2.8,1.7*31
$GPRMC,191712.996,A,1704.5946,S,06941.7778,W,11.52,186.02,280411,,,A*57
$GPGGA,191714.000,1704.5977,S,06941.7783,W,1,06,2.8,4226.8,M,34.3,M,,0000*65
$GPGSA,M,3,22,30,16,06,03,31,,,,,,,3.3,2.8,1.7*31
$GPRMC,191714.000,A,1704.5977,S,06941.7783,W,11.34,186.02,280411,,,A*51
$GPGGA,191715.000,1704.6010,S,06941.7791,W,1,08,1.1,4226.4,M,34.3,M,,0000*64
$GPGSA,M,3,22,30,16,18,06,03,21,31,,,,,1.7,1.1,1.3*33
$GPGSV,3,1,11,22,81,042,37,30,68,298,31,16,59,242,39,18,53,131,24*73
$GPGSV,3,2,11,06,38,202,35,03,28,212,31,21,20,137,26,14,17,026,*7E
$GPGSV,3,3,11,31,10,342,32,29,09,073,,19,04,229,*4D
$GPRMC,191715.000,A,1704.6010,S,06941.7791,W,11.43,187.41,280411,,,A*5E
$GPGGA,191716.002,1704.6042,S,06941.7796,W,1,07,1.3,4226.7,M,34.3,M,,0000*6B
$GPGSA,M,3,22,30,16,06,03,21,31,,,,,,1.8,1.3,1.4*30
$GPRMC,191716.002,A,1704.6042,S,06941.7796,W,11.22,188.11,280411,,,A*52
$GPGGA,191717.000,1704.6073,S,06941.7805,W,1,07,1.3,4226.8,M,34.3,M,,0000*60
$GPGSA,M,3,22,30,16,06,03,21,31,,,,,,1.8,1.3,1.4*30
$GPRMC,191717.000,A,1704.6073,S,06941.7805,W,10.70,191.10,280411,,,A*59
$GPGGA,191717.999,1704.6105,S,06941.7814,W,1,06,3.6,4226.1,M,34.3,M,,0000*66
$GPGSA,M,3,22,30,16,06,03,21,,,,,,,6.8,3.6,5.8*3A
$GPRMC,191717.999,A,1704.6105,S,06941.7814,W,11.77,193.95,280411,,,A*59
$GPGGA,191718.999,1704.6140,S,06941.7821,W,1,06,3.9,4225.6,M,34.3,M,,0000*65
$GPGSA,M,3,22,30,16,18,06,03,,,,,,,8.7,3.9,7.8*3C
$GPRMC,191718.999,A,1704.6140,S,06941.7821,W,11.47,198.42,280411,,,A*53
$GPGGA,191720.000,1704.6171,S,06941.7826,W,1,08,1.2,4226.0,M,34.3,M,,0000*60
$GPGSA,M,3,22,30,16,18,06,03,21,14,,,,,1.9,1.2,1.5*3F
$GPGSV,3,1,11,22,81,042,36,30,68,298,30,16,59,242,39,18,53,131,29*7E
$GPGSV,3,2,11,06,38,202,29,03,28,212,37,21,20,137,31,14,17,026,27*76
$GPGSV,3,3,11,31,10,342,,29,09,073,,19,04,229,*4C
$GPRMC,191720.000,A,1704.6171,S,06941.7826,W,12.20,199.89,280411,,,A*50
$GPGGA,191721.002,1704.6203,S,06941.7839,W,1,07,1.2,4226.3,M,34.3,M,,0000*67
$GPGSA,M,3,22,30,16,03,21,14,31,,,,,,1.8,1.2,1.3*35
$GPRMC,191721.002,A,1704.6203,S,06941.7839,W,12.60,204.05,280411,,,A*5C
$GPGGA,191721.998,1704.6233,S,06941.7853,W,1,08,1.2,4226.0,M,34.3,M,,0000*6E
$GPGSA,M,3,22,30,16,18,06,03,21,14,,,,,1.9,1.2,1.5*3F
$GPRMC,191721.998,A,1704.6233,S,06941.7853,W,11.92,207.06,280411,,,A*57
$GPGGA,191723.002,1704.6263,S,06941.7866,W,1,07,1.2,4225.6,M,34.3,M,,0000*6F
$GPGSA,M,3,22,30,16,18,03,21,31,,,,,,1.8,1.2,1.3*39
$GPRMC,191723.002,A,1704.6263,S,06941.7866,W,12.65,212.27,280411,,,A*50
$GPGGA,191724.000,1704.6293,S,06941.7883,W,1,07,1.4,4225.8,M,34.3,M,,0000*66
$GPGSA,M,3,22,30,16,18,06,21,14,,,,,,2.3,1.4,1.8*3E
$GPRMC,191724.000,A,1704.6293,S,06941.7883,W,12.92,214.73,280411,,,A*5E
$GPGGA,191725.000,1704.6323,S,06941.7906,W,1,07,2.6,4225.9,M,34.3,M,,0000*61
$GPGSA,M,3,22,30,16,18,06,03,21,,,,,,4.8,2.6,4.1*38
$GPGSV,3,1,11,22,81,042,36,30,68,298,35,16,59,242,38,18,53,131,32*70
$GPGSV,3,2,11,06,38,202,30,03,28,212,29,21,20,137,35,14,17,026,*70
$GPGSV,3,3,11,31,10,342,,29,09,073,,19,04,229,*4C
$GPRMC,191725.000,A,1704.6323,S,06941.7906,W,12.94,215.13,280411,,,A*58
$GPGGA,191725.999,1704.6354,S,06941.7929,W,1,07,2.6,4225.9,M,34.3,M,,0000*65
$GPGSA,M,3,22,30,16,18,06,03,21,,,,,,4.8,2.6,4.1*38
$GPRMC,191725.999,A,1704.6354,S,06941.7929,W,13.46,213.93,280411,,,A*5C
$GPGGA,191727.001,1704.6385,S,06941.7955,W,1,07,2.6,4226.5,M,34.3,M,,0000*67
$GPGSA,M,3,22,30,16,18,06,03,21,,,,,,4.8,2.6,4.1*38
$GPRMC,191727.001,A,1704.6385,S,06941.7955,W,13.39,214.29,280411,,,A*5F
$GPGGA,191728.002,1704.6414,S,06941.7973,W,1,08,1.2,4226.3,M,34.3,M,,0000*6E
$GPGSA,M,3,22,30,16,18,06,03,21,14,,,,,1.9,1.2,1.5*3F
$GPRMC,191728.002,A,1704.6414,S,06941.7973,W,12.73,213.86,280411,,,A*55
$GPGGA,191728.998,1704.6443,S,06941.7996,W,1,07,1.4,4226.9,M,34.3,M,,0000*6E
$GPGSA,M,3,22,30,16,06,03,21,14,,,,,,2.3,1.4,1.8*34
$GPRMC,191728.998,A,1704.6443,S,06941.7996,W,13.11,210.49,280411,,,A*53
$GPGGA,191729.999,1704.6477,S,06941.8011,W,1,06,3.6,4226.6,M,34.3,M,,0000*6E
$GPGSA,M,3,22,30,16,06,03,21,,,,,,,6.8,3.6,5.7*35
$GPGSV,3,1,11,22,81,042,36,30,68,298,30,16,59,242,38,18,53,131,*74
$GPGSV,3,2,11,06,38,202,30,03,28,212,36,21,20,137,29,14,17,026,*73
$GPGSV,3,3,11,31,10,342,,29,09,073,,19,04,229,*4C
$GPRMC,191729.999,A,1704.6477,S,06941.8011,W,13.27,205.23,280411,,,A*50
$GPGGA,191731.003,1704.6512,S,06941.8027,W,1,08,1.2,4227.4,M,34.3,M,,0000*61
$GPGSA,M,3,22,30,16,18,06,03,21,14,,,,,1.9,1.2,1.5*3F
$GPRMC,191731.003,A,1704.6512,S,06941.8027,W,12.89,203.07,280411,,,A*51
$GPGGA,191731.997,1704.6545,S,06941.8038,W,1,06,3.6,4226.7,M,34.3,M,,0000*63
$GPGSA,M,3,22,30,16,06,03,21,,,,,,,6.8,3.6,5.7*35
$GPRMC,191731.997,A,1704.6545,S,06941.8038,W,12.69,200.91,280411,,,A*5B
$GPGGA,191733.001,1704.6581,S,06941.8047,W,1,07,1.2,4226.7,M,34.3,M,,0000*60
$GPGSA,M,3,22,30,16,18,03,21,14,,,,,,2.0,1.2,1.6*30
$GPRMC,191733.001,A,1704.6581,S,06941.8047,W,13.48,204.02,280411,,,A*53
$GPGGA,191734.003,1704.6617,S,06941.8060,W,1,07,2.6,4226.4,M,34.3,M,,0000*68
$GPGSA,M,3,22,30,16,18,06,03,21,,,,,,4.8,2.6,4.0*39
$GPRMC,191734.003,A,1704.6617,S,06941.8060,W,13.09,200.84,280411,,,A*50
$GPGGA,191735.000,1704.6649,S,06941.8069,W,1,08,1.2,4227.6,M,34.3,M,,0000*63
$GPGSA,M,3,22,30,16,18,06,03,21,14,,,,,1.9,1.2,1.6*3C
$GPGSV,3,1,11,22,81,044,37,30,68,299,31,16,59,243,38,18,52,132,29*7B
$GPGSV,3,2,11,06,39,202,30,03,28,212,37,21,20,137,30,14,17,026,27*7E
$GPGSV,3,3,11,31,10,343,,29,09,072,,19,05,229,*4D
$GPRMC,191735.000,A,1704.6649,S,06941.8069,W,12.80,201.75,280411,,,A*5F
$GPGGA,191735.998,1704.6682,S,06941.8077,W,1,07,2.6,4228.7,M,34.3,M,,0000*65
$GPGSA,M,3,22,30,16,18,06,03,21,,,,,,4.8,2.6,4.0*39
$GPRMC,191735.998,A,1704.6682,S,06941.8077,W,12.93,203.35,280411,,,A*5B
$GPGGA,191737.001,1704.6716,S,06941.8086,W,1,07,2.6,4229.1,M,34.3,M,,0000*6B
$GPGSA,M,3,22,30,16,18,06,03,21,,,,,,4.8,2.6,4.0*39
$GPRMC,191737.001,A,1704.6716,S,06941.8086,W,12.97,199.52,280411,,,A*57
$GPGGA,191737.998,1704.6751,S,06941.8102,W,1,06,3.6,4228.3,M,34.3,M,,0000*6F
$GPGSA,M,3,22,30,16,06,03,21,,,,,,,6.7,3.6,5.7*3A
$GPRMC,191737.998,A,1704.6751,S,06941.8102,W,12.65,199.23,280411,,,A*5B
$GPGGA,191739.000,1704.6782,S,06941.8113,W,1,06,3.6,4228.4,M,34.3,M,,0000*60
$GPGSA,M,3,22,30,16,06,03,21,,,,,,,6.7,3.6,5.7*3A
$GPRMC,191739.000,A,1704.6782,S,06941.8113,W,12.66,196.23,280411,,,A*5F
$GPGGA,191740.002,1704.6817,S,06941.8124,W,1,07,1.4,4229.1,M,34.3,M,,0000*6E
$GPGSA,M,3,22,30,16,06,03,21,14,,,,,,2.3,1.4,1.8*34
$GPGSV,3,1,11,22,81,044,36,30,68,299,30,16,59,243,37,18,52,132,*7F
$GPGSV,3,2,11,06,39,202,32,03,28,212,36,21,20,137,29,14,17,026,27*75
$GPGSV,3,3,11,31,10,343,,29,09,072,,19,05,229,*4D
$GPRMC,191740.002,A,1704.6817,S,06941.8124,W,11.81,198.61,280411,,,A*56
$GPGGA,191741.000,1704.6849,S,06941.8137,W,1,07,1.4,4229.0,M,34.3,M,,0000*65
$GPGSA,M,3,22,30,16,06,03,21,14,,,,,,2.3,1.4,1.8*34
$GPRMC,191741.000,A,1704.6849,S,06941.8137,W,12.86,195.35,280411,,,A*54
$GPGGA,191742.000,1704.6883,S,06941.8147,W,1,07,1.4,4228.7,M,34.3,M,,0000*61
$GPGSA,M,3,22,30,16,06,03,21,14,,,,,,2.3,1.4,1.8*34
$GPRMC,191742.000,A,1704.6883,S,06941.8147,W,11.97,191.88,280411,,,A*57
$GPGGA,191743.000,1704.6913,S,06941.8154,W,1,07,1.4,4227.9,M,34.3,M,,0000*6B
$GPGSA,M,3,22,30,16,06,03,21,14,,,,,,2.3,1.4,1.8*34
$GPRMC,191743.000,A,1704.6913,S,06941.8154,W,11.98,191.41,280411,,,A*56
$GPGGA,191743.999,1704.6946,S,06941.8159,W,1,06,3.5,4227.4,M,34.3,M,,0000*60
$GPGSA,M,3,22,30,16,06,03,21,,,,,,,6.7,3.5,5.7*39
$GPRMC,191743.999,A,1704.6946,S,06941.8159,W,12.41,194.41,280411,,,A*50
$GPGGA,191744.999,1704.6980,S,06941.8170,W,1,06,3.5,4227.4,M,34.3,M,,0000*66
$GPGSA,M,3,22,30,16,06,03,21,,,,,,,6.7,3.5,5.7*39
$GPGSV,3,1,11,22,81,044,35,30,68,299,29,16,59,243,39,18,52,132,*7A
$GPGSV,3,2,11,06,39,202,34,03,28,212,33,21,20,137,28,14,17,026,*72
$GPGSV,3,3,11,31,10,343,,29,09,072,,19,05,229,*4D
$GPRMC,191744.999,A,1704.6980,S,06941.8170,W,13.07,196.42,280411,,,A*54
$GPGGA,191746.002,1704.7015,S,06941.8181,W,1,07,2.6,4226.4,M,34.3,M,,0000*67
$GPGSA,M,3,22,30,16,18,06,03,21,,,,,,4.8,2.6,4.0*39
$GPRMC,191746.002,A,1704.7015,S,06941.8181,W,12.70,196.97,280411,,,A*5E
$GPGGA,191746.998,1704.7051,S,06941.8196,W,1,08,1.2,4225.5,M,34.3,M,,0000*61
$GPGSA,M,3,22,30,16,18,06,03,21,14,,,,,2.0,1.2,1.6*36
$GPRMC,191746.998,A,1704.7051,S,06941.8196,W,12.91,198.20,280411,,,A*5F
$GPGGA,191748.002,1704.7084,S,06941.8206,W,1,07,1.4,4224.8,M,34.3,M,,0000*62
$GPGSA,M,3,22,30,16,06,03,21,14,,,,,,2.3,1.4,1.8*34
$GPRMC,191748.002,A,1704.7084,S,06941.8206,W,13.78,192.76,280411,,,A*56
$GPGGA,191748.998,1704.7119,S,06941.8222,W,1,08,1.2,4224.5,M,34.3,M,,0000*6F
$GPGSA,M,3,22,30,16,18,06,03,21,14,,,,,2.0,1.2,1.6*36
$GPRMC,191748.998,A,1704.7119,S,06941.8222,W,13.86,194.27,280411,,,A*5C
$GPGGA,191750.002,1704.7163,S,06941.8224,W,1,05,2.1,4225.7,M,34.3,M,,0000*69
$GPGSA,M,3,22,16,18,06,03,,,,,,,,2.3,2.1,1.0*36
$GPGSV,3,1,11,22,81,044,37,30,68,299,,16,59,243,37,18,52,132,24*7B
$GPGSV,3,2,11,06,39,202,32,03,28,212,36,21,20,137,,14,17,026,*7B
$GPGSV,3,3,11,31,10,343,,29,09,072,,19,05,229,*4D
$GPRMC,191750.002,A,1704.7163,S,06941.8224,W,13.95,194.00,280411,,,A*53
$GPGGA,191750.998,1704.7200,S,06941.8233,W,1,08,1.2,4225.1,M,34.3,M,,0000*68
$GPGSA,M,3,22,30,16,18,06,03,21,14,,,,,2.0,1.2,1.6*36
$GPRMC,191750.998,A,1704.7200,S,06941.8233,W,14.42,192.78,280411,,,A*5D
$GPGGA,191752.003,1704.7243,S,06941.8241,W,1,08,1.2,4225.3,M,34.3,M,,0000*61
$GPGSA,M,3,22,30,16,18,06,03,21,14,,,,,2.0,1.2,1.6*36
$GPRMC,191752.003,A,1704.7243,S,06941.8241,W,14.51,197.89,280411,,,A*5F
$GPGGA,191752.999,1704.7282,S,06941.8255,W,1,07,2.6,4224.5,M,34.3,M,,0000*6C
$GPGSA,M,3,22,30,16,18,06,03,21,,,,,,4.8,2.6,4.0*39
$GPRMC,191752.999,A,1704.7282,S,06941.8255,W,14.17,196.91,280411,,,A*57
$GPGGA,191754.000,1704.7319,S,06941.8266,W,1,05,5.5,4224.2,M,34.3,M,,0000*61
$GPGSA,M,3,22,16,06,03,21,,,,,,,,9.6,5.5,7.9*3E
$GPRMC,191754.000,A,1704.7319,S,06941.8266,W,14.07,202.53,280411,,,A*5A
$GPGGA,191755.001,1704.7358,S,06941.8273,W,1,08,1.2,4226.0,M,34.3,M,,0000*6E
$GPGSA,M,3,22,30,16,18,06,03,21,14,,,,,2.0,1.2,1.6*36
$GPGSV,3,1,11,22,81,044,35,30,68,299,32,16,59,243,38,18,52,132,28*7B
$GPGSV,3,2,11,06,39,202,28,03,28,212,32,21,20,137,29,14,17,026,26*7B
$GPGSV,3,3,11,31,10,343,,29,09,072,,19,05,229,*4D
$GPRMC,191755.001,A,1704.7358,S,06941.8273,W,12.63,204.61,280411,,,A*58
$GPGGA,191756.001,1704.7388,S,06941.8286,W,1,08,1.2,4226.3,M,34.3,M,,0000*69
$GPGSA,M,3,22,30,16,18,06,03,21,14,,,,,2.0,1.2,1.6*36
$GPRMC,191756.001,A,1704.7388,S,06941.8286,W,10.87,208.68,280411,,,A*51
$GPGGA,191757.000,1704.7417,S,06941.8303,W,1,05,5.5,4226.1,M,34.3,M,,0000*68
$GPGSA,M,3,22,16,06,03,21,,,,,,,,9.6,5.5,7.9*3E
$GPRMC,191757.000,A,1704.7417,S,06941.8303,W,10.96,200.39,280411,,,A*50
$GPGGA,191758.000,1704.7448,S,06941.8311,W,1,05,5.5,4225.1,M,34.3,M,,0000*6D
$GPGSA,M,3,22,16,06,03,21,,,,,,,,9.6,5.5,7.9*3E
$GPRMC,191758.000,A,1704.7448,S,06941.8311,W,11.24,193.29,280411,,,A*56
$GPGGA,191758.999,1704.7478,S,06941.8315,W,1,07,2.6,4224.8,M,34.3,M,,0000*6D
$GPGSA,M,3,22,30,16,18,06,03,21,,,,,,4.8,2.6,4.0*39
$GPRMC,191758.999,A,1704.7478,S,06941.8315,W,10.58,182.73,280411,,,A*5D
$GPGGA,191800.002,1704.7503,S,06941.8320,W,1,08,1.2,4224.3,M,34.3,M,,0000*6C
$GPGSA,M,3,22,30,16,18,06,03,21,14,,,,,2.0,1.2,1.6*36
$GPGSV,3,1,11,22,81,044,36,30,68,299,30,16,59,243,37,18,52,132,28*75
$GPGSV,3,2,11,06,39,202,29,03,28,212,34,21,20,137,30,14,17,026,22*70
$GPGSV,3,3,11,31,10,343,,29,09,072,,19,05,229,*4D
$GPRMC,191800.002,A,1704.7503,S,06941.8320,W,9.40,179.91,280411,,,A*66
$GPGGA,191800.998,1704.7527,S,06941.8316,W,1,07,2.6,4224.4,M,34.3,M,,0000*6A
$GPGSA,M,3,22,30,16,18,06,03,21,,,,,,4.8,2.6,4.0*39
$GPRMC,191800.998,A,1704.7527,S,06941.8316,W,8.25,175.41,280411,,,A*6C
$GPGGA,191802.000,1704.7548,S,06941.8314,W,1,07,2.6,4224.3,M,34.3,M,,0000*6C
$GPGSA,M,3,22,30,16,18,06,03,21,,,,,,4.8,2.6,4.0*39
$GPRMC,191802.000,A,1704.7548,S,06941.8314,W,8.06,178.83,280411,,,A*6F
$GPGGA,191803.000,1704.7569,S,06941.8316,W,1,07,1.4,4223.8,M,34.3,M,,0000*61
$GPGSA,M,3,22,30,16,06,03,21,14,,,,,,2.3,1.4,1.8*34
$GPRMC,191803.000,A,1704.7569,S,06941.8316,W,8.27,179.82,280411,,,A*6C
$GPGGA,191804.000,1704.7594,S,06941.8313,W,1,07,2.6,4224.3,M,34.3,M,,0000*6C
$GPGSA,M,3,22,30,16,18,06,03,21,,,,,,4.8,2.6,4.0*39
$GPRMC,191804.000,A,1704.7594,S,06941.8313,W,8.28,179.60,280411,,,A*6F
$GPGGA,191805.000,1704.7622,S,06941.8308,W,1,07,1.2,4226.5,M,34.3,M,,0000*6A
$GPGSA,M,3,22,16,18,06,03,21,14,,,,,,2.0,1.2,1.6*35
$GPGSV,3,1,11,22,81,044,36,30,68,299,,16,59,243,37,18,52,132,27*79
$GPGSV,3,2,11,06,39,202,33,03,28,212,31,21,20,137,30,14,17,026,25*79
$GPGSV,3,3,11,31,10,343,,29,09,072,,19,05,229,*4D
$GPRMC,191805.000,A,1704.7622,S,06941.8308,W,8.36,179.46,280411,,,A*61
$GPGGA,191805.998,1704.7653,S,06941.8304,W,1,06,3.5,4227.3,M,34.3,M,,0000*6B
$GPGSA,M,3,22,16,18,06,03,21,,,,,,,5.9,3.5,4.8*30
$GPRMC,191805.998,A,1704.7653,S,06941.8304,W,9.00,182.50,280411,,,A*64
$GPGGA,191807.000,1704.7681,S,06941.8303,W,1,06,3.5,4227.7,M,34.3,M,,0000*6D
$GPGSA,M,3,22,16,18,06,03,21,,,,,,,5.9,3.5,4.8*30
$GPRMC,191807.000,A,1704.7681,S,06941.8303,W,9.00,178.87,280411,,,A*69
$GPGGA,191808.002,1704.7704,S,06941.8305,W,1,07,1.3,4227.5,M,34.3,M,,0000*6D
$GPGSA,M,3,22,30,16,06,03,21,31,,,,,,1.8,1.3,1.4*30
$GPRMC,191808.002,A,1704.7704,S,06941.8305,W,8.80,178.44,280411,,,A*68
$GPGGA,191808.999,1704.7728,S,06941.8309,W,1,04,2.0,4227.8,M,34.3,M,,0000*6A
$GPGSA,M,3,22,16,06,21,,,,,,,,,2.2,2.0,1.0*3F
$GPRMC,191808.999,A,1704.7728,S,06941.8309,W,9.06,183.78,280411,,,A*65
$GPGGA,191810.001,1704.7756,S,06941.8310,W,1,07,1.4,4228.5,M,34.3,M,,0000*6C
$GPGSA,M,3,22,30,16,06,03,21,14,,,,,,2.3,1.4,1.8*34
$GPGSV,3,1,11,22,81,046,37,30,68,300,32,16,59,244,39,18,52,132,*76
$GPGSV,3,2,11,06,39,201,33,03,28,212,36,21,20,137,30,14,17,026,30*79
$GPGSV,3,3,11,31,10,343,,29,09,072,,19,05,229,*4D
$GPRMC,191810.001,A,1704.7756,S,06941.8310,W,8.97,185.42,280411,,,A*63
$GPGGA,191811.000,1704.7784,S,06941.8309,W,1,07,1.4,4229.7,M,34.3,M,,0000*68
$GPGSA,M,3,22,30,16,06,03,21,14,,,,,,2.3,1.4,1.8*34
$GPRMC,191811.000,A,1704.7784,S,06941.8309,W,8.69,181.04,280411,,,A*63
$GPGGA,191812.000,1704.7806,S,06941.8316,W,1,07,1.4,4231.8,M,34.3,M,,0000*66
$GPGSA,M,3,22,30,16,06,03,21,14,,,,,,2.3,1.4,1.8*34
$GPRMC,191812.000,A,1704.7806,S,06941.8316,W,8.65,179.38,280411,,,A*6F
$GPGGA,191813.000,1704.7826,S,06941.8320,W,1,09,1.0,4231.5,M,34.3,M,,0000*67
$GPGSA,M,3,22,30,16,06,03,21,14,31,18,,,,1.6,1.0,1.3*36
$GPRMC,191813.000,A,1704.7826,S,06941.8320,W,9.32,178.47,280411,,,A*63
$GPGGA,191814.000,1704.7856,S,06941.8315,W,1,09,1.0,4232.4,M,34.3,M,,0000*63
$GPGSA,M,3,22,30,16,06,03,21,14,31,18,,,,1.6,1.0,1.3*36
$GPGSV,3,1,11,22,81,046,39,30,68,300,32,16,59,244,41,18,52,132,33*77
$GPGSV,3,2,11,06,39,201,35,03,28,212,36,21,20,137,34,14,17,026,23*79
$GPGSV,3,3,11,31,10,343,23,29,09,072,,19,05,229,*4C
$GPRMC,191814.000,A,1704.7856,S,06941.8315,W,9.19,177.94,280411,,,A*6D
$GPGGA,191815.000,1704.7882,S,06941.8313,W,1,09,1.0,4232.4,M,34.3,M,,0000*6D
$GPGSA,M,3,22,30,16,06,03,21,14,31,18,,,,1.6,1.0,1.3*36
$GPRMC,191815.000,A,1704.7882,S,06941.8313,W,8.84,178.51,280411,,,A*60
$GPGGA,191816.000,1704.7908,S,06941.8312,W,1,09,1.0,4232.8,M,34.3,M,,0000*60
$GPGSA,M,3,22,30,16,06,03,21,14,31,18,,,,1.6,1.0,1.3*36
$GPRMC,191816.000,A,1704.7908,S,06941.8312,W,9.36,176.55,280411,,,A*63
$GPGGA,191817.000,1704.7933,S,06941.8310,W,1,09,1.0,4232.8,M,34.3,M,,0000*6B
$GPGSA,M,3,22,30,16,06,03,21,14,31,18,,,,1.6,1.0,1.3*36
$GPRMC,191817.000,A,1704.7933,S,06941.8310,W,9.76,174.75,280411,,,A*6C
$GPGGA,191818.000,1704.7958,S,06941.8309,W,1,09,1.0,4232.6,M,34.3,M,,0000*6F
$GPGSA,M,3,22,30,16,06,03,21,14,31,18,,,,1.6,1.0,1.3*36
$GPRMC,191818.000,A,1704.7958,S,06941.8309,W,9.71,177.23,280411,,,A*61
$GPGGA,191819.000,1704.7985,S,06941.8309,W,1,09,1.0,4232.6,M,34.3,M,,0000*6E
$GPGSA,M,3,22,30,16,06,03,21,14,31,18,,,,1.6,1.0,1.3*36
$GPGSV,3,1,11,22,81,046,39,30,68,300,33,16,59,244,40,18,52,132,29*7C
$GPGSV,3,2,11,06,39,201,35,03,28,212,36,21,20,137,29,14,17,026,24*72
$GPGSV,3,3,11,31,10,343,24,29,09,072,,19,05,229,*4B
$GPRMC,191819.000,A,1704.7985,S,06941.8309,W,9.85,181.13,280411,,,A*61
$GPGGA,191820.000,1704.8012,S,06941.8314,W,1,09,1.0,4232.4,M,34.3,M,,0000*62
$GPGSA,M,3,22,30,16,06,03,21,14,31,18,,,,1.6,1.0,1.3*36
$GPRMC,191820.000,A,1704.8012,S,06941.8314,W,9.57,185.55,280411,,,A*66
$GPGGA,191821.001,1704.8040,S,06941.8319,W,1,05,4.5,4232.2,M,34.3,M,,0000*62
$GPGSA,M,3,22,30,16,06,03,,,,,,,,9.0,4.5,7.8*38
$GPRMC,191821.001,A,1704.8040,S,06941.8319,W,10.31,192.97,280411,,,A*5C
$GPGGA,191821.999,1704.8067,S,06941.8327,W,1,06,3.5,4232.2,M,34.3,M,,0000*66
$GPGSA,M,3,22,30,16,06,03,21,,,,,,,6.6,3.5,5.6*39
$GPRMC,191821.999,A,1704.8067,S,06941.8327,W,10.18,193.37,280411,,,A*5C
$GPGGA,191823.000,1704.8094,S,06941.8336,W,1,08,1.2,4231.8,M,34.3,M,,0000*63
$GPGSA,M,3,22,30,16,18,06,03,21,14,,,,,2.0,1.2,1.6*36
$GPRMC,191823.000,A,1704.8094,S,06941.8336,W,10.15,198.15,280411,,,A*5D
$GPGGA,191824.002,1704.8122,S,06941.8344,W,1,07,1.2,4232.0,M,34.3,M,,0000*6B
$GPGSA,M,3,22,16,18,06,03,21,14,,,,,,2.0,1.2,1.6*35
$GPRMC,191824.002,A,1704.8122,S,06941.8344,W,10.10,197.90,280411,,,A*56
$GPGGA,191825.001,1704.8148,S,06941.8354,W,1,08,1.2,4231.4,M,34.3,M,,0000*6C
$GPGSA,M,3,22,30,16,18,06,03,21,14,,,,,2.0,1.2,1.6*36
$GPGSV,3,1,11,22,81,046,36,30,68,300,32,16,59,244,38,18,52,132,30*75
$GPGSV,3,2,11,06,39,201,31,03,28,212,36,21,20,137,30,14,17,026,25*7F
$GPGSV,3,3,11,31,10,343,,29,09,072,,19,05,229,*4D
$GPRMC,191825.001,A,1704.8148,S,06941.8354,W,9.91,197.89,280411,,,A*60
$GPGGA,191825.998,1704.8174,S,06941.8362,W,1,06,3.5,4230.9,M,34.3,M,,0000*68
$GPGSA,M,3,22,30,16,06,03,21,,,,,,,6.5,3.5,5.6*3A
$GPRMC,191825.998,A,1704.8174,S,06941.8362,W,9.85,194.21,280411,,,A*67
$GPGGA,191827.002,1704.8202,S,06941.8368,W,1,07,1.3,4231.0,M,34.3,M,,0000*65
$GPGSA,M,3,22,30,16,06,03,21,31,,,,,,1.9,1.3,1.4*31
$GPRMC,191827.002,A,1704.8202,S,06941.8368,W,10.30,190.23,280411,,,A*57
$GPGGA,191827.998,1704.8231,S,06941.8374,W,1,06,3.5,4230.7,M,34.3,M,,0000*61
$GPGSA,M,3,22,30,16,06,03,21,,,,,,,6.5,3.5,5.5*39
$GPRMC,191827.998,A,1704.8231,S,06941.8374,W,10.53,188.54,280411,,,A*5C
$GPGGA,191829.002,1704.8262,S,06941.8381,W,1,07,2.6,4230.4,M,34.3,M,,0000*69
$GPGSA,M,3,22,30,16,18,06,03,21,,,,,,4.7,2.6,4.0*36
$GPRMC,191829.002,A,1704.8262,S,06941.8381,W,11.01,196.32,280411,,,A*5D
$GPGGA,191830.001,1704.8290,S,06941.8390,W,1,08,1.2,4230.1,M,34.3,M,,0000*62
$GPGSA,M,3,22,30,16,18,06,03,21,14,,,,,2.0,1.2,1.6*36
$GPGSV,3,1,11,22,81,046,36,30,68,300,33,16,59,244,40,18,52,132,26*7C
$GPGSV,3,2,11,06,39,201,31,03,28,212,32,21,20,137,29,14,17,026,26*70
$GPGSV,3,3,11,31,10,343,,29,09,072,,19,05,229,*4D
$GPRMC,191830.001,A,1704.8290,S,06941.8390,W,10.27,196.76,280411,,,A*5E
$GPGGA,191831.001,1704.8319,S,06941.8400,W,1,08,1.1,4230.9,M,34.3,M,,0000*66
$GPGSA,M,3,22,30,16,18,06,03,21,31,,,,,1.7,1.1,1.3*33
$GPRMC,191831.001,A,1704.8319,S,06941.8400,W,10.81,196.25,280411,,,A*5B
$GPGGA,191832.001,1704.8347,S,06941.8409,W,1,08,1.1,4230.7,M,34.3,M,,0000*69
$GPGSA,M,3,22,30,16,18,06,03,21,31,,,,,1.7,1.1,1.3*33
$GPRMC,191832.001,A,1704.8347,S,06941.8409,W,10.20,197.03,280411,,,A*54
$GPGGA,191833.001,1704.8373,S,06941.8418,W,1,08,1.1,4230.9,M,34.3,M,,0000*61
$GPGSA,M,3,22,30,16,18,06,03,21,31,,,,,1.7,1.1,1.3*33
$GPRMC,191833.001,A,1704.8373,S,06941.8418,W,9.45,200.51,280411,,,A*63
$GPGGA,191833.999,1704.8399,S,06941.8423,W,1,07,2.6,4232.3,M,34.3,M,,0000*66
$GPGSA,M,3,22,30,16,18,06,03,21,,,,,,4.7,2.6,4.0*36
$GPRMC,191833.999,A,1704.8399,S,06941.8423,W,9.17,200.22,280411,,,A*64
$GPGGA,191834.999,1704.8428,S,06941.8428,W,1,06,3.9,4232.6,M,34.3,M,,0000*6D
$GPGSA,M,3,22,30,16,18,06,03,,,,,,,8.7,3.9,7.8*3C
$GPGSV,3,1,11,22,81,046,37,30,68,300,26,16,59,244,38,18,52,132,31*70
$GPGSV,3,2,11,06,39,201,31,03,28,212,35,21,20,137,,14,17,026,*78
$GPGSV,3,3,11,31,10,343,,29,09,072,,19,05,229,*4D
$GPRMC,191834.999,A,1704.8428,S,06941.8428,W,10.66,196.02,280411,,,A*55
$GPGGA,191836.001,1704.8454,S,06941.8435,W,1,07,1.5,4233.5,M,34.3,M,,0000*6D
$GPGSA,M,3,22,30,16,18,06,03,31,,,,,,2.2,1.5,1.6*37
$GPRMC,191836.001,A,1704.8454,S,06941.8435,W,9.23,194.84,280411,,,A*6D
$GPGGA,191837.001,1704.8476,S,06941.8443,W,1,07,1.7,4233.4,M,34.3,M,,0000*6E
$GPGSA,M,3,22,30,16,06,03,14,31,,,,,,2.2,1.7,1.4*3B
$GPRMC,191837.001,A,1704.8476,S,06941.8443,W,9.23,197.96,280411,,,A*6D
$GPGGA,191837.999,1704.8503,S,06941.8448,W,1,06,3.9,4233.7,M,34.3,M,,0000*60
$GPGSA,M,3,22,30,16,18,06,03,,,,,,,8.7,3.9,7.8*3C
$GPRMC,191837.999,A,1704.8503,S,06941.8448,W,9.76,195.10,280411,,,A*61
$GPGGA,191839.002,1704.8531,S,06941.8453,W,1,07,1.7,4234.2,M,34.3,M,,0000*61
$GPGSA,M,3,22,30,16,06,03,14,31,,,,,,2.2,1.7,1.4*3B
$GPRMC,191839.002,A,1704.8531,S,06941.8453,W,9.66,187.52,280411,,,A*6B
$GPGGA,191839.999,1704.8558,S,06941.8458,W,1,04,3.7,4234.0,M,34.3,M,,0000*6D
$GPGSA,M,3,22,16,06,03,,,,,,,,,3.8,3.7,1.0*32
$GPGSV,3,1,11,22,81,046,36,30,68,300,,16,59,244,37,18,52,132,*78
$GPGSV,3,2,11,06,39,201,32,03,28,212,37,21,20,137,,14,17,026,*79
$GPGSV,3,3,11,31,10,343,,29,09,072,,19,05,229,*4D
$GPRMC,191839.999,A,1704.8558,S,06941.8458,W,10.02,191.61,280411,,,A*59
$GPGGA,191840.999,1704.8586,S,06941.8461,W,1,06,3.5,4233.7,M,34.3,M,,0000*6A
$GPGSA,M,3,22,16,18,06,03,21,,,,,,,5.9,3.5,4.7*3F
$GPRMC,191840.999,A,1704.8586,S,06941.8461,W,9.84,184.50,280411,,,A*6E
$GPGGA,191842.002,1704.8616,S,06941.8465,W,1,07,1.3,4233.0,M,34.3,M,,0000*6F
$GPGSA,M,3,22,30,16,06,03,21,31,,,,,,1.9,1.3,1.4*31
$GPRMC,191842.002,A,1704.8616,S,06941.8465,W,10.84,186.79,280411,,,A*58
$GPGGA,191842.998,1704.8649,S,06941.8466,W,1,08,1.2,4234.1,M,34.3,M,,0000*64
$GPGSA,M,3,22,30,16,18,06,03,21,14,,,,,2.0,1.2,1.6*36
$GPRMC,191842.998,A,1704.8649,S,06941.8466,W,11.54,180.23,280411,,,A*5E
$GPGGA,191844.002,1704.8683,S,06941.8467,W,1,09,1.0,4234.7,M,34.3,M,,0000*6A
$GPGSA,M,3,22,30,16,18,06,03,21,14,31,,,,1.6,1.0,1.3*36
$GPRMC,191844.002,A,1704.8683,S,06941.8467,W,11.46,181.24,280411,,,A*50
$GPGGA,191845.000,1704.8714,S,06941.8464,W,1,07,1.2,4234.8,M,34.3,M,,0000*66
$GPGSA,M,3,22,16,18,06,03,21,14,,,,,,2.1,1.2,1.6*34
$GPGSV,3,1,11,22,81,046,36,30,68,300,,16,59,244,36,18,52,132,33*79
$GPGSV,3,2,11,06,39,201,34,03,28,212,36,21,20,137,29,14,17,026,27*70
$GPGSV,3,3,11,31,10,343,,29,09,072,,19,05,229,*4D
$GPRMC,191845.000,A,1704.8714,S,06941.8464,W,11.21,176.81,280411,,,A*59
$GPGGA,191845.998,1704.8746,S,06941.8459,W,1,08,1.1,4234.9,M,34.3,M,,0000*6A
$GPGSA,M,3,22,30,16,18,06,03,21,31,,,,,1.7,1.1,1.3*33
$GPRMC,191845.998,A,1704.8746,S,06941.8459,W,10.74,172.73,280411,,,A*50
$GPGGA,191847.000,1704.8779,S,06941.8450,W,1,06,1.2,4235.1,M,34.3,M,,0000*61
$GPGSA,M,3,22,16,18,03,21,31,,,,,,,1.9,1.2,1.4*3C
$GPRMC,191847.000,A,1704.8779,S,06941.8450,W,10.90,171.05,280411,,,A*57
$GPGGA,191848.000,1704.8811,S,06941.8441,W,1,08,1.2,4235.4,M,34.3,M,,0000*64
$GPGSA,M,3,22,30,16,18,06,03,21,14,,,,,2.0,1.2,1.6*36
$GPRMC,191848.000,A,1704.8811,S,06941.8441,W,10.83,167.86,280411,,,A*57
$GPGGA,191849.000,1704.8840,S,06941.8436,W,1,08,1.2,4235.2,M,34.3,M,,0000*67
$GPGSA,M,3,22,30,16,18,06,03,21,14,,,,,2.0,1.2,1.6*36
$GPRMC,191849.000,A,1704.8840,S,06941.8436,W,10.80,169.81,280411,,,A*58
$GPGGA,191850.001,1704.8866,S,06941.8431,W,1,09,1.0,4235.1,M,34.3,M,,0000*6D
$GPGSA,M,3,22,30,16,18,06,03,21,14,31,,,,1.6,1.0,1.3*36
$GPGSV,3,1,11,22,81,046,33,30,68,300,29,16,59,244,34,18,52,132,31*77
$GPGSV,3,2,11,06,39,201,33,03,28,212,32,21,20,137,26,14,17,026,25*7E
$GPGSV,3,3,11,31,10,343,26,29,09,072,,19,05,229,*49
$GPRMC,191850.001,A,1704.8866,S,06941.8431,W,11.18,165.06,280411,,,A*51
$GPGGA,191851.000,1704.8899,S,06941.8423,W,1,09,1.0,4235.8,M,34.3,M,,0000*67
$GPGSA,M,3,22,30,16,18,06,03,21,14,31,,,,1.6,1.0,1.3*36
$GPRMC,191851.000,A,1704.8899,S,06941.8423,W,10.89,170.68,280411,,,A*57
$GPGGA,191852.002,1704.8931,S,06941.8413,W,1,08,1.2,4236.6,M,34.3,M,,0000*68
$GPGSA,M,3,22,30,16,18,06,03,21,14,,,,,2.0,1.2,1.6*36
$GPRMC,191852.002,A,1704.8931,S,06941.8413,W,10.70,166.98,280411,,,A*58
$GPGGA,191852.997,1704.8958,S,06941.8409,W,1,08,1.2,4236.2,M,34.3,M,,0000*6D
$GPGSA,M,3,22,30,16,18,06,03,21,14,,,,,2.0,1.2,1.6*36
$GPRMC,191852.997,A,1704.8958,S,06941.8409,W,10.32,163.82,280411,,,A*51
$GPGGA,191854.000,1704.8989,S,06941.8394,W,1,06,3.9,4236.4,M,34.3,M,,0000*62
$GPGSA,M,3,22,30,16,18,06,03,,,,,,,8.7,3.9,7.8*3C
$GPRMC,191854.000,A,1704.8989,S,06941.8394,W,11.26,163.08,280411,,,A*59
$GPGGA,191855.000,1704.9024,S,06941.8380,W,1,06,2.7,4236.9,M,34.3,M,,0000*6B
$GPGSA,M,3,22,30,16,18,06,21,,,,,,,5.0,2.7,4.2*30
$GPGSV,3,1,11,22,81,046,37,30,68,300,31,16,59,244,36,18,52,132,37*7E
$GPGSV,3,2,11,06,39,201,34,03,28,212,,21,20,137,25,14,17,026,*7C
$GPGSV,3,3,11,31,10,343,,29,09,072,,19,05,229,*4D
$GPRMC,191855.000,A,1704.9024,S,06941.8380,W,11.59,158.37,280411,,,A*5E
$GPGGA,191856.000,1704.9051,S,06941.8374,W,1,06,3.9,4236.4,M,34.3,M,,0000*63
$GPGSA,M,3,22,30,16,18,06,03,,,,,,,8.7,3.9,7.8*3C
$GPRMC,191856.000,A,1704.9051,S,06941.8374,W,12.46,160.80,280411,,,A*5E
$GPGGA,191857.002,1704.9083,S,06941.8361,W,1,05,1.9,4236.6,M,34.3,M,,0000*68
$GPGSA,M,3,22,30,16,18,06,,,,,,,,2.2,1.9,1.0*3C
$GPRMC,191857.002,A,1704.9083,S,06941.8361,W,12.85,159.98,280411,,,A*5A
$GPGGA,191858.001,1704.9121,S,06941.8348,W,1,08,1.1,4236.5,M,34.3,M,,0000*60
$GPGSA,M,3,22,30,16,18,06,03,21,31,,,,,1.7,1.1,1.3*33
$GPRMC,191858.001,A,1704.9121,S,06941.8348,W,13.46,160.70,280411,,,A*56
$GPGGA,191858.999,1704.9153,S,06941.8343,W,1,07,2.5,4235.4,M,34.3,M,,0000*6C
$GPGSA,M,3,22,30,16,18,06,03,21,,,,,,4.7,2.5,3.9*3B
$GPRMC,191858.999,A,1704.9153,S,06941.8343,W,13.55,162.69,280411,,,A*58
$GPGGA,191859.999,1704.9189,S,06941.8331,W,1,06,3.9,4235.5,M,34.3,M,,0000*62
$GPGSA,M,3,22,30,16,18,06,03,,,,,,,8.7,3.9,7.8*3C
$GPGSV,3,1,11,22,81,046,37,30,68,300,29,16,59,244,35,18,52,132,37*74
$GPGSV,3,2,11,06,39,201,35,03,28,212,35,21,20,137,,14,17,026,*7C
$GPGSV,3,3,11,31,10,343,,29,09,072,,19,05,229,*4D
$GPRMC,191859.999,A,1704.9189,S,06941.8331,W,13.77,162.78,280411,,,A*5B
$GPGGA,191901.003,1704.9229,S,06941.8317,W,1,08,1.1,4235.3,M,34.3,M,,0000*6B
$GPGSA,M,3,22,30,16,18,06,03,21,31,,,,,1.7,1.1,1.3*33
$GPRMC,191901.003,A,1704.9229,S,06941.8317,W,14.53,164.36,280411,,,A*5D
$GPGGA,191902.000,1704.9272,S,06941.8303,W,1,08,1.2,4236.1,M,34.3,M,,0000*62
$GPGSA,M,3,22,30,16,18,06,03,21,14,,,,,2.0,1.2,1.6*36
$GPRMC,191902.000,A,1704.9272,S,06941.8303,W,14.74,166.24,280411,,,A*52
$GPGGA,191903.000,1704.9313,S,06941.8294,W,1,08,1.2,4235.3,M,34.3,M,,0000*6B
$GPGSA,M,3,22,30,16,18,06,03,21,14,,,,,2.0,1.2,1.6*36
$GPRMC,191903.000,A,1704.9313,S,06941.8294,W,13.98,167.68,280411,,,A*56
$GPGGA,191904.000,1704.9349,S,06941.8284,W,1,08,1.2,4236.1,M,34.3,M,,0000*63
$GPGSA,M,3,22,30,16,18,06,03,21,14,,,,,2.0,1.2,1.6*36
$GPRMC,191904.000,A,1704.9349,S,06941.8284,W,14.22,168.08,280411,,,A*50
$GPGGA,191905.000,1704.9388,S,06941.8275,W,1,08,1.2,4235.2,M,34.3,M,,0000*61
$GPGSA,M,3,22,30,16,18,06,03,21,14,,,,,2.0,1.2,1.6*36
$GPGSV,3,1,11,22,81,046,37,30,68,300,33,16,59,244,37,18,52,132,37*7D
$GPGSV,3,2,11,06,39,201,28,03,28,212,33,21,20,137,27,14,17,026,27*76
$GPGSV,3,3,11,31,10,343,,29,09,072,,19,05,229,*4D
$GPRMC,191905.000,A,1704.9388,S,06941.8275,W,14.02,166.44,280411,,,A*56
$GPGGA,191905.996,1704.9428,S,06941.8264,W,1,08,1.2,4234.2,M,34.3,M,,0000*6B
$GPGSA,M,3,22,30,16,18,06,03,21,14,,,,,2.0,1.2,1.6*36
$GPRMC,191905.996,A,1704.9428,S,06941.8264,W,14.11,170.41,280411,,,A*5D
$GPGGA,191907.004,1704.9463,S,06941.8261,W,1,08,1.2,4233.8,M,34.3,M,,0000*6C
$GPGSA,M,3,22,30,16,18,06,03,21,14,,,,,2.0,1.2,1.6*36
$GPRMC,191907.004,A,1704.9463,S,06941.8261,W,13.62,170.17,280411,,,A*57
$GPGGA,191907.996,1704.9500,S,06941.8253,W,1,06,3.9,4233.0,M,34.3,M,,0000*64
$GPGSA,M,3,22,30,16,18,06,03,,,,,,,8.7,3.9,7.8*3C
$GPRMC,191907.996,A,1704.9500,S,06941.8253,W,13.11,169.56,280411,,,A*59
$GPGGA,191909.002,1704.9539,S,06941.8243,W,1,09,1.0,4233.2,M,34.3,M,,0000*63
$GPGSA,M,3,22,30,16,18,06,03,21,14,31,,,,1.6,1.0,1.3*36
$GPRMC,191909.002,A,1704.9539,S,06941.8243,W,13.45,161.47,280411,,,A*51
$GPGGA,191909.998,1704.9572,S,06941.8231,W,1,06,1.6,4233.5,M,34.3,M,,0000*6D
$GPGSA,M,3,22,30,16,18,06,14,,,,,,,2.6,1.6,2.1*30
$GPGSV,3,1,11,22,81,046,36,30,68,300,32,16,59,244,34,18,52,132,35*7C
$GPGSV,3,2,11,06,39,201,31,03,28,212,,21,20,137,,14,17,026,25*79
$GPGSV,3,3,11,31,10,343,,29,09,072,,19,05,229,*4D
$GPRMC,191909.998,A,1704.9572,S,06941.8231,W,12.53,163.90,280411,,,A*5F
$GPGGA,191911.000,1704.9605,S,06941.8219,W,1,06,3.9,4233.6,M,34.3,M,,0000*6B
$GPGSA,M,3,22,30,16,18,06,03,,,,,,,8.7,3.9,7.8*3C
$GPRMC,191911.000,A,1704.9605,S,06941.8219,W,12.30,158.82,280411,,,A*59
$GPGGA,191912.000,1704.9638,S,06941.8207,W,1,08,1.1,4232.6,M,34.3,M,,0000*6C
$GPGSA,M,3,22,30,16,18,06,03,21,31,,,,,1.7,1.1,1.3*33
$GPRMC,191912.000,A,1704.9638,S,06941.8207,W,12.74,156.37,280411,,,A*5B
$GPGGA,191913.000,1704.9674,S,06941.8190,W,1,08,1.1,4232.6,M,34.3,M,,0000*68
$GPGSA,M,3,22,30,16,18,06,03,21,31,,,,,1.7,1.1,1.3*33
$GPRMC,191913.000,A,1704.9674,S,06941.8190,W,13.08,154.17,280411,,,A*55
$GPGGA,191914.000,1704.9706,S,06941.8184,W,1,08,1.1,4233.4,M,34.3,M,,0000*6D
$GPGSA,M,3,22,30,16,18,06,03,21,31,,,,,1.7,1.1,1.3*33
$GPRMC,191914.000,A,1704.9706,S,06941.8184,W,12.48,161.12,280411,,,A*55
$GPGGA,191915.002,1704.9741,S,06941.8172,W,1,07,2.5,4233.4,M,34.3,M,,0000*6C
$GPGSA,M,3,22,30,16,18,06,03,21,,,,,,4.6,2.5,3.9*3A
$GPGSV,3,1,11,22,81,046,36,30,68,300,29,16,59,244,34,18,52,132,37*74
$GPGSV,3,2,11,06,39,201,31,03,28,212,29,21,20,137,26,14,17,026,*71
$GPGSV,3,3,11,31,10,343,,29,09,072,,19,05,229,*4D
$GPRMC,191915.002,A,1704.9741,S,06941.8172,W,12.99,160.79,280411,,,A*5C
$GPGGA,191916.000,1704.9779,S,06941.8157,W,1,07,1.2,4232.4,M,34.3,M,,0000*64
$GPGSA,M,3,22,30,16,18,03,21,14,,,,,,2.0,1.2,1.6*30
$GPRMC,191916.000,A,1704.9779,S,06941.8157,W,13.51,165.59,280411,,,A*53
$GPGGA,191916.998,1704.9815,S,06941.8150,W,1,06,2.7,4231.7,M,34.3,M,,0000*69
$GPGSA,M,3,22,30,16,06,03,14,,,,,,,3.3,2.7,1.8*36
$GPRMC,191916.998,A,1704.9815,S,06941.8150,W,14.03,172.39,280411,,,A*59
$GPGGA,191918.003,1704.9851,S,06941.8150,W,1,08,1.1,4233.5,M,34.3,M,,0000*67
$GPGSA,M,3,22,30,16,18,06,03,21,31,,,,,1.7,1.1,1.3*33
$GPRMC,191918.003,A,1704.9851,S,06941.8150,W,12.78,180.20,280411,,,A*53
$GPGGA,191918.997,1704.9889,S,06941.8151,W,1,08,1.2,4232.6,M,34.3,M,,0000*66
$GPGSA,M,3,22,30,16,18,06,03,21,14,,,,,2.0,1.2,1.6*36
$GPRMC,191918.997,A,1704.9889,S,06941.8151,W,14.35,181.00,280411,,,A*5F
$GPGGA,191920.000,1704.9930,S,06941.8155,W,1,08,1.2,4232.5,M,34.3,M,,0000*6E
$GPGSA,M,3,22,30,16,18,06,03,21,14,,,,,2.0,1.2,1.6*36
$GPGSV,3,1,11,22,81,046,38,30,68,300,30,16,59,244,39,18,52,132,29*70
$GPGSV,3,2,11,06,39,201,32,03,28,212,36,21,20,137,27,14,17,026,30*7E
$GPGSV,3,3,11,31,10,343,,29,09,072,,19,05,229,*4D
$GPRMC,191920.000,A,1704.9930,S,06941.8155,W,14.89,182.26,280411,,,A*54
$GPGGA,191921.002,1704.9973,S,06941.8163,W,1,07,1.5,4232.8,M,34.3,M,,0000*6A
$GPGSA,M,3,22,30,16,18,06,03,31,,,,,,2.2,1.5,1.6*37
$GPRMC,191921.002,A,1704.9973,S,06941.8163,W,15.01,183.71,280411,,,A*57
$GPGGA,191922.000,1705.0018,S,06941.8168,W,1,07,1.5,4233.3,M,34.3,M,,0000*66
$GPGSA,M,3,22,30,16,18,06,03,31,,,,,,2.2,1.5,1.6*37
$GPRMC,191922.000,A,1705.0018,S,06941.8168,W,14.57,189.31,280411,,,A*5D
$GPGGA,191923.000,1705.0057,S,06941.8176,W,1,07,2.5,4232.4,M,34.3,M,,0000*66
$GPGSA,M,3,22,30,16,18,06,03,21,,,,,,4.6,2.5,3.9*3A
$GPRMC,191923.000,A,1705.0057,S,06941.8176,W,14.03,196.90,280411,,,A*5C
$GPGGA,191923.998,1705.0100,S,06941.8182,W,1,06,3.9,4232.2,M,34.3,M,,0000*6C
$GPGSA,M,3,22,30,16,18,06,03,,,,,,,8.7,3.9,7.8*3C
$GPRMC,191923.998,A,1705.0100,S,06941.8182,W,14.76,191.01,280411,,,A*51
$GPGGA,191925.002,1705.0140,S,06941.8189,W,1,07,1.4,4232.5,M,34.3,M,,0000*66
$GPGSA,M,3,22,30,16,18,06,21,31,,,,,,2.0,1.4,1.4*36
$GPGSV,3,1,11,22,81,046,36,30,68,300,34,16,59,244,37,18,52,132,27*7A
$GPGSV,3,2,11,06,39,201,33,03,28,212,,21,20,137,28,14,17,026,*76
$GPGSV,3,3,11,31,10,343,28,29,09,072,,19,05,229,*47
$GPRMC,191925.002,A,1705.0140,S,06941.8189,W,14.88,186.96,280411,,,A*5B
$GPGGA,191925.998,1705.0179,S,06941.8190,W,1,06,3.9,4231.6,M,34.3,M,,0000*60
$GPGSA,M,3,22,30,16,18,06,03,,,,,,,8.7,3.9,7.8*3C
$GPRMC,191925.998,A,1705.0179,S,06941.8190,W,13.29,179.68,280411,,,A*5E
$GPGGA,191927.003,1705.0218,S,06941.8187,W,1,08,1.1,4232.2,M,34.3,M,,0000*68
$GPGSA,M,3,22,30,16,18,06,03,21,31,,,,,1.7,1.1,1.3*33
$GPRMC,191927.003,A,1705.0218,S,06941.8187,W,14.61,173.92,280411,,,A*51
$GPGGA,191927.998,1705.0256,S,06941.8177,W,1,07,1.5,4232.1,M,34.3,M,,0000*6E
$GPGSA,M,3,22,30,16,18,06,03,31,,,,,,2.2,1.5,1.6*37
$GPRMC,191927.998,A,1705.0256,S,06941.8177,W,12.92,167.62,280411,,,A*5F
$GPGGA,191929.000,1705.0292,S,06941.8154,W,1,07,1.4,4232.5,M,34.3,M,,0000*64
$GPGSA,M,3,22,30,16,18,06,21,14,,,,,,2.4,1.4,1.9*38
$GPRMC,191929.000,A,1705.0292,S,06941.8154,W,13.42,155.84,280411,,,A*55
$GPGGA,191930.002,1705.0327,S,06941.8122,W,1,08,1.1,4232.8,M,34.3,M,,0000*67
$GPGSA,M,3,22,30,16,18,06,03,21,31,,,,,1.7,1.1,1.3*33
$GPGSV,3,1,11,22,81,046,36,30,68,300,31,16,59,244,36,18,52,132,36*7E
$GPGSV,3,2,11,06,39,201,30,03,28,212,33,21,20,137,28,14,17,026,*75
$GPGSV,3,3,11,31,10,343,33,29,09,072,,19,05,229,*4D
$GPRMC,191930.002,A,1705.0327,S,06941.8122,W,14.02,144.40,280411,,,A*5A
$GPGGA,191930.998,1705.0362,S,06941.8095,W,1,07,1.2,4233.7,M,34.3,M,,0000*63
$GPGSA,M,3,22,30,16,18,03,21,31,,,,,,1.8,1.2,1.3*39
$GPRMC,191930.998,A,1705.0362,S,06941.8095,W,14.73,144.54,280411,,,A*5F
$GPGGA,191932.000,1705.0393,S,06941.8076,W,1,07,1.4,4234.3,M,34.3,M,,0000*6F
$GPGSA,M,3,22,30,16,18,06,21,31,,,,,,2.0,1.4,1.4*36
$GPRMC,191932.000,A,1705.0393,S,06941.8076,W,13.52,149.12,280411,,,A*5D
$GPGGA,191933.002,1705.0425,S,06941.8051,W,1,08,1.1,4234.3,M,34.3,M,,0000*69
$GPGSA,M,3,22,30,16,18,06,03,21,31,,,,,1.7,1.1,1.3*33
$GPRMC,191933.002,A,1705.0425,S,06941.8051,W,13.55,147.94,280411,,,A*56
$GPGGA,191934.000,1705.0457,S,06941.8023,W,1,08,1.1,4233.6,M,34.3,M,,0000*6E
$GPGSA,M,3,22,30,16,18,06,03,21,31,,,,,1.7,1.1,1.3*33
$GPRMC,191934.000,A,1705.0457,S,06941.8023,W,13.07,145.42,280411,,,A*5D
$GPGGA,191935.000,1705.0485,S,06941.8001,W,1,08,1.1,4233.7,M,34.3,M,,0000*61
$GPGSA,M,3,22,30,16,18,06,03,21,31,,,,,1.7,1.1,1.3*33
$GPGSV,3,1,11,22,81,046,32,30,68,300,34,16,59,244,29,18,52,132,33*74
$GPGSV,3,2,11,06,39,201,33,03,28,212,30,21,20,137,30,14,17,026,*7C
$GPGSV,3,3,11,31,10,343,31,29,09,072,,19,05,229,*4F
$GPRMC,191935.000,A,1705.0485,S,06941.8001,W,13.24,142.10,280411,,,A*52
$GPGGA,191935.996,1705.0514,S,06941.7983,W,1,08,1.1,4235.1,M,34.3,M,,0000*62
$GPGSA,M,3,22,30,16,18,06,03,21,31,,,,,1.7,1.1,1.3*33
$GPRMC,191935.996,A,1705.0514,S,06941.7983,W,13.28,144.58,280411,,,A*57
$GPGGA,191937.004,1705.0548,S,06941.7956,W,1,08,1.1,4236.3,M,34.3,M,,0000*62
$GPGSA,M,3,22,30,16,18,06,03,21,31,,,,,1.7,1.1,1.3*33
$GPRMC,191937.004,A,1705.0548,S,06941.7956,W,13.08,146.04,280411,,,A*5F
$GPGGA,191938.000,1705.0580,S,06941.7934,W,1,08,1.1,4235.7,M,34.3,M,,0000*6E
$GPGSA,M,3,22,30,16,18,03,21,14,31,,,,,1.7,1.1,1.3*30
$GPRMC,191938.000,A,1705.0580,S,06941.7934,W,13.13,151.05,280411,,,A*59
