$GPGGA,214016.000,2125.5087,S,07003.3851,W,1,09,1.1,5.0,M,34.8,M,,0000*55
$GPGSA,M,3,03,19,06,14,32,22,11,24,20,,,,2.1,1.1,1.7*36
$GPRMC,214016.000,A,2125.5087,S,07003.3851,W,0.06,57.56,010511,,,A*57
$GPGGA,214017.000,2125.5088,S,07003.3851,W,1,09,1.1,5.9,M,34.8,M,,0000*52
$GPGSA,M,3,03,19,06,14,32,22,11,24,20,,,,2.1,1.1,1.7*36
$GPRMC,214017.000,A,2125.5088,S,07003.3851,W,0.04,252.48,010511,,,A*63
$GPGGA,214018.000,2125.5091,S,07003.3855,W,1,09,1.1,7.5,M,34.8,M,,0000*5F
$GPGSA,M,3,03,19,06,14,32,22,11,24,20,,,,2.1,1.1,1.7*36
$GPRMC,214018.000,A,2125.5091,S,07003.3855,W,0.14,197.05,010511,,,A*62
$GPGGA,214018.998,2125.5092,S,07003.3857,W,1,10,0.9,8.9,M,34.8,M,,0000*54
$GPGSA,M,3,03,19,06,14,32,22,11,24,16,20,,,1.7,0.9,1.4*3E
$GPRMC,214018.998,A,2125.5092,S,07003.3857,W,0.28,113.67,010511,,,A*6C
$GPGGA,214020.002,2125.5093,S,07003.3859,W,1,09,1.1,9.8,M,34.8,M,,0000*5B
$GPGSA,M,3,03,19,06,14,32,22,11,24,20,,,,2.1,1.1,1.7*36
$GPGSV,3,1,12,03,76,002,40,19,67,208,28,06,60,031,36,14,44,106,37*74
$GPGSV,3,2,12,32,39,291,40,22,26,142,35,11,26,225,39,24,18,236,38*73
$GPGSV,3,3,12,16,17,348,,20,15,295,33,30,04,005,,31,03,038,*74
$GPRMC,214020.002,A,2125.5093,S,07003.3859,W,0.17,219.83,010511,,,A*6D
$GPGGA,214021.000,2125.5090,S,07003.3855,W,1,09,1.1,8.7,M,34.8,M,,0000*59
$GPGSA,M,3,03,19,06,14,32,22,11,24,20,,,,2.1,1.1,1.7*36
$GPRMC,214021.000,A,2125.5090,S,07003.3855,W,0.19,95.87,010511,,,A*5D
$GPGGA,214022.000,2125.5093,S,07003.3853,W,1,09,1.1,9.8,M,34.8,M,,0000*51
$GPGSA,M,3,03,19,06,14,32,22,11,24,20,,,,2.1,1.1,1.7*36
$GPRMC,214022.000,A,2125.5093,S,07003.3853,W,0.12,345.68,010511,,,A*6F
$GPGGA,214023.000,2125.5092,S,07003.3851,W,1,09,1.1,8.7,M,34.8,M,,0000*5D
$GPGSA,M,3,03,19,06,14,32,22,11,24,20,,,,2.1,1.1,1.7*36
$GPRMC,214023.000,A,2125.5092,S,07003.3851,W,0.30,199.49,010511,,,A*6D
$GPGGA,214024.000,2125.5088,S,07003.3853,W,1,09,1.1,7.8,M,34.8,M,,0000*53
$GPGSA,M,3,03,19,06,14,32,22,11,24,20,,,,2.1,1.1,1.7*36
$GPRMC,214024.000,A,2125.5088,S,07003.3853,W,0.12,299.58,010511,,,A*60
$GPGGA,214025.000,2125.5090,S,07003.3856,W,1,09,1.1,8.8,M,34.8,M,,0000*51
$GPGSA,M,3,03,19,06,14,32,22,11,24,20,,,,2.1,1.1,1.7*36
$GPGSV,3,1,12,03,76,002,39,19,67,208,29,06,60,031,36,14,44,106,36*7A
$GPGSV,3,2,12,32,39,291,40,22,26,142,34,11,26,225,39,24,18,236,38*72
$GPGSV,3,3,12,16,17,348,,20,15,295,35,30,04,005,,31,03,038,*72
$GPRMC,214025.000,A,2125.5090,S,07003.3856,W,0.25,243.91,010511,,,A*6B
$GPGGA,214026.000,2125.5091,S,07003.3857,W,1,09,1.1,9.1,M,34.8,M,,0000*5A
$GPGSA,M,3,03,19,06,14,32,22,11,24,20,,,,2.1,1.1,1.7*36
$GPRMC,214026.000,A,2125.5091,S,07003.3857,W,0.41,240.18,010511,,,A*68
$GPGGA,214027.000,2125.5093,S,07003.3855,W,1,09,1.1,9.2,M,34.8,M,,0000*58
$GPGSA,M,3,03,19,06,14,32,22,11,24,20,,,,2.1,1.1,1.7*36
$GPRMC,214027.000,A,2125.5093,S,07003.3855,W,0.13,258.59,010511,,,A*62
$GPGGA,214027.999,2125.5091,S,07003.3855,W,1,08,1.3,7.9,M,34.8,M,,0000*55
$GPGSA,M,3,03,06,14,32,22,11,24,20,,,,,2.6,1.3,2.3*3C
$GPRMC,214027.999,A,2125.5091,S,07003.3855,W,0.50,209.06,010511,,,A*60
$GPGGA,214029.001,2125.5090,S,07003.3854,W,1,09,1.1,7.0,M,34.8,M,,0000*59
$GPGSA,M,3,03,19,06,14,32,22,11,24,20,,,,2.1,1.1,1.7*36
$GPRMC,214029.001,A,2125.5090,S,07003.3854,W,0.63,194.88,010511,,,A*67
$GPGGA,214030.001,2125.5093,S,07003.3852,W,1,09,1.1,6.9,M,34.8,M,,0000*5C
$GPGSA,M,3,03,19,06,14,32,22,11,24,20,,,,2.1,1.1,1.7*36
$GPGSV,3,1,12,03,76,002,38,19,67,208,28,06,60,031,35,14,44,106,36*79
$GPGSV,3,2,12,32,39,291,39,22,26,142,33,11,26,225,39,24,18,236,37*74
$GPGSV,3,3,12,16,17,348,,20,15,295,33,30,04,005,,31,03,038,*74
$GPRMC,214030.001,A,2125.5093,S,07003.3852,W,0.17,214.14,010511,,,A*67
$GPGGA,214031.001,2125.5088,S,07003.3852,W,1,09,1.1,5.9,M,34.8,M,,0000*54
$GPGSA,M,3,03,19,06,14,32,22,11,24,20,,,,2.1,1.1,1.7*36
$GPRMC,214031.001,A,2125.5088,S,07003.3852,W,0.26,203.26,010511,,,A*69
$GPGGA,214032.002,2125.5089,S,07003.3851,W,1,08,1.3,5.9,M,34.8,M,,0000*55
$GPGSA,M,3,03,06,14,32,22,11,24,20,,,,,2.6,1.3,2.3*3C
$GPRMC,214032.002,A,2125.5089,S,07003.3851,W,0.21,195.49,010511,,,A*69
$GPGGA,214032.999,2125.5090,S,07003.3849,W,1,09,1.1,5.7,M,34.8,M,,0000*52
$GPGSA,M,3,03,19,06,14,32,22,11,24,20,,,,2.1,1.1,1.7*36
$GPRMC,214032.999,A,2125.5090,S,07003.3849,W,0.55,103.36,010511,,,A*67
$GPGGA,214034.000,2125.5090,S,07003.3846,W,1,09,1.1,5.3,M,34.8,M,,0000*56
$GPGSA,M,3,03,19,06,14,32,22,11,24,20,,,,2.1,1.1,1.7*36
$GPRMC,214034.000,A,2125.5090,S,07003.3846,W,0.03,325.48,010511,,,A*6B
$GPGGA,214035.000,2125.5091,S,07003.3845,W,1,09,1.1,5.0,M,34.8,M,,0000*56
$GPGSA,M,3,03,19,06,14,32,22,11,24,20,,,,2.1,1.1,1.7*36
$GPGSV,3,1,12,03,76,002,39,19,67,208,28,06,60,031,35,14,44,106,36*78
$GPGSV,3,2,12,32,39,291,39,22,26,142,33,11,26,225,39,24,18,236,38*7B
$GPGSV,3,3,12,16,17,348,,20,15,295,34,30,04,005,,31,03,038,*73
$GPRMC,214035.000,A,2125.5091,S,07003.3845,W,0.43,192.61,010511,,,A*69
$GPGGA,214035.999,2125.5088,S,07003.3843,W,1,09,1.1,3.5,M,34.8,M,,0000*52
$GPGSA,M,3,03,19,06,14,32,22,11,24,20,,,,2.1,1.1,1.7*36
$GPRMC,214035.999,A,2125.5088,S,07003.3843,W,0.44,296.05,010511,,,A*6C
$GPGGA,214037.001,2125.5091,S,07003.3841,W,1,09,1.1,3.7,M,34.8,M,,0000*50
$GPGSA,M,3,03,19,06,14,32,22,11,24,20,,,,2.1,1.1,1.7*36
$GPRMC,214037.001,A,2125.5091,S,07003.3841,W,0.42,172.36,010511,,,A*63
$GPGGA,214037.999,2125.5091,S,07003.3842,W,1,08,1.3,4.1,M,34.8,M,,0000*59
$GPGSA,M,3,03,19,06,14,32,11,24,20,,,,,2.4,1.3,2.0*35
$GPRMC,214037.999,A,2125.5091,S,07003.3842,W,0.46,267.92,010511,,,A*65
$GPGGA,214039.001,2125.5092,S,07003.3841,W,1,09,1.1,3.9,M,34.8,M,,0000*53
$GPGSA,M,3,03,19,06,14,32,22,11,24,20,,,,2.1,1.1,1.7*36
$GPRMC,214039.001,A,2125.5092,S,07003.3841,W,0.14,313.27,010511,,,A*68
$GPGGA,214040.001,2125.5096,S,07003.3844,W,1,09,1.1,5.6,M,34.8,M,,0000*55
$GPGSA,M,3,03,19,06,14,32,22,11,24,20,,,,2.1,1.1,1.7*36
$GPGSV,3,1,12,03,76,002,39,19,67,208,27,06,60,031,36,14,44,106,35*77
$GPGSV,3,2,12,32,39,291,39,22,26,142,33,11,26,225,39,24,18,236,38*7B
$GPGSV,3,3,12,16,17,348,,20,15,295,34,30,04,005,,31,03,038,*73
$GPRMC,214040.001,A,2125.5096,S,07003.3844,W,0.39,287.00,010511,,,A*61
$GPGGA,214041.001,2125.5096,S,07003.3846,W,1,09,1.1,5.8,M,34.8,M,,0000*58
$GPGSA,M,3,03,19,06,14,32,22,11,24,20,,,,2.1,1.1,1.7*36
$GPRMC,214041.001,A,2125.5096,S,07003.3846,W,0.25,209.97,010511,,,A*67
$GPGGA,214042.000,2125.5103,S,07003.3848,W,1,08,1.3,6.9,M,34.8,M,,0000*58
$GPGSA,M,3,03,06,14,32,22,11,24,20,,,,,2.6,1.3,2.3*3C
$GPRMC,214042.000,A,2125.5103,S,07003.3848,W,0.02,164.78,010511,,,A*6A
$GPGGA,214043.000,2125.5102,S,07003.3846,W,1,08,1.3,5.1,M,34.8,M,,0000*5D
$GPGSA,M,3,03,06,14,32,22,11,24,20,,,,,2.6,1.3,2.3*3C
$GPRMC,214043.000,A,2125.5102,S,07003.3846,W,0.07,356.73,010511,,,A*69
$GPGGA,214044.001,2125.5099,S,07003.3846,W,1,09,1.1,6.0,M,34.8,M,,0000*59
$GPGSA,M,3,03,19,06,14,32,22,11,24,20,,,,2.1,1.1,1.7*36
$GPRMC,214044.001,A,2125.5099,S,07003.3846,W,0.29,199.18,010511,,,A*6C
$GPGGA,214045.001,2125.5098,S,07003.3843,W,1,09,1.1,4.7,M,34.8,M,,0000*59
$GPGSA,M,3,03,19,06,14,32,22,11,24,20,,,,2.1,1.1,1.7*36
$GPGSV,3,1,12,03,76,002,39,19,67,208,27,06,60,031,36,14,44,106,36*74
$GPGSV,3,2,12,32,39,291,39,22,26,142,32,11,26,225,39,24,18,236,37*75
$GPGSV,3,3,12,16,17,348,,20,15,295,34,30,04,005,,31,03,038,*73
$GPRMC,214045.001,A,2125.5098,S,07003.3843,W,0.26,58.19,010511,,,A*5B
$GPGGA,214046.001,2125.5095,S,07003.3846,W,1,09,1.1,5.0,M,34.8,M,,0000*54
$GPGSA,M,3,03,19,06,14,32,22,11,24,20,,,,2.1,1.1,1.7*36
$GPRMC,214046.001,A,2125.5095,S,07003.3846,W,0.12,27.40,010511,,,A*53
$GPGGA,214047.001,2125.5092,S,07003.3846,W,1,09,1.1,3.6,M,34.8,M,,0000*52
$GPGSA,M,3,03,19,06,14,32,22,11,24,20,,,,2.1,1.1,1.7*36
$GPRMC,214047.001,A,2125.5092,S,07003.3846,W,0.26,15.92,010511,,,A*5C
$GPGGA,214048.000,2125.5095,S,07003.3846,W,1,08,1.3,4.9,M,34.8,M,,0000*50
$GPGSA,M,3,03,06,14,32,22,11,24,20,,,,,2.6,1.3,2.3*3C
$GPRMC,214048.000,A,2125.5095,S,07003.3846,W,0.24,118.11,010511,,,A*60
$GPGGA,214049.001,2125.5096,S,07003.3850,W,1,09,1.1,5.8,M,34.8,M,,0000*57
$GPGSA,M,3,03,19,06,14,32,22,11,24,20,,,,2.1,1.1,1.7*36
$GPRMC,214049.001,A,2125.5096,S,07003.3850,W,0.07,56.89,010511,,,A*5F
$GPGGA,214050.001,2125.5094,S,07003.3847,W,1,09,1.1,4.2,M,34.8,M,,0000*50
$GPGSA,M,3,03,19,06,14,32,22,11,24,20,,,,2.1,1.1,1.7*36
$GPGSV,3,1,12,03,76,002,38,19,67,208,26,06,60,031,35,14,44,106,36*77
$GPGSV,3,2,12,32,39,291,39,22,26,142,34,11,26,225,38,24,18,236,38*7D
$GPGSV,3,3,12,16,17,348,,20,15,295,34,30,04,005,,31,03,038,*73
$GPRMC,214050.001,A,2125.5094,S,07003.3847,W,0.16,222.99,010511,,,A*63
$GPGGA,214051.000,2125.5099,S,07003.3850,W,1,08,1.3,5.8,M,34.8,M,,0000*53
$GPGSA,M,3,03,06,14,32,22,11,24,20,,,,,2.6,1.3,2.3*3C
$GPRMC,214051.000,A,2125.5099,S,07003.3850,W,0.10,294.39,010511,,,A*69
$GPGGA,214052.001,2125.5097,S,07003.3847,W,1,09,1.1,4.2,M,34.8,M,,0000*51
$GPGSA,M,3,03,19,06,14,32,22,11,24,20,,,,2.1,1.1,1.7*36
$GPRMC,214052.001,A,2125.5097,S,07003.3847,W,0.25,188.75,010511,,,A*63
$GPGGA,214053.001,2125.5097,S,07003.3850,W,1,09,1.1,6.2,M,34.8,M,,0000*54
$GPGSA,M,3,03,19,06,14,32,22,11,24,20,,,,2.1,1.1,1.7*36
$GPRMC,214053.001,A,2125.5097,S,07003.3850,W,0.42,38.21,010511,,,A*5E
$GPGGA,214054.003,2125.5096,S,07003.3849,W,1,08,1.3,5.2,M,34.8,M,,0000*58
$GPGSA,M,3,03,06,14,32,22,11,24,20,,,,,2.6,1.3,2.3*3C
$GPRMC,214054.003,A,2125.5096,S,07003.3849,W,0.24,344.85,010511,,,A*64
$GPGGA,214054.998,2125.5091,S,07003.3850,W,1,09,1.1,5.4,M,34.8,M,,0000*59
$GPGSA,M,3,03,19,06,14,32,22,11,24,20,,,,2.1,1.1,1.7*36
$GPGSV,3,1,12,03,76,002,39,19,67,208,22,06,60,031,34,14,44,106,36*73
$GPGSV,3,2,12,32,39,291,40,22,26,142,32,11,26,225,39,24,18,236,38*74
$GPGSV,3,3,12,16,17,348,,20,15,295,35,30,04,005,,31,03,038,*72
$GPRMC,214054.998,A,2125.5091,S,07003.3850,W,0.24,164.17,010511,,,A*6B
$GPGGA,214056.001,2125.5090,S,07003.3851,W,1,08,1.3,5.0,M,34.8,M,,0000*55
$GPGSA,M,3,03,06,14,32,22,11,24,20,,,,,2.6,1.3,2.3*3C
$GPRMC,214056.001,A,2125.5090,S,07003.3851,W,0.07,279.21,010511,,,A*6B
$GPGGA,214057.000,2125.5090,S,07003.3848,W,1,08,1.3,4.4,M,34.8,M,,0000*58
$GPGSA,M,3,03,06,14,32,22,11,24,20,,,,,2.6,1.3,2.3*3C
$GPRMC,214057.000,A,2125.5090,S,07003.3848,W,0.11,168.08,010511,,,A*6C
$GPGGA,214057.999,2125.5086,S,07003.3850,W,1,09,1.1,3.8,M,34.8,M,,0000*57
$GPGSA,M,3,03,19,06,14,32,22,11,24,20,,,,2.1,1.1,1.7*36
$GPRMC,214057.999,A,2125.5086,S,07003.3850,W,0.34,190.07,010511,,,A*64
$GPGGA,214059.001,2125.5086,S,07003.3850,W,1,08,1.3,3.5,M,34.8,M,,0000*5F
$GPGSA,M,3,03,06,14,32,22,11,24,20,,,,,2.6,1.3,2.3*3C
$GPRMC,214059.001,A,2125.5086,S,07003.3850,W,0.15,282.01,010511,,,A*67
$GPGGA,214059.998,2125.5086,S,07003.3854,W,1,08,1.3,3.9,M,34.8,M,,0000*5E
$GPGSA,M,3,03,06,14,32,22,11,24,20,,,,,2.6,1.3,2.3*3C
$GPGSV,3,1,12,03,76,002,39,19,67,208,,06,60,031,35,14,44,106,36*72
$GPGSV,3,2,12,32,39,291,39,22,26,142,32,11,26,225,39,24,18,236,38*7A
$GPGSV,3,3,12,16,17,348,,20,15,295,33,30,04,005,,31,03,038,*74
$GPRMC,214059.998,A,2125.5086,S,07003.3854,W,0.27,153.00,010511,,,A*65
$GPGGA,214101.000,2125.5087,S,07003.3853,W,1,08,1.3,3.8,M,34.8,M,,0000*5D
$GPGSA,M,3,03,06,14,32,22,11,24,20,,,,,2.6,1.3,2.3*3C
$GPRMC,214101.000,A,2125.5087,S,07003.3853,W,0.31,250.20,010511,,,A*62
$GPGGA,214102.003,2125.5082,S,07003.3851,W,1,08,1.3,2.3,M,34.8,M,,0000*50
$GPGSA,M,3,03,06,14,32,22,11,24,20,,,,,2.6,1.3,2.3*3C
$GPRMC,214102.003,A,2125.5082,S,07003.3851,W,0.38,358.11,010511,,,A*67
$GPGGA,214102.999,2125.5076,S,07003.3847,W,1,07,1.4,-0.3,M,34.8,M,,0000*71
$GPGSA,M,3,03,06,14,22,11,24,20,,,,,,2.7,1.4,2.3*3B
$GPRMC,214102.999,A,2125.5076,S,07003.3847,W,0.38,252.38,010511,,,A*61
$GPGGA,214104.000,2125.5077,S,07003.3847,W,1,09,1.1,-0.8,M,34.8,M,,0000*7F
$GPGSA,M,3,03,19,06,14,32,22,11,24,20,,,,2.1,1.1,1.7*36
$GPRMC,214104.000,A,2125.5077,S,07003.3847,W,0.64,274.89,010511,,,A*68
$GPGGA,214105.000,2125.5073,S,07003.3849,W,1,09,1.1,-1.6,M,34.8,M,,0000*7B
$GPGSA,M,3,03,19,06,14,32,22,11,24,20,,,,2.1,1.1,1.7*36
$GPGSV,3,1,12,03,76,002,39,19,67,208,24,06,60,031,36,14,44,106,36*77
$GPGSV,3,2,12,32,39,291,39,22,26,142,32,11,26,225,39,24,18,236,38*7A
$GPGSV,3,3,12,16,17,348,,20,15,295,32,30,04,005,,31,03,038,*75
$GPRMC,214105.000,A,2125.5073,S,07003.3849,W,0.23,269.17,010511,,,A*6B
$GPGGA,214105.998,2125.5070,S,07003.3850,W,1,08,1.3,-2.6,M,34.8,M,,0000*78
$GPGSA,M,3,03,06,14,32,22,11,24,20,,,,,2.6,1.3,2.3*3C
$GPRMC,214105.998,A,2125.5070,S,07003.3850,W,0.24,91.81,010511,,,A*55
$GPGGA,214107.002,2125.5068,S,07003.3847,W,1,09,1.1,-3.8,M,34.8,M,,0000*73
$GPGSA,M,3,03,19,06,14,32,22,11,24,20,,,,2.1,1.1,1.7*36
$GPRMC,214107.002,A,2125.5068,S,07003.3847,W,0.09,219.35,010511,,,A*60
$GPGGA,214108.000,2125.5067,S,07003.3846,W,1,08,1.3,-4.5,M,34.8,M,,0000*79
$GPGSA,M,3,03,06,14,32,22,11,24,20,,,,,2.6,1.3,2.3*3C
$GPRMC,214108.000,A,2125.5067,S,07003.3846,W,0.41,172.19,010511,,,A*6F
$GPGGA,214108.998,2125.5070,S,07003.3846,W,1,08,1.3,-5.2,M,34.8,M,,0000*71
$GPGSA,M,3,03,06,14,32,22,11,24,20,,,,,2.6,1.3,2.3*3C
$GPRMC,214108.998,A,2125.5070,S,07003.3846,W,0.15,182.79,010511,,,A*69
$GPGGA,214110.001,2125.5073,S,07003.3847,W,1,09,1.1,-3.8,M,34.8,M,,0000*7C
$GPGSA,M,3,03,19,06,14,32,22,11,24,20,,,,2.1,1.1,1.7*36
$GPGSV,3,1,12,03,76,002,39,19,67,208,25,06,60,031,36,14,44,106,35*75
$GPGSV,3,2,12,32,39,291,39,22,26,142,31,11,26,225,39,24,18,236,38*79
$GPGSV,3,3,12,16,17,348,,20,15,295,31,30,04,005,,31,03,038,*76
$GPRMC,214110.001,A,2125.5073,S,07003.3847,W,0.08,290.71,010511,,,A*6F
$GPGGA,214111.001,2125.5071,S,07003.3845,W,1,09,1.1,-4.6,M,34.8,M,,0000*74
$GPGSA,M,3,03,19,06,14,32,22,11,24,20,,,,2.1,1.1,1.7*36
$GPRMC,214111.001,A,2125.5071,S,07003.3845,W,0.24,0.88,010511,,,A*6D
$GPGGA,214112.002,2125.5078,S,07003.3846,W,1,09,1.1,-3.8,M,34.8,M,,0000*77
$GPGSA,M,3,03,19,06,14,32,22,11,24,20,,,,2.1,1.1,1.7*36
$GPRMC,214112.002,A,2125.5078,S,07003.3846,W,0.15,179.93,010511,,,A*60
$GPGGA,214113.001,2125.5076,S,07003.3844,W,1,08,1.3,-4.8,M,34.8,M,,0000*7D
$GPGSA,M,3,03,06,14,32,22,11,24,20,,,,,2.6,1.3,2.3*3C
$GPRMC,214113.001,A,2125.5076,S,07003.3844,W,0.32,3.65,010511,,,A*6E
$GPGGA,214114.000,2125.5075,S,07003.3841,W,1,09,1.1,-5.7,M,34.8,M,,0000*70
$GPGSA,M,3,03,19,06,14,32,22,11,24,20,,,,2.1,1.1,1.7*36
$GPRMC,214114.000,A,2125.5075,S,07003.3841,W,0.16,161.00,010511,,,A*6E
$GPGGA,214114.999,2125.5075,S,07003.3843,W,1,09,1.1,-6.4,M,34.8,M,,0000*7B
$GPGSA,M,3,03,19,06,14,32,22,11,24,20,,,,2.1,1.1,1.7*36
$GPGSV,3,1,12,03,76,002,39,19,67,208,25,06,60,031,35,14,44,106,36*75
$GPGSV,3,2,12,32,39,291,39,22,26,142,33,11,26,225,39,24,18,236,39*7A
$GPGSV,3,3,12,16,17,348,,20,15,295,30,30,04,005,,31,03,038,*77
$GPRMC,214114.999,A,2125.5075,S,07003.3843,W,0.32,29.97,010511,,,A*50
$GPGGA,214115.999,2125.5077,S,07003.3841,W,1,08,1.3,-5.7,M,34.8,M,,0000*79
$GPGSA,M,3,03,06,14,32,22,11,24,20,,,,,2.6,1.3,2.3*3C
$GPRMC,214115.999,A,2125.5077,S,07003.3841,W,0.22,147.98,010511,,,A*66
$GPGGA,214117.001,2125.5076,S,07003.3839,W,1,09,1.1,-6.5,M,34.8,M,,0000*7F
$GPGSA,M,3,03,19,06,14,32,22,11,24,20,,,,2.1,1.1,1.7*36
$GPRMC,214117.001,A,2125.5076,S,07003.3839,W,0.19,142.64,010511,,,A*6C
$GPGGA,214118.002,2125.5076,S,07003.3838,W,1,09,1.1,-6.8,M,34.8,M,,0000*7F
$GPGSA,M,3,03,19,06,14,32,22,11,24,20,,,,2.1,1.1,1.7*36
$GPRMC,214118.002,A,2125.5076,S,07003.3838,W,0.29,109.47,010511,,,A*6C
$GPGGA,214118.998,2125.5080,S,07003.3842,W,1,08,1.3,-3.9,M,34.8,M,,0000*76
$GPGSA,M,3,03,06,14,32,22,11,24,20,,,,,2.6,1.3,2.3*3C
$GPRMC,214118.998,A,2125.5080,S,07003.3842,W,0.17,307.18,010511,,,A*69
$GPGGA,214120.001,2125.5080,S,07003.3841,W,1,09,1.1,-4.6,M,34.8,M,,0000*7C
$GPGSA,M,3,03,19,06,14,32,22,11,24,20,,,,2.1,1.1,1.7*36
$GPGSV,3,1,12,03,76,002,39,19,67,208,26,06,60,031,35,14,44,106,36*76
$GPGSV,3,2,12,32,39,291,39,22,26,142,32,11,26,225,39,24,18,236,37*75
$GPGSV,3,3,12,16,17,348,,20,15,295,29,30,04,005,,31,03,038,*7F
$GPRMC,214120.001,A,2125.5080,S,07003.3841,W,0.10,232.66,010511,,,A*61
$GPGGA,214121.001,2125.5075,S,07003.3843,W,1,09,1.1,-4.1,M,34.8,M,,0000*72
$GPGSA,M,3,03,19,06,14,32,22,11,24,20,,,,2.1,1.1,1.7*36
$GPRMC,214121.001,A,2125.5075,S,07003.3843,W,0.39,85.38,010511,,,A*56
$GPGGA,214122.002,2125.5073,S,07003.3840,W,1,08,1.3,-5.7,M,34.8,M,,0000*73
$GPGSA,M,3,03,06,14,32,22,11,24,20,,,,,2.6,1.3,2.3*3C
$GPRMC,214122.002,A,2125.5073,S,07003.3840,W,0.17,111.22,010511,,,A*68
$GPGGA,214122.998,2125.5071,S,07003.3843,W,1,08,1.3,-4.7,M,34.8,M,,0000*79
$GPGSA,M,3,03,06,14,32,22,11,24,20,,,,,2.6,1.3,2.3*3C
$GPRMC,214122.998,A,2125.5071,S,07003.3843,W,0.19,288.32,010511,,,A*6F
$GPGGA,214124.001,2125.5069,S,07003.3847,W,1,09,1.1,-3.0,M,34.8,M,,0000*78
$GPGSA,M,3,03,19,06,14,32,22,11,24,20,,,,2.1,1.1,1.7*36
$GPRMC,214124.001,A,2125.5069,S,07003.3847,W,0.12,142.08,010511,,,A*6A
$GPGGA,214125.003,2125.5070,S,07003.3846,W,1,10,0.9,-3.4,M,34.8,M,,0000*77
$GPGSA,M,3,03,19,06,14,32,22,11,24,16,20,,,1.6,0.9,1.4*3F
$GPGSV,3,1,12,03,76,002,41,19,67,208,24,06,60,031,36,14,44,106,36*78
$GPGSV,3,2,12,32,39,291,39,22,26,142,33,11,26,225,39,24,18,236,38*7B
$GPGSV,3,3,12,16,17,348,24,20,15,295,31,30,04,005,,31,03,038,*70
$GPRMC,214125.003,A,2125.5070,S,07003.3846,W,0.89,250.12,010511,,,A*69
$GPGGA,214125.998,2125.5071,S,07003.3851,W,1,09,1.1,-3.7,M,34.8,M,,0000*79
$GPGSA,M,3,03,19,06,14,32,22,11,24,20,,,,2.1,1.1,1.7*36
$GPRMC,214125.998,A,2125.5071,S,07003.3851,W,0.37,286.92,010511,,,A*63
$GPGGA,214126.998,2125.5065,S,07003.3849,W,1,10,0.9,-5.6,M,34.8,M,,0000*70
$GPGSA,M,3,03,19,06,14,32,22,11,24,16,20,,,1.6,0.9,1.4*3F
$GPRMC,214126.998,A,2125.5065,S,07003.3849,W,0.29,331.23,010511,,,A*64
$GPGGA,214128.004,2125.5068,S,07003.3849,W,1,08,1.3,-4.9,M,34.8,M,,0000*73
$GPGSA,M,3,03,06,14,32,22,11,24,20,,,,,2.6,1.3,2.3*3C
$GPRMC,214128.004,A,2125.5068,S,07003.3849,W,0.37,261.38,010511,,,A*6A
$GPGGA,214128.999,2125.5067,S,07003.3852,W,1,09,1.1,-4.4,M,34.8,M,,0000*75
$GPGSA,M,3,03,19,06,14,32,22,11,24,20,,,,2.1,1.1,1.7*36
$GPRMC,214128.999,A,2125.5067,S,07003.3852,W,0.19,225.61,010511,,,A*62
$GPGGA,214129.998,2125.5065,S,07003.3852,W,1,08,1.3,-4.9,M,34.8,M,,0000*79
$GPGSA,M,3,03,06,14,32,22,11,24,20,,,,,2.6,1.3,2.3*3C
$GPGSV,3,1,12,03,76,002,38,19,67,208,,06,60,031,36,14,44,106,36*70
$GPGSV,3,2,12,32,39,291,39,22,26,142,31,11,26,225,39,24,18,236,37*76
$GPGSV,3,3,12,16,17,348,,20,15,295,32,30,04,005,,31,03,038,*75
$GPRMC,214129.998,A,2125.5065,S,07003.3852,W,0.43,191.82,010511,,,A*6E
$GPGGA,214131.003,2125.5059,S,07003.3848,W,1,08,1.3,-7.1,M,34.8,M,,0000*74
$GPGSA,M,3,03,06,14,32,22,11,24,20,,,,,2.6,1.3,2.3*3C
$GPRMC,214131.003,A,2125.5059,S,07003.3848,W,0.10,344.76,010511,,,A*6F
$GPGGA,214131.999,2125.5059,S,07003.3848,W,1,07,1.4,-7.0,M,34.8,M,,0000*77
$GPGSA,M,3,03,06,14,22,11,24,20,,,,,,2.7,1.4,2.4*3C
$GPRMC,214131.999,A,2125.5059,S,07003.3848,W,0.29,347.67,010511,,,A*6C
$GPGGA,214133.000,2125.5053,S,07003.3846,W,1,09,1.1,-9.3,M,34.8,M,,0000*7E
$GPGSA,M,3,03,19,06,14,32,22,11,24,20,,,,2.1,1.1,1.7*36
$GPRMC,214133.000,A,2125.5053,S,07003.3846,W,0.38,34.07,010511,,,A*52
$GPGGA,214134.001,2125.5052,S,07003.3842,W,1,08,1.3,-9.5,M,34.8,M,,0000*78
$GPGSA,M,3,03,06,14,32,22,11,24,20,,,,,2.6,1.3,2.3*3C
$GPRMC,214134.001,A,2125.5052,S,07003.3842,W,0.27,55.52,010511,,,A*58
$GPGGA,214135.001,2125.5053,S,07003.3842,W,1,08,1.3,-9.6,M,34.8,M,,0000*7B
$GPGSA,M,3,03,06,14,32,22,11,24,20,,,,,2.6,1.3,2.3*3C
$GPGSV,3,1,12,03,76,002,39,19,67,208,,06,60,031,34,14,44,106,35*70
$GPGSV,3,2,12,32,39,291,39,22,26,142,31,11,26,225,39,24,18,236,38*79
$GPGSV,3,3,12,16,17,348,,20,15,295,34,30,04,005,,31,03,038,*73
$GPRMC,214135.001,A,2125.5053,S,07003.3842,W,0.19,259.80,010511,,,A*64
$GPGGA,214135.998,2125.5056,S,07003.3845,W,1,08,1.3,-7.1,M,34.8,M,,0000*79
$GPGSA,M,3,03,06,14,32,22,11,24,20,,,,,2.6,1.3,2.3*3C
$GPRMC,214135.998,A,2125.5056,S,07003.3845,W,0.20,221.09,010511,,,A*6B
$GPGGA,214137.002,2125.5054,S,07003.3843,W,1,09,1.1,-7.7,M,34.8,M,,0000*70
$GPGSA,M,3,03,19,06,14,32,22,11,24,20,,,,2.1,1.1,1.7*36
$GPRMC,214137.002,A,2125.5054,S,07003.3843,W,0.08,23.21,010511,,,A*57
$GPGGA,214137.999,2125.5054,S,07003.3843,W,1,09,1.1,-7.9,M,34.8,M,,0000*75
$GPGSA,M,3,03,19,06,14,32,22,11,24,20,,,,2.1,1.1,1.7*36
$GPRMC,214137.999,A,2125.5054,S,07003.3843,W,0.08,196.14,010511,,,A*65
$GPGGA,214139.001,2125.5061,S,07003.3845,W,1,09,1.1,-5.6,M,34.8,M,,0000*7E
$GPGSA,M,3,03,19,06,14,32,22,11,24,20,,,,2.1,1.1,1.7*36
$GPRMC,214139.001,A,2125.5061,S,07003.3845,W,0.17,283.12,010511,,,A*6C
$GPGGA,214140.002,2125.5065,S,07003.3849,W,1,09,1.1,-4.3,M,34.8,M,,0000*7F
$GPGSA,M,3,03,19,06,14,32,22,11,24,20,,,,2.1,1.1,1.7*36
$GPGSV,3,1,12,03,76,002,39,19,67,208,26,06,60,031,34,14,44,106,36*77
$GPGSV,3,2,12,32,39,291,39,22,26,142,34,11,26,225,39,24,18,236,38*7C
$GPGSV,3,3,12,16,17,348,,20,15,295,34,30,04,005,17,31,03,038,*75
$GPRMC,214140.002,A,2125.5065,S,07003.3849,W,0.38,277.20,010511,,,A*6E
$GPGGA,214140.999,2125.5065,S,07003.3852,W,1,08,1.3,-3.1,M,34.8,M,,0000*78
$GPGSA,M,3,03,06,14,32,22,11,24,20,,,,,2.6,1.3,2.3*3C
$GPRMC,214140.999,A,2125.5065,S,07003.3852,W,0.28,116.85,010511,,,A*65
$GPGGA,214141.999,2125.5070,S,07003.3852,W,1,09,1.1,-2.3,M,34.8,M,,0000*7D
$GPGSA,M,3,03,19,06,14,32,22,11,24,20,,,,2.1,1.1,1.7*36
$GPRMC,214141.999,A,2125.5070,S,07003.3852,W,0.17,102.77,010511,,,A*64
$GPGGA,214142.998,2125.5071,S,07003.3852,W,1,08,1.3,-2.2,M,34.8,M,,0000*7C
$GPGSA,M,3,03,06,14,32,22,11,24,20,,,,,2.7,1.3,2.3*3D
$GPRMC,214142.998,A,2125.5071,S,07003.3852,W,0.23,280.65,010511,,,A*6A
$GPGGA,214144.001,2125.5066,S,07003.3854,W,1,08,1.3,-2.1,M,34.8,M,,0000*70
$GPGSA,M,3,03,06,14,32,22,11,24,20,,,,,2.7,1.3,2.3*3D
$GPRMC,214144.001,A,2125.5066,S,07003.3854,W,0.17,113.57,010511,,,A*6A
$GPGGA,214145.003,2125.5067,S,07003.3851,W,1,08,1.3,-2.8,M,34.8,M,,0000*7E
$GPGSA,M,3,03,06,14,32,22,11,24,20,,,,,2.7,1.3,2.3*3D
$GPGSV,3,1,12,03,76,002,40,19,67,208,,06,60,031,35,14,44,106,36*7C
$GPGSV,3,2,12,32,39,291,39,22,26,142,30,11,26,225,39,24,18,236,37*77
$GPGSV,3,3,12,16,17,348,,20,15,295,32,30,04,005,,31,03,038,*75
$GPRMC,214145.003,A,2125.5067,S,07003.3851,W,0.52,236.25,010511,,,A*6D
$GPGGA,214145.999,2125.5077,S,07003.3856,W,1,09,1.1,0.5,M,34.8,M,,0000*53
$GPGSA,M,3,03,19,06,14,32,22,11,24,20,,,,2.1,1.1,1.7*36
$GPRMC,214145.999,A,2125.5077,S,07003.3856,W,0.01,89.22,010511,,,A*56
$GPGGA,214147.002,2125.5072,S,07003.3855,W,1,09,1.1,-0.8,M,34.8,M,,0000*7C
$GPGSA,M,3,03,19,06,14,32,22,11,24,20,,,,2.1,1.1,1.7*36
$GPRMC,214147.002,A,2125.5072,S,07003.3855,W,0.47,221.50,010511,,,A*6E
$GPGGA,214147.996,2125.5070,S,07003.3853,W,1,08,1.3,-1.5,M,34.8,M,,0000*73
$GPGSA,M,3,03,06,14,32,22,11,24,20,,,,,2.7,1.3,2.3*3D
$GPRMC,214147.996,A,2125.5070,S,07003.3853,W,0.12,85.55,010511,,,A*57
$GPGGA,214149.002,2125.5069,S,07003.3851,W,1,09,1.1,-2.9,M,34.8,M,,0000*7F
$GPGSA,M,3,03,19,06,14,32,22,11,24,20,,,,2.1,1.1,1.7*36
$GPRMC,214149.002,A,2125.5069,S,07003.3851,W,0.10,65.28,010511,,,A*51
$GPGGA,214150.000,2125.5070,S,07003.3850,W,1,09,1.1,-3.0,M,34.8,M,,0000*74
$GPGSA,M,3,03,19,06,14,32,22,11,24,20,,,,2.1,1.1,1.7*36
$GPGSV,3,1,12,03,76,002,39,19,67,208,25,06,60,031,35,14,44,106,36*75
$GPGSV,3,2,12,32,39,291,39,22,26,142,31,11,26,225,40,24,18,236,39*76
$GPGSV,3,3,12,16,17,348,,20,15,295,33,30,04,005,,31,03,038,*74
$GPRMC,214150.000,A,2125.5070,S,07003.3850,W,0.29,99.58,010511,,,A*5C
$GPGGA,214151.003,2125.5068,S,07003.3850,W,1,09,1.1,-4.3,M,34.8,M,,0000*7B
$GPGSA,M,3,03,19,06,14,32,22,11,24,20,,,,2.1,1.1,1.7*36
$GPRMC,214151.003,A,2125.5068,S,07003.3850,W,0.93,243.27,010511,,,A*6B
$GPGGA,214151.997,2125.5069,S,07003.3848,W,1,09,1.1,-5.9,M,34.8,M,,0000*7C
$GPGSA,M,3,03,19,06,14,32,22,11,24,20,,,,2.1,1.1,1.7*36
$GPRMC,214151.997,A,2125.5069,S,07003.3848,W,0.40,51.52,010511,,,A*5A
$GPGGA,214153.002,2125.5066,S,07003.3846,W,1,08,1.3,-6.6,M,34.8,M,,0000*75
$GPGSA,M,3,03,06,14,32,22,11,24,20,,,,,2.7,1.3,2.3*3D
$GPRMC,214153.002,A,2125.5066,S,07003.3846,W,0.59,75.31,010511,,,A*57
$GPGGA,214153.997,2125.5062,S,07003.3846,W,1,08,1.3,-7.4,M,34.8,M,,0000*77
$GPGSA,M,3,03,06,14,32,22,11,24,20,,,,,2.7,1.3,2.3*3D
$GPRMC,214153.997,A,2125.5062,S,07003.3846,W,0.24,45.26,010511,,,A*59
$GPGGA,214155.002,2125.5063,S,07003.3846,W,1,09,1.1,-7.1,M,34.8,M,,0000*73
$GPGSA,M,3,03,19,06,14,32,22,11,24,20,,,,2.1,1.1,1.7*36
$GPGSV,3,1,12,03,76,002,39,19,67,208,25,06,60,031,36,14,44,106,37*77
$GPGSV,3,2,12,32,39,291,39,22,26,142,31,11,26,225,39,24,18,236,39*78
$GPGSV,3,3,12,16,17,348,,20,15,295,33,30,04,005,,31,03,038,*74
$GPRMC,214155.002,A,2125.5063,S,07003.3846,W,0.45,332.41,010511,,,A*6E
$GPGGA,214156.000,2125.5060,S,07003.3846,W,1,09,1.1,-8.4,M,34.8,M,,0000*7B
$GPGSA,M,3,03,19,06,14,32,22,11,24,20,,,,2.1,1.1,1.7*36
$GPRMC,214156.000,A,2125.5060,S,07003.3846,W,0.25,118.04,010511,,,A*61
$GPGGA,214156.998,2125.5058,S,07003.3841,W,1,08,1.3,-9.9,M,34.8,M,,0000*70
$GPGSA,M,3,03,06,14,32,22,11,24,20,,,,,2.7,1.3,2.3*3D
$GPRMC,214156.998,A,2125.5058,S,07003.3841,W,0.37,120.14,010511,,,A*6C
$GPGGA,214158.002,2125.5056,S,07003.3841,W,1,09,1.1,-10.2,M,34.8,M,,0000*4A
$GPGSA,M,3,03,19,06,14,32,22,11,24,20,,,,2.1,1.1,1.7*36
$GPRMC,214158.002,A,2125.5056,S,07003.3841,W,0.20,71.20,010511,,,A*52
$GPGGA,214159.000,2125.5060,S,07003.3840,W,1,09,1.1,-9.2,M,34.8,M,,0000*75
$GPGSA,M,3,03,19,06,14,32,22,11,24,20,,,,2.1,1.1,1.7*36
$GPRMC,214159.000,A,2125.5060,S,07003.3840,W,0.13,276.62,010511,,,A*66
$GPGGA,214200.000,2125.5061,S,07003.3839,W,1,09,1.1,-9.3,M,34.8,M,,0000*74
$GPGSA,M,3,03,19,06,14,32,22,11,24,20,,,,2.1,1.1,1.7*36
$GPGSV,3,1,12,03,76,002,38,19,67,208,25,06,60,031,35,14,44,106,36*74
$GPGSV,3,2,12,32,39,291,39,22,26,142,30,11,26,225,39,24,18,236,37*77
$GPGSV,3,3,12,16,17,348,,20,15,295,33,30,04,005,,31,03,038,*74
$GPRMC,214200.000,A,2125.5061,S,07003.3839,W,0.24,283.47,010511,,,A*6F
$GPGGA,214201.001,2125.5058,S,07003.3841,W,1,08,1.3,-9.9,M,34.8,M,,0000*78
$GPGSA,M,3,03,06,14,32,22,11,24,20,,,,,2.7,1.3,2.3*3D
$GPRMC,214201.001,A,2125.5058,S,07003.3841,W,0.23,239.06,010511,,,A*69
$GPGGA,214202.000,2125.5060,S,07003.3841,W,1,09,1.1,-10.4,M,34.8,M,,0000*47
$GPGSA,M,3,03,19,06,14,32,22,11,24,20,,,,2.1,1.1,1.7*36
$GPRMC,214202.000,A,2125.5060,S,07003.3841,W,0.22,331.26,010511,,,A*6A
$GPGGA,214202.998,2125.5057,S,07003.3839,W,1,08,1.3,-12.1,M,34.8,M,,0000*40
$GPGSA,M,3,03,06,14,32,22,11,24,20,,,,,2.7,1.3,2.3*3D
$GPRMC,214202.998,A,2125.5057,S,07003.3839,W,0.12,267.24,010511,,,A*6A
$GPGGA,214204.006,2125.5052,S,07003.3838,W,1,08,1.3,-13.4,M,34.8,M,,0000*48
$GPGSA,M,3,03,06,14,32,11,22,24,20,,,,,2.7,1.3,2.3*3D
$GPRMC,214204.006,A,2125.5052,S,07003.3838,W,0.03,229.09,010511,,,A*63
$GPGGA,214204.995,2125.5055,S,07003.3839,W,1,08,1.3,-12.8,M,34.8,M,,0000*40
$GPGSA,M,3,03,06,14,32,11,22,24,20,,,,,2.7,1.3,2.3*3D
$GPGSV,3,1,12,03,74,002,39,19,69,209,,06,59,030,36,14,43,108,37*7F
$GPGSV,3,2,12,32,40,289,39,11,26,224,40,22,25,141,32,24,19,235,37*7F
$GPGSV,3,3,12,16,16,349,,20,16,294,33,30,04,006,,31,03,040,*7A
$GPRMC,214204.995,A,2125.5055,S,07003.3839,W,0.36,241.72,010511,,,A*62
$GPGGA,214206.000,2125.5057,S,07003.3838,W,1,08,1.3,-12.5,M,34.8,M,,0000*49
$GPGSA,M,3,03,06,14,32,11,22,24,20,,,,,2.7,1.3,2.3*3D
$GPRMC,214206.000,A,2125.5057,S,07003.3838,W,0.06,140.09,010511,,,A*6B
$GPGGA,214207.001,2125.5061,S,07003.3838,W,1,09,1.1,-11.5,M,34.8,M,,0000*4C
$GPGSA,M,3,03,19,06,14,32,11,22,24,20,,,,2.1,1.1,1.7*36
$GPRMC,214207.001,A,2125.5061,S,07003.3838,W,0.30,130.03,010511,,,A*66
$GPGGA,214208.002,2125.5061,S,07003.3836,W,1,08,1.3,-12.1,M,34.8,M,,0000*4A
$GPGSA,M,3,03,06,14,32,11,22,24,20,,,,,2.7,1.3,2.3*3D
$GPRMC,214208.002,A,2125.5061,S,07003.3836,W,0.14,157.97,010511,,,A*6E
$GPGGA,214208.998,2125.5064,S,07003.3836,W,1,08,1.3,-10.2,M,34.8,M,,0000*44
$GPGSA,M,3,03,06,14,32,11,22,24,20,,,,,2.7,1.3,2.3*3D
$GPRMC,214208.998,A,2125.5064,S,07003.3836,W,0.36,140.70,010511,,,A*6E
$GPGGA,214210.000,2125.5063,S,07003.3835,W,1,08,1.3,-10.9,M,34.8,M,,0000*4A
$GPGSA,M,3,03,06,14,32,11,22,24,20,,,,,2.7,1.3,2.3*3D
$GPGSV,3,1,12,03,74,002,39,19,69,209,,06,59,030,35,14,43,108,36*7D
$GPGSV,3,2,12,32,40,289,39,11,26,224,39,22,25,141,32,24,19,235,37*71
$GPGSV,3,3,12,16,16,349,,20,16,294,31,30,04,006,,31,03,040,*78
$GPRMC,214210.000,A,2125.5063,S,07003.3835,W,0.23,70.52,010511,,,A*5D
$GPGGA,214211.000,2125.5060,S,07003.3834,W,1,08,1.3,-12.2,M,34.8,M,,0000*40
$GPGSA,M,3,03,06,14,32,11,22,24,20,,,,,2.7,1.3,2.3*3D
$GPRMC,214211.000,A,2125.5060,S,07003.3834,W,0.31,212.06,010511,,,A*6A
$GPGGA,214212.000,2125.5060,S,07003.3835,W,1,08,1.3,-11.1,M,34.8,M,,0000*42
$GPGSA,M,3,03,06,14,32,11,22,24,20,,,,,2.7,1.3,2.3*3D
$GPRMC,214212.000,A,2125.5060,S,07003.3835,W,0.07,111.69,010511,,,A*64
$GPGGA,214213.000,2125.5059,S,07003.3834,W,1,08,1.3,-12.0,M,34.8,M,,0000*4A
$GPGSA,M,3,03,06,14,32,11,22,24,20,,,,,2.7,1.3,2.3*3D
$GPRMC,214213.000,A,2125.5059,S,07003.3834,W,0.14,294.89,010511,,,A*6C
$GPGGA,214214.000,2125.5059,S,07003.3834,W,1,08,1.3,-12.0,M,34.8,M,,0000*4D
$GPGSA,M,3,03,06,14,32,11,22,24,20,,,,,2.7,1.3,2.3*3D
$GPRMC,214214.000,A,2125.5059,S,07003.3834,W,0.27,209.71,010511,,,A*68
$GPGGA,214215.001,2125.5056,S,07003.3831,W,1,08,1.3,-14.1,M,34.8,M,,0000*40
$GPGSA,M,3,03,06,14,32,11,22,24,20,,,,,2.7,1.3,2.3*3D
$GPGSV,3,1,12,03,74,002,38,19,69,209,,06,59,030,36,14,43,108,37*7E
$GPGSV,3,2,12,32,40,289,40,11,26,224,39,22,25,141,31,24,19,235,37*7C
$GPGSV,3,3,12,16,16,349,21,20,16,294,32,30,04,006,,31,03,040,*78
$GPRMC,214215.001,A,2125.5056,S,07003.3831,W,0.08,248.73,010511,,,A*68
$GPGGA,214216.000,2125.5053,S,07003.3833,W,1,08,1.3,-12.9,M,34.8,M,,0000*4B
$GPGSA,M,3,03,06,14,32,11,22,24,20,,,,,2.7,1.3,2.3*3D
$GPRMC,214216.000,A,2125.5053,S,07003.3833,W,0.18,318.04,010511,,,A*68
$GPGGA,214216.999,2125.5054,S,07003.3832,W,1,08,1.3,-13.3,M,34.8,M,,0000*4F
$GPGSA,M,3,03,06,14,32,11,22,24,20,,,,,2.7,1.3,2.3*3D
$GPRMC,214216.999,A,2125.5054,S,07003.3832,W,0.42,152.79,010511,,,A*6E
$GPGGA,214218.003,2125.5048,S,07003.3832,W,1,07,2.3,-14.5,M,34.8,M,,0000*4B
$GPGSA,M,3,03,06,14,32,11,22,24,,,,,,5.3,2.3,4.7*3D
$GPRMC,214218.003,A,2125.5048,S,07003.3832,W,0.44,153.75,010511,,,A*6C
$GPGGA,214219.001,2125.5046,S,07003.3830,W,1,08,1.3,-16.7,M,34.8,M,,0000*48
$GPGSA,M,3,03,06,14,32,11,22,24,20,,,,,2.7,1.3,2.3*3D
$GPRMC,214219.001,A,2125.5046,S,07003.3830,W,0.51,124.00,010511,,,A*65
$GPGGA,214220.000,2125.5049,S,07003.3829,W,1,09,1.1,-14.8,M,34.8,M,,0000*4A
$GPGSA,M,3,03,19,06,14,32,11,22,24,20,,,,2.1,1.1,1.7*36
$GPGSV,3,1,12,03,74,002,39,19,69,209,24,06,59,030,35,14,43,108,37*7A
$GPGSV,3,2,12,32,40,289,40,11,26,224,39,22,25,141,30,24,19,235,38*72
$GPGSV,3,3,12,16,16,349,,20,16,294,30,30,04,006,,31,03,040,*79
$GPRMC,214220.000,A,2125.5049,S,07003.3829,W,0.44,188.35,010511,,,A*6D
$GPGGA,214221.001,2125.5050,S,07003.3828,W,1,08,1.3,-15.0,M,34.8,M,,0000*49
$GPGSA,M,3,03,06,14,32,11,22,24,20,,,,,2.7,1.3,2.3*3D
$GPRMC,214221.001,A,2125.5050,S,07003.3828,W,0.10,295.22,010511,,,A*6C
$GPGGA,214222.001,2125.5050,S,07003.3828,W,1,08,1.3,-16.0,M,34.8,M,,0000*49
$GPGSA,M,3,03,06,14,32,11,22,24,20,,,,,2.7,1.3,2.3*3D
$GPRMC,214222.001,A,2125.5050,S,07003.3828,W,0.27,173.02,010511,,,A*62
$GPGGA,214222.999,2125.5050,S,07003.3828,W,1,09,1.1,-16.4,M,34.8,M,,0000*46
$GPGSA,M,3,03,19,06,14,32,11,22,24,20,,,,2.1,1.1,1.7*36
$GPRMC,214222.999,A,2125.5050,S,07003.3828,W,0.28,122.65,010511,,,A*60
$GPGGA,214224.000,2125.5048,S,07003.3828,W,1,09,1.1,-17.5,M,34.8,M,,0000*40
$GPGSA,M,3,03,19,06,14,32,11,22,24,20,,,,2.1,1.1,1.7*36
$GPRMC,214224.000,A,2125.5048,S,07003.3828,W,0.42,111.40,010511,,,A*6D
$GPGGA,214225.002,2125.5048,S,07003.3826,W,1,08,1.3,-17.8,M,34.8,M,,0000*43
$GPGSA,M,3,03,06,14,32,11,22,24,20,,,,,2.7,1.3,2.3*3D
$GPGSV,3,1,12,03,74,002,38,19,69,209,,06,59,030,35,14,43,108,36*7C
$GPGSV,3,2,12,32,40,289,39,11,26,224,39,22,25,141,29,24,19,235,37*7B
$GPGSV,3,3,12,16,16,349,,20,16,294,31,30,04,006,,31,03,040,*78
$GPRMC,214225.002,A,2125.5048,S,07003.3826,W,0.24,74.78,010511,,,A*59
$GPGGA,214225.996,2125.5049,S,07003.3829,W,1,08,1.3,-18.2,M,34.8,M,,0000*4C
$GPGSA,M,3,03,06,14,32,11,22,24,20,,,,,2.7,1.3,2.3*3D
$GPRMC,214225.996,A,2125.5049,S,07003.3829,W,0.32,156.92,010511,,,A*61
$GPGGA,214227.004,2125.5047,S,07003.3829,W,1,08,1.3,-18.8,M,34.8,M,,0000*48
$GPGSA,M,3,03,06,14,32,11,22,24,20,,,,,2.7,1.3,2.3*3D
$GPRMC,214227.004,A,2125.5047,S,07003.3829,W,0.24,290.63,010511,,,A*6F
$GPGGA,214227.999,2125.5046,S,07003.3828,W,1,08,1.3,-20.4,M,34.8,M,,0000*42
$GPGSA,M,3,03,06,14,32,11,22,24,20,,,,,2.7,1.3,2.3*3D
$GPRMC,214227.999,A,2125.5046,S,07003.3828,W,0.23,173.99,010511,,,A*6E
$GPGGA,214228.997,2125.5046,S,07003.3824,W,1,08,1.3,-21.4,M,34.8,M,,0000*4E
$GPGSA,M,3,03,06,14,32,11,22,24,20,,,,,2.7,1.3,2.3*3D
$GPRMC,214228.997,A,2125.5046,S,07003.3824,W,0.16,87.25,010511,,,A*58
$GPGGA,214230.004,2125.5048,S,07003.3823,W,1,08,1.3,-21.3,M,34.8,M,,0000*4A
$GPGSA,M,3,03,06,14,32,11,22,24,20,,,,,2.7,1.3,2.3*3D
$GPGSV,3,1,12,03,74,002,39,19,69,209,,06,59,030,36,14,43,108,37*7F
$GPGSV,3,2,12,32,40,289,39,11,26,224,40,22,25,141,29,24,19,235,38*7A
$GPGSV,3,3,12,16,16,349,,20,16,294,30,30,04,006,,31,03,040,*79
$GPRMC,214230.004,A,2125.5048,S,07003.3823,W,0.46,147.06,010511,,,A*62
$GPGGA,214230.999,2125.5050,S,07003.3823,W,1,08,1.3,-22.0,M,34.8,M,,0000*4E
$GPGSA,M,3,03,06,14,32,11,22,24,20,,,,,2.7,1.3,2.3*3D
$GPRMC,214230.999,A,2125.5050,S,07003.3823,W,0.23,157.33,010511,,,A*62
$GPGGA,214231.999,2125.5052,S,07003.3827,W,1,07,1.4,-20.1,M,34.8,M,,0000*42
$GPGSA,M,3,03,06,14,11,22,24,20,,,,,,2.7,1.4,2.4*3C
$GPRMC,214231.999,A,2125.5052,S,07003.3827,W,0.26,99.61,010511,,,A*54
$GPGGA,214232.998,2125.5052,S,07003.3825,W,1,08,1.3,-20.3,M,34.8,M,,0000*48
$GPGSA,M,3,03,06,14,32,11,22,24,20,,,,,2.7,1.3,2.3*3D
$GPRMC,214232.998,A,2125.5052,S,07003.3825,W,0.29,11.70,010511,,,A*5B
$GPGGA,214234.000,2125.5054,S,07003.3826,W,1,08,1.3,-20.0,M,34.8,M,,0000*40
$GPGSA,M,3,03,06,14,32,11,22,24,20,,,,,2.7,1.3,2.3*3D
$GPRMC,214234.000,A,2125.5054,S,07003.3826,W,0.20,106.26,010511,,,A*6D
$GPGGA,214235.000,2125.5057,S,07003.3829,W,1,08,1.3,-18.3,M,34.8,M,,0000*45
$GPGSA,M,3,03,06,14,32,11,22,24,20,,,,,2.7,1.3,2.3*3D
$GPGSV,3,1,12,03,74,002,39,19,69,209,,06,59,030,35,14,43,108,37*7C
$GPGSV,3,2,12,32,40,289,39,11,26,224,39,22,25,141,27,24,19,235,37*75
$GPGSV,3,3,12,16,16,349,,20,16,294,32,30,04,006,,31,03,040,*7B
$GPRMC,214235.000,A,2125.5057,S,07003.3829,W,0.19,56.00,010511,,,A*5A
$GPGGA,214236.000,2125.5057,S,07003.3829,W,1,08,1.3,-18.4,M,34.8,M,,0000*41
$GPGSA,M,3,03,06,14,32,11,22,24,20,,,,,2.7,1.3,2.3*3D
$GPRMC,214236.000,A,2125.5057,S,07003.3829,W,0.14,352.70,010511,,,A*64
$GPGGA,214237.000,2125.5065,S,07003.3834,W,1,08,1.3,-14.1,M,34.8,M,,0000*44
$GPGSA,M,3,03,06,14,32,11,22,24,20,,,,,2.7,1.3,2.3*3D
$GPRMC,214237.000,A,2125.5065,S,07003.3834,W,0.10,313.59,010511,,,A*62
$GPGGA,214238.000,2125.5063,S,07003.3832,W,1,08,1.3,-15.1,M,34.8,M,,0000*4A
$GPGSA,M,3,03,06,14,32,11,22,24,20,,,,,2.7,1.3,2.3*3D
$GPRMC,214238.000,A,2125.5063,S,07003.3832,W,0.57,149.88,010511,,,A*6F
$GPGGA,214239.000,2125.5068,S,07003.3830,W,1,08,1.3,-14.3,M,34.8,M,,0000*41
$GPGSA,M,3,03,06,14,32,11,22,24,20,,,,,2.7,1.3,2.3*3D
$GPRMC,214239.000,A,2125.5068,S,07003.3830,W,0.17,180.80,010511,,,A*6E
$GPGGA,214240.000,2125.5063,S,07003.3828,W,1,08,1.3,-16.4,M,34.8,M,,0000*48
$GPGSA,M,3,03,06,14,32,11,22,24,20,,,,,2.7,1.3,2.3*3D
$GPGSV,3,1,12,03,74,002,38,19,69,209,,06,59,030,35,14,43,108,37*7D
$GPGSV,3,2,12,32,40,289,39,11,26,224,39,22,25,141,27,24,19,235,38*7A
$GPGSV,3,3,12,16,16,349,,20,16,294,30,30,04,006,,31,03,040,*79
$GPRMC,214240.000,A,2125.5063,S,07003.3828,W,0.32,14.68,010511,,,A*5F
$GPGGA,214241.000,2125.5066,S,07003.3830,W,1,08,1.3,-14.2,M,34.8,M,,0000*41
$GPGSA,M,3,03,06,14,32,11,22,24,20,,,,,2.7,1.3,2.3*3D
$GPRMC,214241.000,A,2125.5066,S,07003.3830,W,0.17,239.01,010511,,,A*67
$GPGGA,214242.002,2125.5066,S,07003.3830,W,1,07,1.5,-14.6,M,34.8,M,,0000*4D
$GPGSA,M,3,03,06,14,32,11,24,20,,,,,,3.0,1.5,2.6*38
$GPRMC,214242.002,A,2125.5066,S,07003.3830,W,0.44,178.43,010511,,,A*60
$GPGGA,214243.001,2125.5063,S,07003.3831,W,1,08,1.3,-16.2,M,34.8,M,,0000*44
$GPGSA,M,3,03,06,14,32,11,22,24,20,,,,,2.7,1.3,2.3*3D
$GPRMC,214243.001,A,2125.5063,S,07003.3831,W,0.11,157.52,010511,,,A*6B
$GPGGA,214243.998,2125.5065,S,07003.3831,W,1,08,1.3,-16.7,M,34.8,M,,0000*4E
$GPGSA,M,3,03,06,14,32,11,22,24,20,,,,,2.7,1.3,2.3*3D
$GPRMC,214243.998,A,2125.5065,S,07003.3831,W,0.21,105.01,010511,,,A*66
$GPGGA,214245.003,2125.5063,S,07003.3830,W,1,08,1.3,-17.3,M,34.8,M,,0000*41
$GPGSA,M,3,03,06,14,32,11,22,24,20,,,,,2.7,1.3,2.3*3D
$GPGSV,3,1,12,03,74,002,40,19,69,209,,06,59,030,36,14,43,108,37*71
$GPGSV,3,2,12,32,40,289,39,11,26,224,39,22,25,141,28,24,19,235,38*75
$GPGSV,3,3,12,16,16,349,,20,16,294,32,30,04,006,,31,03,040,*7B
$GPRMC,214245.003,A,2125.5063,S,07003.3830,W,0.05,227.63,010511,,,A*6D
$GPGGA,214246.000,2125.5064,S,07003.3832,W,1,08,1.3,-15.7,M,34.8,M,,0000*42
$GPGSA,M,3,03,06,14,32,11,22,24,20,,,,,2.7,1.3,2.3*3D
$GPRMC,214246.000,A,2125.5064,S,07003.3832,W,0.21,96.12,010511,,,A*50
$GPGGA,214246.996,2125.5064,S,07003.3829,W,1,08,1.3,-16.2,M,34.8,M,,0000*48
$GPGSA,M,3,03,06,14,32,11,22,24,20,,,,,2.7,1.3,2.3*3D
$GPRMC,214246.996,A,2125.5064,S,07003.3829,W,0.42,159.89,010511,,,A*69
$GPGGA,214248.002,2125.5059,S,07003.3830,W,1,08,1.3,-17.5,M,34.8,M,,0000*42
$GPGSA,M,3,03,06,14,32,11,22,24,20,,,,,2.7,1.3,2.3*3D
$GPRMC,214248.002,A,2125.5059,S,07003.3830,W,0.05,239.29,010511,,,A*69
$GPGGA,214249.002,2125.5061,S,07003.3831,W,1,08,1.3,-16.0,M,34.8,M,,0000*4D
$GPGSA,M,3,03,06,14,32,11,22,24,20,,,,,2.7,1.3,2.3*3D
$GPRMC,214249.002,A,2125.5061,S,07003.3831,W,0.49,101.30,010511,,,A*6A
$GPGGA,214249.996,2125.5064,S,07003.3831,W,1,08,1.3,-14.0,M,34.8,M,,0000*4E
$GPGSA,M,3,03,06,14,32,11,22,24,20,,,,,2.7,1.3,2.3*3D
$GPGSV,3,1,12,03,74,002,39,19,69,209,,06,59,030,35,14,43,108,36*7D
$GPGSV,3,2,12,32,40,289,40,11,26,224,39,22,25,141,27,24,19,235,38*74
$GPGSV,3,3,12,16,16,349,,20,16,294,32,30,04,006,,31,03,040,*7B
$GPRMC,214249.996,A,2125.5064,S,07003.3831,W,0.23,145.47,010511,,,A*67
$GPGGA,214251.004,2125.5064,S,07003.3836,W,1,08,1.3,-11.9,M,34.8,M,,0000*4E
$GPGSA,M,3,03,06,14,32,11,22,24,20,,,,,2.7,1.3,2.3*3D
$GPRMC,214251.004,A,2125.5064,S,07003.3836,W,0.31,145.32,010511,,,A*6A
$GPGGA,214251.999,2125.5066,S,07003.3835,W,1,07,1.5,-12.2,M,34.8,M,,0000*43
$GPGSA,M,3,03,06,14,32,11,24,20,,,,,,3.0,1.5,2.6*38
$GPRMC,214251.999,A,2125.5066,S,07003.3835,W,0.38,166.19,010511,,,A*67
$GPGGA,214252.999,2125.5066,S,07003.3838,W,1,09,1.1,-12.5,M,34.8,M,,0000*40
$GPGSA,M,3,03,19,06,14,32,11,22,24,20,,,,2.1,1.1,1.7*36
$GPRMC,214252.999,A,2125.5066,S,07003.3838,W,0.33,89.01,010511,,,A*5B
$GPGGA,214254.002,2125.5064,S,07003.3836,W,1,08,1.3,-13.5,M,34.8,M,,0000*43
$GPGSA,M,3,03,06,14,32,11,22,24,20,,,,,2.7,1.3,2.3*3D
$GPRMC,214254.002,A,2125.5064,S,07003.3836,W,0.19,220.53,010511,,,A*64
$GPGGA,214254.999,2125.5060,S,07003.3839,W,1,08,1.3,-14.3,M,34.8,M,,0000*42
$GPGSA,M,3,03,06,14,32,11,22,24,20,,,,,2.7,1.3,2.3*3D
$GPGSV,3,1,12,03,74,002,39,19,69,209,,06,59,030,35,14,43,108,37*7C
$GPGSV,3,2,12,32,40,289,39,11,26,224,39,22,25,141,27,24,19,235,39*7B
$GPGSV,3,3,12,16,16,349,,20,16,294,32,30,04,006,,31,03,040,*7B
$GPRMC,214254.999,A,2125.5060,S,07003.3839,W,0.41,158.89,010511,,,A*62
$GPGGA,214255.997,2125.5057,S,07003.3838,W,1,08,1.3,-15.4,M,34.8,M,,0000*4E
$GPGSA,M,3,03,06,14,32,11,22,24,20,,,,,2.7,1.3,2.3*3D
$GPRMC,214255.997,A,2125.5057,S,07003.3838,W,0.26,106.01,010511,,,A*62
$GPGGA,214257.004,2125.5057,S,07003.3844,W,1,08,1.3,-14.8,M,34.8,M,,0000*49
$GPGSA,M,3,03,06,14,32,11,22,24,20,,,,,2.7,1.3,2.3*3D
$GPRMC,214257.004,A,2125.5057,S,07003.3844,W,0.21,293.43,010511,,,A*66
$GPGGA,214257.999,2125.5055,S,07003.3845,W,1,08,1.3,-14.9,M,34.8,M,,0000*46
$GPGSA,M,3,03,06,14,32,11,22,24,20,,,,,2.7,1.3,2.3*3D
$GPRMC,214257.999,A,2125.5055,S,07003.3845,W,0.16,163.08,010511,,,A*6F
$GPGGA,214258.997,2125.5052,S,07003.3846,W,1,08,1.3,-15.2,M,34.8,M,,0000*49
$GPGSA,M,3,03,06,14,32,11,22,24,20,,,,,2.7,1.3,2.3*3D
$GPRMC,214258.997,A,2125.5052,S,07003.3846,W,0.23,162.20,010511,,,A*67
$GPGGA,214300.000,2125.5052,S,07003.3847,W,1,08,1.3,-15.9,M,34.8,M,,0000*48
$GPGSA,M,3,03,06,14,32,11,22,24,20,,,,,2.7,1.3,2.3*3D
$GPGSV,3,1,12,03,74,002,39,19,69,209,,06,59,030,35,14,43,108,37*7C
$GPGSV,3,2,12,32,40,289,40,11,26,224,39,22,25,141,27,24,19,235,38*74
$GPGSV,3,3,12,16,16,349,,20,16,294,33,30,04,006,,31,03,040,*7A
$GPRMC,214300.000,A,2125.5052,S,07003.3847,W,0.33,149.94,010511,,,A*6A
$GPGGA,214301.003,2125.5047,S,07003.3845,W,1,08,1.3,-17.9,M,34.8,M,,0000*4E
$GPGSA,M,3,03,06,14,32,11,22,24,20,,,,,2.7,1.3,2.3*3D
$GPRMC,214301.003,A,2125.5047,S,07003.3845,W,0.37,289.19,010511,,,A*60
$GPGGA,214301.997,2125.5044,S,07003.3847,W,1,08,1.3,-18.3,M,34.8,M,,0000*4E
$GPGSA,M,3,03,06,14,32,11,22,24,20,,,,,2.7,1.3,2.3*3D
$GPRMC,214301.997,A,2125.5044,S,07003.3847,W,0.07,60.96,010511,,,A*54
$GPGGA,214303.001,2125.5042,S,07003.3845,W,1,09,0.9,-18.6,M,34.8,M,,0000*41
$GPGSA,M,3,03,06,14,32,11,22,24,16,20,,,,1.9,0.9,1.6*3A
$GPRMC,214303.001,A,2125.5042,S,07003.3845,W,0.23,301.25,010511,,,A*6E
$GPGGA,214304.003,2125.5043,S,07003.3848,W,1,08,1.3,-16.6,M,34.8,M,,0000*4C
$GPGSA,M,3,03,06,14,32,11,22,24,20,,,,,2.7,1.3,2.3*3D
$GPRMC,214304.003,A,2125.5043,S,07003.3848,W,0.36,156.43,010511,,,A*63
$GPGGA,214304.997,2125.5041,S,07003.3847,W,1,08,1.3,-17.4,M,34.8,M,,0000*46
$GPGSA,M,3,03,06,14,32,11,22,24,20,,,,,2.7,1.3,2.3*3D
$GPGSV,3,1,12,03,74,002,39,19,69,209,,06,59,030,35,14,43,108,36*7D
$GPGSV,3,2,12,32,40,289,40,11,26,224,39,22,25,141,27,24,19,235,38*74
$GPGSV,3,3,12,16,16,349,,20,16,294,33,30,04,006,,31,03,040,*7A
$GPRMC,214304.997,A,2125.5041,S,07003.3847,W,0.36,124.00,010511,,,A*68
$GPGGA,214306.000,2125.5039,S,07003.3843,W,1,08,1.3,-18.8,M,34.8,M,,0000*4B
$GPGSA,M,3,03,06,14,32,11,22,24,20,,,,,2.7,1.3,2.3*3D
$GPRMC,214306.000,A,2125.5039,S,07003.3843,W,0.23,227.97,010511,,,A*6C
$GPGGA,214307.000,2125.5037,S,07003.3843,W,1,08,1.3,-19.1,M,34.8,M,,0000*4C
$GPGSA,M,3,03,06,14,32,11,22,24,20,,,,,2.7,1.3,2.3*3D
$GPRMC,214307.000,A,2125.5037,S,07003.3843,W,0.28,185.06,010511,,,A*6B
$GPGGA,214308.002,2125.5036,S,07003.3842,W,1,07,1.5,-19.6,M,34.8,M,,0000*4F
$GPGSA,M,3,03,06,14,32,11,24,20,,,,,,3.0,1.5,2.6*38
$GPRMC,214308.002,A,2125.5036,S,07003.3842,W,0.32,184.67,010511,,,A*6B
$GPGGA,214308.999,2125.5034,S,07003.3843,W,1,09,1.1,-19.8,M,34.8,M,,0000*43
$GPGSA,M,3,03,19,06,14,32,11,22,24,20,,,,2.1,1.1,1.7*36
$GPRMC,214308.999,A,2125.5034,S,07003.3843,W,0.11,97.71,010511,,,A*56
$GPGGA,214309.999,2125.5032,S,07003.3847,W,1,08,1.3,-18.0,M,34.8,M,,0000*4A
$GPGSA,M,3,03,06,14,32,11,22,24,20,,,,,2.7,1.3,2.3*3D
$GPGSV,3,1,12,03,74,002,39,19,69,209,,06,59,030,35,14,43,108,36*7D
$GPGSV,3,2,12,32,40,289,38,11,26,224,39,22,25,141,27,24,19,235,39*7A
$GPGSV,3,3,12,16,16,349,,20,16,294,34,30,04,006,,31,03,040,*7D
$GPRMC,214309.999,A,2125.5032,S,07003.3847,W,0.24,127.44,010511,,,A*6F
$GPGGA,214311.003,2125.5029,S,07003.3843,W,1,09,1.1,-20.8,M,34.8,M,,0000*47
$GPGSA,M,3,03,19,06,14,32,11,22,24,20,,,,2.1,1.1,1.7*36
$GPRMC,214311.003,A,2125.5029,S,07003.3843,W,0.72,275.49,010511,,,A*68
$GPGGA,214311.999,2125.5032,S,07003.3850,W,1,09,0.9,-17.6,M,34.8,M,,0000*46
$GPGSA,M,3,03,06,14,32,11,22,24,16,20,,,,1.9,0.9,1.6*3A
$GPRMC,214311.999,A,2125.5032,S,07003.3850,W,0.27,270.45,010511,,,A*63
$GPGGA,214313.002,2125.5031,S,07003.3851,W,1,07,1.5,-17.7,M,34.8,M,,0000*4F
$GPGSA,M,3,03,06,14,32,11,24,20,,,,,,3.0,1.5,2.6*38
$GPRMC,214313.002,A,2125.5031,S,07003.3851,W,0.21,209.49,010511,,,A*6C
$GPGGA,214313.995,2125.5035,S,07003.3852,W,1,10,0.9,-17.2,M,34.8,M,,0000*41
$GPGSA,M,3,03,19,06,14,32,11,22,24,16,20,,,1.6,0.9,1.4*3F
$GPRMC,214313.995,A,2125.5035,S,07003.3852,W,0.54,119.88,010511,,,A*61
$GPGGA,214315.004,2125.5035,S,07003.3849,W,1,08,1.0,-17.9,M,34.8,M,,0000*46
$GPGSA,M,3,03,06,14,32,11,22,24,16,,,,,1.9,1.0,1.7*31
$GPGSV,3,1,12,03,74,002,39,19,69,209,,06,59,030,35,14,43,108,36*7D
$GPGSV,3,2,12,32,40,289,39,11,26,224,39,22,25,141,26,24,19,235,37*74
$GPGSV,3,3,12,16,16,349,24,20,16,294,,30,04,006,,31,03,040,*7C
$GPRMC,214315.004,A,2125.5035,S,07003.3849,W,0.47,169.39,010511,,,A*63
$GPGGA,214315.998,2125.5040,S,07003.3852,W,1,09,1.1,-14.9,M,34.8,M,,0000*41
$GPGSA,M,3,03,19,06,14,32,11,22,24,20,,,,2.1,1.1,1.7*36
$GPRMC,214315.998,A,2125.5040,S,07003.3852,W,0.39,91.70,010511,,,A*55
$GPGGA,214317.002,2125.5042,S,07003.3850,W,1,08,1.3,-14.2,M,34.8,M,,0000*41
$GPGSA,M,3,03,19,06,14,32,11,24,20,,,,,2.4,1.3,2.0*35
$GPRMC,214317.002,A,2125.5042,S,07003.3850,W,0.26,8.98,010511,,,A*65
$GPGGA,214317.999,2125.5037,S,07003.3849,W,1,10,0.9,-15.2,M,34.8,M,,0000*43
$GPGSA,M,3,03,19,06,14,32,11,22,24,16,20,,,1.6,0.9,1.4*3F
$GPRMC,214317.999,A,2125.5037,S,07003.3849,W,0.17,194.86,010511,,,A*6D
$GPGGA,214318.999,2125.5039,S,07003.3849,W,1,08,1.3,-15.8,M,34.8,M,,0000*4A
$GPGSA,M,3,03,06,14,32,11,22,24,20,,,,,2.7,1.3,2.3*3D
$GPRMC,214318.999,A,2125.5039,S,07003.3849,W,0.27,191.30,010511,,,A*67
$GPGGA,214320.001,2125.5044,S,07003.3849,W,1,10,0.9,-15.9,M,34.8,M,,0000*40
$GPGSA,M,3,03,19,06,14,32,11,22,24,16,20,,,1.6,0.9,1.4*3F
$GPGSV,3,1,12,03,74,002,39,19,69,209,26,06,59,030,34,14,43,108,37*79
$GPGSV,3,2,12,32,40,289,39,11,26,224,39,22,25,141,28,24,19,235,38*75
$GPGSV,3,3,12,16,16,349,26,20,16,294,33,30,04,006,,31,03,040,*7E
$GPRMC,214320.001,A,2125.5044,S,07003.3849,W,0.90,198.63,010511,,,A*6D
$GPGGA,214321.002,2125.5048,S,07003.3849,W,1,09,1.1,-15.9,M,34.8,M,,0000*4F
$GPGSA,M,3,03,19,06,14,32,11,22,24,20,,,,2.1,1.1,1.7*36
$GPRMC,214321.002,A,2125.5048,S,07003.3849,W,0.12,132.48,010511,,,A*60
$GPGGA,214321.999,2125.5053,S,07003.3849,W,1,10,0.9,-15.3,M,34.8,M,,0000*45
$GPGSA,M,3,03,19,06,14,32,11,22,24,16,20,,,1.6,0.9,1.4*3F
$GPRMC,214321.999,A,2125.5053,S,07003.3849,W,0.61,188.44,010511,,,A*68
$GPGGA,214322.997,2125.5053,S,07003.3848,W,1,08,1.3,-15.3,M,34.8,M,,0000*4B
$GPGSA,M,3,03,06,14,32,11,22,24,20,,,,,2.7,1.3,2.3*3D
$GPRMC,214322.997,A,2125.5053,S,07003.3848,W,0.23,248.71,010511,,,A*6B
$GPGGA,214324.002,2125.5053,S,07003.3849,W,1,09,1.1,-16.1,M,34.8,M,,0000*4B
$GPGSA,M,3,03,19,06,14,32,11,24,16,20,,,,1.9,1.1,1.6*3B
$GPRMC,214324.002,A,2125.5053,S,07003.3849,W,0.35,157.25,010511,,,A*62
$GPGGA,214324.998,2125.5050,S,07003.3847,W,1,08,1.3,-17.5,M,34.8,M,,0000*4A
$GPGSA,M,3,03,06,14,32,11,22,24,20,,,,,2.7,1.3,2.3*3D
$GPGSV,3,1,12,03,74,002,39,19,69,209,,06,59,030,36,14,43,108,37*7F
$GPGSV,3,2,12,32,40,289,40,11,26,224,39,22,25,141,27,24,19,235,39*75
$GPGSV,3,3,12,16,16,349,,20,16,294,32,30,04,006,,31,03,040,*7B
$GPRMC,214324.998,A,2125.5050,S,07003.3847,W,0.45,147.51,010511,,,A*60
$GPGGA,214326.001,2125.5056,S,07003.3845,W,1,08,1.3,-17.5,M,34.8,M,,0000*45
$GPGSA,M,3,03,06,14,32,11,22,24,20,,,,,2.7,1.3,2.3*3D
$GPRMC,214326.001,A,2125.5056,S,07003.3845,W,0.17,190.95,010511,,,A*6A
$GPGGA,214327.003,2125.5058,S,07003.3844,W,1,08,1.3,-16.9,M,34.8,M,,0000*44
$GPGSA,M,3,03,19,06,14,32,11,24,20,,,,,2.4,1.3,2.0*35
$GPRMC,214327.003,A,2125.5058,S,07003.3844,W,0.33,115.21,010511,,,A*62
$GPGGA,214328.000,2125.5058,S,07003.3844,W,1,10,0.9,-16.2,M,34.8,M,,0000*41
$GPGSA,M,3,03,19,06,14,32,11,22,24,16,20,,,1.6,0.9,1.4*3F
$GPRMC,214328.000,A,2125.5058,S,07003.3844,W,0.21,168.91,010511,,,A*6C
$GPGGA,214328.997,2125.5056,S,07003.3841,W,1,08,1.3,-17.7,M,34.8,M,,0000*4B
$GPGSA,M,3,03,06,14,32,11,22,24,20,,,,,2.7,1.3,2.3*3D
$GPRMC,214328.997,A,2125.5056,S,07003.3841,W,0.20,191.73,010511,,,A*6B
$GPGGA,214330.001,2125.5058,S,07003.3841,W,1,09,1.1,-17.7,M,34.8,M,,0000*49
$GPGSA,M,3,03,19,06,14,32,11,22,24,20,,,,2.1,1.1,1.7*36
$GPGSV,3,1,12,03,74,002,39,19,69,209,26,06,59,030,35,14,43,108,36*79
$GPGSV,3,2,12,32,40,289,39,11,26,224,38,22,25,141,27,24,19,235,38*7B
$GPGSV,3,3,12,16,16,349,,20,16,294,33,30,04,006,,31,03,040,*7A
$GPRMC,214330.001,A,2125.5058,S,07003.3841,W,0.22,167.46,010511,,,A*67
$GPGGA,214331.001,2125.5059,S,07003.3841,W,1,09,1.1,-18.6,M,34.8,M,,0000*47
$GPGSA,M,3,03,19,06,14,32,11,22,24,20,,,,2.1,1.1,1.7*36
$GPRMC,214331.001,A,2125.5059,S,07003.3841,W,0.19,195.85,010511,,,A*6D
$GPGGA,214331.999,2125.5057,S,07003.3841,W,1,10,0.9,-19.2,M,34.8,M,,0000*45
$GPGSA,M,3,03,19,06,14,32,11,22,24,16,20,,,1.6,0.9,1.4*3F
$GPRMC,214331.999,A,2125.5057,S,07003.3841,W,0.76,251.73,010511,,,A*60
$GPGGA,214333.004,2125.5055,S,07003.3842,W,1,10,0.9,-19.9,M,34.8,M,,0000*40
$GPGSA,M,3,03,19,06,14,32,11,22,24,16,20,,,1.6,0.9,1.4*3F
$GPRMC,214333.004,A,2125.5055,S,07003.3842,W,0.49,255.04,010511,,,A*66
$GPGGA,214333.998,2125.5051,S,07003.3841,W,1,09,1.1,-21.4,M,34.8,M,,0000*4C
$GPGSA,M,3,03,19,06,14,32,11,22,24,20,,,,2.1,1.1,1.7*36
$GPRMC,214333.998,A,2125.5051,S,07003.3841,W,0.24,285.75,010511,,,A*6D
$GPGGA,214335.002,2125.5056,S,07003.3847,W,1,10,0.9,-18.2,M,34.8,M,,0000*4C
$GPGSA,M,3,03,19,06,14,32,11,22,24,16,20,,,1.6,0.9,1.4*3F
$GPGSV,3,1,12,03,74,002,39,19,69,209,28,06,59,030,35,14,43,108,36*77
$GPGSV,3,2,12,32,40,289,39,11,26,224,39,22,25,141,27,24,19,235,38*7A
$GPGSV,3,3,12,16,16,349,26,20,16,294,32,30,04,006,,31,03,040,*7F
$GPRMC,214335.002,A,2125.5056,S,07003.3847,W,0.67,134.60,010511,,,A*6A
$GPGGA,214335.998,2125.5058,S,07003.3853,W,1,09,1.1,-14.2,M,34.8,M,,0000*40
$GPGSA,M,3,03,19,06,14,32,11,22,24,20,,,,2.1,1.1,1.7*36
$GPRMC,214335.998,A,2125.5058,S,07003.3853,W,0.24,187.27,010511,,,A*67
$GPGGA,214336.998,2125.5057,S,07003.3850,W,1,10,0.9,-15.4,M,34.8,M,,0000*49
$GPGSA,M,3,03,19,06,14,32,11,22,24,16,20,,,1.6,0.9,1.4*3F
$GPRMC,214336.998,A,2125.5057,S,07003.3850,W,0.30,134.62,010511,,,A*64
$GPGGA,214338.002,2125.5064,S,07003.3854,W,1,09,1.1,-12.3,M,34.8,M,,0000*48
$GPGSA,M,3,03,19,06,14,32,11,22,24,20,,,,2.1,1.1,1.7*36
$GPRMC,214338.002,A,2125.5064,S,07003.3854,W,0.28,172.79,010511,,,A*65
$GPGGA,214339.002,2125.5061,S,07003.3853,W,1,10,0.9,-11.8,M,34.8,M,,0000*42
$GPGSA,M,3,03,19,06,14,32,11,22,24,16,20,,,1.6,0.9,1.4*3F
$GPRMC,214339.002,A,2125.5061,S,07003.3853,W,0.19,30.16,010511,,,A*5A
$GPGGA,214339.998,2125.5059,S,07003.3851,W,1,09,1.1,-12.3,M,34.8,M,,0000*48
$GPGSA,M,3,03,19,06,14,32,11,22,24,20,,,,2.1,1.1,1.7*36
$GPGSV,3,1,12,03,74,002,38,19,69,209,27,06,59,030,35,14,43,108,36*79
$GPGSV,3,2,12,32,40,289,39,11,26,224,39,22,25,141,28,24,19,235,39*74
$GPGSV,3,3,12,16,16,349,,20,16,294,32,30,04,006,,31,03,040,*7B
$GPRMC,214339.998,A,2125.5059,S,07003.3851,W,0.57,32.32,010511,,,A*57
$GPGGA,214341.000,2125.5057,S,07003.3851,W,1,09,1.1,-11.4,M,34.8,M,,0000*45
$GPGSA,M,3,03,19,06,14,32,11,22,24,20,,,,2.1,1.1,1.7*36
$GPRMC,214341.000,A,2125.5057,S,07003.3851,W,0.38,299.65,010511,,,A*66
$GPGGA,214341.999,2125.5057,S,07003.3849,W,1,08,1.3,-12.5,M,34.8,M,,0000*44
$GPGSA,M,3,03,19,06,14,32,11,24,20,,,,,2.4,1.3,2.0*35
$GPRMC,214341.999,A,2125.5057,S,07003.3849,W,0.09,94.26,010511,,,A*5C
$GPGGA,214343.001,2125.5056,S,07003.3849,W,1,09,1.1,-10.8,M,34.8,M,,0000*43
$GPGSA,M,3,03,19,06,14,32,11,22,24,20,,,,2.1,1.1,1.7*36
$GPRMC,214343.001,A,2125.5056,S,07003.3849,W,0.19,93.06,010511,,,A*53
$GPGGA,214344.001,2125.5055,S,07003.3848,W,1,09,1.1,-11.0,M,34.8,M,,0000*4F
$GPGSA,M,3,03,19,06,14,32,11,24,16,20,,,,1.9,1.1,1.6*3B
$GPRMC,214344.001,A,2125.5055,S,07003.3848,W,0.38,121.69,010511,,,A*64
$GPGGA,214345.001,2125.5054,S,07003.3846,W,1,09,1.1,-11.6,M,34.8,M,,0000*47
$GPGSA,M,3,03,19,06,14,32,11,22,24,20,,,,2.1,1.1,1.7*36
$GPGSV,3,1,12,03,74,002,38,19,69,209,29,06,59,030,36,14,43,108,36*74
$GPGSV,3,2,12,32,40,289,40,11,26,224,39,22,25,141,28,24,19,235,38*7B
$GPGSV,3,3,12,16,16,349,,20,16,294,33,30,04,006,,31,03,040,*7A
$GPRMC,214345.001,A,2125.5054,S,07003.3846,W,0.21,138.30,010511,,,A*66
$GPGGA,214346.001,2125.5057,S,07003.3847,W,1,09,1.1,-11.0,M,34.8,M,,0000*40
$GPGSA,M,3,03,19,06,14,32,11,22,24,20,,,,2.1,1.1,1.7*36
$GPRMC,214346.001,A,2125.5057,S,07003.3847,W,0.29,184.07,010511,,,A*6C
$GPGGA,214347.001,2125.5056,S,07003.3847,W,1,09,1.1,-12.0,M,34.8,M,,0000*43
$GPGSA,M,3,03,19,06,14,32,11,22,24,20,,,,2.1,1.1,1.7*36
$GPRMC,214347.001,A,2125.5056,S,07003.3847,W,0.32,13.93,010511,,,A*54
$GPGGA,214348.002,2125.5059,S,07003.3849,W,1,10,0.9,-11.0,M,34.8,M,,0000*4C
$GPGSA,M,3,03,19,06,14,32,11,22,24,16,20,,,1.6,0.9,1.4*3F
$GPRMC,214348.002,A,2125.5059,S,07003.3849,W,0.37,203.03,010511,,,A*66
$GPGGA,214349.000,2125.5058,S,07003.3850,W,1,10,0.9,-11.9,M,34.8,M,,0000*4F
$GPGSA,M,3,03,19,06,14,32,11,22,24,16,20,,,1.6,0.9,1.4*3F
$GPRMC,214349.000,A,2125.5058,S,07003.3850,W,0.26,125.17,010511,,,A*6E
$GPGGA,214350.000,2125.5056,S,07003.3850,W,1,10,0.9,-12.5,M,34.8,M,,0000*46
$GPGSA,M,3,03,19,06,14,32,11,22,24,16,20,,,1.6,0.9,1.4*3F
$GPGSV,3,1,12,03,74,002,39,19,69,209,28,06,59,030,35,14,43,108,37*76
$GPGSV,3,2,12,32,40,289,39,11,26,224,39,22,25,141,29,24,19,235,39*75
$GPGSV,3,3,12,16,16,349,29,20,16,294,33,30,04,006,,31,03,040,*71
$GPRMC,214350.000,A,2125.5056,S,07003.3850,W,0.27,90.41,010511,,,A*55
$GPGGA,214351.000,2125.5058,S,07003.3850,W,1,10,0.9,-12.5,M,34.8,M,,0000*49
$GPGSA,M,3,03,19,06,14,32,11,22,24,16,20,,,1.6,0.9,1.4*3F
$GPRMC,214351.000,A,2125.5058,S,07003.3850,W,0.42,249.91,010511,,,A*62
$GPGGA,214351.999,2125.5054,S,07003.3855,W,1,09,1.1,-13.0,M,34.8,M,,0000*4C
$GPGSA,M,3,03,19,06,14,32,11,22,24,20,,,,2.1,1.1,1.7*36
$GPRMC,214351.999,A,2125.5054,S,07003.3855,W,0.19,159.63,010511,,,A*63
$GPGGA,214353.001,2125.5050,S,07003.3856,W,1,10,0.9,-14.2,M,34.8,M,,0000*45
$GPGSA,M,3,03,19,06,14,32,11,22,24,16,20,,,1.6,0.9,1.4*3F
$GPRMC,214353.001,A,2125.5050,S,07003.3856,W,0.22,62.54,010511,,,A*5B
$GPGGA,214354.001,2125.5047,S,07003.3854,W,1,10,0.9,-15.4,M,34.8,M,,0000*41
$GPGSA,M,3,03,19,06,14,32,11,22,24,16,20,,,1.6,0.9,1.4*3F
$GPRMC,214354.001,A,2125.5047,S,07003.3854,W,0.58,171.83,010511,,,A*6C
$GPGGA,214354.999,2125.5044,S,07003.3851,W,1,09,1.1,-17.6,M,34.8,M,,0000*4E
$GPGSA,M,3,03,19,06,14,32,11,22,24,20,,,,2.1,1.1,1.7*36
$GPGSV,3,1,12,03,74,002,38,19,69,209,29,06,59,030,34,14,43,108,36*76
$GPGSV,3,2,12,32,40,289,39,11,26,224,39,22,25,141,30,24,19,235,39*7D
$GPGSV,3,3,12,16,16,349,,20,16,294,33,30,04,006,,31,03,040,*7A
$GPRMC,214354.999,A,2125.5044,S,07003.3851,W,0.41,187.47,010511,,,A*6B
$GPGGA,214356.002,2125.5042,S,07003.3852,W,1,10,0.9,-18.0,M,34.8,M,,0000*4A
$GPGSA,M,3,03,19,06,14,32,11,22,24,16,20,,,1.6,0.9,1.4*3F
$GPRMC,214356.002,A,2125.5042,S,07003.3852,W,0.39,184.69,010511,,,A*67
$GPGGA,214356.999,2125.5040,S,07003.3848,W,1,09,0.9,-19.5,M,34.8,M,,0000*44
$GPGSA,M,3,03,19,06,14,11,22,24,16,20,,,,1.7,0.9,1.4*3F
$GPRMC,214356.999,A,2125.5040,S,07003.3848,W,0.29,98.35,010511,,,A*51
$GPGGA,214358.001,2125.5037,S,07003.3848,W,1,10,0.9,-20.3,M,34.8,M,,0000*46
$GPGSA,M,3,03,19,06,14,32,11,22,24,16,20,,,1.6,0.9,1.4*3F
$GPRMC,214358.001,A,2125.5037,S,07003.3848,W,0.32,302.23,010511,,,A*6A
$GPGGA,214359.001,2125.5038,S,07003.3850,W,1,10,0.9,-19.5,M,34.8,M,,0000*4D
$GPGSA,M,3,03,19,06,14,32,11,22,24,16,20,,,1.6,0.9,1.4*3F
$GPRMC,214359.001,A,2125.5038,S,07003.3850,W,0.06,166.48,010511,,,A*67
$GPGGA,214400.001,2125.5046,S,07003.3856,W,1,10,0.9,-17.3,M,34.8,M,,0000*41
$GPGSA,M,3,03,19,06,14,32,11,22,24,16,20,,,1.6,0.9,1.4*3F
$GPGSV,3,1,12,03,74,002,39,19,69,209,30,06,59,030,36,14,43,108,37*7C
$GPGSV,3,2,12,32,40,289,39,11,26,224,39,22,25,141,29,24,19,235,38*74
$GPGSV,3,3,12,16,16,349,29,20,16,294,33,30,04,006,,31,03,040,*71
$GPRMC,214400.001,A,2125.5046,S,07003.3856,W,0.22,6.86,010511,,,A*60
$GPGGA,214400.999,2125.5044,S,07003.3854,W,1,09,1.1,-18.0,M,34.8,M,,0000*44
$GPGSA,M,3,03,19,06,14,32,11,22,24,20,,,,2.1,1.1,1.7*36
$GPRMC,214400.999,A,2125.5044,S,07003.3854,W,0.33,120.36,010511,,,A*66
$GPGGA,214402.001,2125.5047,S,07003.3854,W,1,09,1.1,-17.2,M,34.8,M,,0000*40
$GPGSA,M,3,03,19,06,14,32,11,22,24,20,,,,2.1,1.1,1.7*36
$GPRMC,214402.001,A,2125.5047,S,07003.3854,W,0.15,307.17,010511,,,A*6F
$GPGGA,214403.002,2125.5051,S,07003.3857,W,1,10,0.9,-15.8,M,34.8,M,,0000*4F
$GPGSA,M,3,03,19,06,14,32,11,22,24,16,20,,,1.6,0.9,1.4*3F
$GPRMC,214403.002,A,2125.5051,S,07003.3857,W,0.25,83.81,010511,,,A*5A
$GPGGA,214404.000,2125.5052,S,07003.3854,W,1,10,0.9,-16.0,M,34.8,M,,0000*41
$GPGSA,M,3,03,19,06,14,32,11,22,24,16,20,,,1.6,0.9,1.4*3F
$GPRMC,214404.000,A,2125.5052,S,07003.3854,W,0.34,164.96,010511,,,A*61
$GPGGA,214405.000,2125.5053,S,07003.3858,W,1,10,0.9,-13.7,M,34.8,M,,0000*4F
$GPGSA,M,3,03,19,06,14,32,11,22,24,16,20,,,1.6,0.9,1.4*3F
$GPGSV,3,1,12,03,74,002,39,19,69,209,28,06,59,030,34,14,43,108,35*75
$GPGSV,3,2,12,32,40,289,39,11,26,224,38,22,25,141,29,24,19,235,37*7A
$GPGSV,3,3,12,16,16,349,27,20,16,294,34,30,04,006,,31,03,040,*78
$GPRMC,214405.000,A,2125.5053,S,07003.3858,W,0.15,228.31,010511,,,A*68
$GPGGA,214406.000,2125.5051,S,07003.3856,W,1,10,0.9,-15.3,M,34.8,M,,0000*42
$GPGSA,M,3,03,19,06,14,32,11,22,24,16,20,,,1.6,0.9,1.4*3F
$GPRMC,214406.000,A,2125.5051,S,07003.3856,W,0.21,326.15,010511,,,A*69
$GPGGA,214406.996,2125.5052,S,07003.3855,W,1,10,0.9,-14.5,M,34.8,M,,0000*43
$GPGSA,M,3,03,19,06,14,32,11,22,24,16,20,,,1.6,0.9,1.4*3F
$GPRMC,214406.996,A,2125.5052,S,07003.3855,W,0.16,249.67,010511,,,A*66
$GPGGA,214408.000,2125.5051,S,07003.3853,W,1,10,0.9,-15.5,M,34.8,M,,0000*4F
$GPGSA,M,3,03,19,06,14,32,11,22,24,16,20,,,1.6,0.9,1.4*3F
$GPRMC,214408.000,A,2125.5051,S,07003.3853,W,0.66,201.66,010511,,,A*61
$GPGGA,214409.000,2125.5054,S,07003.3855,W,1,10,0.9,-13.7,M,34.8,M,,0000*49
$GPGSA,M,3,03,19,06,14,32,11,22,24,16,20,,,1.6,0.9,1.4*3F
$GPRMC,214409.000,A,2125.5054,S,07003.3855,W,0.49,198.28,010511,,,A*67
$GPGGA,214410.004,2125.5054,S,07003.3855,W,1,10,0.9,-13.9,M,34.8,M,,0000*4B
$GPGSA,M,3,03,19,06,14,32,11,22,24,16,20,,,1.6,0.9,1.4*3F
$GPGSV,3,1,12,03,74,002,40,19,69,209,29,06,59,030,35,14,43,108,36*78
$GPGSV,3,2,12,32,40,289,39,11,26,224,39,22,25,141,29,24,19,235,39*75
$GPGSV,3,3,12,16,16,349,27,20,16,294,33,30,04,006,,31,03,040,*7F
$GPRMC,214410.004,A,2125.5054,S,07003.3855,W,0.79,159.15,010511,,,A*6B
$GPGGA,214410.996,2125.5055,S,07003.3855,W,1,10,0.9,-13.1,M,34.8,M,,0000*40
$GPGSA,M,3,03,19,06,14,32,11,22,24,16,20,,,1.6,0.9,1.4*3F
$GPRMC,214410.996,A,2125.5055,S,07003.3855,W,0.33,191.03,010511,,,A*65
$GPGGA,214412.000,2125.5054,S,07003.3854,W,1,10,0.9,-13.9,M,34.8,M,,0000*4C
$GPGSA,M,3,03,19,06,14,32,11,22,24,16,20,,,1.6,0.9,1.4*3F
$GPRMC,214412.000,A,2125.5054,S,07003.3854,W,0.25,303.70,010511,,,A*6B
$GPGGA,214413.000,2125.5053,S,07003.3855,W,1,10,0.9,-13.7,M,34.8,M,,0000*45
$GPGSA,M,3,03,19,06,14,32,11,22,24,16,20,,,1.6,0.9,1.4*3F
$GPRMC,214413.000,A,2125.5053,S,07003.3855,W,0.45,193.58,010511,,,A*6B
$GPGGA,214414.000,2125.5055,S,07003.3857,W,1,10,0.9,-12.0,M,34.8,M,,0000*40
$GPGSA,M,3,03,19,06,14,32,11,22,24,16,20,,,1.6,0.9,1.4*3F
$GPRMC,214414.000,A,2125.5055,S,07003.3857,W,0.30,156.61,010511,,,A*69
$GPGGA,214415.002,2125.5055,S,07003.3854,W,1,09,1.1,-12.5,M,34.8,M,,0000*44
$GPGSA,M,3,03,19,06,14,32,11,22,24,20,,,,2.1,1.1,1.7*36
$GPGSV,3,1,12,03,74,002,39,19,69,209,29,06,59,030,35,14,43,108,36*76
$GPGSV,3,2,12,32,40,289,39,11,26,224,38,22,25,141,30,24,19,235,37*72
$GPGSV,3,3,12,16,16,349,,20,16,294,33,30,04,006,,31,03,040,*7A
$GPRMC,214415.002,A,2125.5055,S,07003.3854,W,0.14,327.78,010511,,,A*63
$GPGGA,214415.998,2125.5051,S,07003.3853,W,1,10,0.9,-14.2,M,34.8,M,,0000*4D
$GPGSA,M,3,03,19,06,14,32,11,22,24,16,20,,,1.6,0.9,1.4*3F
$GPRMC,214415.998,A,2125.5051,S,07003.3853,W,0.33,130.57,010511,,,A*66
$GPGGA,214417.000,2125.5049,S,07003.3855,W,1,10,0.9,-15.0,M,34.8,M,,0000*4B
$GPGSA,M,3,03,19,06,14,32,11,22,24,16,20,,,1.6,0.9,1.4*3F
$GPRMC,214417.000,A,2125.5049,S,07003.3855,W,0.08,276.91,010511,,,A*60
$GPGGA,214418.000,2125.5048,S,07003.3854,W,1,10,0.9,-16.1,M,34.8,M,,0000*46
$GPGSA,M,3,03,19,06,14,32,11,22,24,16,20,,,1.6,0.9,1.4*3F
$GPRMC,214418.000,A,2125.5048,S,07003.3854,W,0.41,251.80,010511,,,A*67
$GPGGA,214419.000,2125.5049,S,07003.3857,W,1,10,0.9,-16.2,M,34.8,M,,0000*46
$GPGSA,M,3,03,19,06,14,32,11,22,24,16,20,,,1.6,0.9,1.4*3F
$GPRMC,214419.000,A,2125.5049,S,07003.3857,W,0.52,164.63,010511,,,A*6E
$GPGGA,214420.002,2125.5049,S,07003.3853,W,1,09,1.0,-16.8,M,34.8,M,,0000*40
$GPGSA,M,3,03,19,06,14,32,11,22,16,20,,,,1.7,1.0,1.4*30
$GPGSV,3,1,12,03,74,002,39,19,69,209,29,06,59,030,35,14,43,108,37*77
$GPGSV,3,2,12,32,40,289,40,11,26,224,40,22,25,141,31,24,19,235,*76
$GPGSV,3,3,12,16,16,349,26,20,16,294,33,30,04,006,,31,03,040,*7E
$GPRMC,214420.002,A,2125.5049,S,07003.3853,W,0.20,52.70,010511,,,A*51
$GPGGA,214421.001,2125.5047,S,07003.3848,W,1,10,0.9,-19.4,M,34.8,M,,0000*45
$GPGSA,M,3,03,19,06,14,32,11,22,24,16,20,,,1.6,0.9,1.4*3F
$GPRMC,214421.001,A,2125.5047,S,07003.3848,W,0.16,93.21,010511,,,A*5B
$GPGGA,214422.001,2125.5050,S,07003.3846,W,1,10,0.9,-19.2,M,34.8,M,,0000*48
$GPGSA,M,3,03,19,06,14,32,11,22,24,16,20,,,1.6,0.9,1.4*3F
$GPRMC,214422.001,A,2125.5050,S,07003.3846,W,0.32,112.72,010511,,,A*68
$GPGGA,214423.001,2125.5050,S,07003.3844,W,1,10,0.9,-19.5,M,34.8,M,,0000*4C
$GPGSA,M,3,03,19,06,14,32,11,22,24,16,20,,,1.6,0.9,1.4*3F
$GPRMC,214423.001,A,2125.5050,S,07003.3844,W,0.26,161.81,010511,,,A*66
$GPGGA,214424.001,2125.5050,S,07003.3841,W,1,10,0.9,-19.7,M,34.8,M,,0000*4C
$GPGSA,M,3,03,19,06,14,32,11,22,24,16,20,,,1.6,0.9,1.4*3F
