$GPGGA,184705.016,3832.3231,S,07022.0249,W,1,06,1.7,718.2,M,23.5,M,,0000*52
$GPGSA,M,3,06,22,03,16,30,21,,,,,,,3.6,1.7,3.1*3D
$GPRMC,184705.016,A,3832.3231,S,07022.0249,W,1.13,253.18,110511,,,A*63
$GPGGA,184705.981,3832.3233,S,07022.0248,W,1,07,1.5,718.9,M,23.5,M,,0000*5E
$GPGSA,M,3,06,22,03,18,16,30,21,,,,,,3.2,1.5,2.8*3A
$GPGSV,3,1,10,06,72,214,40,22,65,021,35,03,58,227,39,18,57,109,27*79
$GPGSV,3,2,10,16,53,312,40,30,38,340,39,21,28,117,30,19,27,233,38*70
$GPGSV,3,3,10,15,09,130,35,14,03,029,*7C
$GPRMC,184705.981,A,3832.3233,S,07022.0248,W,0.17,81.48,110511,,,A*5A
$GPGGA,184707.003,3832.3230,S,07022.0240,W,1,05,3.8,720.4,M,23.5,M,,0000*5F
$GPGSA,M,3,06,22,03,16,30,,,,,,,,8.7,3.8,7.8*34
$GPRMC,184707.003,A,3832.3230,S,07022.0240,W,1.16,82.57,110511,,,A*5D
$GPGGA,184708.001,3832.3234,S,07022.0252,W,1,07,1.5,721.7,M,23.5,M,,0000*5A
$GPGSA,M,3,06,22,03,18,16,30,21,,,,,,3.2,1.5,2.8*3A
$GPRMC,184708.001,A,3832.3234,S,07022.0252,W,0.08,20.95,110511,,,A*5F
$GPGGA,184709.014,3832.3231,S,07022.0253,W,1,06,1.7,725.1,M,23.5,M,,0000*5A
$GPGSA,M,3,06,22,03,16,30,21,,,,,,,3.6,1.7,3.1*3D
$GPRMC,184709.014,A,3832.3231,S,07022.0253,W,0.20,16.84,110511,,,A*51
$GPGGA,184709.984,3832.3227,S,07022.0245,W,1,06,1.7,727.5,M,23.5,M,,0000*5C
$GPGSA,M,3,06,22,03,16,30,21,,,,,,,3.6,1.7,3.1*3D
$GPRMC,184709.984,A,3832.3227,S,07022.0245,W,0.32,330.71,110511,,,A*6F
$GPGGA,184711.002,3832.3226,S,07022.0240,W,1,07,1.5,730.3,M,23.5,M,,0000*55
$GPGSA,M,3,06,22,03,18,16,30,21,,,,,,3.1,1.5,2.8*39
$GPGSV,3,1,10,06,72,214,40,22,65,021,31,03,58,227,39,18,57,109,28*72
$GPGSV,3,2,10,16,53,312,40,30,38,340,39,21,28,117,29,19,27,233,39*79
$GPGSV,3,3,10,15,09,130,30,14,03,029,*79
$GPRMC,184711.002,A,3832.3226,S,07022.0240,W,0.66,339.07,110511,,,A*6C
$GPGGA,184712.001,3832.3225,S,07022.0237,W,1,04,5.3,732.1,M,23.5,M,,0000*57
$GPGSA,M,3,06,03,16,30,,,,,,,,,9.9,5.3,8.3*32
$GPRMC,184712.001,A,3832.3225,S,07022.0237,W,0.24,66.07,110511,,,A*50
$GPGGA,184713.001,3832.3222,S,07022.0232,W,1,07,1.5,731.8,M,23.5,M,,0000*5F
$GPGSA,M,3,06,22,03,18,16,30,21,,,,,,3.1,1.5,2.8*39
$GPRMC,184713.001,A,3832.3222,S,07022.0232,W,0.49,295.57,110511,,,A*63
$GPGGA,184713.998,3832.3227,S,07022.0241,W,1,05,3.8,731.1,M,23.5,M,,0000*53
$GPGSA,M,3,06,22,03,16,30,,,,,,,,8.7,3.8,7.8*34
$GPRMC,184713.998,A,3832.3227,S,07022.0241,W,0.85,319.51,110511,,,A*68
$GPGGA,184715.022,3832.3226,S,07022.0247,W,1,07,1.5,732.6,M,23.5,M,,0000*53
$GPGSA,M,3,06,22,03,18,16,30,21,,,,,,3.1,1.5,2.8*39
$GPRMC,184715.022,A,3832.3226,S,07022.0247,W,0.92,306.38,110511,,,A*66
$GPGGA,184715.981,3832.3222,S,07022.0245,W,1,04,5.3,733.3,M,23.5,M,,0000*50
$GPGSA,M,3,06,03,16,30,,,,,,,,,9.9,5.3,8.3*32
$GPGSV,3,1,10,06,72,214,37,22,65,021,,03,58,227,37,18,57,109,*74
$GPGSV,3,2,10,16,53,312,38,30,38,340,34,21,28,117,,19,27,233,34*7D
$GPGSV,3,3,10,15,09,130,29,14,03,029,*71
$GPRMC,184715.981,A,3832.3222,S,07022.0245,W,1.21,24.58,110511,,,A*5C
$GPGGA,184717.000,3832.3224,S,07022.0238,W,1,07,1.5,733.2,M,23.5,M,,0000*5E
$GPGSA,M,3,06,22,03,18,16,30,21,,,,,,3.1,1.5,2.8*39
$GPRMC,184717.000,A,3832.3224,S,07022.0238,W,0.77,81.30,110511,,,A*51
$GPGGA,184717.998,3832.3223,S,07022.0236,W,1,05,3.8,733.3,M,23.5,M,,0000*53
$GPGSA,M,3,06,22,03,16,30,,,,,,,,8.7,3.8,7.8*34
$GPRMC,184717.998,A,3832.3223,S,07022.0236,W,0.56,340.87,110511,,,A*61
$GPGGA,184719.000,3832.3220,S,07022.0233,W,1,05,3.8,733.8,M,23.5,M,,0000*58
$GPGSA,M,3,06,22,03,16,30,,,,,,,,8.7,3.8,7.8*34
$GPRMC,184719.000,A,3832.3220,S,07022.0233,W,0.25,120.98,110511,,,A*6F
$GPGGA,184719.992,3832.3219,S,07022.0230,W,1,07,1.5,736.8,M,23.5,M,,0000*5B
$GPGSA,M,3,06,22,03,18,16,30,21,,,,,,3.1,1.5,2.8*39
$GPRMC,184719.992,A,3832.3219,S,07022.0230,W,0.24,65.37,110511,,,A*50
$GPGGA,184721.007,3832.3224,S,07022.0229,W,1,05,3.8,736.4,M,23.5,M,,0000*52
$GPGSA,M,3,06,22,03,16,30,,,,,,,,8.7,3.8,7.8*34
$GPGSV,3,1,10,06,72,214,37,22,65,021,25,03,58,227,35,18,57,109,*71
$GPGSV,3,2,10,16,53,312,36,30,38,340,35,21,28,117,,19,27,233,35*73
$GPGSV,3,3,10,15,09,130,32,14,03,029,*7B
$GPRMC,184721.007,A,3832.3224,S,07022.0229,W,0.71,75.81,110511,,,A*54
$GPGGA,184721.994,3832.3224,S,07022.0224,W,1,05,3.8,737.0,M,23.5,M,,0000*59
$GPGSA,M,3,06,22,03,16,30,,,,,,,,8.6,3.8,7.8*35
$GPRMC,184721.994,A,3832.3224,S,07022.0224,W,1.00,108.93,110511,,,A*65
$GPGGA,184723.016,3832.3224,S,07022.0220,W,1,07,1.5,736.6,M,23.5,M,,0000*56
$GPGSA,M,3,06,22,03,18,16,30,21,,,,,,3.1,1.5,2.8*39
$GPRMC,184723.016,A,3832.3224,S,07022.0220,W,0.48,23.34,110511,,,A*58
$GPGGA,184723.984,3832.3222,S,07022.0218,W,1,07,1.5,735.7,M,23.5,M,,0000*5B
$GPGSA,M,3,06,22,03,18,16,30,21,,,,,,3.1,1.5,2.8*39
$GPRMC,184723.984,A,3832.3222,S,07022.0218,W,1.04,353.06,110511,,,A*6B
$GPGGA,184725.007,3832.3225,S,07022.0221,W,1,06,1.7,734.3,M,23.5,M,,0000*54
$GPGSA,M,3,06,22,03,16,30,21,,,,,,,3.5,1.7,3.1*3E
$GPRMC,184725.007,A,3832.3225,S,07022.0221,W,0.55,293.12,110511,,,A*6F
$GPGGA,184726.001,3832.3224,S,07022.0207,W,1,07,1.5,735.1,M,23.5,M,,0000*54
$GPGSA,M,3,06,22,03,18,16,30,21,,,,,,3.1,1.5,2.7*36
$GPGSV,3,1,10,06,72,214,41,22,65,021,35,03,58,227,39,18,57,109,28*77
$GPGSV,3,2,10,16,53,312,40,30,38,340,38,21,28,117,29,19,27,233,38*79
$GPGSV,3,3,10,15,09,130,35,14,03,029,*7C
$GPRMC,184726.001,A,3832.3224,S,07022.0207,W,0.49,291.79,110511,,,A*6D
$GPGGA,184727.020,3832.3227,S,07022.0204,W,1,06,1.7,731.8,M,23.5,M,,0000*58
$GPGSA,M,3,06,22,03,16,30,21,,,,,,,3.5,1.7,3.1*3E
$GPRMC,184727.020,A,3832.3227,S,07022.0204,W,0.43,306.47,110511,,,A*67
$GPGGA,184727.980,3832.3225,S,07022.0203,W,1,07,1.5,730.7,M,23.5,M,,0000*53
$GPGSA,M,3,06,22,03,18,16,30,21,,,,,,3.1,1.5,2.7*36
$GPRMC,184727.980,A,3832.3225,S,07022.0203,W,0.27,279.42,110511,,,A*6F
$GPGGA,184728.997,3832.3222,S,07022.0202,W,1,05,3.8,731.9,M,23.5,M,,0000*5E
$GPGSA,M,3,06,22,03,16,30,,,,,,,,8.6,3.8,7.8*35
$GPRMC,184728.997,A,3832.3222,S,07022.0202,W,0.07,203.98,110511,,,A*68
$GPGGA,184730.000,3832.3222,S,07022.0205,W,1,06,1.7,732.3,M,23.5,M,,0000*50
$GPGSA,M,3,06,22,03,16,30,21,,,,,,,3.5,1.7,3.1*3E
$GPRMC,184730.000,A,3832.3222,S,07022.0205,W,0.33,339.08,110511,,,A*67
$GPGGA,184730.996,3832.3221,S,07022.0201,W,1,06,1.7,732.1,M,23.5,M,,0000*53
$GPGSA,M,3,06,22,03,16,30,21,,,,,,,3.5,1.7,3.1*3E
$GPGSV,3,1,10,06,72,214,40,22,65,021,36,03,58,227,39,18,57,109,22*7F
$GPGSV,3,2,10,16,53,312,39,30,38,340,38,21,28,117,29,19,27,233,37*78
$GPGSV,3,3,10,15,09,130,36,14,03,029,*7F
$GPRMC,184730.996,A,3832.3221,S,07022.0201,W,0.28,302.87,110511,,,A*63
$GPGGA,184732.004,3832.3219,S,07022.0193,W,1,06,1.7,733.8,M,23.5,M,,0000*58
$GPGSA,M,3,06,22,03,16,30,21,,,,,,,3.5,1.7,3.1*3E
$GPRMC,184732.004,A,3832.3219,S,07022.0193,W,0.36,187.55,110511,,,A*6F
$GPGGA,184732.993,3832.3221,S,07022.0194,W,1,05,3.8,733.4,M,23.5,M,,0000*51
$GPGSA,M,3,06,22,03,16,30,,,,,,,,8.6,3.8,7.8*35
$GPRMC,184732.993,A,3832.3221,S,07022.0194,W,0.94,98.38,110511,,,A*58
$GPGGA,184734.015,3832.3218,S,07022.0199,W,1,06,1.7,735.0,M,23.5,M,,0000*5B
$GPGSA,M,3,06,22,03,16,30,21,,,,,,,3.5,1.7,3.1*3E
$GPRMC,184734.015,A,3832.3218,S,07022.0199,W,0.11,320.17,110511,,,A*6E
$GPGGA,184734.986,3832.3218,S,07022.0203,W,1,05,3.8,736.1,M,23.5,M,,0000*54
$GPGSA,M,3,06,22,03,16,30,,,,,,,,8.6,3.8,7.8*35
$GPRMC,184734.986,A,3832.3218,S,07022.0203,W,0.55,291.19,110511,,,A*68
$GPGGA,184736.005,3832.3218,S,07022.0208,W,1,05,3.8,734.9,M,23.5,M,,0000*55
$GPGSA,M,3,06,22,03,16,30,,,,,,,,8.6,3.8,7.8*35
$GPGSV,3,1,10,06,72,214,38,22,65,021,28,03,58,227,37,18,57,109,*71
$GPGSV,3,2,10,16,53,312,37,30,38,340,36,21,28,117,,19,27,233,32*76
$GPGSV,3,3,10,15,09,130,29,14,03,029,22*71
$GPRMC,184736.005,A,3832.3218,S,07022.0208,W,0.41,263.08,110511,,,A*6B
$GPGGA,184737.002,3832.3220,S,07022.0211,W,1,05,3.8,735.3,M,23.5,M,,0000*5B
$GPGSA,M,3,06,22,03,16,30,,,,,,,,8.6,3.8,7.8*35
$GPRMC,184737.002,A,3832.3220,S,07022.0211,W,0.28,44.96,110511,,,A*51
$GPGGA,184737.999,3832.3218,S,07022.0205,W,1,05,3.8,736.8,M,23.5,M,,0000*56
$GPGSA,M,3,06,22,03,16,30,,,,,,,,8.6,3.8,7.8*35
$GPRMC,184737.999,A,3832.3218,S,07022.0205,W,0.45,85.30,110511,,,A*5E
$GPGGA,184739.002,3832.3225,S,07022.0218,W,1,06,1.7,735.9,M,23.5,M,,0000*5D
$GPGSA,M,3,06,22,03,16,30,21,,,,,,,3.5,1.7,3.1*3E
$GPRMC,184739.002,A,3832.3225,S,07022.0218,W,0.45,240.93,110511,,,A*6B
$GPGGA,184739.999,3832.3225,S,07022.0222,W,1,05,3.8,735.4,M,23.5,M,,0000*5C
$GPGSA,M,3,06,22,03,16,30,,,,,,,,8.6,3.8,7.8*35
$GPRMC,184739.999,A,3832.3225,S,07022.0222,W,0.46,250.96,110511,,,A*6E
$GPGGA,184741.023,3832.3235,S,07022.0234,W,1,06,1.7,734.0,M,23.5,M,,0000*56
$GPGSA,M,3,06,22,03,16,30,21,,,,,,,3.5,1.7,3.1*3E
$GPGSV,3,1,10,06,72,214,40,22,65,021,35,03,58,227,39,18,57,109,*7C
$GPGSV,3,2,10,16,53,312,40,30,38,340,39,21,28,117,27,19,27,233,38*76
$GPGSV,3,3,10,15,09,130,36,14,03,029,*7F
$GPRMC,184741.023,A,3832.3235,S,07022.0234,W,0.40,290.99,110511,,,A*6A
$GPGGA,184741.977,3832.3230,S,07022.0226,W,1,05,3.8,735.8,M,23.5,M,,0000*5F
$GPGSA,M,3,06,22,03,16,30,,,,,,,,8.6,3.8,7.8*35
$GPRMC,184741.977,A,3832.3230,S,07022.0226,W,0.11,66.28,110511,,,A*51
$GPGGA,184743.002,3832.3235,S,07022.0241,W,1,06,1.7,736.3,M,23.5,M,,0000*54
$GPGSA,M,3,06,22,03,16,30,21,,,,,,,3.5,1.7,3.1*3E
$GPRMC,184743.002,A,3832.3235,S,07022.0241,W,0.12,77.14,110511,,,A*50
$GPGGA,184743.991,3832.3236,S,07022.0240,W,1,05,3.8,737.0,M,23.5,M,,0000*59
$GPGSA,M,3,06,22,03,16,30,,,,,,,,8.6,3.8,7.8*35
$GPRMC,184743.991,A,3832.3236,S,07022.0240,W,0.36,274.90,110511,,,A*6A
$GPGGA,184745.012,3832.3237,S,07022.0241,W,1,04,5.3,737.2,M,23.5,M,,0000*53
$GPGSA,M,3,06,03,16,30,,,,,,,,,9.8,5.3,8.3*33
$GPRMC,184745.012,A,3832.3237,S,07022.0241,W,0.51,278.71,110511,,,A*6C
$GPGGA,184745.996,3832.3241,S,07022.0240,W,1,06,1.7,736.3,M,23.5,M,,0000*54
$GPGSA,M,3,06,22,03,16,30,21,,,,,,,3.5,1.7,3.1*3E
$GPGSV,3,1,10,06,72,214,40,22,65,021,34,03,58,227,40,18,57,109,*73
$GPGSV,3,2,10,16,53,312,39,30,38,340,39,21,28,117,28,19,27,233,37*78
$GPGSV,3,3,10,15,09,130,34,14,03,029,25*7A
$GPRMC,184745.996,A,3832.3241,S,07022.0240,W,0.12,348.89,110511,,,A*6B
$GPGGA,184746.999,3832.3239,S,07022.0240,W,1,05,3.8,735.9,M,23.5,M,,0000*50
$GPGSA,M,3,06,22,03,16,30,,,,,,,,8.6,3.8,7.8*35
$GPRMC,184746.999,A,3832.3239,S,07022.0240,W,0.34,300.15,110511,,,A*65
$GPGGA,184748.000,3832.3239,S,07022.0243,W,1,05,3.8,736.0,M,23.5,M,,0000*5E
$GPGSA,M,3,06,22,03,16,30,,,,,,,,8.6,3.8,7.8*35
$GPRMC,184748.000,A,3832.3239,S,07022.0243,W,0.80,282.53,110511,,,A*67
$GPGGA,184748.999,3832.3239,S,07022.0246,W,1,05,3.8,736.7,M,23.5,M,,0000*55
$GPGSA,M,3,06,22,03,16,30,,,,,,,,8.6,3.8,7.8*35
$GPRMC,184748.999,A,3832.3239,S,07022.0246,W,1.64,269.27,110511,,,A*66
$GPGGA,184750.000,3832.3241,S,07022.0252,W,1,05,3.8,738.1,M,23.5,M,,0000*57
$GPGSA,M,3,06,22,03,16,30,,,,,,,,8.6,3.8,7.8*35
$GPRMC,184750.000,A,3832.3241,S,07022.0252,W,1.43,269.84,110511,,,A*60
$GPGGA,184751.000,3832.3240,S,07022.0257,W,1,05,3.8,736.4,M,23.5,M,,0000*59
$GPGSA,M,3,06,22,03,16,30,,,,,,,,8.6,3.8,7.8*35
$GPGSV,3,1,10,06,72,214,35,22,65,021,27,03,58,227,36,18,57,109,*72
$GPGSV,3,2,10,16,53,312,36,30,38,340,34,21,28,117,,19,27,233,35*72
$GPGSV,3,3,10,15,09,130,27,14,03,029,*7F
$GPRMC,184751.000,A,3832.3240,S,07022.0257,W,0.76,269.85,110511,,,A*63
$GPGGA,184751.999,3832.3238,S,07022.0252,W,1,05,3.8,737.3,M,23.5,M,,0000*5C
$GPGSA,M,3,06,22,03,16,30,,,,,,,,8.6,3.8,7.8*35
$GPRMC,184751.999,A,3832.3238,S,07022.0252,W,1.02,278.04,110511,,,A*6B
$GPGGA,184753.000,3832.3239,S,07022.0251,W,1,05,3.8,736.2,M,23.5,M,,0000*55
$GPGSA,M,3,06,22,03,16,30,,,,,,,,8.6,3.8,7.8*35
$GPRMC,184753.000,A,3832.3239,S,07022.0251,W,0.62,250.56,110511,,,A*68
$GPGGA,184754.000,3832.3240,S,07022.0245,W,1,06,1.9,735.5,M,23.5,M,,0000*5D
$GPGSA,M,3,06,22,03,18,16,30,,,,,,,5.6,1.9,5.3*3B
$GPRMC,184754.000,A,3832.3240,S,07022.0245,W,0.99,274.60,110511,,,A*63
$GPGGA,184754.994,3832.3238,S,07022.0252,W,1,05,3.8,736.9,M,23.5,M,,0000*5F
$GPGSA,M,3,06,22,03,16,30,,,,,,,,8.6,3.8,7.8*35
$GPRMC,184754.994,A,3832.3238,S,07022.0252,W,0.97,284.84,110511,,,A*65
$GPGGA,184756.005,3832.3236,S,07022.0255,W,1,05,3.8,736.0,M,23.5,M,,0000*5C
$GPGSA,M,3,06,22,03,16,30,,,,,,,,8.6,3.8,7.8*35
$GPGSV,3,1,10,06,72,214,38,22,65,021,29,03,58,227,37,18,57,109,*70
$GPGSV,3,2,10,16,53,312,38,30,38,340,37,21,28,117,,19,27,233,36*7C
$GPGSV,3,3,10,15,09,130,29,14,03,029,*71
$GPRMC,184756.005,A,3832.3236,S,07022.0255,W,1.41,252.85,110511,,,A*6F
$GPGGA,184756.994,3832.3237,S,07022.0261,W,1,05,3.8,735.8,M,23.5,M,,0000*50
$GPGSA,M,3,06,22,03,16,30,,,,,,,,8.6,3.8,7.8*35
$GPRMC,184756.994,A,3832.3237,S,07022.0261,W,0.92,237.33,110511,,,A*69
$GPGGA,184758.018,3832.3232,S,07022.0244,W,1,07,1.5,740.9,M,23.5,M,,0000*5F
$GPGSA,M,3,06,22,03,18,16,30,21,,,,,,3.1,1.5,2.7*36
$GPRMC,184758.018,A,3832.3232,S,07022.0244,W,0.22,203.65,110511,,,A*67
$GPGGA,184758.984,3832.3231,S,07022.0251,W,1,06,1.9,742.8,M,23.5,M,,0000*5A
$GPGSA,M,3,06,22,03,18,16,30,,,,,,,5.6,1.9,5.3*3B
$GPRMC,184758.984,A,3832.3231,S,07022.0251,W,0.53,191.98,110511,,,A*60
$GPGGA,184800.003,3832.3231,S,07022.0249,W,1,04,3.8,743.1,M,23.5,M,,0000*5E
$GPGSA,M,3,22,03,16,30,,,,,,,,,8.7,3.8,7.9*33
$GPRMC,184800.003,A,3832.3231,S,07022.0249,W,0.41,216.14,110511,,,A*66
$GPGGA,184801.003,3832.3235,S,07022.0253,W,1,05,1.8,742.9,M,23.5,M,,0000*5A
$GPGSA,M,3,22,03,16,30,21,,,,,,,,3.9,1.8,3.5*3F
$GPGSV,3,1,10,06,72,214,,22,65,021,26,03,58,227,30,18,57,109,*73
$GPGSV,3,2,10,16,53,312,40,30,38,340,37,21,28,117,24,19,27,233,31*72
$GPGSV,3,3,10,15,09,130,35,14,03,029,29*77
$GPRMC,184801.003,A,3832.3235,S,07022.0253,W,0.61,218.64,110511,,,A*63
$GPGGA,184802.001,3832.3237,S,07022.0254,W,0,00,,743.1,M,23.5,M,,0000*74
$GPGSA,M,1,,,,,,,,,,,,,,,*12
$GPRMC,184802.001,V,3832.3237,S,07022.0254,W,,,110511,,,N*71
$GPGGA,184803.000,3832.3238,S,07022.0256,W,0,00,,743.4,M,23.5,M,,0000*7C
$GPGSA,M,1,,,,,,,,,,,,,,,*12
$GPRMC,184803.000,V,3832.3238,S,07022.0256,W,,,110511,,,N*7C
$GPGGA,184804.000,3832.3239,S,07022.0257,W,0,00,,743.6,M,23.5,M,,0000*79
$GPGSA,M,1,,,,,,,,,,,,,,,*12
$GPRMC,184804.000,V,3832.3239,S,07022.0257,W,,,110511,,,N*7B
$GPGGA,184805.000,3832.3247,S,07022.0221,W,1,07,1.5,744.2,M,23.5,M,,0000*5F
$GPGSA,M,3,16,30,22,06,03,18,21,,,,,,3.1,1.5,2.7*36
$GPRMC,184805.000,A,3832.3247,S,07022.0221,W,1.87,104.81,110511,,,A*68
$GPGGA,184806.000,3832.3281,S,07022.0239,W,1,07,1.5,733.0,M,23.5,M,,0000*5D
$GPGSA,M,3,16,30,22,06,03,18,21,,,,,,3.1,1.5,2.7*36
$GPGSV,3,1,10,06,73,213,25,22,66,022,26,03,58,227,27,18,57,110,35*7A
$GPGSV,3,2,10,16,53,313,37,30,37,340,33,21,27,116,31,15,09,130,36*75
$GPGSV,3,3,10,19,27,232,29,14,04,030,32*7E
$GPRMC,184806.000,A,3832.3281,S,07022.0239,W,1.24,100.95,110511,,,A*60
$GPGGA,184807.000,3832.3284,S,07022.0238,W,1,06,1.9,742.1,M,23.5,M,,0000*52
$GPGSA,M,3,16,30,06,03,18,21,,,,,,,4.0,1.9,3.5*3F
$GPRMC,184807.000,A,3832.3284,S,07022.0238,W,1.28,75.59,110511,,,A*5A
$GPGGA,184808.000,3832.3281,S,07022.0232,W,1,07,1.5,747.3,M,23.5,M,,0000*58
$GPGSA,M,3,16,30,22,06,03,18,21,,,,,,3.1,1.5,2.7*36
$GPRMC,184808.000,A,3832.3281,S,07022.0232,W,0.92,57.98,110511,,,A*57
$GPGGA,184809.000,3832.3280,S,07022.0230,W,1,07,1.5,752.2,M,23.5,M,,0000*5F
$GPGSA,M,3,16,30,22,06,03,18,21,,,,,,3.1,1.5,2.7*36
$GPRMC,184809.000,A,3832.3280,S,07022.0230,W,0.62,44.64,110511,,,A*5B
$GPGGA,184810.000,3832.3286,S,07022.0233,W,1,06,1.6,750.8,M,23.5,M,,0000*58
$GPGSA,M,3,16,30,22,03,18,21,,,,,,,3.3,1.6,2.9*3F
$GPRMC,184810.000,A,3832.3286,S,07022.0233,W,0.06,97.22,110511,,,A*58
$GPGGA,184811.000,3832.3292,S,07022.0233,W,1,06,1.6,750.7,M,23.5,M,,0000*53
$GPGSA,M,3,16,30,22,03,18,21,,,,,,,3.3,1.6,2.9*3F
$GPGSV,3,1,10,06,73,213,,22,66,022,29,03,58,227,20,18,57,110,35*75
$GPGSV,3,2,10,16,53,313,39,30,37,340,38,21,27,116,35,15,09,130,28*7B
$GPGSV,3,3,10,19,27,232,28,14,04,030,28*74
$GPRMC,184811.000,A,3832.3292,S,07022.0233,W,0.31,199.10,110511,,,A*66
$GPGGA,184812.000,3832.3293,S,07022.0231,W,1,06,1.6,750.8,M,23.5,M,,0000*5C
$GPGSA,M,3,16,30,22,03,18,21,,,,,,,3.3,1.6,2.9*3F
$GPRMC,184812.000,A,3832.3293,S,07022.0231,W,0.45,49.87,110511,,,A*57
$GPGGA,184813.000,3832.3294,S,07022.0226,W,1,07,1.5,752.2,M,23.5,M,,0000*56
$GPGSA,M,3,16,30,22,06,03,18,21,,,,,,3.1,1.5,2.7*36
$GPRMC,184813.000,A,3832.3294,S,07022.0226,W,0.15,81.65,110511,,,A*5A
$GPGGA,184814.000,3832.3293,S,07022.0223,W,1,07,1.5,753.4,M,23.5,M,,0000*54
$GPGSA,M,3,16,30,22,06,03,18,21,,,,,,3.1,1.5,2.7*36
$GPRMC,184814.000,A,3832.3293,S,07022.0223,W,0.25,63.04,110511,,,A*57
$GPGGA,184815.000,3832.3288,S,07022.0214,W,1,07,1.5,756.4,M,23.5,M,,0000*5E
$GPGSA,M,3,16,30,22,06,03,18,21,,,,,,3.1,1.5,2.7*36
$GPRMC,184815.000,A,3832.3288,S,07022.0214,W,0.72,49.77,110511,,,A*56
$GPGGA,184815.995,3832.3289,S,07022.0213,W,1,05,2.0,757.5,M,23.5,M,,0000*59
$GPGSA,M,3,03,18,16,30,21,,,,,,,,4.4,2.0,3.9*3B
$GPGSV,3,1,10,06,73,213,,22,66,022,,03,58,227,23,18,57,110,27*7E
$GPGSV,3,2,10,16,53,313,35,30,37,340,32,21,27,116,26,15,09,130,*75
$GPGSV,3,3,10,19,28,232,,14,04,030,28*71
$GPRMC,184815.995,A,3832.3289,S,07022.0213,W,0.46,205.46,110511,,,A*6A
$GPGGA,184817.013,3832.3290,S,07022.0214,W,0,00,,758.2,M,23.5,M,,0000*73
$GPGSA,M,1,,,,,,,,,,,,,,,*12
$GPRMC,184817.013,V,3832.3290,S,07022.0214,W,,,110511,,,N*7F
$GPGGA,184818.000,3832.3292,S,07022.0214,W,0,00,,758.9,M,23.5,M,,0000*77
$GPGSA,M,1,,,,,,,,,,,,,,,*12
$GPRMC,184818.000,V,3832.3292,S,07022.0214,W,,,110511,,,N*70
$GPGGA,184819.000,3832.3293,S,07022.0215,W,0,00,,759.6,M,23.5,M,,0000*78
$GPGSA,M,1,,,,,,,,,,,,,,,*12
$GPRMC,184819.000,V,3832.3293,S,07022.0215,W,,,110511,,,N*71
$GPGGA,184820.000,3832.3294,S,07022.0216,W,0,00,,760.3,M,23.5,M,,0000*79
$GPGSA,M,1,,,,,,,,,,,,,,,*12
$GPRMC,184820.000,V,3832.3294,S,07022.0216,W,,,110511,,,N*7F
$GPGGA,184821.000,3832.3310,S,07022.0210,W,1,06,1.6,761.9,M,23.5,M,,0000*56
$GPGSA,M,3,16,30,22,03,21,18,,,,,,,3.3,1.6,2.9*3F
$GPGSV,3,1,10,06,73,213,,22,66,022,16,03,58,227,21,18,57,110,33*7E
$GPGSV,3,2,10,16,53,313,36,30,37,340,34,21,27,116,28,15,09,130,23*7F
$GPGSV,3,3,10,19,28,232,28,14,04,030,*71
$GPRMC,184821.000,A,3832.3310,S,07022.0210,W,0.24,55.53,110511,,,A*5D
$GPGGA,184822.000,3832.3327,S,07022.0252,W,1,06,1.6,760.8,M,23.5,M,,0000*57
$GPGSA,M,3,16,30,22,03,21,18,,,,,,,3.3,1.6,2.9*3F
$GPRMC,184822.000,A,3832.3327,S,07022.0252,W,0.34,221.18,110511,,,A*63
$GPGGA,184823.000,3832.3317,S,07022.0229,W,1,06,1.6,764.2,M,23.5,M,,0000*57
$GPGSA,M,3,16,30,22,03,21,18,,,,,,,3.3,1.6,2.9*3F
$GPRMC,184823.000,A,3832.3317,S,07022.0229,W,0.81,47.92,110511,,,A*53
$GPGGA,184824.000,3832.3313,S,07022.0223,W,1,06,1.6,764.7,M,23.5,M,,0000*5B
$GPGSA,M,3,16,30,22,03,21,18,,,,,,,3.3,1.6,2.9*3F
$GPRMC,184824.000,A,3832.3313,S,07022.0223,W,0.47,49.32,110511,,,A*54
$GPGGA,184825.000,3832.3300,S,07022.0210,W,1,06,1.6,766.4,M,23.5,M,,0000*59
$GPGSA,M,3,16,30,22,03,21,18,,,,,,,3.3,1.6,2.9*3F
$GPRMC,184825.000,A,3832.3300,S,07022.0210,W,0.99,42.72,110511,,,A*5B
$GPGGA,184826.000,3832.3293,S,07022.0204,W,1,07,1.5,766.8,M,23.5,M,,0000*5A
$GPGSA,M,3,16,30,22,03,21,18,06,,,,,,3.1,1.5,2.7*36
$GPGSV,3,1,10,06,73,213,16,22,66,022,23,03,58,227,28,18,57,110,34*71
$GPGSV,3,2,10,16,53,313,41,30,37,340,38,21,27,116,35,15,09,130,31*7C
$GPGSV,3,3,10,19,28,232,29,14,04,030,15*74
$GPRMC,184826.000,A,3832.3293,S,07022.0204,W,0.87,46.26,110511,,,A*5C
$GPGGA,184827.000,3832.3292,S,07022.0199,W,1,07,1.5,767.3,M,23.5,M,,0000*57
$GPGSA,M,3,16,30,22,03,21,18,06,,,,,,3.1,1.5,2.7*36
$GPRMC,184827.000,A,3832.3292,S,07022.0199,W,0.62,43.88,110511,,,A*51
$GPGGA,184828.000,3832.3289,S,07022.0198,W,1,07,1.5,767.4,M,23.5,M,,0000*54
$GPGSA,M,3,16,30,22,03,21,18,06,,,,,,3.1,1.5,2.7*36
$GPRMC,184828.000,A,3832.3289,S,07022.0198,W,0.51,35.94,110511,,,A*59
$GPGGA,184829.000,3832.3287,S,07022.0197,W,1,07,1.5,769.1,M,23.5,M,,0000*5F
$GPGSA,M,3,16,30,22,03,21,18,06,,,,,,3.1,1.5,2.7*36
$GPRMC,184829.000,A,3832.3287,S,07022.0197,W,0.47,36.07,110511,,,A*57
$GPGGA,184830.000,3832.3283,S,07022.0194,W,1,07,1.5,769.3,M,23.5,M,,0000*52
$GPGSA,M,3,16,30,22,03,21,18,06,,,,,,3.1,1.5,2.7*36
$GPRMC,184830.000,A,3832.3283,S,07022.0194,W,0.17,60.09,110511,,,A*50
$GPGGA,184831.000,3832.3283,S,07022.0194,W,1,07,1.5,769.2,M,23.5,M,,0000*52
$GPGSA,M,3,16,30,22,03,21,18,06,,,,,,3.1,1.5,2.7*36
$GPGSV,3,1,10,06,73,213,16,22,66,022,22,03,58,227,28,18,57,110,34*70
$GPGSV,3,2,10,16,53,313,40,30,37,340,38,21,27,116,34,15,09,130,27*7B
$GPGSV,3,3,10,19,28,232,29,14,04,030,19*78
$GPRMC,184831.000,A,3832.3283,S,07022.0194,W,0.25,76.82,110511,,,A*54
$GPGGA,184832.000,3832.3280,S,07022.0190,W,1,07,1.5,769.3,M,23.5,M,,0000*57
$GPGSA,M,3,16,30,22,03,21,18,06,,,,,,3.1,1.5,2.7*36
$GPRMC,184832.000,A,3832.3280,S,07022.0190,W,0.16,78.80,110511,,,A*5C
$GPGGA,184833.000,3832.3279,S,07022.0188,W,1,07,1.5,769.1,M,23.5,M,,0000*5B
$GPGSA,M,3,16,30,22,03,21,18,06,,,,,,3.1,1.5,2.7*36
$GPRMC,184833.000,A,3832.3279,S,07022.0188,W,0.07,107.72,110511,,,A*66
$GPGGA,184834.009,3832.3277,S,07022.0187,W,1,05,2.0,769.2,M,23.5,M,,0000*53
$GPGSA,M,3,03,18,16,30,21,,,,,,,,4.4,2.0,3.9*3B
$GPRMC,184834.009,A,3832.3277,S,07022.0187,W,0.72,26.20,110511,,,A*5E
$GPGGA,184834.992,3832.3276,S,07022.0186,W,1,05,2.0,769.5,M,23.5,M,,0000*5F
$GPGSA,M,3,03,18,16,30,21,,,,,,,,4.4,2.0,3.9*3B
$GPRMC,184834.992,A,3832.3276,S,07022.0186,W,0.39,41.22,110511,,,A*59
$GPGGA,184836.013,3832.3275,S,07022.0184,W,1,04,4.6,770.0,M,23.5,M,,0000*50
$GPGSA,M,3,18,16,30,21,,,,,,,,,6.2,4.6,4.1*33
$GPGSV,3,1,10,06,73,213,,22,66,022,,03,58,227,,18,57,110,29*71
$GPGSV,3,2,10,16,53,313,31,30,37,340,30,19,28,232,24,21,27,116,29*74
$GPGSV,3,3,10,15,09,130,,14,04,030,*75
$GPRMC,184836.013,A,3832.3275,S,07022.0184,W,0.89,34.13,110511,,,A*51
$GPGGA,184836.984,3832.3273,S,07022.0185,W,1,04,4.7,770.5,M,23.5,M,,0000*54
$GPGSA,M,3,18,16,30,21,,,,,,,,,6.2,4.7,4.1*32
$GPRMC,184836.984,A,3832.3273,S,07022.0185,W,0.79,332.55,110511,,,A*69
$GPGGA,184838.007,3832.3275,S,07022.0190,W,1,05,2.0,770.9,M,23.5,M,,0000*56
$GPGSA,M,3,03,18,16,30,21,,,,,,,,4.4,2.0,3.9*3B
$GPRMC,184838.007,A,3832.3275,S,07022.0190,W,0.66,250.91,110511,,,A*64
$GPGGA,184838.993,3832.3279,S,07022.0195,W,1,05,2.0,770.3,M,23.5,M,,0000*51
$GPGSA,M,3,03,18,16,30,21,,,,,,,,4.4,2.0,3.9*3B
$GPRMC,184838.993,A,3832.3279,S,07022.0195,W,1.15,239.41,110511,,,A*6E
$GPGGA,184840.015,3832.3280,S,07022.0197,W,1,04,4.7,770.2,M,23.5,M,,0000*5C
$GPGSA,M,3,18,16,30,21,,,,,,,,,6.2,4.7,4.1*32
$GPRMC,184840.015,A,3832.3280,S,07022.0197,W,0.33,143.45,110511,,,A*6D
$GPGGA,184840.992,3832.3284,S,07022.0196,W,1,05,2.0,770.7,M,23.5,M,,0000*5A
$GPGSA,M,3,03,18,16,30,21,,,,,,,,4.4,2.0,3.9*3B
$GPGSV,3,1,10,06,73,213,,22,66,022,,03,58,227,26,18,57,110,34*79
$GPGSV,3,2,10,16,53,313,37,30,37,340,36,19,28,232,29,21,27,116,32*73
$GPGSV,3,3,10,15,09,130,33,14,04,030,*75
$GPRMC,184840.992,A,3832.3284,S,07022.0196,W,1.32,46.57,110511,,,A*59
$GPGGA,184842.003,3832.3281,S,07022.0192,W,1,04,4.7,772.1,M,23.5,M,,0000*5C
$GPGSA,M,3,18,16,30,21,,,,,,,,,6.2,4.7,4.1*32
$GPRMC,184842.003,A,3832.3281,S,07022.0192,W,0.94,69.67,110511,,,A*58
$GPGGA,184843.001,3832.3280,S,07022.0188,W,1,06,1.6,771.6,M,23.5,M,,0000*57
$GPGSA,M,3,22,03,18,16,30,21,,,,,,,3.3,1.6,2.9*3F
$GPRMC,184843.001,A,3832.3280,S,07022.0188,W,0.98,45.10,110511,,,A*53
$GPGGA,184843.999,3832.3278,S,07022.0183,W,1,04,4.7,772.1,M,23.5,M,,0000*51
$GPGSA,M,3,18,16,30,21,,,,,,,,,6.2,4.7,4.1*32
$GPRMC,184843.999,A,3832.3278,S,07022.0183,W,1.09,54.92,110511,,,A*54
$GPGGA,184845.001,3832.3280,S,07022.0185,W,1,05,2.0,772.7,M,23.5,M,,0000*58
$GPGSA,M,3,03,18,16,30,21,,,,,,,,4.4,2.0,3.9*3B
$GPRMC,184845.001,A,3832.3280,S,07022.0185,W,0.41,36.07,110511,,,A*5E
$GPGGA,184845.991,3832.3282,S,07022.0187,W,1,05,2.0,773.2,M,23.5,M,,0000*5C
$GPGSA,M,3,03,18,16,30,21,,,,,,,,4.4,2.0,3.9*3B
$GPGSV,3,1,10,06,73,213,,22,66,022,,03,58,227,28,18,57,110,33*70
$GPGSV,3,2,10,16,53,313,36,30,37,340,37,19,28,232,29,21,27,116,33*72
$GPGSV,3,3,10,15,09,130,30,14,04,030,*76
$GPRMC,184845.991,A,3832.3282,S,07022.0187,W,0.78,7.62,110511,,,A*65
$GPGGA,184847.011,3832.3276,S,07022.0180,W,1,05,2.0,774.6,M,23.5,M,,0000*50
$GPGSA,M,3,03,18,16,30,21,,,,,,,,4.4,2.0,3.9*3B
$GPRMC,184847.011,A,3832.3276,S,07022.0180,W,1.46,33.52,110511,,,A*52
$GPGGA,184847.994,3832.3278,S,07022.0183,W,1,05,2.0,775.3,M,23.5,M,,0000*5D
$GPGSA,M,3,03,18,16,30,21,,,,,,,,4.4,2.0,3.9*3B
$GPRMC,184847.994,A,3832.3278,S,07022.0183,W,0.70,46.18,110511,,,A*53
$GPGGA,184849.001,3832.3278,S,07022.0180,W,1,04,4.7,776.6,M,23.5,M,,0000*53
$GPGSA,M,3,18,16,30,21,,,,,,,,,6.2,4.7,4.1*32
$GPRMC,184849.001,A,3832.3278,S,07022.0180,W,0.75,70.61,110511,,,A*55
$GPGGA,184849.997,3832.3288,S,07022.0190,W,1,06,1.6,774.4,M,23.5,M,,0000*5D
$GPGSA,M,3,22,03,18,16,30,21,,,,,,,3.3,1.6,2.9*3F
$GPRMC,184849.997,A,3832.3288,S,07022.0190,W,0.76,239.53,110511,,,A*60
$GPGGA,184851.004,3832.3289,S,07022.0191,W,1,04,4.7,774.9,M,23.5,M,,0000*5C
$GPGSA,M,3,18,16,30,21,,,,,,,,,6.2,4.7,4.1*32
$GPGSV,3,1,10,06,73,213,,22,66,022,,03,58,227,,18,57,110,27*7F
$GPGSV,3,2,10,16,53,313,32,30,37,340,30,19,28,232,,21,27,116,26*7E
$GPGSV,3,3,10,15,09,130,,14,04,030,*75
$GPRMC,184851.004,A,3832.3289,S,07022.0191,W,0.80,212.65,110511,,,A*6F
$GPGGA,184852.000,3832.3292,S,07022.0192,W,1,05,2.0,775.3,M,23.5,M,,0000*59
$GPGSA,M,3,03,18,16,30,21,,,,,,,,4.4,2.0,3.9*3B
$GPRMC,184852.000,A,3832.3292,S,07022.0192,W,2.05,218.65,110511,,,A*64
$GPGGA,184853.022,3832.3296,S,07022.0198,W,1,04,4.7,774.9,M,23.5,M,,0000*5D
$GPGSA,M,3,18,16,30,21,,,,,,,,,6.3,4.7,4.1*33
$GPRMC,184853.022,A,3832.3296,S,07022.0198,W,1.57,205.36,110511,,,A*65
$GPGGA,184853.977,3832.3295,S,07022.0196,W,1,06,1.6,775.4,M,23.5,M,,0000*53
$GPGSA,M,3,22,03,18,16,30,21,,,,,,,3.3,1.6,2.9*3F
$GPRMC,184853.977,A,3832.3295,S,07022.0196,W,0.72,197.88,110511,,,A*6A
$GPGGA,184854.994,3832.3300,S,07022.0199,W,1,05,2.0,775.0,M,23.5,M,,0000*59
$GPGSA,M,3,03,18,16,30,21,,,,,,,,4.4,2.0,3.9*3B
$GPRMC,184854.994,A,3832.3300,S,07022.0199,W,0.66,215.53,110511,,,A*68
$GPGGA,184856.007,3832.3303,S,07022.0201,W,1,04,4.7,774.5,M,23.5,M,,0000*5D
$GPGSA,M,3,18,16,30,21,,,,,,,,,6.3,4.7,4.1*33
$GPGSV,3,1,10,06,73,213,,22,66,022,,03,58,227,,18,57,110,29*71
$GPGSV,3,2,10,16,53,313,36,30,37,340,30,19,28,232,,21,27,116,28*74
$GPGSV,3,3,10,15,09,130,,14,04,030,*75
$GPRMC,184856.007,A,3832.3303,S,07022.0201,W,0.25,292.91,110511,,,A*6E
$GPGGA,184856.992,3832.3304,S,07022.0203,W,1,04,4.7,773.5,M,23.5,M,,0000*5A
$GPGSA,M,3,18,16,30,21,,,,,,,,,6.3,4.7,4.1*33
$GPRMC,184856.992,A,3832.3304,S,07022.0203,W,0.53,114.33,110511,,,A*6A
$GPGGA,184858.012,3832.3300,S,07022.0197,W,1,04,4.7,773.7,M,23.5,M,,0000*5D
$GPGSA,M,3,18,16,30,21,,,,,,,,,6.3,4.7,4.2*30
$GPRMC,184858.012,A,3832.3300,S,07022.0197,W,1.50,47.69,110511,,,A*55
$GPGGA,184858.988,3832.3299,S,07022.0196,W,1,04,4.7,772.7,M,23.5,M,,0000*56
$GPGSA,M,3,18,16,30,21,,,,,,,,,6.3,4.7,4.2*30
$GPRMC,184858.988,A,3832.3299,S,07022.0196,W,0.87,88.04,110511,,,A*5C
$GPGGA,184900.005,3832.3304,S,07022.0202,W,1,05,3.5,769.4,M,23.5,M,,0000*50
$GPGSA,M,3,22,18,16,30,21,,,,,,,,4.5,3.5,2.9*3C
$GPRMC,184900.005,A,3832.3304,S,07022.0202,W,0.09,349.39,110511,,,A*61
$GPGGA,184901.003,3832.3304,S,07022.0201,W,1,04,4.7,769.6,M,23.5,M,,0000*52
$GPGSA,M,3,18,16,30,21,,,,,,,,,6.3,4.7,4.2*30
$GPGSV,3,1,10,06,73,213,,22,66,022,,03,58,227,,18,57,110,32*7B
$GPGSV,3,2,10,16,53,313,38,30,37,340,35,19,28,232,30,21,27,116,35*70
$GPGSV,3,3,10,15,09,130,29,14,04,030,26*7A
$GPRMC,184901.003,A,3832.3304,S,07022.0201,W,0.37,331.55,110511,,,A*6D
$GPGGA,184901.999,3832.3299,S,07022.0195,W,1,04,4.7,771.2,M,23.5,M,,0000*5E
$GPGSA,M,3,18,16,30,21,,,,,,,,,6.3,4.7,4.2*30
$GPRMC,184901.999,A,3832.3299,S,07022.0195,W,1.29,30.26,110511,,,A*54
$GPGGA,184903.001,3832.3297,S,07022.0190,W,1,04,4.7,770.4,M,23.5,M,,0000*58
$GPGSA,M,3,18,16,30,21,,,,,,,,,6.3,4.7,4.2*30
$GPRMC,184903.001,A,3832.3297,S,07022.0190,W,0.62,343.49,110511,,,A*65
$GPGGA,184904.002,3832.3295,S,07022.0190,W,0,00,,770.4,M,23.5,M,,0000*76
$GPGSA,M,1,,,,,,,,,,,,,,,*12
$GPRMC,184904.002,V,3832.3295,S,07022.0190,W,,,110511,,,N*76
$GPGGA,184905.000,3832.3294,S,07022.0191,W,0,00,,770.4,M,23.5,M,,0000*75
$GPGSA,M,1,,,,,,,,,,,,,,,*12
$GPRMC,184905.000,V,3832.3294,S,07022.0191,W,,,110511,,,N*75
$GPGGA,184906.000,3832.3292,S,07022.0191,W,0,00,,770.5,M,23.5,M,,0000*71
$GPGSA,M,1,,,,,,,,,,,,,,,*12
$GPGSV,3,1,10,06,74,213,,22,66,022,,03,59,227,,18,57,110,35*7A
$GPGSV,3,2,10,16,53,314,41,30,37,340,37,21,27,116,,15,09,131,33*71
$GPGSV,3,3,10,19,28,232,29,14,04,030,*70
$GPRMC,184906.000,V,3832.3292,S,07022.0191,W,,,110511,,,N*70
$GPGGA,184907.000,3832.3326,S,07022.0233,W,1,05,2.0,763.6,M,23.5,M,,0000*5C
$GPGSA,M,3,18,16,30,03,21,,,,,,,,4.4,2.0,3.9*3B
$GPRMC,184907.000,A,3832.3326,S,07022.0233,W,0.33,350.83,110511,,,A*61
$GPGGA,184908.000,3832.3314,S,07022.0233,W,1,05,2.0,763.1,M,23.5,M,,0000*55
$GPGSA,M,3,18,16,30,03,21,,,,,,,,4.4,2.0,3.9*3B
$GPRMC,184908.000,A,3832.3314,S,07022.0233,W,0.13,288.78,110511,,,A*6D
$GPGGA,184909.000,3832.3295,S,07022.0224,W,1,05,2.0,762.7,M,23.5,M,,0000*5D
$GPGSA,M,3,18,16,30,03,21,,,,,,,,4.4,2.0,3.9*3B
$GPRMC,184909.000,A,3832.3295,S,07022.0224,W,0.39,16.01,110511,,,A*51
$GPGGA,184910.000,3832.3277,S,07022.0212,W,1,05,2.0,763.1,M,23.5,M,,0000*5B
$GPGSA,M,3,18,16,30,03,21,,,,,,,,4.4,2.0,3.9*3B
$GPRMC,184910.000,A,3832.3277,S,07022.0212,W,0.11,341.14,110511,,,A*6F
$GPGGA,184911.000,3832.3275,S,07022.0211,W,1,06,1.6,763.4,M,23.5,M,,0000*58
$GPGSA,M,3,18,16,30,22,03,21,,,,,,,3.3,1.6,2.9*3F
$GPGSV,3,1,10,06,74,213,,22,66,022,18,03,59,227,27,18,57,110,32*71
$GPGSV,3,2,10,16,53,314,40,30,37,340,33,21,27,116,33,15,09,131,29*7F
$GPGSV,3,3,10,19,28,232,28,14,04,030,22*71
$GPRMC,184911.000,A,3832.3275,S,07022.0211,W,0.11,259.41,110511,,,A*67
$GPGGA,184912.000,3832.3265,S,07022.0197,W,1,07,1.6,764.8,M,23.5,M,,0000*5D
$GPGSA,M,3,18,16,30,22,03,21,06,,,,,,3.1,1.6,2.7*35
$GPRMC,184912.000,A,3832.3265,S,07022.0197,W,0.32,30.41,110511,,,A*54
$GPGGA,184913.000,3832.3259,S,07022.0189,W,1,07,1.6,764.6,M,23.5,M,,0000*52
$GPGSA,M,3,18,16,30,22,03,21,06,,,,,,3.1,1.6,2.7*35
$GPRMC,184913.000,A,3832.3259,S,07022.0189,W,0.37,33.06,110511,,,A*50
$GPGGA,184914.000,3832.3255,S,07022.0180,W,1,06,1.9,766.0,M,23.5,M,,0000*5A
$GPGSA,M,3,18,16,30,22,03,06,,,,,,,5.5,1.9,5.1*3A
$GPRMC,184914.000,A,3832.3255,S,07022.0180,W,0.50,123.56,110511,,,A*66
$GPGGA,184915.000,3832.3248,S,07022.0167,W,1,05,2.7,767.5,M,23.5,M,,0000*54
$GPGSA,M,3,18,16,30,03,06,,,,,,,,8.4,2.7,8.0*37
$GPRMC,184915.000,A,3832.3248,S,07022.0167,W,0.43,57.95,110511,,,A*5D
$GPGGA,184916.000,3832.3243,S,07022.0155,W,1,07,1.6,770.8,M,23.5,M,,0000*56
$GPGSA,M,3,18,16,30,22,03,21,06,,,,,,3.1,1.6,2.7*35
$GPGSV,3,1,10,06,74,213,17,22,66,022,18,03,59,227,26,18,56,111,28*7D
$GPGSV,3,2,10,16,52,314,38,30,37,340,33,19,28,232,27,21,27,116,34*77
$GPGSV,3,3,10,15,09,131,29,14,04,030,22*7F
$GPRMC,184916.000,A,3832.3243,S,07022.0155,W,0.41,62.46,110511,,,A*5E
$GPGGA,184917.000,3832.3238,S,07022.0146,W,1,07,1.6,773.6,M,23.5,M,,0000*54
$GPGSA,M,3,18,16,30,22,03,21,06,,,,,,3.1,1.6,2.7*35
$GPRMC,184917.000,A,3832.3238,S,07022.0146,W,0.23,65.16,110511,,,A*57
$GPGGA,184918.000,3832.3231,S,07022.0138,W,1,07,1.6,777.8,M,23.5,M,,0000*51
$GPGSA,M,3,18,16,30,22,03,21,06,,,,,,3.1,1.6,2.7*35
$GPRMC,184918.000,A,3832.3231,S,07022.0138,W,0.75,39.00,110511,,,A*55
$GPGGA,184919.000,3832.3231,S,07022.0135,W,1,07,1.6,780.4,M,23.5,M,,0000*59
$GPGSA,M,3,18,16,30,22,03,21,06,,,,,,3.1,1.6,2.7*35
$GPRMC,184919.000,A,3832.3231,S,07022.0135,W,0.41,63.74,110511,,,A*52
$GPGGA,184920.000,3832.3233,S,07022.0134,W,1,07,1.6,781.5,M,23.5,M,,0000*50
$GPGSA,M,3,18,16,30,22,03,21,06,,,,,,3.1,1.6,2.7*35
$GPRMC,184920.000,A,3832.3233,S,07022.0134,W,0.43,53.84,110511,,,A*55
$GPGGA,184921.000,3832.3233,S,07022.0134,W,1,07,1.6,783.3,M,23.5,M,,0000*55
$GPGSA,M,3,18,16,30,22,03,21,06,,,,,,3.1,1.6,2.7*35
$GPGSV,3,1,10,06,74,213,16,22,66,022,17,03,59,227,27,18,56,111,27*7D
$GPGSV,3,2,10,16,52,314,38,30,37,340,32,19,28,232,27,21,27,116,33*71
$GPGSV,3,3,10,15,09,131,34,14,04,030,22*73
$GPRMC,184921.000,A,3832.3233,S,07022.0134,W,0.44,48.46,110511,,,A*57
$GPGGA,184922.000,3832.3233,S,07022.0133,W,1,07,1.6,784.7,M,23.5,M,,0000*52
$GPGSA,M,3,18,16,30,22,03,21,06,,,,,,3.1,1.6,2.7*35
$GPRMC,184922.000,A,3832.3233,S,07022.0133,W,0.36,49.97,110511,,,A*5B
$GPGGA,184923.000,3832.3229,S,07022.0129,W,1,07,1.6,786.4,M,23.5,M,,0000*52
$GPGSA,M,3,18,16,30,22,03,21,06,,,,,,3.1,1.6,2.7*35
$GPRMC,184923.000,A,3832.3229,S,07022.0129,W,0.57,44.90,110511,,,A*57
$GPGGA,184924.000,3832.3229,S,07022.0127,W,1,07,1.6,786.8,M,23.5,M,,0000*57
$GPGSA,M,3,18,16,30,22,03,21,06,,,,,,3.1,1.6,2.7*35
$GPRMC,184924.000,A,3832.3229,S,07022.0127,W,0.50,46.89,110511,,,A*53
$GPGGA,184925.000,3832.3229,S,07022.0127,W,1,07,1.6,787.8,M,23.5,M,,0000*57
$GPGSA,M,3,18,16,30,22,03,21,06,,,,,,3.1,1.6,2.7*35
$GPRMC,184925.000,A,3832.3229,S,07022.0127,W,0.72,46.43,110511,,,A*54
$GPGGA,184926.000,3832.3227,S,07022.0121,W,1,07,1.6,789.7,M,23.5,M,,0000*5D
$GPGSA,M,3,18,16,30,22,03,21,06,,,,,,3.1,1.6,2.7*35
$GPGSV,3,1,10,06,74,213,17,22,66,022,19,03,59,227,27,18,56,111,27*72
$GPGSV,3,2,10,16,52,314,39,30,37,340,31,19,28,232,27,21,27,116,34*74
$GPGSV,3,3,10,15,09,131,,14,04,030,27*71
$GPRMC,184926.000,A,3832.3227,S,07022.0121,W,0.77,47.55,110511,,,A*5C
$GPGGA,184927.000,3832.3224,S,07022.0114,W,1,07,1.6,792.1,M,23.5,M,,0000*55
$GPGSA,M,3,18,16,30,22,03,21,06,,,,,,3.1,1.6,2.7*35
$GPRMC,184927.000,A,3832.3224,S,07022.0114,W,0.42,65.24,110511,,,A*58
$GPGGA,184928.000,3832.3219,S,07022.0105,W,1,07,1.6,794.4,M,23.5,M,,0000*57
$GPGSA,M,3,18,16,30,22,03,21,06,,,,,,3.1,1.6,2.7*35
$GPRMC,184928.000,A,3832.3219,S,07022.0105,W,0.63,59.37,110511,,,A*57
$GPGGA,184929.000,3832.3213,S,07022.0097,W,1,04,4.7,796.6,M,23.5,M,,0000*51
$GPGSA,M,3,18,16,30,21,,,,,,,,,6.3,4.7,4.2*30
$GPRMC,184929.000,A,3832.3213,S,07022.0097,W,1.82,40.70,110511,,,A*53
$GPGGA,184930.000,3832.3208,S,07022.0089,W,1,05,2.0,799.1,M,23.5,M,,0000*54
$GPGSA,M,3,18,16,30,03,21,,,,,,,,4.4,2.0,3.9*3B
$GPRMC,184930.000,A,3832.3208,S,07022.0089,W,1.56,43.84,110511,,,A*5F
$GPGGA,184931.000,3832.3200,S,07022.0074,W,1,07,1.6,803.7,M,23.5,M,,0000*52
$GPGSA,M,3,18,16,30,22,03,21,06,,,,,,3.1,1.6,2.7*35
$GPGSV,3,1,10,06,74,213,17,22,66,022,19,03,59,227,31,18,56,111,24*76
$GPGSV,3,2,10,16,52,314,39,30,37,340,31,19,28,232,28,21,27,116,34*7B
$GPGSV,3,3,10,15,09,131,31,14,04,030,27*73
$GPRMC,184931.000,A,3832.3200,S,07022.0074,W,1.15,62.19,110511,,,A*54
$GPGGA,184932.000,3832.3189,S,07022.0056,W,1,07,1.6,807.8,M,23.5,M,,0000*58
$GPGSA,M,3,18,16,30,22,03,21,06,,,,,,3.1,1.6,2.7*35
$GPRMC,184932.000,A,3832.3189,S,07022.0056,W,1.24,65.81,110511,,,A*51
$GPGGA,184933.000,3832.3183,S,07022.0046,W,1,07,1.6,811.5,M,23.5,M,,0000*58
$GPGSA,M,3,18,16,30,22,03,21,06,,,,,,3.1,1.6,2.7*35
$GPRMC,184933.000,A,3832.3183,S,07022.0046,W,1.11,59.16,110511,,,A*5C
$GPGGA,184934.000,3832.3181,S,07022.0042,W,1,07,1.6,813.8,M,23.5,M,,0000*56
$GPGSA,M,3,18,16,30,22,03,21,06,,,,,,3.1,1.6,2.7*35
$GPRMC,184934.000,A,3832.3181,S,07022.0042,W,1.07,55.01,110511,,,A*50
$GPGGA,184934.997,3832.3179,S,07022.0039,W,0,00,,815.3,M,23.5,M,,0000*78
$GPGSA,M,1,,,,,,,,,,,,,,,*12
$GPRMC,184934.997,V,3832.3179,S,07022.0039,W,,,110511,,,N*73
$GPGGA,184936.000,3832.3178,S,07022.0036,W,0,00,,816.8,M,23.5,M,,0000*7B
$GPGSA,M,1,,,,,,,,,,,,,,,*12
$GPGSV,3,1,10,06,74,213,,22,67,023,,03,59,227,,18,56,111,*7C
$GPGSV,3,2,10,16,52,314,41,30,36,340,,21,27,116,37,15,09,131,35*77
$GPGSV,3,3,10,19,28,232,,14,04,030,*7B
$GPRMC,184936.000,V,3832.3178,S,07022.0036,W,,,110511,,,N*78
$GPGGA,184937.000,3832.3176,S,07022.0033,W,0,00,,818.3,M,23.5,M,,0000*74
$GPGSA,M,1,,,,,,,,,,,,,,,*12
$GPRMC,184937.000,V,3832.3176,S,07022.0033,W,,,110511,,,N*72
$GPGGA,184938.000,3832.3174,S,07022.0046,W,1,05,2.0,817.9,M,23.5,M,,0000*56
$GPGSA,M,3,16,21,03,30,18,,,,,,,,4.4,2.0,3.9*3B
$GPRMC,184938.000,A,3832.3174,S,07022.0046,W,1.02,52.21,110511,,,A*52
$GPGGA,184939.000,3832.3162,S,07022.0031,W,1,05,2.0,822.0,M,23.5,M,,0000*5F
$GPGSA,M,3,16,21,03,30,18,,,,,,,,4.4,2.0,3.9*3B
$GPRMC,184939.000,A,3832.3162,S,07022.0031,W,1.06,70.01,110511,,,A*52
$GPGGA,184940.000,3832.3152,S,07022.0015,W,1,05,2.0,826.0,M,23.5,M,,0000*50
$GPGSA,M,3,16,21,03,30,18,,,,,,,,4.4,2.0,3.9*3B
$GPRMC,184940.000,A,3832.3152,S,07022.0015,W,1.38,61.34,110511,,,A*52
$GPGGA,184941.000,3832.3141,S,07021.9997,W,1,07,1.6,829.0,M,23.5,M,,0000*52
$GPGSA,M,3,16,21,06,22,03,30,18,,,,,,3.1,1.6,2.7*35
$GPGSV,3,1,10,06,74,213,21,22,67,023,22,03,59,227,31,18,56,111,23*7C
$GPGSV,3,2,10,16,52,314,39,30,36,340,32,21,27,116,35,15,09,131,33*7D
$GPGSV,3,3,10,19,28,232,28,14,04,030,30*72
$GPRMC,184941.000,A,3832.3141,S,07021.9997,W,1.69,59.06,110511,,,A*56
$GPGGA,184942.000,3832.3137,S,07021.9989,W,1,07,1.6,831.3,M,23.5,M,,0000*55
$GPGSA,M,3,16,21,06,22,03,30,18,,,,,,3.1,1.6,2.7*35
$GPRMC,184942.000,A,3832.3137,S,07021.9989,W,1.44,57.00,110511,,,A*5C
$GPGGA,184943.000,3832.3129,S,07021.9978,W,1,07,1.6,833.3,M,23.5,M,,0000*57
$GPGSA,M,3,16,21,06,22,03,30,18,,,,,,3.1,1.6,2.7*35
$GPRMC,184943.000,A,3832.3129,S,07021.9978,W,1.60,57.90,110511,,,A*53
$GPGGA,184944.000,3832.3128,S,07021.9982,W,1,07,1.6,829.9,M,23.5,M,,0000*55
$GPGSA,M,3,16,21,06,22,03,30,18,,,,,,3.1,1.6,2.7*35
$GPRMC,184944.000,A,3832.3128,S,07021.9982,W,1.29,52.80,110511,,,A*59
$GPGGA,184945.000,3832.3127,S,07021.9978,W,1,07,1.6,831.5,M,23.5,M,,0000*5B
$GPGSA,M,3,16,21,06,22,03,30,18,,,,,,3.1,1.6,2.7*35
$GPRMC,184945.000,A,3832.3127,S,07021.9978,W,1.24,61.39,110511,,,A*5D
$GPGGA,184946.000,3832.3124,S,07021.9970,W,1,06,1.6,834.6,M,23.5,M,,0000*54
$GPGSA,M,3,16,21,22,03,30,18,,,,,,,3.3,1.6,2.8*3E
$GPGSV,3,1,10,06,74,213,14,22,67,023,22,03,59,227,31,18,56,111,21*78
$GPGSV,3,2,10,16,52,314,39,30,36,340,32,21,27,116,35,15,09,131,28*77
$GPGSV,3,3,10,19,28,232,22,14,04,030,28*71
$GPRMC,184946.000,A,3832.3124,S,07021.9970,W,1.03,60.65,110511,,,A*58
$GPGGA,184947.000,3832.3122,S,07021.9966,W,1,06,1.6,836.7,M,23.5,M,,0000*57
$GPGSA,M,3,16,21,22,03,30,18,,,,,,,3.3,1.6,2.8*3E
$GPRMC,184947.000,A,3832.3122,S,07021.9966,W,0.88,56.29,110511,,,A*57
$GPGGA,184948.000,3832.3120,S,07021.9961,W,1,06,1.6,839.5,M,23.5,M,,0000*50
$GPGSA,M,3,16,21,22,03,30,18,,,,,,,3.3,1.6,2.8*3E
$GPRMC,184948.000,A,3832.3120,S,07021.9961,W,1.05,59.65,110511,,,A*5E
$GPGGA,184949.000,3832.3118,S,07021.9956,W,1,06,1.6,842.7,M,23.5,M,,0000*50
$GPGSA,M,3,16,21,22,03,30,18,,,,,,,3.3,1.6,2.8*3E
$GPRMC,184949.000,A,3832.3118,S,07021.9956,W,1.03,61.15,110511,,,A*5A
$GPGGA,184950.000,3832.3118,S,07021.9954,W,1,06,1.6,844.5,M,23.5,M,,0000*5E
$GPGSA,M,3,16,21,22,03,30,18,,,,,,,3.3,1.6,2.8*3E
$GPRMC,184950.000,A,3832.3118,S,07021.9954,W,0.97,63.49,110511,,,A*57
$GPGGA,184951.000,3832.3118,S,07021.9951,W,1,06,1.6,846.7,M,23.5,M,,0000*5A
$GPGSA,M,3,16,21,22,03,30,18,,,,,,,3.3,1.6,2.8*3E
$GPGSV,3,1,10,06,74,213,,22,67,023,22,03,59,227,29,18,56,111,21*74
$GPGSV,3,2,10,16,52,314,40,30,36,340,33,21,27,116,36,15,09,131,29*7A
$GPGSV,3,3,10,19,28,232,22,14,04,030,27*7E
$GPRMC,184951.000,A,3832.3118,S,07021.9951,W,1.07,67.86,110511,,,A*5C
$GPGGA,184952.000,3832.3117,S,07021.9950,W,1,06,1.6,847.7,M,23.5,M,,0000*56
$GPGSA,M,3,16,21,22,03,30,18,,,,,,,3.3,1.6,2.8*3E
$GPRMC,184952.000,A,3832.3117,S,07021.9950,W,1.04,61.87,110511,,,A*55
$GPGGA,184953.000,3832.3115,S,07021.9944,W,1,06,1.6,850.4,M,23.5,M,,0000*55
$GPGSA,M,3,16,21,22,03,30,18,,,,,,,3.3,1.6,2.8*3E
$GPRMC,184953.000,A,3832.3115,S,07021.9944,W,1.08,61.06,110511,,,A*56
$GPGGA,184954.000,3832.3112,S,07021.9935,W,1,06,1.6,854.1,M,23.5,M,,0000*52
$GPGSA,M,3,16,21,22,03,30,18,,,,,,,3.3,1.6,2.8*3E
$GPRMC,184954.000,A,3832.3112,S,07021.9935,W,1.14,63.02,110511,,,A*5B
$GPGGA,184955.000,3832.3111,S,07021.9931,W,1,06,1.6,856.2,M,23.5,M,,0000*55
$GPGSA,M,3,16,21,22,03,30,18,,,,,,,3.3,1.6,2.8*3E
$GPRMC,184955.000,A,3832.3111,S,07021.9931,W,1.20,68.35,110511,,,A*55
$GPGGA,184956.000,3832.3113,S,07021.9932,W,1,06,1.6,857.3,M,23.5,M,,0000*57
$GPGSA,M,3,16,21,22,03,30,18,,,,,,,3.3,1.6,2.8*3E
$GPGSV,3,1,10,06,74,213,,22,67,023,21,03,59,227,29,18,56,111,20*76
$GPGSV,3,2,10,16,52,314,39,30,36,340,32,21,27,116,35,15,09,131,*7D
$GPGSV,3,3,10,19,28,232,26,14,04,030,27*7A
$GPRMC,184956.000,A,3832.3113,S,07021.9932,W,1.17,68.61,110511,,,A*52
$GPGGA,184957.000,3832.3116,S,07021.9936,W,1,06,1.6,857.0,M,23.5,M,,0000*54
$GPGSA,M,3,16,21,22,03,30,18,,,,,,,3.3,1.6,2.8*3E
$GPRMC,184957.000,A,3832.3116,S,07021.9936,W,0.87,60.59,110511,,,A*59
$GPGGA,184958.000,3832.3117,S,07021.9938,W,1,06,1.6,856.4,M,23.5,M,,0000*51
$GPGSA,M,3,16,21,22,03,30,18,,,,,,,3.3,1.6,2.8*3E
$GPRMC,184958.000,A,3832.3117,S,07021.9938,W,0.92,60.96,110511,,,A*5E
$GPGGA,184959.000,3832.3121,S,07021.9946,W,1,06,1.6,854.2,M,23.5,M,,0000*58
$GPGSA,M,3,16,21,22,03,30,18,,,,,,,3.3,1.6,2.8*3E
$GPRMC,184959.000,A,3832.3121,S,07021.9946,W,0.78,39.05,110511,,,A*51
$GPGGA,185000.020,3832.3121,S,07021.9946,W,1,05,2.0,855.1,M,23.5,M,,0000*5A
$GPGSA,M,3,03,18,16,30,21,,,,,,,,4.4,2.0,3.9*3B
$GPRMC,185000.020,A,3832.3121,S,07021.9946,W,0.27,115.02,110511,,,A*65
$GPGGA,185000.974,3832.3120,S,07021.9944,W,1,05,2.0,855.5,M,23.5,M,,0000*55
$GPGSA,M,3,03,18,16,30,21,,,,,,,,4.4,2.0,3.9*3B
$GPGSV,3,1,10,06,74,213,,22,67,023,,03,59,227,27,18,56,111,32*78
$GPGSV,3,2,10,16,52,314,35,30,36,340,18,19,28,232,30,21,27,116,36*76
$GPGSV,3,3,10,15,09,131,35,14,04,030,32*73
$GPRMC,185000.974,A,3832.3120,S,07021.9944,W,0.62,95.86,110511,,,A*5A
$GPGGA,185002.009,3832.3120,S,07021.9942,W,0,00,,856.5,M,23.5,M,,0000*79
$GPGSA,M,1,,,,,,,,,,,,,,,*12
$GPRMC,185002.009,V,3832.3120,S,07021.9942,W,,,110511,,,N*73
$GPGGA,185002.997,3832.3119,S,07021.9939,W,1,05,2.0,856.2,M,23.5,M,,0000*5E
$GPGSA,M,3,03,18,16,30,21,,,,,,,,4.4,2.0,3.9*3B
$GPRMC,185002.997,A,3832.3119,S,07021.9939,W,1.46,55.91,110511,,,A*58
$GPGGA,185004.000,3832.3119,S,07021.9940,W,1,05,2.0,854.8,M,23.5,M,,0000*59
$GPGSA,M,3,03,18,16,30,21,,,,,,,,4.4,2.0,3.9*3B
$GPRMC,185004.000,A,3832.3119,S,07021.9940,W,1.25,65.76,110511,,,A*58
$GPGGA,185005.015,3832.3122,S,07021.9944,W,1,06,1.6,852.4,M,23.5,M,,0000*5C
$GPGSA,M,3,22,03,18,16,30,21,,,,,,,3.2,1.6,2.8*3F
$GPRMC,185005.015,A,3832.3122,S,07021.9944,W,0.64,56.72,110511,,,A*51
$GPGGA,185005.986,3832.3121,S,07021.9942,W,1,04,4.8,853.4,M,23.5,M,,0000*52
$GPGSA,M,3,18,16,30,21,,,,,,,,,6.4,4.8,4.2*38
$GPGSV,3,1,10,06,74,213,,22,67,023,,03,59,227,,18,56,111,26*78
$GPGSV,3,2,10,16,52,314,28,30,36,341,25,19,28,232,,21,27,116,30*70
$GPGSV,3,3,10,15,09,131,28,14,04,030,26*7A
$GPRMC,185005.986,A,3832.3121,S,07021.9942,W,0.45,48.53,110511,,,A*58
$GPGGA,185006.997,3832.3122,S,07021.9941,W,1,05,2.0,853.5,M,23.5,M,,0000*5F
$GPGSA,M,3,03,18,16,30,21,,,,,,,,4.4,2.0,3.9*3B
$GPRMC,185006.997,A,3832.3122,S,07021.9941,W,0.72,62.16,110511,,,A*56
$GPGGA,185007.999,3832.3121,S,07021.9938,W,0,00,,854.0,M,23.5,M,,0000*77
$GPGSA,M,1,,,,,,,,,,,,,,,*12
$GPRMC,185007.999,V,3832.3121,S,07021.9938,W,,,110511,,,N*7A
$GPGGA,185009.000,3832.3120,S,07021.9936,W,0,00,,854.5,M,23.5,M,,0000*7A
$GPGSA,M,1,,,,,,,,,,,,,,,*12
$GPRMC,185009.000,V,3832.3120,S,07021.9936,W,,,110511,,,N*72
$GPGGA,185010.000,3832.3119,S,07021.9934,W,0,00,,854.9,M,23.5,M,,0000*76
$GPGSA,M,1,,,,,,,,,,,,,,,*12
$GPRMC,185010.000,V,3832.3119,S,07021.9934,W,,,110511,,,N*72
$GPGGA,185011.000,3832.3129,S,07021.9947,W,1,05,2.0,850.7,M,23.5,M,,0000*52
$GPGSA,M,3,16,21,03,30,18,,,,,,,,4.4,2.0,3.9*3B
$GPGSV,3,1,10,06,74,213,,22,67,023,,03,59,227,23,18,56,111,29*76
$GPGSV,3,2,10,16,52,314,33,30,36,341,30,21,27,116,38,15,09,131,36*7C
$GPGSV,3,3,10,19,28,232,29,14,04,030,32*71
$GPRMC,185011.000,A,3832.3129,S,07021.9947,W,0.36,9.98,110511,,,A*61
$GPGGA,185012.000,3832.3173,S,07021.9986,W,1,06,1.6,846.8,M,23.5,M,,0000*5D
$GPGSA,M,3,16,21,22,03,30,18,,,,,,,3.2,1.6,2.8*3F
$GPRMC,185012.000,A,3832.3173,S,07021.9986,W,0.32,223.22,110511,,,A*6F
$GPGGA,185013.000,3832.3180,S,07021.9999,W,1,07,1.6,842.3,M,23.5,M,,0000*50
$GPGSA,M,3,16,21,22,03,30,18,06,,,,,,3.1,1.6,2.6*34
$GPRMC,185013.000,A,3832.3180,S,07021.9999,W,0.54,229.61,110511,,,A*61
$GPGGA,185014.000,3832.3203,S,07022.0023,W,1,07,1.6,837.3,M,23.5,M,,0000*5F
$GPGSA,M,3,16,21,22,03,30,18,06,,,,,,3.1,1.6,2.6*34
$GPRMC,185014.000,A,3832.3203,S,07022.0023,W,0.81,230.77,110511,,,A*6B
$GPGGA,185015.000,3832.3204,S,07022.0030,W,1,07,1.6,832.9,M,23.5,M,,0000*54
$GPGSA,M,3,16,21,22,03,30,18,06,,,,,,3.1,1.6,2.6*34
$GPRMC,185015.000,A,3832.3204,S,07022.0030,W,0.41,241.50,110511,,,A*60
$GPGGA,185016.000,3832.3204,S,07022.0039,W,1,07,1.6,828.5,M,23.5,M,,0000*59
$GPGSA,M,3,16,21,22,03,30,18,06,,,,,,3.1,1.6,2.6*34
$GPGSV,3,1,10,06,74,213,21,22,67,023,25,03,59,227,25,18,56,111,30*7C
$GPGSV,3,2,10,16,52,314,35,30,36,341,31,21,27,116,37,15,09,131,34*76
$GPGSV,3,3,10,19,28,232,27,14,04,030,32*7F
$GPRMC,185016.000,A,3832.3204,S,07022.0039,W,0.23,6.59,110511,,,A*66
$GPGGA,185017.000,3832.3199,S,07022.0039,W,1,07,1.6,826.0,M,23.5,M,,0000*54
$GPGSA,M,3,16,21,22,03,30,18,06,,,,,,3.1,1.6,2.6*34
$GPRMC,185017.000,A,3832.3199,S,07022.0039,W,0.24,307.11,110511,,,A*69
$GPGGA,185018.000,3832.3201,S,07022.0047,W,1,07,1.6,821.0,M,23.5,M,,0000*57
$GPGSA,M,3,16,21,22,03,30,18,06,,,,,,3.1,1.6,2.6*34
$GPRMC,185018.000,A,3832.3201,S,07022.0047,W,0.41,8.11,110511,,,A*62
$GPGGA,185019.000,3832.3208,S,07022.0056,W,1,06,1.7,816.8,M,23.5,M,,0000*53
$GPGSA,M,3,16,21,22,03,30,06,,,,,,,3.4,1.7,2.9*36
$GPRMC,185019.000,A,3832.3208,S,07022.0056,W,0.47,259.95,110511,,,A*66
$GPGGA,185020.000,3832.3214,S,07022.0069,W,1,07,1.6,811.6,M,23.5,M,,0000*51
$GPGSA,M,3,16,21,22,03,30,18,06,,,,,,3.1,1.6,2.6*34
$GPRMC,185020.000,A,3832.3214,S,07022.0069,W,0.60,252.26,110511,,,A*6B
$GPGGA,185021.000,3832.3223,S,07022.0089,W,1,07,1.6,803.8,M,23.5,M,,0000*57
$GPGSA,M,3,16,21,22,03,30,18,06,,,,,,3.1,1.6,2.6*34
$GPGSV,3,1,10,06,74,213,22,22,67,023,21,03,59,227,26,18,56,111,30*78
$GPGSV,3,2,10,16,52,314,35,30,36,341,33,21,27,116,37,15,09,131,37*77
$GPGSV,3,3,10,19,28,232,27,14,04,030,32*7F
$GPRMC,185021.000,A,3832.3223,S,07022.0089,W,0.80,240.37,110511,,,A*6D
$GPGGA,185021.993,3832.3223,S,07022.0091,W,1,04,4.8,803.8,M,23.5,M,,0000*55
$GPGSA,M,3,18,16,30,21,,,,,,,,,6.4,4.8,4.2*38
$GPRMC,185021.993,A,3832.3223,S,07022.0091,W,1.63,234.62,110511,,,A*68
$GPGGA,185023.007,3832.3224,S,07022.0094,W,1,05,2.0,802.2,M,23.5,M,,0000*55
$GPGSA,M,3,03,18,16,30,21,,,,,,,,4.4,2.0,3.9*3B
$GPRMC,185023.007,A,3832.3224,S,07022.0094,W,0.82,253.38,110511,,,A*6C
$GPGGA,185024.004,3832.3225,S,07022.0098,W,1,04,4.8,801.2,M,23.5,M,,0000*50
$GPGSA,M,3,18,16,30,21,,,,,,,,,6.4,4.8,4.2*38
$GPRMC,185024.004,A,3832.3225,S,07022.0098,W,1.33,246.30,110511,,,A*62
$GPGGA,185024.997,3832.3225,S,07022.0101,W,1,05,2.0,800.0,M,23.5,M,,0000*5E
$GPGSA,M,3,03,18,16,30,21,,,,,,,,4.4,2.0,3.9*3B
$GPRMC,185024.997,A,3832.3225,S,07022.0101,W,1.00,249.29,110511,,,A*67
$GPGGA,185026.002,3832.3226,S,07022.0104,W,0,00,,798.8,M,23.5,M,,0000*71
$GPGSA,M,1,,,,,,,,,,,,,,,*12
$GPGSV,3,1,10,06,74,213,,22,67,023,,03,59,227,,18,56,111,*7C
$GPGSV,3,2,10,16,52,314,28,30,36,341,28,19,28,232,,21,27,116,31*7C
$GPGSV,3,3,10,15,09,131,29,14,04,030,*7F
$GPRMC,185026.002,V,3832.3226,S,07022.0104,W,,,110511,,,N*7B
$GPGGA,185026.999,3832.3229,S,07022.0116,W,1,05,2.0,797.1,M,23.5,M,,0000*58
$GPGSA,M,3,03,18,16,30,21,,,,,,,,4.4,2.0,3.9*3B
$GPRMC,185026.999,A,3832.3229,S,07022.0116,W,1.48,230.90,110511,,,A*61
$GPGGA,185028.000,3832.3229,S,07022.0122,W,1,05,2.0,797.1,M,23.5,M,,0000*58
$GPGSA,M,3,03,18,16,30,21,,,,,,,,4.4,2.0,3.9*3B
$GPRMC,185028.000,A,3832.3229,S,07022.0122,W,1.34,234.16,110511,,,A*60
$GPGGA,185028.994,3832.3223,S,07022.0114,W,1,05,2.0,798.0,M,23.5,M,,0000*5D
$GPGSA,M,3,03,18,16,30,21,,,,,,,,4.4,2.0,3.9*3B
$GPRMC,185028.994,A,3832.3223,S,07022.0114,W,0.44,4.23,110511,,,A*6A
$GPGGA,185029.996,3832.3219,S,07022.0107,W,1,05,2.0,797.2,M,23.5,M,,0000*58
$GPGSA,M,3,03,18,16,30,21,,,,,,,,4.4,2.0,3.9*3B
$GPRMC,185029.996,A,3832.3219,S,07022.0107,W,0.53,292.85,110511,,,A*65
$GPGGA,185031.009,3832.3219,S,07022.0108,W,0,00,,796.1,M,23.5,M,,0000*7B
$GPGSA,M,1,,,,,,,,,,,,,,,*12
$GPGSV,3,1,10,06,74,212,,22,67,023,,03,59,227,,18,56,111,*7D
$GPGSV,3,2,10,16,52,315,25,30,36,341,24,21,27,116,31,15,09,131,31*71
$GPGSV,3,3,10,19,28,232,,14,04,030,26*7F
$GPRMC,185031.009,V,3832.3219,S,07022.0108,W,,,110511,,,N*76
$GPGGA,185032.000,3832.3218,S,07022.0110,W,0,00,,795.2,M,23.5,M,,0000*79
$GPGSA,M,1,,,,,,,,,,,,,,,*12
$GPRMC,185032.000,V,3832.3218,S,07022.0110,W,,,110511,,,N*74
$GPGGA,185033.000,3832.3218,S,07022.0112,W,0,00,,794.2,M,23.5,M,,0000*7B
$GPGSA,M,1,,,,,,,,,,,,,,,*12
$GPRMC,185033.000,V,3832.3218,S,07022.0112,W,,,110511,,,N*77
$GPGGA,185034.000,3832.3233,S,07022.0109,W,1,06,2.0,795.2,M,23.5,M,,0000*55
$GPGSA,M,3,16,30,21,06,18,03,,,,,,,4.1,2.0,3.5*34
$GPRMC,185034.000,A,3832.3233,S,07022.0109,W,1.36,225.30,110511,,,A*69
$GPGGA,185035.000,3832.3225,S,07022.0086,W,1,06,2.0,797.0,M,23.5,M,,0000*55
$GPGSA,M,3,16,30,21,06,18,03,,,,,,,4.1,2.0,3.5*34
$GPRMC,185035.000,A,3832.3225,S,07022.0086,W,0.38,258.67,110511,,,A*6E
$GPGGA,185036.000,3832.3215,S,07022.0060,W,1,06,2.0,800.4,M,23.5,M,,0000*58
$GPGSA,M,3,16,30,21,06,18,03,,,,,,,4.1,2.0,3.5*34
$GPGSV,3,1,10,06,74,212,23,22,67,023,,03,59,227,31,18,56,111,29*75
$GPGSV,3,2,10,16,52,315,33,30,36,341,32,21,27,116,39,15,09,131,37*7F
$GPGSV,3,3,10,19,28,232,30,14,04,030,34*7F
$GPRMC,185036.000,A,3832.3215,S,07022.0060,W,0.27,257.00,110511,,,A*66
$GPGGA,185037.000,3832.3211,S,07022.0051,W,1,06,2.0,802.5,M,23.5,M,,0000*5C
$GPGSA,M,3,16,30,21,06,18,03,,,,,,,4.1,2.0,3.5*34
$GPRMC,185037.000,A,3832.3211,S,07022.0051,W,0.25,244.56,110511,,,A*62
$GPGGA,185038.000,3832.3208,S,07022.0051,W,1,07,1.6,800.5,M,23.5,M,,0000*5D
$GPGSA,M,3,16,30,21,06,22,18,03,,,,,,3.1,1.6,2.6*34
$GPRMC,185038.000,A,3832.3208,S,07022.0051,W,0.33,250.57,110511,,,A*66
$GPGGA,185039.000,3832.3207,S,07022.0056,W,1,07,1.6,798.3,M,23.5,M,,0000*5C
$GPGSA,M,3,16,30,21,06,22,18,03,,,,,,3.1,1.6,2.6*34
$GPRMC,185039.000,A,3832.3207,S,07022.0056,W,0.35,256.41,110511,,,A*68
$GPGGA,185040.000,3832.3210,S,07022.0065,W,1,06,1.8,796.2,M,23.5,M,,0000*54
$GPGSA,M,3,16,21,06,22,18,03,,,,,,,3.7,1.8,3.2*3A
$GPRMC,185040.000,A,3832.3210,S,07022.0065,W,0.36,336.20,110511,,,A*63
$GPGGA,185041.000,3832.3216,S,07022.0073,W,1,07,1.6,792.4,M,23.5,M,,0000*59
$GPGSA,M,3,16,30,21,06,22,18,03,,,,,,3.1,1.6,2.6*34
$GPGSV,3,1,10,06,74,212,19,22,67,023,16,03,59,227,30,18,56,111,27*74
$GPGSV,3,2,10,16,52,315,32,30,36,341,27,19,28,232,29,21,26,116,38*7A
$GPGSV,3,3,10,15,09,131,36,14,04,030,33*71
$GPRMC,185041.000,A,3832.3216,S,07022.0073,W,0.14,288.59,110511,,,A*69
$GPGGA,185042.000,3832.3215,S,07022.0079,W,1,06,1.6,787.7,M,23.5,M,,0000*55
$GPGSA,M,3,16,30,21,22,18,03,,,,,,,3.2,1.6,2.8*3F
$GPRMC,185042.000,A,3832.3215,S,07022.0079,W,0.29,294.63,110511,,,A*69
$GPGGA,185043.000,3832.3210,S,07022.0083,W,1,06,1.6,783.1,M,23.5,M,,0000*56
$GPGSA,M,3,16,30,21,22,18,03,,,,,,,3.2,1.6,2.8*3F
$GPRMC,185043.000,A,3832.3210,S,07022.0083,W,0.35,333.73,110511,,,A*68
$GPGGA,185044.005,3832.3205,S,07022.0082,W,1,04,1.7,782.7,M,23.5,M,,0000*55
$GPGSA,M,3,03,16,30,21,,,,,,,,,2.0,1.7,1.0*3F
$GPRMC,185044.005,A,3832.3205,S,07022.0082,W,1.08,302.33,110511,,,A*66
$GPGGA,185045.001,3832.3200,S,07022.0081,W,1,04,1.7,782.6,M,23.5,M,,0000*57
$GPGSA,M,3,03,16,30,21,,,,,,,,,2.0,1.7,1.0*3F
$GPRMC,185045.001,A,3832.3200,S,07022.0081,W,0.44,284.00,110511,,,A*63
$GPGGA,185046.000,3832.3185,S,07022.0074,W,1,04,1.7,783.7,M,23.5,M,,0000*51
$GPGSA,M,3,03,16,30,21,,,,,,,,,2.0,1.7,1.0*3F
$GPGSV,3,1,10,06,74,212,,22,67,024,25,03,59,227,33,18,56,112,*7E
$GPGSV,3,2,10,16,52,315,33,30,36,341,26,21,26,116,40,15,09,131,36*74
$GPGSV,3,3,10,19,29,232,31,14,04,030,33*78
$GPRMC,185046.000,A,3832.3185,S,07022.0074,W,1.29,341.98,110511,,,A*66
$GPGGA,185047.000,3832.3186,S,07022.0081,W,1,06,1.6,780.2,M,23.5,M,,0000*5C
$GPGSA,M,3,03,16,30,21,22,18,,,,,,,3.2,1.6,2.8*3F
$GPRMC,185047.000,A,3832.3186,S,07022.0081,W,0.59,307.06,110511,,,A*6D
$GPGGA,185048.000,3832.3184,S,07022.0072,W,1,06,1.6,781.1,M,23.5,M,,0000*5F
$GPGSA,M,3,03,16,30,21,22,18,,,,,,,3.2,1.6,2.8*3F
$GPRMC,185048.000,A,3832.3184,S,07022.0072,W,0.24,333.37,110511,,,A*63
$GPGGA,185049.000,3832.3181,S,07022.0064,W,1,06,1.6,780.2,M,23.5,M,,0000*5E
$GPGSA,M,3,03,16,30,21,22,18,,,,,,,3.2,1.6,2.8*3F
$GPRMC,185049.000,A,3832.3181,S,07022.0064,W,0.23,307.71,110511,,,A*62
$GPGGA,185050.000,3832.3184,S,07022.0064,W,1,06,1.6,780.7,M,23.5,M,,0000*56
$GPGSA,M,3,03,16,30,21,22,18,,,,,,,3.2,1.6,2.8*3F
$GPRMC,185050.000,A,3832.3184,S,07022.0064,W,0.13,270.51,110511,,,A*6F
$GPGGA,185051.000,3832.3183,S,07022.0058,W,1,06,1.6,783.1,M,23.5,M,,0000*5A
$GPGSA,M,3,03,16,30,21,22,18,,,,,,,3.2,1.6,2.8*3F
$GPGSV,3,1,10,06,74,212,,22,67,024,29,03,59,227,29,18,56,112,26*7D
$GPGSV,3,2,10,16,52,315,39,30,36,341,34,21,26,116,32,15,09,131,33*7D
$GPGSV,3,3,10,19,29,232,28,14,04,030,33*70
$GPRMC,185051.000,A,3832.3183,S,07022.0058,W,0.07,266.52,110511,,,A*67
$GPGGA,185052.000,3832.3191,S,07022.0060,W,1,06,1.6,783.3,M,23.5,M,,0000*53
$GPGSA,M,3,03,16,30,21,22,18,,,,,,,3.2,1.6,2.8*3F
$GPRMC,185052.000,A,3832.3191,S,07022.0060,W,0.16,65.19,110511,,,A*52
$GPGGA,185053.000,3832.3199,S,07022.0066,W,1,04,2.2,782.4,M,23.5,M,,0000*5F
$GPGSA,M,3,03,16,21,22,,,,,,,,,5.2,2.2,4.7*3D
$GPRMC,185053.000,A,3832.3199,S,07022.0066,W,0.42,205.04,110511,,,A*64
$GPGGA,185054.000,3832.3199,S,07022.0058,W,1,07,1.6,784.4,M,23.5,M,,0000*57
$GPGSA,M,3,03,16,30,21,06,22,18,,,,,,3.1,1.6,2.6*34
$GPRMC,185054.000,A,3832.3199,S,07022.0058,W,0.13,156.24,110511,,,A*6D
$GPGGA,185055.000,3832.3200,S,07022.0064,W,1,07,1.6,782.3,M,23.5,M,,0000*5B
$GPGSA,M,3,03,16,30,21,06,22,18,,,,,,3.1,1.6,2.6*34
$GPRMC,185055.000,A,3832.3200,S,07022.0064,W,0.14,340.89,110511,,,A*65
$GPGGA,185056.000,3832.3201,S,07022.0062,W,1,07,1.6,782.9,M,23.5,M,,0000*55
$GPGSA,M,3,03,16,30,21,06,22,18,,,,,,3.1,1.6,2.6*34
$GPGSV,3,1,10,06,74,212,23,22,67,024,27,03,59,227,28,18,56,112,25*70
$GPGSV,3,2,10,16,52,315,37,30,36,341,30,21,26,116,32,15,09,131,37*73
$GPGSV,3,3,10,19,29,232,27,14,04,030,32*7E
$GPRMC,185056.000,A,3832.3201,S,07022.0062,W,0.15,48.21,110511,,,A*59
$GPGGA,185057.000,3832.3204,S,07022.0057,W,1,07,1.6,784.2,M,23.5,M,,0000*5A
$GPGSA,M,3,03,16,30,21,06,22,18,,,,,,3.1,1.6,2.6*34
$GPRMC,185057.000,A,3832.3204,S,07022.0057,W,0.07,46.72,110511,,,A*50
$GPGGA,185058.000,3832.3209,S,07022.0056,W,1,07,1.6,783.8,M,23.5,M,,0000*54
$GPGSA,M,3,03,16,30,21,06,22,18,,,,,,3.1,1.6,2.6*34
$GPRMC,185058.000,A,3832.3209,S,07022.0056,W,0.37,204.79,110511,,,A*6F
$GPGGA,185059.000,3832.3213,S,07022.0059,W,1,07,1.6,782.6,M,23.5,M,,0000*5E
$GPGSA,M,3,03,16,30,21,06,22,18,,,,,,3.1,1.6,2.6*34
$GPRMC,185059.000,A,3832.3213,S,07022.0059,W,0.11,229.14,110511,,,A*6A
$GPGGA,185100.026,3832.3213,S,07022.0057,W,1,05,2.1,782.4,M,23.5,M,,0000*5D
$GPGSA,M,3,03,18,16,30,21,,,,,,,,4.4,2.1,3.9*3A
$GPRMC,185100.026,A,3832.3213,S,07022.0057,W,0.25,136.86,110511,,,A*6C
$GPGGA,185100.978,3832.3213,S,07022.0057,W,1,05,2.1,782.5,M,23.5,M,,0000*5E
$GPGSA,M,3,03,18,16,30,21,,,,,,,,4.4,2.1,3.9*3A
$GPGSV,3,1,10,06,74,212,,22,67,024,,03,59,227,28,18,56,112,30*70
$GPGSV,3,2,10,16,52,315,36,30,36,341,31,19,29,232,28,21,26,116,33*72
$GPGSV,3,3,10,15,09,131,34,14,04,030,31*71
$GPRMC,185100.978,A,3832.3213,S,07022.0057,W,0.73,251.07,110511,,,A*66
$GPGGA,185102.006,3832.3214,S,07022.0060,W,0,00,,782.4,M,23.5,M,,0000*77
$GPGSA,M,1,,,,,,,,,,,,,,,*12
$GPRMC,185102.006,V,3832.3214,S,07022.0060,W,,,110511,,,N*7A
$GPGGA,185103.000,3832.3215,S,07022.0062,W,0,00,,782.4,M,23.5,M,,0000*73
$GPGSA,M,1,,,,,,,,,,,,,,,*12
$GPRMC,185103.000,V,3832.3215,S,07022.0062,W,,,110511,,,N*7E
$GPGGA,185104.000,3832.3215,S,07022.0064,W,0,00,,782.3,M,23.5,M,,0000*75
$GPGSA,M,1,,,,,,,,,,,,,,,*12
$GPRMC,185104.000,V,3832.3215,S,07022.0064,W,,,110511,,,N*7F
$GPGGA,185105.000,3832.3213,S,07022.0074,W,1,05,2.1,779.9,M,23.5,M,,0000*54
$GPGSA,M,3,16,21,03,18,30,,,,,,,,4.4,2.1,3.9*3A
$GPRMC,185105.000,A,3832.3213,S,07022.0074,W,0.64,229.41,110511,,,A*6F
$GPGGA,185106.000,3832.3233,S,07022.0114,W,1,06,1.6,774.4,M,23.5,M,,0000*55
$GPGSA,M,3,16,21,22,03,18,30,,,,,,,3.2,1.6,2.8*3F
$GPGSV,3,1,10,06,75,212,,22,67,024,20,03,60,227,25,18,56,112,33*77
$GPGSV,3,2,10,16,52,315,35,30,36,341,29,21,26,116,35,15,09,131,33*7A
$GPGSV,3,3,10,19,29,232,25,14,05,031,29*76
$GPRMC,185106.000,A,3832.3233,S,07022.0114,W,1.14,234.81,110511,,,A*6F
$GPGGA,185107.000,3832.3247,S,07022.0141,W,1,06,1.6,769.7,M,23.5,M,,0000*58
$GPGSA,M,3,16,21,22,03,18,30,,,,,,,3.2,1.6,2.8*3F
$GPRMC,185107.000,A,3832.3247,S,07022.0141,W,0.92,237.66,110511,,,A*68
$GPGGA,185108.000,3832.3250,S,07022.0149,W,1,06,1.6,767.5,M,23.5,M,,0000*55
$GPGSA,M,3,16,21,22,03,18,30,,,,,,,3.2,1.6,2.8*3F
$GPRMC,185108.000,A,3832.3250,S,07022.0149,W,0.60,235.56,110511,,,A*65
$GPGGA,185109.000,3832.3261,S,07022.0165,W,1,07,1.6,764.3,M,23.5,M,,0000*5C
$GPGSA,M,3,16,21,06,22,03,18,30,,,,,,3.1,1.6,2.6*34
$GPRMC,185109.000,A,3832.3261,S,07022.0165,W,0.55,247.16,110511,,,A*6F
$GPGGA,185110.000,3832.3265,S,07022.0174,W,1,07,1.6,759.5,M,23.5,M,,0000*58
$GPGSA,M,3,16,21,06,22,03,18,30,,,,,,3.1,1.6,2.6*34
$GPRMC,185110.000,A,3832.3265,S,07022.0174,W,0.64,242.84,110511,,,A*6F
$GPGGA,185111.000,3832.3267,S,07022.0180,W,1,07,1.6,758.0,M,23.5,M,,0000*54
$GPGSA,M,3,16,21,06,22,03,18,30,,,,,,3.1,1.6,2.6*34
$GPGSV,3,1,10,06,75,212,24,22,67,024,23,03,60,227,24,18,56,112,32*72
$GPGSV,3,2,10,16,52,315,35,30,36,341,30,21,26,116,35,15,09,131,34*75
$GPGSV,3,3,10,19,29,232,27,14,05,031,29*74
$GPRMC,185111.000,A,3832.3267,S,07022.0180,W,0.48,253.82,110511,,,A*6F
$GPGGA,185112.000,3832.3264,S,07022.0184,W,1,07,1.6,756.1,M,23.5,M,,0000*5F
$GPGSA,M,3,16,21,06,22,03,18,30,,,,,,3.1,1.6,2.6*34
$GPRMC,185112.000,A,3832.3264,S,07022.0184,W,0.43,253.62,110511,,,A*6E
$GPGGA,185113.000,3832.3270,S,07022.0196,W,1,07,1.6,752.6,M,23.5,M,,0000*5B
$GPGSA,M,3,16,21,06,22,03,18,30,,,,,,3.1,1.6,2.6*34
$GPRMC,185113.000,A,3832.3270,S,07022.0196,W,0.55,245.30,110511,,,A*6E
$GPGGA,185114.000,3832.3271,S,07022.0202,W,1,06,1.9,746.5,M,23.5,M,,0000*5B
$GPGSA,M,3,16,06,22,03,18,30,,,,,,,5.2,1.9,4.9*34
$GPRMC,185114.000,A,3832.3271,S,07022.0202,W,0.42,189.92,110511,,,A*6B
$GPGGA,185115.000,3832.3270,S,07022.0203,W,1,07,1.6,740.9,M,23.5,M,,0000*5E
$GPGSA,M,3,16,21,06,22,03,18,30,,,,,,3.1,1.6,2.6*34
$GPRMC,185115.000,A,3832.3270,S,07022.0203,W,0.49,198.10,110511,,,A*6B
$GPGGA,185116.000,3832.3275,S,07022.0203,W,1,07,1.6,734.7,M,23.5,M,,0000*55
$GPGSA,M,3,16,21,06,22,03,18,30,,,,,,3.1,1.6,2.6*34
$GPGSV,3,1,10,06,75,212,23,22,67,024,26,03,60,227,22,18,56,112,30*74
$GPGSV,3,2,10,16,52,315,34,30,36,341,33,21,26,116,28,15,09,131,29*77
$GPGSV,3,3,10,19,29,232,26,14,05,031,29*75
$GPRMC,185116.000,A,3832.3275,S,07022.0203,W,0.53,146.81,110511,,,A*6D
$GPGGA,185117.000,3832.3277,S,07022.0201,W,1,07,1.6,732.0,M,23.5,M,,0000*55
$GPGSA,M,3,16,21,06,22,03,18,30,,,,,,3.1,1.6,2.6*34
$GPRMC,185117.000,A,3832.3277,S,07022.0201,W,0.94,225.49,110511,,,A*65
$GPGGA,185118.000,3832.3285,S,07022.0210,W,1,06,1.9,726.4,M,23.5,M,,0000*58
$GPGSA,M,3,16,06,22,03,18,30,,,,,,,5.2,1.9,4.9*34
$GPRMC,185118.000,A,3832.3285,S,07022.0210,W,0.72,195.72,110511,,,A*6F
$GPGGA,185119.000,3832.3285,S,07022.0207,W,1,07,1.6,722.0,M,23.5,M,,0000*51
$GPGSA,M,3,16,21,06,22,03,18,30,,,,,,3.1,1.6,2.6*34
$GPRMC,185119.000,A,3832.3285,S,07022.0207,W,0.89,164.47,110511,,,A*64
$GPGGA,185120.000,3832.3286,S,07022.0208,W,1,07,1.6,717.8,M,23.5,M,,0000*59
$GPGSA,M,3,16,21,06,22,03,18,30,,,,,,3.1,1.6,2.6*34
$GPRMC,185120.000,A,3832.3286,S,07022.0208,W,0.58,179.47,110511,,,A*62
$GPGGA,185121.000,3832.3294,S,07022.0221,W,1,07,1.6,716.1,M,23.5,M,,0000*58
$GPGSA,M,3,16,21,06,22,03,18,30,,,,,,3.1,1.6,2.6*34
$GPGSV,3,1,10,06,75,212,30,22,67,024,27,03,60,227,23,18,56,112,30*76
$GPGSV,3,2,10,16,52,315,34,30,36,341,33,21,26,116,28,15,09,131,35*7A
$GPGSV,3,3,10,19,29,232,27,14,05,031,27*7A
$GPRMC,185121.000,A,3832.3294,S,07022.0221,W,1.13,208.48,110511,,,A*6F
$GPGGA,185121.999,3832.3296,S,07022.0223,W,0,00,,714.0,M,23.5,M,,0000*7D
$GPGSA,M,1,,,,,,,,,,,,,,,*12
$GPRMC,185121.999,V,3832.3296,S,07022.0223,W,,,110511,,,N*7B
$GPGGA,185123.001,3832.3299,S,07022.0225,W,0,00,,711.9,M,23.5,M,,0000*72
$GPGSA,M,1,,,,,,,,,,,,,,,*12
$GPRMC,185123.001,V,3832.3299,S,07022.0225,W,,,110511,,,N*78
$GPGGA,185124.000,3832.3302,S,07022.0227,W,0,00,,709.8,M,23.5,M,,0000*7D
$GPGSA,M,1,,,,,,,,,,,,,,,*12
$GPRMC,185124.000,V,3832.3302,S,07022.0227,W,,,110511,,,N*7F
$GPGGA,185125.000,3832.3308,S,07022.0224,W,1,06,2.3,707.0,M,23.5,M,,0000*5B
$GPGSA,M,3,06,16,30,22,21,18,,,,,,,3.5,2.3,2.7*34
$GPRMC,185125.000,A,3832.3308,S,07022.0224,W,1.77,191.71,110511,,,A*61
$GPGGA,185126.000,3832.3308,S,07022.0220,W,1,06,2.3,701.5,M,23.5,M,,0000*5F
$GPGSA,M,3,06,16,30,22,21,18,,,,,,,3.5,2.3,2.7*34
$GPGSV,3,1,10,06,75,212,30,22,67,024,26,03,60,227,,18,56,112,33*75
$GPGSV,3,2,10,16,52,315,31,30,36,341,34,21,26,116,27,15,09,132,24*74
$GPGSV,3,3,10,19,29,232,28,14,05,031,30*73
$GPRMC,185126.000,A,3832.3308,S,07022.0220,W,1.53,207.14,110511,,,A*6F
$GPGGA,185127.000,3832.3308,S,07022.0236,W,1,07,1.6,699.6,M,23.5,M,,0000*5D
