$GPGGA,194543.004,3434.0003,S,06902.9424,W,1,09,1.1,1415.0,M,27.8,M,,0000*69
$GPGSA,M,3,06,03,22,19,18,16,14,30,21,,,,1.9,1.1,1.5*34
$GPRMC,194543.004,A,3434.0003,S,06902.9424,W,21.41,216.76,090511,,,A*50
$GPGGA,194543.997,3434.0052,S,06902.9469,W,1,09,1.1,1414.8,M,27.8,M,,0000*6E
$GPGSA,M,3,06,03,22,19,18,16,14,30,21,,,,1.9,1.1,1.5*34
$GPRMC,194543.997,A,3434.0052,S,06902.9469,W,21.00,215.93,090511,,,A*53
$GPGGA,194545.000,3434.0097,S,06902.9508,W,1,09,1.1,1414.6,M,27.8,M,,0000*6E
$GPGSA,M,3,06,03,22,19,18,16,14,30,21,,,,1.9,1.1,1.5*34
$GPGSV,3,1,12,06,86,074,40,03,75,233,39,22,74,116,40,19,43,222,37*76
$GPGSV,3,2,12,18,37,132,38,16,36,329,39,14,24,044,30,30,20,347,39*76
$GPGSV,3,3,12,21,12,104,29,11,09,255,34,24,02,271,,32,01,322,*7B
$GPRMC,194545.000,A,3434.0097,S,06902.9508,W,19.93,216.89,090511,,,A*54
$GPGGA,194546.000,3434.0139,S,06902.9544,W,1,09,1.1,1415.4,M,27.8,M,,0000*63
$GPGSA,M,3,06,03,22,19,18,16,14,30,21,,,,1.9,1.1,1.5*34
$GPRMC,194546.000,A,3434.0139,S,06902.9544,W,19.49,216.56,090511,,,A*5F
$GPGGA,194547.002,3434.0180,S,06902.9583,W,1,09,1.1,1414.8,M,27.8,M,,0000*64
$GPGSA,M,3,06,03,22,19,18,16,14,30,21,,,,1.9,1.1,1.5*34
$GPRMC,194547.002,A,3434.0180,S,06902.9583,W,18.95,216.54,090511,,,A*57
$GPGGA,194548.001,3434.0223,S,06902.9620,W,1,08,1.2,1414.2,M,27.8,M,,0000*60
$GPGSA,M,3,06,03,22,19,18,16,14,30,,,,,2.2,1.2,1.9*30
$GPRMC,194548.001,A,3434.0223,S,06902.9620,W,18.79,214.74,090511,,,A*59
$GPGGA,194548.997,3434.0262,S,06902.9654,W,1,09,1.1,1416.2,M,27.8,M,,0000*60
$GPGSA,M,3,06,03,22,19,18,16,14,30,21,,,,1.9,1.1,1.5*34
$GPRMC,194548.997,A,3434.0262,S,06902.9654,W,18.53,214.78,090511,,,A*5D
$GPGGA,194550.001,3434.0305,S,06902.9691,W,1,09,1.1,1416.0,M,27.8,M,,0000*64
$GPGSA,M,3,06,03,22,19,18,16,14,30,21,,,,1.9,1.1,1.5*34
$GPGSV,3,1,12,06,86,074,41,03,75,233,39,22,74,116,41,19,43,222,39*78
$GPGSV,3,2,12,18,37,132,40,16,36,329,40,14,24,044,32,30,20,347,39*75
$GPGSV,3,3,12,21,12,104,30,11,09,255,31,24,02,271,,32,01,322,29*7D
$GPRMC,194550.001,A,3434.0305,S,06902.9691,W,18.97,216.83,090511,,,A*55
$GPGGA,194550.998,3434.0351,S,06902.9734,W,1,08,1.2,1415.6,M,27.8,M,,0000*65
$GPGSA,M,3,06,03,22,19,18,16,14,30,,,,,2.2,1.2,1.9*30
$GPRMC,194550.998,A,3434.0351,S,06902.9734,W,18.76,215.02,090511,,,A*56
$GPGGA,194552.001,3434.0393,S,06902.9770,W,1,08,1.2,1415.0,M,27.8,M,,0000*66
$GPGSA,M,3,06,03,22,19,18,16,14,30,,,,,2.2,1.2,1.9*30
$GPRMC,194552.001,A,3434.0393,S,06902.9770,W,18.89,215.68,090511,,,A*5F
$GPGGA,194553.002,3434.0438,S,06902.9812,W,1,09,1.1,1415.2,M,27.8,M,,0000*69
$GPGSA,M,3,06,03,22,19,18,16,14,30,21,,,,1.9,1.1,1.5*34
$GPRMC,194553.002,A,3434.0438,S,06902.9812,W,18.92,215.41,090511,,,A*51
$GPGGA,194553.997,3434.0481,S,06902.9848,W,1,09,1.1,1415.1,M,27.8,M,,0000*62
$GPGSA,M,3,06,03,22,19,18,16,14,30,21,,,,1.9,1.1,1.5*34
$GPRMC,194553.997,A,3434.0481,S,06902.9848,W,19.47,215.81,090511,,,A*5C
$GPGGA,194555.001,3434.0528,S,06902.9886,W,1,09,1.1,1414.8,M,27.8,M,,0000*6A
$GPGSA,M,3,06,03,22,19,18,16,14,30,21,,,,1.9,1.1,1.5*34
$GPGSV,3,1,12,06,86,074,40,03,75,233,39,22,74,116,41,19,43,222,39*79
$GPGSV,3,2,12,18,37,132,38,16,36,329,40,14,24,044,32,30,20,347,39*7A
$GPGSV,3,3,12,21,12,104,32,11,09,255,34,24,02,271,,32,01,322,30*72
$GPRMC,194555.001,A,3434.0528,S,06902.9886,W,19.87,214.87,090511,,,A*57
$GPGGA,194556.001,3434.0573,S,06902.9927,W,1,09,1.1,1415.5,M,27.8,M,,0000*61
$GPGSA,M,3,06,03,22,19,18,16,14,30,21,,,,1.9,1.1,1.5*34
$GPRMC,194556.001,A,3434.0573,S,06902.9927,W,20.93,216.59,090511,,,A*5E
$GPGGA,194557.002,3434.0622,S,06902.9964,W,1,08,1.2,1414.4,M,27.8,M,,0000*61
$GPGSA,M,3,06,03,22,19,18,16,14,30,,,,,2.2,1.2,1.9*30
$GPRMC,194557.002,A,3434.0622,S,06902.9964,W,20.10,213.21,090511,,,A*5D
$GPGGA,194557.998,3434.0668,S,06903.0000,W,1,09,1.1,1413.2,M,27.8,M,,0000*65
$GPGSA,M,3,06,03,22,19,18,16,14,30,21,,,,1.9,1.1,1.5*34
$GPRMC,194557.998,A,3434.0668,S,06903.0000,W,20.84,214.15,090511,,,A*57
$GPGGA,194559.002,3434.0719,S,06903.0042,W,1,08,1.2,1412.9,M,27.8,M,,0000*68
$GPGSA,M,3,06,03,22,19,18,16,14,21,,,,,2.1,1.2,1.7*3D
$GPRMC,194559.002,A,3434.0719,S,06903.0042,W,21.78,213.79,090511,,,A*5D
$GPGGA,194559.998,3434.0769,S,06903.0082,W,1,09,1.1,1412.7,M,27.8,M,,0000*65
$GPGSA,M,3,06,03,22,19,18,16,14,30,21,,,,1.9,1.1,1.5*34
$GPGSV,3,1,12,06,86,074,40,03,75,233,38,22,74,116,40,19,43,222,39*79
$GPGSV,3,2,12,18,37,132,39,16,36,329,40,14,24,044,27,30,20,347,39*7F
$GPGSV,3,3,12,21,12,104,30,11,09,255,30,24,02,271,,32,01,322,29*7C
$GPRMC,194559.998,A,3434.0769,S,06903.0082,W,21.89,215.37,090511,,,A*5E
$GPGGA,194600.997,3434.0818,S,06903.0122,W,1,08,1.3,1412.6,M,27.8,M,,0000*65
$GPGSA,M,3,06,03,22,19,18,16,30,21,,,,,2.0,1.3,1.5*39
$GPRMC,194600.997,A,3434.0818,S,06903.0122,W,21.49,214.39,090511,,,A*5F
$GPGGA,194602.001,3434.0868,S,06903.0163,W,1,09,1.1,1411.5,M,27.8,M,,0000*60
$GPGSA,M,3,06,03,22,19,18,16,14,30,21,,,,1.9,1.1,1.5*34
$GPRMC,194602.001,A,3434.0868,S,06903.0163,W,21.54,215.20,090511,,,A*5C
$GPGGA,194603.002,3434.0916,S,06903.0201,W,1,09,1.1,1411.4,M,27.8,M,,0000*6C
$GPGSA,M,3,06,03,22,19,18,16,14,30,21,,,,1.9,1.1,1.5*34
$GPRMC,194603.002,A,3434.0916,S,06903.0201,W,22.24,214.48,090511,,,A*5A
$GPGGA,194603.999,3434.0967,S,06903.0242,W,1,09,1.1,1411.8,M,27.8,M,,0000*6A
$GPGSA,M,3,06,03,22,19,18,16,14,30,21,,,,1.9,1.1,1.5*34
$GPRMC,194603.999,A,3434.0967,S,06903.0242,W,21.90,215.17,090511,,,A*57
$GPGGA,194605.001,3434.1016,S,06903.0283,W,1,08,1.2,1411.8,M,27.8,M,,0000*65
$GPGSA,M,3,06,03,22,19,18,16,14,30,,,,,2.2,1.2,1.9*30
$GPGSV,3,1,12,06,86,074,40,03,75,233,40,22,74,116,40,19,43,222,40*78
$GPGSV,3,2,12,18,37,132,40,16,36,329,41,14,24,044,34,30,20,347,38*73
$GPGSV,3,3,12,21,12,104,,11,09,255,28,24,02,271,,32,01,322,39*77
$GPRMC,194605.001,A,3434.1016,S,06903.0283,W,21.93,215.11,090511,,,A*5F
$GPGGA,194606.000,3434.1066,S,06903.0326,W,1,08,1.2,1411.5,M,27.8,M,,0000*63
$GPGSA,M,3,06,03,22,19,18,16,14,30,,,,,2.2,1.2,1.9*30
$GPRMC,194606.000,A,3434.1066,S,06903.0326,W,21.98,214.66,090511,,,A*5E
$GPGGA,194606.998,3434.1118,S,06903.0369,W,1,09,1.1,1410.3,M,27.8,M,,0000*6D
$GPGSA,M,3,06,03,22,19,18,16,14,30,21,,,,1.9,1.1,1.5*34
$GPRMC,194606.998,A,3434.1118,S,06903.0369,W,21.99,213.18,090511,,,A*5A
$GPGGA,194608.000,3434.1172,S,06903.0411,W,1,09,1.1,1409.9,M,27.8,M,,0000*6D
$GPGSA,M,3,06,03,22,19,18,16,14,30,21,,,,1.9,1.1,1.5*34
$GPRMC,194608.000,A,3434.1172,S,06903.0411,W,22.97,215.95,090511,,,A*56
$GPGGA,194608.998,3434.1224,S,06903.0455,W,1,08,1.2,1409.2,M,27.8,M,,0000*6C
$GPGSA,M,3,06,03,22,19,18,16,14,30,,,,,2.2,1.2,1.9*30
$GPRMC,194608.998,A,3434.1224,S,06903.0455,W,23.10,214.04,090511,,,A*59
$GPGGA,194610.004,3434.1275,S,06903.0495,W,1,08,1.2,1408.9,M,27.8,M,,0000*6B
$GPGSA,M,3,06,03,22,19,18,16,14,30,,,,,2.2,1.2,1.8*31
$GPGSV,3,1,12,06,86,074,40,03,75,233,39,22,74,116,40,19,43,222,38*79
$GPGSV,3,2,12,18,37,132,39,16,36,329,40,14,24,044,31,30,20,347,39*78
$GPGSV,3,3,12,21,12,104,,11,09,255,31,24,02,271,,32,01,322,39*7F
$GPRMC,194610.004,A,3434.1275,S,06903.0495,W,22.21,213.83,090511,,,A*5F
$GPGGA,194611.000,3434.1328,S,06903.0534,W,1,08,1.2,1407.7,M,27.8,M,,0000*6C
$GPGSA,M,3,06,03,22,19,18,16,14,30,,,,,2.2,1.2,1.8*31
$GPRMC,194611.000,A,3434.1328,S,06903.0534,W,22.18,211.64,090511,,,A*58
$GPGGA,194612.000,3434.1380,S,06903.0573,W,1,08,1.2,1407.7,M,27.8,M,,0000*6E
$GPGSA,M,3,06,03,22,19,18,16,14,30,,,,,2.2,1.2,1.8*31
$GPRMC,194612.000,A,3434.1380,S,06903.0573,W,22.76,211.32,090511,,,A*51
$GPGGA,194612.997,3434.1431,S,06903.0615,W,1,08,1.2,1409.3,M,27.8,M,,0000*6D
$GPGSA,M,3,06,03,22,19,18,16,14,30,,,,,2.2,1.2,1.8*31
$GPRMC,194612.997,A,3434.1431,S,06903.0615,W,22.45,215.06,090511,,,A*5B
$GPGGA,194614.003,3434.1481,S,06903.0659,W,1,08,1.2,1408.3,M,27.8,M,,0000*6D
$GPGSA,M,3,06,03,22,19,18,16,14,30,,,,,2.2,1.2,1.8*31
$GPRMC,194614.003,A,3434.1481,S,06903.0659,W,22.41,214.84,090511,,,A*55
$GPGGA,194614.998,3434.1527,S,06903.0699,W,1,09,1.1,1407.2,M,27.8,M,,0000*6B
$GPGSA,M,3,06,03,22,19,18,16,14,30,21,,,,1.9,1.1,1.5*34
$GPGSV,3,1,12,06,86,074,40,03,75,233,40,22,74,116,40,19,43,222,38*77
$GPGSV,3,2,12,18,37,132,39,16,36,329,40,14,24,044,31,30,20,347,38*79
$GPGSV,3,3,12,21,12,104,31,11,09,255,30,24,02,271,,32,01,322,37*72
$GPRMC,194614.998,A,3434.1527,S,06903.0699,W,19.18,216.19,090511,,,A*5D
$GPGGA,194615.999,3434.1568,S,06903.0729,W,1,09,1.1,1408.2,M,27.8,M,,0000*65
$GPGSA,M,3,06,03,22,19,18,16,14,30,21,,,,1.9,1.1,1.5*34
$GPRMC,194615.999,A,3434.1568,S,06903.0729,W,18.79,215.92,090511,,,A*5A
$GPGGA,194617.000,3434.1611,S,06903.0762,W,1,08,1.2,1406.9,M,27.8,M,,0000*6B
$GPGSA,M,3,06,03,22,19,18,16,14,30,,,,,2.2,1.2,1.8*31
$GPRMC,194617.000,A,3434.1611,S,06903.0762,W,18.66,213.34,090511,,,A*57
$GPGGA,194617.999,3434.1653,S,06903.0798,W,1,08,1.2,1406.1,M,27.8,M,,0000*69
$GPGSA,M,3,06,03,22,19,18,16,14,30,,,,,2.2,1.2,1.8*31
$GPRMC,194617.999,A,3434.1653,S,06903.0798,W,19.27,212.69,090511,,,A*50
$GPGGA,194619.000,3434.1698,S,06903.0829,W,1,08,1.2,1405.5,M,27.8,M,,0000*6B
$GPGSA,M,3,06,03,22,19,18,16,14,30,,,,,2.2,1.2,1.8*31
$GPRMC,194619.000,A,3434.1698,S,06903.0829,W,19.44,211.89,090511,,,A*5D
$GPGGA,194620.000,3434.1741,S,06903.0860,W,1,09,1.1,1406.3,M,27.8,M,,0000*6E
$GPGSA,M,3,06,03,22,19,18,16,14,30,21,,,,1.9,1.1,1.5*34
$GPGSV,3,1,12,06,86,074,40,03,75,233,39,22,74,116,40,19,43,222,39*78
$GPGSV,3,2,12,18,37,132,39,16,36,329,39,14,24,044,34,30,20,347,39*73
$GPGSV,3,3,12,21,12,104,30,11,09,255,27,24,02,271,,32,01,322,38*7A
$GPRMC,194620.000,A,3434.1741,S,06903.0860,W,18.89,210.10,090511,,,A*5E
$GPGGA,194621.001,3434.1787,S,06903.0890,W,1,09,1.1,1405.4,M,27.8,M,,0000*6F
$GPGSA,M,3,06,03,22,19,18,16,14,30,21,,,,1.9,1.1,1.5*34
$GPRMC,194621.001,A,3434.1787,S,06903.0890,W,19.60,209.17,090511,,,A*52
$GPGGA,194621.996,3434.1830,S,06903.0922,W,1,09,1.1,1405.5,M,27.8,M,,0000*62
$GPGSA,M,3,06,03,22,19,18,16,14,30,21,,,,1.9,1.1,1.5*34
$GPRMC,194621.996,A,3434.1830,S,06903.0922,W,20.41,207.81,090511,,,A*56
$GPGGA,194623.002,3434.1881,S,06903.0949,W,1,09,1.1,1404.5,M,27.8,M,,0000*62
$GPGSA,M,3,06,03,22,19,18,16,14,30,21,,,,1.9,1.1,1.5*34
$GPRMC,194623.002,A,3434.1881,S,06903.0949,W,20.67,203.37,090511,,,A*5A
$GPGGA,194624.002,3434.1933,S,06903.0979,W,1,09,1.1,1404.3,M,27.8,M,,0000*68
$GPGSA,M,3,06,03,22,19,18,16,14,30,21,,,,1.9,1.1,1.5*34
$GPRMC,194624.002,A,3434.1933,S,06903.0979,W,20.47,202.91,090511,,,A*59
$GPGGA,194624.999,3434.1984,S,06903.1006,W,1,09,1.1,1404.9,M,27.8,M,,0000*65
$GPGSA,M,3,06,03,22,19,18,16,14,30,21,,,,1.9,1.1,1.5*34
$GPGSV,3,1,12,06,86,074,41,03,75,233,39,22,74,116,41,19,43,222,39*78
$GPGSV,3,2,12,18,37,132,40,16,36,329,40,14,24,044,34,30,20,347,38*72
$GPGSV,3,3,12,21,12,104,37,11,09,255,29,24,02,271,33,32,01,322,38*73
$GPRMC,194624.999,A,3434.1984,S,06903.1006,W,21.35,205.24,090511,,,A*53
$GPGGA,194625.999,3434.2038,S,06903.1032,W,1,09,1.1,1404.3,M,27.8,M,,0000*64
$GPGSA,M,3,06,03,22,19,18,16,14,30,21,,,,1.9,1.1,1.5*34
$GPRMC,194625.999,A,3434.2038,S,06903.1032,W,21.71,202.09,090511,,,A*50
$GPGGA,194627.000,3434.2095,S,06903.1062,W,1,09,1.1,1402.8,M,27.8,M,,0000*60
$GPGSA,M,3,06,03,22,19,18,16,14,30,21,,,,1.9,1.1,1.5*34
$GPRMC,194627.000,A,3434.2095,S,06903.1062,W,20.88,208.11,090511,,,A*5D
$GPGGA,194627.999,3434.2147,S,06903.1100,W,1,09,1.1,1402.6,M,27.8,M,,0000*6C
$GPGSA,M,3,06,03,22,19,18,16,14,30,21,,,,1.9,1.1,1.5*34
$GPRMC,194627.999,A,3434.2147,S,06903.1100,W,21.39,208.10,090511,,,A*55
$GPGGA,194629.001,3434.2201,S,06903.1134,W,1,09,1.1,1400.9,M,27.8,M,,0000*61
$GPGSA,M,3,06,03,22,19,18,16,14,30,21,,,,1.9,1.1,1.5*34
$GPRMC,194629.001,A,3434.2201,S,06903.1134,W,21.90,206.05,090511,,,A*5C
$GPGGA,194630.000,3434.2253,S,06903.1168,W,1,09,1.1,1400.6,M,27.8,M,,0000*69
$GPGSA,M,3,06,03,22,19,18,16,14,30,21,,,,1.9,1.1,1.5*34
$GPGSV,3,1,12,06,86,074,41,03,75,233,39,22,74,116,41,19,43,222,38*79
$GPGSV,3,2,12,18,37,132,40,16,36,329,40,14,24,044,36,30,20,347,37*7F
$GPGSV,3,3,12,21,12,104,35,11,09,255,34,24,02,271,36,32,01,322,40*77
$GPRMC,194630.000,A,3434.2253,S,06903.1168,W,21.80,208.55,090511,,,A*51
$GPGGA,194631.000,3434.2304,S,06903.1202,W,1,09,1.1,1399.6,M,27.8,M,,0000*63
$GPGSA,M,3,06,03,22,19,18,16,14,30,21,,,,1.9,1.1,1.5*34
$GPRMC,194631.000,A,3434.2304,S,06903.1202,W,21.71,205.61,090511,,,A*58
$GPGGA,194632.001,3434.2360,S,06903.1236,W,1,09,1.1,1399.2,M,27.8,M,,0000*60
$GPGSA,M,3,06,03,22,19,18,16,14,30,21,,,,1.9,1.1,1.5*34
$GPRMC,194632.001,A,3434.2360,S,06903.1236,W,21.96,205.45,090511,,,A*50
$GPGGA,194633.001,3434.2415,S,06903.1269,W,1,09,1.1,1398.2,M,27.8,M,,0000*6F
$GPGSA,M,3,06,03,22,19,18,16,14,30,21,,,,1.9,1.1,1.5*34
$GPRMC,194633.001,A,3434.2415,S,06903.1269,W,21.93,206.37,090511,,,A*5D
$GPGGA,194634.001,3434.2466,S,06903.1297,W,1,09,1.1,1397.9,M,27.8,M,,0000*69
$GPGSA,M,3,06,03,22,19,18,16,14,30,21,,,,1.9,1.1,1.5*34
$GPRMC,194634.001,A,3434.2466,S,06903.1297,W,22.23,206.06,090511,,,A*55
$GPGGA,194635.001,3434.2524,S,06903.1335,W,1,09,1.1,1397.7,M,27.8,M,,0000*68
$GPGSA,M,3,06,03,22,19,18,16,14,30,21,,,,1.9,1.1,1.5*34
$GPGSV,3,1,12,06,86,074,40,03,75,233,39,22,74,116,40,19,43,222,38*79
$GPGSV,3,2,12,18,37,132,39,16,36,329,40,14,24,044,35,30,20,347,37*72
$GPGSV,3,3,12,21,12,104,35,11,09,255,34,24,02,271,37,32,01,322,41*77
$GPRMC,194635.001,A,3434.2524,S,06903.1335,W,22.52,206.49,090511,,,A*57
$GPGGA,194636.001,3434.2578,S,06903.1367,W,1,09,1.1,1396.5,M,27.8,M,,0000*66
$GPGSA,M,3,06,03,22,19,18,16,14,30,21,,,,1.9,1.1,1.5*34
$GPRMC,194636.001,A,3434.2578,S,06903.1367,W,22.14,207.37,090511,,,A*50
$GPGGA,194637.000,3434.2632,S,06903.1402,W,1,09,1.1,1396.7,M,27.8,M,,0000*6D
$GPGSA,M,3,06,03,22,19,18,16,14,30,21,,,,1.9,1.1,1.5*34
$GPRMC,194637.000,A,3434.2632,S,06903.1402,W,22.43,207.76,090511,,,A*5E
$GPGGA,194638.000,3434.2688,S,06903.1437,W,1,09,1.1,1396.9,M,27.8,M,,0000*6B
$GPGSA,M,3,06,03,22,19,18,16,14,30,21,,,,1.9,1.1,1.5*34
$GPRMC,194638.000,A,3434.2688,S,06903.1437,W,22.71,206.86,090511,,,A*59
$GPGGA,194639.000,3434.2743,S,06903.1470,W,1,09,1.1,1396.1,M,27.8,M,,0000*67
$GPGSA,M,3,06,03,22,19,18,16,14,30,21,,,,1.9,1.1,1.5*34
$GPRMC,194639.000,A,3434.2743,S,06903.1470,W,23.14,206.91,090511,,,A*59
$GPGGA,194640.000,3434.2800,S,06903.1502,W,1,09,1.1,1397.1,M,27.8,M,,0000*64
$GPGSA,M,3,06,03,22,19,18,16,14,30,21,,,,1.9,1.1,1.5*34
$GPGSV,3,1,12,06,86,074,40,03,75,233,39,22,74,116,40,19,43,222,39*78
$GPGSV,3,2,12,18,37,132,39,16,36,329,40,14,24,044,36,30,20,347,38*7E
$GPGSV,3,3,12,21,12,104,36,11,09,255,28,24,02,271,30,32,01,322,41*7E
$GPRMC,194640.000,A,3434.2800,S,06903.1502,W,23.09,204.93,090511,,,A*57
$GPGGA,194641.001,3434.2856,S,06903.1533,W,1,09,1.1,1396.0,M,27.8,M,,0000*65
$GPGSA,M,3,06,03,22,19,18,16,14,30,21,,,,1.9,1.1,1.5*34
$GPRMC,194641.001,A,3434.2856,S,06903.1533,W,22.27,202.87,090511,,,A*58
$GPGGA,194641.999,3434.2915,S,06903.1563,W,1,09,1.1,1396.2,M,27.8,M,,0000*6C
$GPGSA,M,3,06,03,22,19,18,16,14,30,21,,,,1.9,1.1,1.5*34
$GPRMC,194641.999,A,3434.2915,S,06903.1563,W,23.03,202.98,090511,,,A*5A
$GPGGA,194642.997,3434.2974,S,06903.1590,W,1,09,1.1,1395.5,M,27.8,M,,0000*6E
$GPGSA,M,3,06,03,22,19,18,16,14,30,21,,,,1.9,1.1,1.5*34
$GPRMC,194642.997,A,3434.2974,S,06903.1590,W,22.89,201.79,090511,,,A*53
$GPGGA,194644.002,3434.3031,S,06903.1616,W,1,09,1.1,1395.5,M,27.8,M,,0000*69
$GPGSA,M,3,06,03,22,19,18,16,14,30,21,,,,1.9,1.1,1.5*34
$GPRMC,194644.002,A,3434.3031,S,06903.1616,W,22.98,203.51,090511,,,A*5C
$GPGGA,194644.999,3434.3090,S,06903.1647,W,1,09,1.1,1394.5,M,27.8,M,,0000*6C
$GPGSA,M,3,06,03,22,19,18,16,14,30,21,,,,1.9,1.1,1.5*34
$GPGSV,3,1,12,06,86,074,41,03,75,233,36,22,74,116,40,19,43,222,39*76
$GPGSV,3,2,12,18,37,132,39,16,36,329,40,14,24,044,36,30,20,347,37*71
$GPGSV,3,3,12,21,12,104,35,11,09,255,35,24,02,271,,32,01,322,42*71
$GPRMC,194644.999,A,3434.3090,S,06903.1647,W,23.02,201.35,090511,,,A*5A
$GPGGA,194646.000,3434.3150,S,06903.1678,W,1,09,1.1,1393.5,M,27.8,M,,0000*61
$GPGSA,M,3,06,03,22,19,18,16,14,30,21,,,,1.9,1.1,1.5*34
$GPRMC,194646.000,A,3434.3150,S,06903.1678,W,22.96,202.41,090511,,,A*5C
$GPGGA,194647.000,3434.3211,S,06903.1702,W,1,09,1.1,1393.1,M,27.8,M,,0000*6E
$GPGSA,M,3,06,03,22,19,18,16,14,30,21,,,,1.9,1.1,1.5*34
$GPRMC,194647.000,A,3434.3211,S,06903.1702,W,22.90,201.47,090511,,,A*54
$GPGGA,194647.999,3434.3271,S,06903.1729,W,1,08,1.3,1392.1,M,27.8,M,,0000*6A
$GPGSA,M,3,06,03,22,19,18,16,30,21,,,,,2.0,1.3,1.5*39
$GPRMC,194647.999,A,3434.3271,S,06903.1729,W,23.20,196.76,090511,,,A*57
$GPGGA,194648.999,3434.3332,S,06903.1746,W,1,09,1.1,1392.2,M,27.8,M,,0000*6A
$GPGSA,M,3,06,03,22,19,18,16,14,30,21,,,,1.9,1.1,1.5*34
$GPRMC,194648.999,A,3434.3332,S,06903.1746,W,22.83,195.25,090511,,,A*5A
$GPGGA,194649.999,3434.3390,S,06903.1761,W,1,09,1.1,1391.9,M,27.8,M,,0000*6E
$GPGSA,M,3,06,03,22,19,18,16,14,30,21,,,,1.9,1.1,1.5*34
$GPGSV,3,1,12,06,86,074,40,03,75,233,38,22,74,116,40,19,43,222,39*79
$GPGSV,3,2,12,18,37,132,37,16,36,329,39,14,24,044,36,30,20,347,37*71
$GPGSV,3,3,12,21,12,104,36,11,09,255,38,24,02,271,35,32,01,322,37*7B
$GPRMC,194649.999,A,3434.3390,S,06903.1761,W,21.98,192.23,090511,,,A*5E
$GPGGA,194650.999,3434.3449,S,06903.1769,W,1,09,1.1,1392.0,M,27.8,M,,0000*67
$GPGSA,M,3,06,03,22,19,18,16,14,30,21,,,,1.9,1.1,1.5*34
$GPRMC,194650.999,A,3434.3449,S,06903.1769,W,22.30,190.74,090511,,,A*5C
$GPGGA,194651.996,3434.3509,S,06903.1779,W,1,09,1.1,1391.5,M,27.8,M,,0000*6B
$GPGSA,M,3,06,03,22,19,18,16,14,30,21,,,,1.9,1.1,1.5*34
$GPRMC,194651.996,A,3434.3509,S,06903.1779,W,22.14,185.98,090511,,,A*56
$GPGGA,194653.004,3434.3570,S,06903.1777,W,1,09,1.1,1391.8,M,27.8,M,,0000*66
$GPGSA,M,3,06,03,22,19,18,16,14,30,21,,,,1.9,1.1,1.5*34
$GPRMC,194653.004,A,3434.3570,S,06903.1777,W,21.81,179.36,090511,,,A*5E
$GPGGA,194654.000,3434.3629,S,06903.1771,W,1,09,1.1,1391.1,M,27.8,M,,0000*65
$GPGSA,M,3,06,03,22,19,18,16,14,30,21,,,,1.9,1.1,1.5*34
$GPRMC,194654.000,A,3434.3629,S,06903.1771,W,20.05,175.20,090511,,,A*52
$GPGGA,194654.996,3434.3687,S,06903.1758,W,1,09,1.1,1390.3,M,27.8,M,,0000*6F
$GPGSA,M,3,06,03,22,19,18,16,14,30,21,,,,1.9,1.1,1.5*34
$GPGSV,3,1,12,06,86,074,40,03,75,233,39,22,74,116,40,19,43,222,39*78
$GPGSV,3,2,12,18,37,132,35,16,36,329,39,14,24,044,33,30,20,347,38*79
$GPGSV,3,3,12,21,12,104,35,11,09,255,40,24,02,271,39,32,01,322,34*78
$GPRMC,194654.996,A,3434.3687,S,06903.1758,W,20.41,172.29,090511,,,A*55
$GPGGA,194656.001,3434.3741,S,06903.1746,W,1,09,1.1,1389.5,M,27.8,M,,0000*60
$GPGSA,M,3,06,03,22,19,18,16,14,30,21,,,,1.9,1.1,1.5*34
$GPRMC,194656.001,A,3434.3741,S,06903.1746,W,19.47,169.95,090511,,,A*55
$GPGGA,194656.999,3434.3795,S,06903.1734,W,1,09,1.1,1389.5,M,27.8,M,,0000*64
$GPGSA,M,3,06,03,22,19,18,16,14,30,21,,,,1.9,1.1,1.5*34
$GPRMC,194656.999,A,3434.3795,S,06903.1734,W,18.82,170.98,090511,,,A*5C
$GPGGA,194658.000,3434.3846,S,06903.1720,W,1,09,1.1,1388.7,M,27.8,M,,0000*64
$GPGSA,M,3,06,03,22,19,18,16,14,30,21,,,,1.9,1.1,1.5*34
$GPRMC,194658.000,A,3434.3846,S,06903.1720,W,19.04,166.55,090511,,,A*56
$GPGGA,194659.002,3434.3898,S,06903.1705,W,1,09,1.1,1388.8,M,27.8,M,,0000*6C
$GPGSA,M,3,06,03,22,19,18,16,14,30,21,,,,1.9,1.1,1.5*34
$GPRMC,194659.002,A,3434.3898,S,06903.1705,W,18.23,163.81,090511,,,A*59
$GPGGA,194700.000,3434.3946,S,06903.1683,W,1,09,1.1,1387.7,M,27.8,M,,0000*6E
$GPGSA,M,3,06,03,22,19,18,16,14,30,21,,,,1.9,1.1,1.5*34
$GPGSV,3,1,12,06,86,074,40,03,75,233,39,22,74,116,40,19,43,222,39*78
$GPGSV,3,2,12,18,37,132,37,16,36,329,39,14,24,044,35,30,20,347,37*72
$GPGSV,3,3,12,21,12,104,34,11,09,255,39,24,02,271,40,32,01,322,31*7C
$GPRMC,194700.000,A,3434.3946,S,06903.1683,W,18.72,159.71,090511,,,A*59
$GPGGA,194701.000,3434.3992,S,06903.1662,W,1,08,1.2,1387.6,M,27.8,M,,0000*6A
$GPGSA,M,3,06,03,22,19,18,16,14,21,,,,,2.1,1.2,1.7*3D
$GPRMC,194701.000,A,3434.3992,S,06903.1662,W,18.25,156.99,090511,,,A*55
$GPGGA,194702.000,3434.4039,S,06903.1634,W,1,09,1.1,1386.7,M,27.8,M,,0000*67
$GPGSA,M,3,06,03,22,19,18,16,14,30,21,,,,1.9,1.1,1.5*34
$GPRMC,194702.000,A,3434.4039,S,06903.1634,W,18.84,154.38,090511,,,A*58
$GPGGA,194703.001,3434.4090,S,06903.1606,W,1,09,1.1,1385.6,M,27.8,M,,0000*67
$GPGSA,M,3,06,03,22,19,18,16,14,30,21,,,,1.9,1.1,1.5*34
$GPRMC,194703.001,A,3434.4090,S,06903.1606,W,19.56,152.50,090511,,,A*5C
$GPGGA,194704.001,3434.4137,S,06903.1570,W,1,09,1.1,1384.4,M,27.8,M,,0000*6D
$GPGSA,M,3,06,03,22,19,18,16,14,30,21,,,,1.9,1.1,1.5*34
$GPRMC,194704.001,A,3434.4137,S,06903.1570,W,19.56,148.43,090511,,,A*5C
$GPGGA,194705.000,3434.4186,S,06903.1538,W,1,09,1.1,1382.4,M,27.8,M,,0000*6D
$GPGSA,M,3,06,03,22,19,18,16,14,30,21,,,,1.9,1.1,1.5*34
$GPGSV,3,1,12,06,86,074,41,03,75,233,41,22,74,116,42,19,43,222,40*7A
$GPGSV,3,2,12,18,37,132,36,16,36,329,37,14,24,044,37,30,20,347,37*7F
$GPGSV,3,3,12,21,12,104,30,11,09,255,36,24,02,271,38,32,01,322,33*7A
$GPRMC,194705.000,A,3434.4186,S,06903.1538,W,19.45,151.73,090511,,,A*53
$GPGGA,194706.000,3434.4233,S,06903.1504,W,1,09,1.1,1381.9,M,27.8,M,,0000*62
$GPGSA,M,3,06,03,22,19,18,16,14,30,21,,,,1.9,1.1,1.5*34
$GPRMC,194706.000,A,3434.4233,S,06903.1504,W,19.53,148.03,090511,,,A*5A
$GPGGA,194707.000,3434.4281,S,06903.1473,W,1,09,1.1,1381.4,M,27.8,M,,0000*66
$GPGSA,M,3,06,03,22,19,18,16,14,30,21,,,,1.9,1.1,1.5*34
$GPRMC,194707.000,A,3434.4281,S,06903.1473,W,18.46,152.48,090511,,,A*52
$GPGGA,194708.000,3434.4328,S,06903.1442,W,1,09,1.1,1380.7,M,27.8,M,,0000*6B
$GPGSA,M,3,06,03,22,19,18,16,14,30,21,,,,1.9,1.1,1.5*34
$GPRMC,194708.000,A,3434.4328,S,06903.1442,W,19.68,151.35,090511,,,A*59
$GPGGA,194709.000,3434.4379,S,06903.1412,W,1,09,1.1,1380.4,M,27.8,M,,0000*68
$GPGSA,M,3,06,03,22,19,18,16,14,30,21,,,,1.9,1.1,1.5*34
$GPRMC,194709.000,A,3434.4379,S,06903.1412,W,19.40,151.89,090511,,,A*54
$GPGGA,194710.000,3434.4428,S,06903.1378,W,1,09,1.1,1378.7,M,27.8,M,,0000*6C
$GPGSA,M,3,06,03,22,19,18,16,14,30,21,,,,1.9,1.1,1.5*34
$GPGSV,3,1,12,06,86,074,41,03,75,233,41,22,74,116,41,19,43,222,40*79
$GPGSV,3,2,12,18,37,132,36,16,36,329,38,14,24,044,37,30,20,347,37*70
$GPGSV,3,3,12,21,12,104,31,11,09,255,37,24,02,271,39,32,01,322,29*70
$GPRMC,194710.000,A,3434.4428,S,06903.1378,W,20.93,151.12,090511,,,A*52
$GPGGA,194711.000,3434.4478,S,06903.1343,W,1,09,1.1,1377.0,M,27.8,M,,0000*68
$GPGSA,M,3,06,03,22,19,18,16,14,30,21,,,,1.9,1.1,1.5*34
$GPRMC,194711.000,A,3434.4478,S,06903.1343,W,19.90,151.48,090511,,,A*58
$GPGGA,194712.000,3434.4529,S,06903.1313,W,1,09,1.1,1376.0,M,27.8,M,,0000*6A
$GPGSA,M,3,06,03,22,19,18,16,14,30,21,,,,1.9,1.1,1.5*34
$GPRMC,194712.000,A,3434.4529,S,06903.1313,W,20.39,155.30,090511,,,A*59
$GPGGA,194713.001,3434.4580,S,06903.1281,W,1,09,1.1,1374.8,M,27.8,M,,0000*69
$GPGSA,M,3,06,03,22,19,18,16,14,30,21,,,,1.9,1.1,1.5*34
$GPRMC,194713.001,A,3434.4580,S,06903.1281,W,20.82,153.42,090511,,,A*53
$GPGGA,194714.001,3434.4633,S,06903.1245,W,1,09,1.1,1375.0,M,27.8,M,,0000*64
$GPGSA,M,3,06,03,22,19,18,16,14,30,21,,,,1.9,1.1,1.5*34
$GPRMC,194714.001,A,3434.4633,S,06903.1245,W,21.58,153.47,090511,,,A*54
$GPGGA,194715.000,3434.4685,S,06903.1215,W,1,09,1.1,1373.6,M,27.8,M,,0000*6C
$GPGSA,M,3,06,03,22,19,18,16,14,30,21,,,,1.9,1.1,1.5*34
$GPGSV,3,1,12,06,86,074,40,03,75,233,41,22,74,116,41,19,43,222,39*76
$GPGSV,3,2,12,18,37,132,35,16,36,329,37,14,24,044,34,30,20,347,34*7C
$GPGSV,3,3,12,21,12,104,33,11,09,255,38,24,02,271,38,32,01,322,29*7C
$GPRMC,194715.000,A,3434.4685,S,06903.1215,W,20.41,155.40,090511,,,A*54
$GPGGA,194716.000,3434.4738,S,06903.1187,W,1,09,1.1,1372.2,M,27.8,M,,0000*65
$GPGSA,M,3,06,03,22,19,18,16,14,30,21,,,,1.9,1.1,1.5*34
$GPRMC,194716.000,A,3434.4738,S,06903.1187,W,20.72,155.91,090511,,,A*54
$GPGGA,194716.999,3434.4792,S,06903.1159,W,1,09,1.1,1370.6,M,27.8,M,,0000*69
$GPGSA,M,3,06,03,22,19,18,16,14,30,21,,,,1.9,1.1,1.5*34
$GPRMC,194716.999,A,3434.4792,S,06903.1159,W,21.48,154.72,090511,,,A*5A
$GPGGA,194717.999,3434.4847,S,06903.1123,W,1,09,1.1,1370.9,M,27.8,M,,0000*6D
$GPGSA,M,3,06,03,22,19,18,16,14,30,21,,,,1.9,1.1,1.5*34
$GPRMC,194717.999,A,3434.4847,S,06903.1123,W,22.40,152.33,090511,,,A*59
$GPGGA,194719.000,3434.4901,S,06903.1087,W,1,09,1.1,1369.6,M,27.8,M,,0000*61
$GPGSA,M,3,06,03,22,19,18,16,14,30,21,,,,1.9,1.1,1.5*34
$GPRMC,194719.000,A,3434.4901,S,06903.1087,W,22.10,153.65,090511,,,A*55
$GPGGA,194720.000,3434.4954,S,06903.1049,W,1,09,1.1,1369.5,M,27.8,M,,0000*6A
$GPGSA,M,3,06,03,22,19,18,16,14,30,21,,,,1.9,1.1,1.5*34
$GPGSV,3,1,12,06,86,074,42,03,75,233,41,22,74,116,42,19,43,222,39*77
$GPGSV,3,2,12,18,37,132,30,16,36,329,37,14,24,044,36,30,20,347,38*77
$GPGSV,3,3,12,21,12,104,30,11,09,255,38,24,02,271,39,32,01,322,33*75
$GPRMC,194720.000,A,3434.4954,S,06903.1049,W,22.73,150.77,090511,,,A*58
$GPGGA,194721.000,3434.5009,S,06903.1011,W,1,09,1.1,1368.9,M,27.8,M,,0000*6B
$GPGSA,M,3,06,03,22,19,18,16,14,30,21,,,,1.9,1.1,1.5*34
$GPRMC,194721.000,A,3434.5009,S,06903.1011,W,22.61,152.02,090511,,,A*57
$GPGGA,194722.000,3434.5062,S,06903.0971,W,1,09,1.1,1369.0,M,27.8,M,,0000*63
$GPGSA,M,3,06,03,22,19,18,16,14,30,21,,,,1.9,1.1,1.5*34
$GPRMC,194722.000,A,3434.5062,S,06903.0971,W,22.82,151.89,090511,,,A*5A
$GPGGA,194723.001,3434.5117,S,06903.0933,W,1,09,1.1,1368.0,M,27.8,M,,0000*67
$GPGSA,M,3,06,03,22,19,18,16,14,30,21,,,,1.9,1.1,1.5*34
$GPRMC,194723.001,A,3434.5117,S,06903.0933,W,23.37,150.22,090511,,,A*50
$GPGGA,194723.998,3434.5177,S,06903.0890,W,1,08,1.2,1367.4,M,27.8,M,,0000*69
$GPGSA,M,3,06,03,22,19,18,16,14,30,,,,,2.2,1.2,1.8*31
$GPRMC,194723.998,A,3434.5177,S,06903.0890,W,23.34,150.87,090511,,,A*5B
$GPGGA,194725.000,3434.5234,S,06903.0849,W,1,08,1.2,1365.8,M,27.8,M,,0000*69
$GPGSA,M,3,06,03,22,19,18,16,14,30,,,,,2.2,1.2,1.8*31
$GPGSV,3,1,12,06,86,074,40,03,75,233,40,22,74,116,41,19,43,222,39*77
$GPGSV,3,2,12,18,37,132,30,16,36,329,37,14,24,044,34,30,20,347,37*7A
$GPGSV,3,3,12,21,12,104,,11,09,255,35,24,02,271,37,32,01,322,39*7F
$GPRMC,194725.000,A,3434.5234,S,06903.0849,W,23.06,151.63,090511,,,A*5F
$GPGGA,194726.000,3434.5290,S,06903.0808,W,1,08,1.2,1365.8,M,27.8,M,,0000*61
$GPGSA,M,3,06,03,22,19,18,16,14,30,,,,,2.2,1.2,1.8*31
$GPRMC,194726.000,A,3434.5290,S,06903.0808,W,22.45,150.51,090511,,,A*51
$GPGGA,194727.001,3434.5342,S,06903.0772,W,1,08,1.2,1365.5,M,27.8,M,,0000*60
$GPGSA,M,3,06,03,22,19,18,16,14,30,,,,,2.2,1.2,1.8*31
$GPRMC,194727.001,A,3434.5342,S,06903.0772,W,22.18,152.65,090511,,,A*50
$GPGGA,194728.001,3434.5397,S,06903.0731,W,1,07,1.5,1365.9,M,27.8,M,,0000*64
$GPGSA,M,3,06,03,22,19,18,16,30,,,,,,2.4,1.5,1.9*34
$GPRMC,194728.001,A,3434.5397,S,06903.0731,W,23.26,149.49,090511,,,A*58
$GPGGA,194728.998,3434.5450,S,06903.0693,W,1,08,1.2,1365.6,M,27.8,M,,0000*6F
$GPGSA,M,3,06,03,22,19,18,16,14,30,,,,,2.2,1.2,1.8*31
$GPRMC,194728.998,A,3434.5450,S,06903.0693,W,21.99,151.73,090511,,,A*52
$GPGGA,194729.997,3434.5503,S,06903.0655,W,1,09,1.1,1366.1,M,27.8,M,,0000*6A
$GPGSA,M,3,06,03,22,19,18,16,14,30,21,,,,1.9,1.1,1.5*34
$GPGSV,3,1,12,06,86,074,40,03,75,233,40,22,74,116,40,19,43,222,39*76
$GPGSV,3,2,12,18,37,132,30,16,36,329,37,14,24,044,32,30,20,347,37*7C
$GPGSV,3,3,12,21,12,104,29,11,09,255,39,24,02,271,39,32,01,322,37*78
$GPRMC,194729.997,A,3434.5503,S,06903.0655,W,22.12,154.20,090511,,,A*52
$GPGGA,194731.001,3434.5556,S,06903.0621,W,1,09,1.1,1366.3,M,27.8,M,,0000*64
$GPGSA,M,3,06,03,22,19,18,16,14,30,21,,,,1.9,1.1,1.5*34
$GPRMC,194731.001,A,3434.5556,S,06903.0621,W,21.33,153.62,090511,,,A*5F
$GPGGA,194732.001,3434.5608,S,06903.0586,W,1,08,1.2,1366.3,M,27.8,M,,0000*63
$GPGSA,M,3,06,03,22,19,16,14,30,21,,,,,1.9,1.2,1.5*3E
$GPRMC,194732.001,A,3434.5608,S,06903.0586,W,21.78,152.68,090511,,,A*5E
$GPGGA,194732.999,3434.5663,S,06903.0551,W,1,09,1.1,1367.0,M,27.8,M,,0000*6C
$GPGSA,M,3,06,03,22,19,18,16,14,30,21,,,,1.9,1.1,1.5*34
$GPRMC,194732.999,A,3434.5663,S,06903.0551,W,21.37,152.77,090511,,,A*54
$GPGGA,194734.000,3434.5715,S,06903.0516,W,1,08,1.2,1365.8,M,27.8,M,,0000*68
$GPGSA,M,3,06,03,22,19,18,16,14,21,,,,,2.1,1.2,1.7*3D
$GPRMC,194734.000,A,3434.5715,S,06903.0516,W,20.81,152.83,090511,,,A*5F
$GPGGA,194735.002,3434.5766,S,06903.0483,W,1,09,1.1,1365.4,M,27.8,M,,0000*6C
$GPGSA,M,3,06,03,22,19,18,16,14,30,21,,,,1.9,1.1,1.5*34
$GPGSV,3,1,12,06,86,074,40,03,75,233,41,22,74,116,41,19,43,222,40*78
$GPGSV,3,2,12,18,37,132,29,16,36,329,37,14,24,044,33,30,20,347,36*74
$GPGSV,3,3,12,21,12,104,28,11,09,255,34,24,02,271,39,32,01,322,40*74
$GPRMC,194735.002,A,3434.5766,S,06903.0483,W,21.24,152.70,090511,,,A*57
$GPGGA,194735.998,3434.5818,S,06903.0448,W,1,08,1.2,1364.8,M,27.8,M,,0000*68
$GPGSA,M,3,06,03,22,19,18,16,14,30,,,,,2.2,1.2,1.8*31
$GPRMC,194735.998,A,3434.5818,S,06903.0448,W,21.29,153.28,090511,,,A*5D
$GPGGA,194737.002,3434.5874,S,06903.0417,W,1,09,1.1,1364.4,M,27.8,M,,0000*6E
$GPGSA,M,3,06,03,22,19,18,16,14,30,21,,,,1.9,1.1,1.5*34
$GPRMC,194737.002,A,3434.5874,S,06903.0417,W,21.04,153.84,090511,,,A*5C
$GPGGA,194738.001,3434.5924,S,06903.0382,W,1,09,1.1,1363.7,M,27.8,M,,0000*69
$GPGSA,M,3,06,03,22,19,18,16,14,30,21,,,,1.9,1.1,1.5*34
$GPRMC,194738.001,A,3434.5924,S,06903.0382,W,20.71,152.01,090511,,,A*50
$GPGGA,194739.000,3434.5976,S,06903.0346,W,1,09,1.1,1363.8,M,27.8,M,,0000*69
$GPGSA,M,3,06,03,22,19,18,16,14,30,21,,,,1.9,1.1,1.5*34
$GPRMC,194739.000,A,3434.5976,S,06903.0346,W,21.10,149.69,090511,,,A*5D
$GPGGA,194739.999,3434.6026,S,06903.0308,W,1,09,1.1,1363.2,M,27.8,M,,0000*6F
$GPGSA,M,3,06,03,22,19,18,16,14,30,21,,,,1.9,1.1,1.5*34
$GPGSV,3,1,12,06,86,074,40,03,75,233,39,22,74,116,40,19,43,222,39*78
$GPGSV,3,2,12,18,37,132,31,16,36,329,37,14,24,044,35,30,20,347,38*75
$GPGSV,3,3,12,21,12,104,35,11,09,255,37,24,02,271,40,32,01,322,36*74
$GPRMC,194739.999,A,3434.6026,S,06903.0308,W,21.43,149.48,090511,,,A*54
$GPGGA,194740.999,3434.6080,S,06903.0272,W,1,09,1.1,1363.8,M,27.8,M,,0000*6B
$GPGSA,M,3,06,03,22,19,18,16,14,30,21,,,,1.9,1.1,1.5*34
$GPRMC,194740.999,A,3434.6080,S,06903.0272,W,21.21,151.30,090511,,,A*58
$GPGGA,194742.000,3434.6131,S,06903.0234,W,1,09,1.1,1362.8,M,27.8,M,,0000*68
$GPGSA,M,3,06,03,22,19,18,16,14,30,21,,,,1.9,1.1,1.5*34
$GPRMC,194742.000,A,3434.6131,S,06903.0234,W,20.95,146.24,090511,,,A*57
$GPGGA,194743.000,3434.6181,S,06903.0195,W,1,09,1.1,1362.0,M,27.8,M,,0000*62
$GPGSA,M,3,06,03,22,19,18,16,14,30,21,,,,1.9,1.1,1.5*34
$GPRMC,194743.000,A,3434.6181,S,06903.0195,W,21.68,139.67,090511,,,A*59
$GPGGA,194744.000,3434.6225,S,06903.0144,W,1,09,1.1,1361.9,M,27.8,M,,0000*6E
$GPGSA,M,3,06,03,22,19,18,16,14,30,21,,,,1.9,1.1,1.5*34
$GPRMC,194744.000,A,3434.6225,S,06903.0144,W,22.06,134.35,090511,,,A*5E
$GPGGA,194745.001,3434.6270,S,06903.0091,W,1,09,1.1,1361.8,M,27.8,M,,0000*66
$GPGSA,M,3,06,03,22,19,18,16,14,30,21,,,,1.9,1.1,1.5*34
$GPGSV,3,1,12,06,85,058,40,03,76,236,40,22,73,119,39,19,44,222,40*72
$GPGSV,3,2,12,18,35,133,34,16,34,330,35,14,25,045,37,30,18,347,37*7D
$GPGSV,3,3,12,21,11,103,32,11,10,254,40,32,02,321,,24,02,270,36*7B
$GPRMC,194745.001,A,3434.6270,S,06903.0091,W,21.98,131.62,090511,,,A*54
$GPGGA,194745.999,3434.6306,S,06903.0035,W,1,09,1.1,1361.2,M,27.8,M,,0000*6A
$GPGSA,M,3,06,03,22,19,18,16,14,30,21,,,,1.9,1.1,1.5*34
$GPRMC,194745.999,A,3434.6306,S,06903.0035,W,21.92,128.06,090511,,,A*52
$GPGGA,194747.000,3434.6341,S,06902.9978,W,1,09,1.1,1359.9,M,27.8,M,,0000*6A
$GPGSA,M,3,06,03,22,19,18,16,14,30,21,,,,1.9,1.1,1.5*34
$GPRMC,194747.000,A,3434.6341,S,06902.9978,W,21.72,125.45,090511,,,A*56
$GPGGA,194747.999,3434.6374,S,06902.9915,W,1,09,1.1,1359.8,M,27.8,M,,0000*6F
$GPGSA,M,3,06,03,22,19,18,16,14,30,21,,,,1.9,1.1,1.5*34
$GPRMC,194747.999,A,3434.6374,S,06902.9915,W,21.78,124.44,090511,,,A*58
$GPGGA,194749.000,3434.6406,S,06902.9853,W,1,09,1.1,1359.2,M,27.8,M,,0000*63
$GPGSA,M,3,06,03,22,19,18,16,14,30,21,,,,1.9,1.1,1.5*34
$GPRMC,194749.000,A,3434.6406,S,06902.9853,W,20.95,124.60,090511,,,A*5A
$GPGGA,194749.999,3434.6439,S,06902.9792,W,1,09,1.1,1359.3,M,27.8,M,,0000*65
$GPGSA,M,3,06,03,22,19,18,16,14,30,21,,,,1.9,1.1,1.5*34
$GPGSV,3,1,12,06,85,058,40,03,76,236,39,22,73,119,39,19,44,222,40*7C
$GPGSV,3,2,12,18,35,133,37,16,34,330,34,14,25,045,35,30,18,347,37*7D
$GPGSV,3,3,12,21,11,103,29,11,10,254,39,32,02,321,,24,02,270,37*7E
$GPRMC,194749.999,A,3434.6439,S,06902.9792,W,21.45,126.81,090511,,,A*5C
$GPGGA,194750.999,3434.6471,S,06902.9733,W,1,09,1.1,1358.9,M,27.8,M,,0000*61
$GPGSA,M,3,06,03,22,19,18,16,14,30,21,,,,1.9,1.1,1.5*34
$GPRMC,194750.999,A,3434.6471,S,06902.9733,W,19.91,127.55,090511,,,A*59
$GPGGA,194751.999,3434.6507,S,06902.9674,W,1,09,1.1,1359.1,M,27.8,M,,0000*6B
$GPGSA,M,3,06,03,22,19,18,16,14,30,21,,,,1.9,1.1,1.5*34
$GPRMC,194751.999,A,3434.6507,S,06902.9674,W,21.06,129.11,090511,,,A*51
$GPGGA,194752.998,3434.6542,S,06902.9618,W,1,09,1.1,1357.5,M,27.8,M,,0000*68
$GPGSA,M,3,06,03,22,19,18,16,14,30,21,,,,1.9,1.1,1.5*34
$GPRMC,194752.998,A,3434.6542,S,06902.9618,W,21.48,129.28,090511,,,A*58
$GPGGA,194754.002,3434.6579,S,06902.9571,W,1,09,1.1,1355.4,M,27.8,M,,0000*63
$GPGSA,M,3,06,03,22,19,18,16,14,30,21,,,,1.9,1.1,1.5*34
$GPRMC,194754.002,A,3434.6579,S,06902.9571,W,18.59,128.59,090511,,,A*5D
$GPGGA,194754.999,3434.6602,S,06902.9521,W,1,09,1.1,1356.3,M,27.8,M,,0000*66
$GPGSA,M,3,06,03,22,19,18,16,14,30,21,,,,1.9,1.1,1.5*34
$GPGSV,3,1,12,06,85,058,40,03,76,236,39,22,73,119,40,19,44,222,40*72
$GPGSV,3,2,12,18,35,133,37,16,34,330,36,14,25,045,35,30,18,347,38*70
$GPGSV,3,3,12,21,11,103,31,11,10,254,38,32,02,321,,24,02,270,37*76
$GPRMC,194754.999,A,3434.6602,S,06902.9521,W,18.19,124.60,090511,,,A*5E
$GPGGA,194755.998,3434.6631,S,06902.9466,W,1,09,1.1,1355.9,M,27.8,M,,0000*6D
$GPGSA,M,3,06,03,22,19,18,16,14,30,21,,,,1.9,1.1,1.5*34
$GPRMC,194755.998,A,3434.6631,S,06902.9466,W,18.44,126.16,090511,,,A*57
$GPGGA,194757.002,3434.6657,S,06902.9414,W,1,08,1.2,1356.3,M,27.8,M,,0000*6B
$GPGSA,M,3,06,03,22,19,18,16,14,30,,,,,2.2,1.2,1.8*31
$GPRMC,194757.002,A,3434.6657,S,06902.9414,W,19.54,121.27,090511,,,A*5F
$GPGGA,194757.998,3434.6684,S,06902.9356,W,1,09,1.1,1355.5,M,27.8,M,,0000*69
$GPGSA,M,3,06,03,22,19,18,16,14,30,21,,,,1.9,1.1,1.5*34
$GPRMC,194757.998,A,3434.6684,S,06902.9356,W,19.78,120.82,090511,,,A*5A
$GPGGA,194759.000,3434.6708,S,06902.9299,W,1,09,1.1,1354.5,M,27.8,M,,0000*69
$GPGSA,M,3,06,03,22,19,18,16,14,30,21,,,,1.9,1.1,1.5*34
$GPRMC,194759.000,A,3434.6708,S,06902.9299,W,19.69,117.82,090511,,,A*5F
$GPGGA,194800.001,3434.6735,S,06902.9237,W,1,09,1.1,1355.7,M,27.8,M,,0000*62
$GPGSA,M,3,06,03,22,19,18,16,14,30,21,,,,1.9,1.1,1.5*34
$GPGSV,3,1,12,06,85,058,40,03,76,236,40,22,73,119,40,19,44,222,39*72
$GPGSV,3,2,12,18,35,133,38,16,34,330,39,14,25,045,35,30,18,347,38*70
$GPGSV,3,3,12,21,11,103,33,11,10,254,37,32,02,321,,24,02,270,36*7A
$GPRMC,194800.001,A,3434.6735,S,06902.9237,W,20.29,115.45,090511,,,A*50
$GPGGA,194801.000,3434.6758,S,06902.9177,W,1,09,1.1,1354.0,M,27.8,M,,0000*68
$GPGSA,M,3,06,03,22,19,18,16,14,30,21,,,,1.9,1.1,1.5*34
$GPRMC,194801.000,A,3434.6758,S,06902.9177,W,21.01,115.05,090511,,,A*53
$GPGGA,194802.000,3434.6783,S,06902.9110,W,1,09,1.1,1353.3,M,27.8,M,,0000*68
$GPGSA,M,3,06,03,22,19,18,16,14,30,21,,,,1.9,1.1,1.5*34
$GPRMC,194802.000,A,3434.6783,S,06902.9110,W,20.97,114.23,090511,,,A*5C
$GPGGA,194803.002,3434.6807,S,06902.9042,W,1,08,1.2,1352.4,M,27.8,M,,0000*6A
$GPGSA,M,3,06,03,22,19,18,16,14,21,,,,,2.1,1.2,1.7*3D
$GPRMC,194803.002,A,3434.6807,S,06902.9042,W,21.57,114.27,090511,,,A*53
$GPGGA,194803.997,3434.6832,S,06902.8972,W,1,09,1.1,1353.7,M,27.8,M,,0000*62
$GPGSA,M,3,06,03,22,19,18,16,14,30,21,,,,1.9,1.1,1.5*34
$GPRMC,194803.997,A,3434.6832,S,06902.8972,W,23.29,115.00,090511,,,A*54
$GPGGA,194805.001,3434.6860,S,06902.8904,W,1,09,1.1,1352.0,M,27.8,M,,0000*62
$GPGSA,M,3,06,03,22,19,18,16,14,30,21,,,,1.9,1.1,1.5*34
$GPGSV,3,1,12,06,85,058,40,03,76,236,40,22,73,119,40,19,44,222,39*72
$GPGSV,3,2,12,18,35,133,38,16,34,330,37,14,25,045,34,30,18,347,38*7F
$GPGSV,3,3,12,21,11,103,31,11,10,254,39,32,02,321,,24,02,270,33*73
$GPRMC,194805.001,A,3434.6860,S,06902.8904,W,22.50,117.98,090511,,,A*5E
$GPGGA,194805.999,3434.6890,S,06902.8834,W,1,08,1.2,1351.5,M,27.8,M,,0000*63
$GPGSA,M,3,06,03,22,19,18,16,14,30,,,,,2.2,1.2,1.8*31
$GPRMC,194805.999,A,3434.6890,S,06902.8834,W,23.53,119.29,090511,,,A*5D
$GPGGA,194806.998,3434.6920,S,06902.8765,W,1,08,1.2,1352.0,M,27.8,M,,0000*66
$GPGSA,M,3,06,03,22,19,18,16,14,30,,,,,2.2,1.2,1.8*31
$GPRMC,194806.998,A,3434.6920,S,06902.8765,W,23.82,122.23,090511,,,A*50
$GPGGA,194808.003,3434.6956,S,06902.8699,W,1,08,1.2,1350.3,M,27.8,M,,0000*61
$GPGSA,M,3,06,03,22,19,18,16,14,30,,,,,2.2,1.2,1.8*31
$GPRMC,194808.003,A,3434.6956,S,06902.8699,W,23.89,123.90,090511,,,A*54
$GPGGA,194808.998,3434.6995,S,06902.8638,W,1,09,1.1,1349.3,M,27.8,M,,0000*64
$GPGSA,M,3,06,03,22,19,18,16,14,30,21,,,,1.9,1.1,1.5*34
$GPRMC,194808.998,A,3434.6995,S,06902.8638,W,23.65,126.57,090511,,,A*57
$GPGGA,194810.000,3434.7033,S,06902.8572,W,1,08,1.2,1347.8,M,27.8,M,,0000*6B
$GPGSA,M,3,06,03,22,19,18,16,14,30,,,,,2.2,1.2,1.8*31
$GPGSV,3,1,12,06,85,058,40,03,76,236,40,22,73,119,40,19,44,222,39*72
$GPGSV,3,2,12,18,35,133,36,16,34,330,36,14,25,045,35,30,18,347,37*7E
$GPGSV,3,3,12,21,11,103,,11,10,254,38,32,02,321,,24,02,270,35*76
$GPRMC,194810.000,A,3434.7033,S,06902.8572,W,23.50,126.80,090511,,,A*53
$GPGGA,194811.002,3434.7069,S,06902.8509,W,1,09,1.1,1348.4,M,27.8,M,,0000*6A
$GPGSA,M,3,06,03,22,19,18,16,14,30,21,,,,1.9,1.1,1.5*34
$GPRMC,194811.002,A,3434.7069,S,06902.8509,W,22.69,126.37,090511,,,A*54
$GPGGA,194811.999,3434.7108,S,06902.8448,W,1,09,1.1,1346.9,M,27.8,M,,0000*60
$GPGSA,M,3,06,03,22,19,18,16,14,30,21,,,,1.9,1.1,1.5*34
$GPRMC,194811.999,A,3434.7108,S,06902.8448,W,22.40,126.17,090511,,,A*54
$GPGGA,194813.001,3434.7143,S,06902.8381,W,1,09,1.1,1347.0,M,27.8,M,,0000*6F
$GPGSA,M,3,06,03,22,19,18,16,14,30,21,,,,1.9,1.1,1.5*34
$GPRMC,194813.001,A,3434.7143,S,06902.8381,W,23.17,125.18,090511,,,A*5C
$GPGGA,194813.997,3434.7178,S,06902.8322,W,1,09,1.1,1346.3,M,27.8,M,,0000*6A
$GPGSA,M,3,06,03,22,19,18,16,14,30,21,,,,1.9,1.1,1.5*34
$GPRMC,194813.997,A,3434.7178,S,06902.8322,W,21.62,123.98,090511,,,A*55
$GPGGA,194815.000,3434.7217,S,06902.8265,W,1,09,1.1,1345.3,M,27.8,M,,0000*60
$GPGSA,M,3,06,03,22,19,18,16,14,30,21,,,,1.9,1.1,1.5*34
$GPGSV,3,1,12,06,85,058,40,03,76,236,40,22,73,119,40,19,44,222,40*7C
$GPGSV,3,2,12,18,35,133,38,16,34,330,34,14,25,045,35,30,18,347,38*7D
$GPGSV,3,3,12,21,11,103,31,11,10,254,40,32,02,321,,24,02,270,36*78
$GPRMC,194815.000,A,3434.7217,S,06902.8265,W,21.69,127.31,090511,,,A*50
$GPGGA,194816.000,3434.7255,S,06902.8203,W,1,09,1.1,1343.6,M,27.8,M,,0000*66
$GPGSA,M,3,06,03,22,19,18,16,14,30,21,,,,1.9,1.1,1.5*34
$GPRMC,194816.000,A,3434.7255,S,06902.8203,W,21.59,126.94,090511,,,A*58
$GPGGA,194817.002,3434.7290,S,06902.8144,W,1,08,1.2,1343.4,M,27.8,M,,0000*6C
$GPGSA,M,3,06,03,22,19,18,16,14,30,,,,,2.2,1.2,1.8*31
$GPRMC,194817.002,A,3434.7290,S,06902.8144,W,20.77,125.69,090511,,,A*5E
$GPGGA,194818.001,3434.7318,S,06902.8085,W,1,08,1.2,1342.0,M,27.8,M,,0000*68
$GPGSA,M,3,06,03,22,19,18,16,14,30,,,,,2.2,1.2,1.8*31
$GPRMC,194818.001,A,3434.7318,S,06902.8085,W,19.92,121.53,090511,,,A*53
$GPGGA,194818.996,3434.7347,S,06902.8028,W,1,09,1.1,1343.0,M,27.8,M,,0000*61
$GPGSA,M,3,06,03,22,19,18,16,14,30,21,,,,1.9,1.1,1.5*34
$GPRMC,194818.996,A,3434.7347,S,06902.8028,W,19.94,124.55,090511,,,A*5C
$GPGGA,194820.002,3434.7381,S,06902.7972,W,1,09,1.1,1341.4,M,27.8,M,,0000*6B
$GPGSA,M,3,06,03,22,19,18,16,14,30,21,,,,1.9,1.1,1.5*34
$GPGSV,3,1,12,06,85,058,40,03,76,236,41,22,73,119,40,19,44,222,40*7D
$GPGSV,3,2,12,18,35,133,37,16,34,330,35,14,25,045,35,30,18,347,38*73
$GPGSV,3,3,12,21,11,103,30,11,10,254,38,32,02,321,,24,02,270,33*73
$GPRMC,194820.002,A,3434.7381,S,06902.7972,W,21.27,127.55,090511,,,A*50
$GPGGA,194820.998,3434.7410,S,06902.7914,W,1,09,1.1,1342.4,M,27.8,M,,0000*6D
$GPGSA,M,3,06,03,22,19,18,16,14,30,21,,,,1.9,1.1,1.5*34
$GPRMC,194820.998,A,3434.7410,S,06902.7914,W,21.07,124.98,090511,,,A*55
$GPGGA,194822.004,3434.7443,S,06902.7850,W,1,08,1.2,1341.3,M,27.8,M,,0000*62
$GPGSA,M,3,06,03,22,19,18,16,14,30,,,,,2.2,1.2,1.8*31
$GPRMC,194822.004,A,3434.7443,S,06902.7850,W,21.87,121.67,090511,,,A*51
$GPGGA,194822.996,3434.7473,S,06902.7784,W,1,09,1.1,1342.1,M,27.8,M,,0000*66
$GPGSA,M,3,06,03,22,19,18,16,14,30,21,,,,1.9,1.1,1.5*34
$GPRMC,194822.996,A,3434.7473,S,06902.7784,W,20.85,121.23,090511,,,A*55
$GPGGA,194824.001,3434.7498,S,06902.7722,W,1,09,1.1,1341.2,M,27.8,M,,0000*6E
$GPGSA,M,3,06,03,22,19,18,16,14,30,21,,,,1.9,1.1,1.5*34
$GPRMC,194824.001,A,3434.7498,S,06902.7722,W,20.28,112.22,090511,,,A*5B
$GPGGA,194825.000,3434.7515,S,06902.7658,W,1,09,1.1,1341.6,M,27.8,M,,0000*62
$GPGSA,M,3,06,03,22,19,18,16,14,30,21,,,,1.9,1.1,1.5*34
$GPGSV,3,1,12,06,85,058,40,03,76,236,39,22,73,119,40,19,44,222,39*7C
$GPGSV,3,2,12,18,35,133,39,16,34,330,39,14,25,045,39,30,18,347,33*76
$GPGSV,3,3,12,21,11,103,35,11,10,254,33,32,02,321,,24,02,270,31*7F
$GPRMC,194825.000,A,3434.7515,S,06902.7658,W,20.51,108.88,090511,,,A*56
$GPGGA,194826.000,3434.7532,S,06902.7591,W,1,09,1.1,1340.8,M,27.8,M,,0000*6D
$GPGSA,M,3,06,03,22,19,18,16,14,30,21,,,,1.9,1.1,1.5*34
$GPRMC,194826.000,A,3434.7532,S,06902.7591,W,21.55,104.22,090511,,,A*5F
$GPGGA,194827.001,3434.7538,S,06902.7523,W,1,08,1.2,1342.3,M,27.8,M,,0000*65
$GPGSA,M,3,06,03,22,19,18,16,14,21,,,,,2.1,1.2,1.7*3D
$GPRMC,194827.001,A,3434.7538,S,06902.7523,W,19.85,99.56,090511,,,A*6C
$GPGGA,194828.001,3434.7544,S,06902.7458,W,1,07,1.4,1341.3,M,27.8,M,,0000*66
$GPGSA,M,3,06,03,22,19,18,16,21,,,,,,2.2,1.4,1.7*3D
$GPRMC,194828.001,A,3434.7544,S,06902.7458,W,20.38,96.33,090511,,,A*65
$GPGGA,194829.001,3434.7541,S,06902.7386,W,1,08,1.2,1343.0,M,27.8,M,,0000*6E
$GPGSA,M,3,06,03,22,19,18,16,14,21,,,,,2.1,1.2,1.7*3D
$GPRMC,194829.001,A,3434.7541,S,06902.7386,W,19.87,88.01,090511,,,A*65
$GPGGA,194829.999,3434.7536,S,06902.7321,W,1,08,1.2,1342.4,M,27.8,M,,0000*6E
$GPGSA,M,3,06,03,22,19,18,16,14,21,,,,,2.1,1.2,1.7*3D
$GPGSV,3,1,12,06,85,058,40,03,76,236,40,22,73,119,39,19,44,222,40*72
$GPGSV,3,2,12,18,35,133,40,16,34,330,40,14,25,045,30,30,18,347,*7F
$GPGSV,3,3,12,21,11,103,37,11,10,254,35,32,02,321,,24,02,270,*79
$GPRMC,194829.999,A,3434.7536,S,06902.7321,W,18.21,87.60,090511,,,A*65
$GPGGA,194830.999,3434.7530,S,06902.7263,W,1,08,1.2,1343.4,M,27.8,M,,0000*66
$GPGSA,M,3,06,03,22,19,18,16,14,21,,,,,2.1,1.2,1.7*3D
$GPRMC,194830.999,A,3434.7530,S,06902.7263,W,15.23,86.10,090511,,,A*65
$GPGGA,194831.999,3434.7526,S,06902.7215,W,1,08,1.2,1343.3,M,27.8,M,,0000*66
$GPGSA,M,3,06,03,22,19,18,16,14,21,,,,,2.1,1.2,1.7*3D
$GPRMC,194831.999,A,3434.7526,S,06902.7215,W,12.47,85.87,090511,,,A*6A
$GPGGA,194832.997,3434.7522,S,06902.7178,W,1,07,1.4,1343.3,M,27.8,M,,0000*6E
$GPGSA,M,3,06,03,22,19,18,16,21,,,,,,2.2,1.4,1.7*3D
$GPRMC,194832.997,A,3434.7522,S,06902.7178,W,11.11,85.48,090511,,,A*68
$GPGGA,194834.001,3434.7522,S,06902.7150,W,1,08,1.2,1342.7,M,27.8,M,,0000*68
$GPGSA,M,3,06,03,22,19,18,16,14,21,,,,,2.1,1.2,1.7*3D
$GPRMC,194834.001,A,3434.7522,S,06902.7150,W,8.23,91.14,090511,,,A*57
$GPGGA,194835.002,3434.7518,S,06902.7131,W,1,08,1.2,1343.7,M,27.8,M,,0000*65
$GPGSA,M,3,06,03,22,19,18,16,14,21,,,,,2.1,1.2,1.7*3D
$GPGSV,3,1,12,06,85,058,41,03,76,236,39,22,73,119,40,19,44,222,40*73
$GPGSV,3,2,12,18,35,133,40,16,34,330,38,14,25,045,35,30,18,347,*75
$GPGSV,3,3,12,21,11,103,36,11,10,254,34,32,02,321,,24,02,270,*79
$GPRMC,194835.002,A,3434.7518,S,06902.7131,W,6.17,85.96,090511,,,A*5D
$GPGGA,194836.000,3434.7516,S,06902.7118,W,1,08,1.2,1344.2,M,27.8,M,,0000*63
$GPGSA,M,3,06,03,22,19,18,16,14,21,,,,,2.1,1.2,1.7*3D
$GPRMC,194836.000,A,3434.7516,S,06902.7118,W,3.37,90.93,090511,,,A*5F
$GPGGA,194836.999,3434.7513,S,06902.7109,W,1,08,1.2,1346.4,M,27.8,M,,0000*6B
$GPGSA,M,3,06,03,22,19,18,16,14,21,,,,,2.1,1.2,1.7*3D
$GPRMC,194836.999,A,3434.7513,S,06902.7109,W,0.59,46.83,090511,,,A*52
$GPGGA,194837.998,3434.7511,S,06902.7106,W,1,08,1.2,1347.1,M,27.8,M,,0000*62
$GPGSA,M,3,06,03,22,19,18,16,14,21,,,,,2.1,1.2,1.7*3D
$GPRMC,194837.998,A,3434.7511,S,06902.7106,W,0.09,5.11,090511,,,A*66
$GPGGA,194839.001,3434.7509,S,06902.7100,W,1,08,1.2,1349.4,M,27.8,M,,0000*61
$GPGSA,M,3,06,03,22,19,18,16,14,21,,,,,2.1,1.2,1.7*3D
$GPRMC,194839.001,A,3434.7509,S,06902.7100,W,0.36,132.14,090511,,,A*62
$GPGGA,194839.999,3434.7508,S,06902.7100,W,1,08,1.2,1349.4,M,27.8,M,,0000*68
$GPGSA,M,3,06,03,22,19,18,16,14,21,,,,,2.1,1.2,1.7*3D
$GPGSV,3,1,12,06,85,058,40,03,76,236,38,22,73,119,38,19,44,222,40*7C
$GPGSV,3,2,12,18,35,133,39,16,34,330,38,14,25,045,28,30,18,347,*77
$GPGSV,3,3,12,21,11,103,36,11,10,254,35,32,02,321,,24,02,270,*78
$GPRMC,194839.999,A,3434.7508,S,06902.7100,W,0.18,34.20,090511,,,A*57
$GPGGA,194841.000,3434.7502,S,06902.7098,W,1,08,1.2,1349.9,M,27.8,M,,0000*69
$GPGSA,M,3,06,03,22,19,18,16,14,21,,,,,2.1,1.2,1.7*3D
$GPRMC,194841.000,A,3434.7502,S,06902.7098,W,0.39,311.28,090511,,,A*64
$GPGGA,194841.999,3434.7502,S,06902.7099,W,1,08,1.2,1349.7,M,27.8,M,,0000*6F
$GPGSA,M,3,06,03,22,19,18,16,14,21,,,,,2.1,1.2,1.7*3D
$GPRMC,194841.999,A,3434.7502,S,06902.7099,W,0.31,357.58,090511,,,A*61
$GPGGA,194843.000,3434.7502,S,06902.7094,W,1,08,1.2,1350.1,M,27.8,M,,0000*67
$GPGSA,M,3,06,03,22,19,18,16,14,21,,,,,2.1,1.2,1.7*3D
$GPRMC,194843.000,A,3434.7502,S,06902.7094,W,0.11,180.67,090511,,,A*61
$GPGGA,194843.999,3434.7501,S,06902.7093,W,1,08,1.2,1350.9,M,27.8,M,,0000*62
$GPGSA,M,3,06,03,22,19,18,16,14,21,,,,,2.1,1.2,1.7*3D
$GPRMC,194843.999,A,3434.7501,S,06902.7093,W,0.27,111.35,090511,,,A*66
$GPGGA,194845.000,3434.7500,S,06902.7092,W,1,08,1.2,1352.0,M,27.8,M,,0000*66
$GPGSA,M,3,06,03,22,19,18,16,14,21,,,,,2.1,1.2,1.7*3D
$GPGSV,3,1,12,06,85,058,39,03,76,236,39,22,73,119,38,19,44,222,40*73
$GPGSV,3,2,12,18,35,133,40,16,34,330,39,14,25,045,33,30,18,347,*72
$GPGSV,3,3,12,21,11,103,35,11,10,254,37,32,02,321,,24,02,270,*79
$GPRMC,194845.000,A,3434.7500,S,06902.7092,W,0.18,325.92,090511,,,A*6D
$GPGGA,194846.000,3434.7501,S,06902.7093,W,1,08,1.2,1352.6,M,27.8,M,,0000*63
$GPGSA,M,3,06,03,22,19,18,16,14,21,,,,,2.1,1.2,1.7*3D
$GPRMC,194846.000,A,3434.7501,S,06902.7093,W,0.21,39.15,090511,,,A*55
$GPGGA,194847.000,3434.7503,S,06902.7097,W,1,08,1.2,1353.2,M,27.8,M,,0000*61
$GPGSA,M,3,06,03,22,19,18,16,14,21,,,,,2.1,1.2,1.7*3D
$GPRMC,194847.000,A,3434.7503,S,06902.7097,W,0.36,154.34,090511,,,A*6D
$GPGGA,194847.997,3434.7503,S,06902.7094,W,1,08,1.2,1353.2,M,27.8,M,,0000*65
$GPGSA,M,3,06,03,22,19,18,16,14,21,,,,,2.1,1.2,1.7*3D
$GPRMC,194847.997,A,3434.7503,S,06902.7094,W,0.08,355.44,090511,,,A*60
$GPGGA,194849.004,3434.7503,S,06902.7096,W,1,08,1.2,1354.1,M,27.8,M,,0000*6E
$GPGSA,M,3,06,03,22,19,18,16,14,21,,,,,2.1,1.2,1.7*3D
$GPRMC,194849.004,A,3434.7503,S,06902.7096,W,0.36,189.83,090511,,,A*6A
$GPGGA,194849.998,3434.7504,S,06902.7096,W,1,08,1.2,1353.4,M,27.8,M,,0000*67
$GPGSA,M,3,06,03,22,19,18,16,14,21,,,,,2.1,1.2,1.7*3D
$GPGSV,3,1,12,06,85,058,40,03,76,236,38,22,73,119,38,19,44,222,40*7C
$GPGSV,3,2,12,18,35,133,40,16,34,330,38,14,25,045,34,30,18,347,*74
$GPGSV,3,3,12,21,11,103,36,11,10,254,37,32,02,321,,24,02,270,*7A
$GPRMC,194849.998,A,3434.7504,S,06902.7096,W,0.15,177.92,090511,,,A*61
$GPGGA,194851.000,3434.7503,S,06902.7096,W,1,08,1.2,1353.9,M,27.8,M,,0000*6C
$GPGSA,M,3,06,03,22,19,18,16,14,21,,,,,2.1,1.2,1.7*3D
$GPRMC,194851.000,A,3434.7503,S,06902.7096,W,0.07,301.88,090511,,,A*6C
$GPGGA,194851.997,3434.7501,S,06902.7099,W,1,08,1.2,1355.1,M,27.8,M,,0000*68
$GPGSA,M,3,06,03,22,19,18,16,14,21,,,,,2.1,1.2,1.7*3D
$GPRMC,194851.997,A,3434.7501,S,06902.7099,W,0.28,81.72,090511,,,A*55
$GPGGA,194853.002,3434.7501,S,06902.7098,W,1,08,1.2,1355.3,M,27.8,M,,0000*6C
$GPGSA,M,3,06,03,22,19,18,16,14,21,,,,,2.1,1.2,1.7*3D
$GPRMC,194853.002,A,3434.7501,S,06902.7098,W,0.86,180.55,090511,,,A*62
$GPGGA,194854.000,3434.7499,S,06902.7096,W,1,08,1.2,1356.2,M,27.8,M,,0000*65
$GPGSA,M,3,06,03,22,19,18,16,14,21,,,,,2.1,1.2,1.7*3D
$GPRMC,194854.000,A,3434.7499,S,06902.7096,W,0.57,199.65,090511,,,A*6E
$GPGGA,194854.998,3434.7500,S,06902.7101,W,1,08,1.2,1356.5,M,27.8,M,,0000*64
$GPGSA,M,3,06,03,22,19,18,16,14,21,,,,,2.1,1.2,1.7*3D
$GPGSV,3,1,12,06,85,058,41,03,76,236,39,22,73,119,39,19,44,222,39*73
$GPGSV,3,2,12,18,35,133,39,16,34,330,40,14,25,045,35,30,18,347,*74
$GPGSV,3,3,12,21,11,103,37,11,10,254,36,32,02,321,,24,02,270,*7A
$GPRMC,194854.998,A,3434.7500,S,06902.7101,W,0.77,187.17,090511,,,A*60
$GPGGA,194856.001,3434.7499,S,06902.7104,W,1,08,1.2,1355.9,M,27.8,M,,0000*64
$GPGSA,M,3,06,03,22,19,18,16,14,21,,,,,2.1,1.2,1.7*3D
$GPRMC,194856.001,A,3434.7499,S,06902.7104,W,0.18,270.70,090511,,,A*6C
$GPGGA,194857.002,3434.7499,S,06902.7102,W,1,08,1.2,1355.9,M,27.8,M,,0000*60
$GPGSA,M,3,06,03,22,19,18,16,14,21,,,,,2.1,1.2,1.7*3D
$GPRMC,194857.002,A,3434.7499,S,06902.7102,W,0.65,162.70,090511,,,A*62
$GPGGA,194857.997,3434.7500,S,06902.7104,W,1,08,1.2,1356.3,M,27.8,M,,0000*6B
$GPGSA,M,3,06,03,22,19,18,16,14,21,,,,,2.1,1.2,1.7*3D
$GPRMC,194857.997,A,3434.7500,S,06902.7104,W,0.09,45.43,090511,,,A*5E
$GPGGA,194859.000,3434.7497,S,06902.7103,W,1,08,1.2,1356.9,M,27.8,M,,0000*60
$GPGSA,M,3,06,03,22,19,18,16,14,21,,,,,2.1,1.2,1.7*3D
$GPRMC,194859.000,A,3434.7497,S,06902.7103,W,0.35,173.24,090511,,,A*65
$GPGGA,194900.003,3434.7500,S,06902.7103,W,1,08,1.2,1356.3,M,27.8,M,,0000*6B
$GPGSA,M,3,06,03,22,19,18,16,14,21,,,,,2.1,1.2,1.7*3D
$GPGSV,3,1,12,06,85,058,40,03,76,236,38,22,73,119,38,19,44,222,39*72
$GPGSV,3,2,12,18,35,133,38,16,34,330,39,14,25,045,35,30,18,347,*7B
$GPGSV,3,3,12,21,11,103,36,11,10,254,37,32,02,321,,24,02,270,*7A
$GPRMC,194900.003,A,3434.7500,S,06902.7103,W,0.30,200.68,090511,,,A*6E
$GPGGA,194901.000,3434.7499,S,06902.7102,W,1,08,1.2,1356.4,M,27.8,M,,0000*6E
$GPGSA,M,3,06,03,22,19,18,16,14,21,,,,,2.1,1.2,1.7*3D
$GPRMC,194901.000,A,3434.7499,S,06902.7102,W,0.37,353.59,090511,,,A*6E
$GPGGA,194902.001,3434.7497,S,06902.7099,W,1,08,1.2,1357.1,M,27.8,M,,0000*65
$GPGSA,M,3,06,03,22,19,18,16,14,21,,,,,2.1,1.2,1.7*3D
$GPRMC,194902.001,A,3434.7497,S,06902.7099,W,0.49,299.40,090511,,,A*67
$GPGGA,194903.000,3434.7498,S,06902.7100,W,1,08,1.2,1356.7,M,27.8,M,,0000*6C
$GPGSA,M,3,06,03,22,19,18,16,14,21,,,,,2.1,1.2,1.7*3D
$GPRMC,194903.000,A,3434.7498,S,06902.7100,W,0.13,279.14,090511,,,A*69
$GPGGA,194903.997,3434.7499,S,06902.7105,W,1,08,1.2,1357.3,M,27.8,M,,0000*6A
$GPGSA,M,3,06,03,22,19,18,16,14,21,,,,,2.1,1.2,1.7*3D
$GPRMC,194903.997,A,3434.7499,S,06902.7105,W,0.20,286.57,090511,,,A*6D
$GPGGA,194905.001,3434.7499,S,06902.7106,W,1,08,1.2,1357.0,M,27.8,M,,0000*6A
$GPGSA,M,3,06,03,22,19,18,16,14,21,,,,,2.1,1.2,1.7*3D
$GPGSV,3,1,12,06,85,058,39,03,76,236,37,22,73,119,38,19,44,222,39*73
$GPGSV,3,2,12,18,35,133,40,16,34,330,38,14,25,045,36,30,18,347,*76
$GPGSV,3,3,12,21,11,103,36,11,10,254,36,32,02,321,,24,02,270,*7B
$GPRMC,194905.001,A,3434.7499,S,06902.7106,W,0.49,21.88,090511,,,A*5C
$GPGGA,194906.001,3434.7501,S,06902.7106,W,1,08,1.2,1357.4,M,27.8,M,,0000*6D
$GPGSA,M,3,06,03,22,19,18,16,14,21,,,,,2.1,1.2,1.7*3D
$GPRMC,194906.001,A,3434.7501,S,06902.7106,W,0.06,267.94,090511,,,A*69
$GPGGA,194907.000,3434.7500,S,06902.7105,W,1,08,1.2,1358.3,M,27.8,M,,0000*67
$GPGSA,M,3,06,03,22,19,18,16,14,21,,,,,2.1,1.2,1.7*3D
$GPRMC,194907.000,A,3434.7500,S,06902.7105,W,0.32,93.85,090511,,,A*55
$GPGGA,194908.001,3434.7498,S,06902.7105,W,1,08,1.2,1359.2,M,27.8,M,,0000*69
$GPGSA,M,3,06,03,22,19,18,16,14,21,,,,,2.1,1.2,1.7*3D
$GPRMC,194908.001,A,3434.7498,S,06902.7105,W,0.22,355.52,090511,,,A*69
$GPGGA,194908.999,3434.7497,S,06902.7106,W,1,08,1.2,1358.9,M,27.8,M,,0000*67
$GPGSA,M,3,06,03,22,19,18,16,14,21,,,,,2.1,1.2,1.7*3D
$GPRMC,194908.999,A,3434.7497,S,06902.7106,W,0.03,297.91,090511,,,A*6E
$GPGGA,194909.999,3434.7497,S,06902.7107,W,1,08,1.2,1358.5,M,27.8,M,,0000*6B
$GPGSA,M,3,06,03,22,19,18,16,14,21,,,,,2.1,1.2,1.7*3D
$GPGSV,3,1,12,06,85,058,40,03,76,236,37,22,73,119,40,19,44,222,40*7C
$GPGSV,3,2,12,18,35,133,41,16,34,330,39,14,25,045,34,30,18,347,*74
$GPGSV,3,3,12,21,11,103,37,11,10,254,37,32,02,321,,24,02,270,*7B
$GPRMC,194909.999,A,3434.7497,S,06902.7107,W,0.21,282.66,090511,,,A*62
$GPGGA,194910.999,3434.7502,S,06902.7112,W,1,08,1.2,1358.2,M,27.8,M,,0000*6D
$GPGSA,M,3,06,03,22,19,18,16,14,21,,,,,2.1,1.2,1.7*3D
$GPRMC,194910.999,A,3434.7502,S,06902.7112,W,0.27,276.03,090511,,,A*6D
$GPGGA,194911.998,3434.7502,S,06902.7111,W,1,08,1.2,1358.2,M,27.8,M,,0000*6E
$GPGSA,M,3,06,03,22,19,18,16,14,21,,,,,2.1,1.2,1.7*3D
$GPRMC,194911.998,A,3434.7502,S,06902.7111,W,0.27,208.52,090511,,,A*63
$GPGGA,194912.998,3434.7502,S,06902.7111,W,1,08,1.2,1358.5,M,27.8,M,,0000*6A
$GPGSA,M,3,06,03,22,19,18,16,14,21,,,,,2.1,1.2,1.7*3D
$GPRMC,194912.998,A,3434.7502,S,06902.7111,W,0.80,171.75,090511,,,A*65
$GPGGA,194914.004,3434.7505,S,06902.7116,W,1,08,1.2,1357.7,M,27.8,M,,0000*6D
$GPGSA,M,3,06,03,22,19,18,16,14,21,,,,,2.1,1.2,1.7*3D
$GPRMC,194914.004,A,3434.7505,S,06902.7116,W,0.76,252.23,090511,,,A*67
$GPGGA,194914.999,3434.7508,S,06902.7114,W,1,08,1.2,1358.3,M,27.8,M,,0000*64
$GPGSA,M,3,06,03,22,19,18,16,14,21,,,,,2.1,1.2,1.7*3D
$GPGSV,3,1,12,06,85,058,40,03,76,236,39,22,73,119,39,19,44,222,40*7C
$GPGSV,3,2,12,18,35,133,39,16,34,330,38,14,25,045,36,30,18,347,*78
$GPGSV,3,3,12,21,11,103,35,11,10,254,36,32,02,321,,24,02,270,*78
$GPRMC,194914.999,A,3434.7508,S,06902.7114,W,0.33,41.68,090511,,,A*5B
$GPGGA,194915.996,3434.7506,S,06902.7114,W,1,08,1.2,1357.6,M,27.8,M,,0000*6E
$GPGSA,M,3,06,03,22,19,18,16,14,21,,,,,2.1,1.2,1.7*3D
$GPRMC,194915.996,A,3434.7506,S,06902.7114,W,0.21,80.80,090511,,,A*53
$GPGGA,194917.003,3434.7508,S,06902.7116,W,1,08,1.2,1356.8,M,27.8,M,,0000*6A
$GPGSA,M,3,06,03,22,19,18,16,14,21,,,,,2.1,1.2,1.7*3D
$GPRMC,194917.003,A,3434.7508,S,06902.7116,W,0.18,136.64,090511,,,A*64
$GPGGA,194917.999,3434.7509,S,06902.7115,W,1,08,1.2,1357.2,M,27.8,M,,0000*69
$GPGSA,M,3,06,03,22,19,18,16,14,21,,,,,2.1,1.2,1.7*3D
$GPRMC,194917.999,A,3434.7509,S,06902.7115,W,0.15,28.86,090511,,,A*53
$GPGGA,194918.999,3434.7507,S,06902.7115,W,1,08,1.2,1358.4,M,27.8,M,,0000*61
$GPGSA,M,3,06,03,22,19,18,16,14,21,,,,,2.1,1.2,1.7*3D
$GPRMC,194918.999,A,3434.7507,S,06902.7115,W,0.09,72.99,090511,,,A*5E
$GPGGA,194919.999,3434.7506,S,06902.7113,W,1,08,1.2,1358.5,M,27.8,M,,0000*66
$GPGSA,M,3,06,03,22,19,18,16,14,21,,,,,2.1,1.2,1.7*3D
$GPGSV,3,1,12,06,85,058,40,03,76,236,38,22,73,119,39,19,44,222,39*73
$GPGSV,3,2,12,18,35,133,39,16,34,330,38,14,25,045,34,30,18,347,*7A
$GPGSV,3,3,12,21,11,103,36,11,10,254,36,32,02,321,,24,02,270,*7B
$GPRMC,194919.999,A,3434.7506,S,06902.7113,W,0.18,200.64,090511,,,A*6D
$GPGGA,194920.996,3434.7508,S,06902.7116,W,1,08,1.2,1358.5,M,27.8,M,,0000*68
$GPGSA,M,3,06,03,22,19,18,16,14,21,,,,,2.1,1.2,1.7*3D
$GPRMC,194920.996,A,3434.7508,S,06902.7116,W,0.15,16.91,090511,,,A*51
$GPGGA,194922.000,3434.7506,S,06902.7115,W,1,08,1.2,1358.6,M,27.8,M,,0000*62
$GPGSA,M,3,06,03,22,19,18,16,14,21,,,,,2.1,1.2,1.7*3D
$GPRMC,194922.000,A,3434.7506,S,06902.7115,W,0.25,174.89,090511,,,A*67
$GPGGA,194923.001,3434.7507,S,06902.7115,W,1,08,1.2,1358.4,M,27.8,M,,0000*61
$GPGSA,M,3,06,03,22,19,18,16,14,21,,,,,2.1,1.2,1.7*3D
$GPRMC,194923.001,A,3434.7507,S,06902.7115,W,0.82,172.81,090511,,,A*65
$GPGGA,194924.000,3434.7511,S,06902.7120,W,1,08,1.2,1358.2,M,27.8,M,,0000*60
$GPGSA,M,3,06,03,22,19,18,16,14,21,,,,,2.1,1.2,1.7*3D
$GPRMC,194924.000,A,3434.7511,S,06902.7120,W,1.47,185.15,090511,,,A*6F
$GPGGA,194924.999,3434.7514,S,06902.7119,W,1,08,1.2,1357.7,M,27.8,M,,0000*6C
$GPGSA,M,3,06,03,22,19,18,16,14,21,,,,,2.1,1.2,1.7*3D
$GPGSV,3,1,12,06,85,058,40,03,76,236,37,22,73,119,39,19,44,222,40*72
$GPGSV,3,2,12,18,35,133,39,16,34,330,37,14,25,045,36,30,18,347,*77
$GPGSV,3,3,12,21,11,103,36,11,10,254,37,32,02,321,,24,02,270,*7A
$GPRMC,194924.999,A,3434.7514,S,06902.7119,W,1.55,173.26,090511,,,A*63
$GPGGA,194926.000,3434.7516,S,06902.7125,W,1,08,1.2,1358.1,M,27.8,M,,0000*63
$GPGSA,M,3,06,03,22,19,18,16,14,21,,,,,2.1,1.2,1.7*3D
$GPRMC,194926.000,A,3434.7516,S,06902.7125,W,1.36,181.24,090511,,,A*6F
$GPGGA,194926.999,3434.7517,S,06902.7124,W,1,08,1.2,1357.0,M,27.8,M,,0000*64
$GPGSA,M,3,06,03,22,19,18,16,14,21,,,,,2.1,1.2,1.7*3D
$GPRMC,194926.999,A,3434.7517,S,06902.7124,W,2.42,98.59,090511,,,A*55
$GPGGA,194928.000,3434.7518,S,06902.7116,W,1,08,1.2,1356.4,M,27.8,M,,0000*68
$GPGSA,M,3,06,03,22,19,18,16,14,21,,,,,2.1,1.2,1.7*3D
$GPRMC,194928.000,A,3434.7518,S,06902.7116,W,4.38,97.39,090511,,,A*5E
$GPGGA,194929.003,3434.7514,S,06902.7099,W,1,08,1.2,1355.2,M,27.8,M,,0000*65
$GPGSA,M,3,06,03,22,19,18,16,14,21,,,,,2.1,1.2,1.7*3D
$GPRMC,194929.003,A,3434.7514,S,06902.7099,W,5.78,81.79,090511,,,A*50
$GPGGA,194929.996,3434.7509,S,06902.7079,W,1,08,1.2,1355.1,M,27.8,M,,0000*61
$GPGSA,M,3,06,03,22,19,18,16,14,21,,,,,2.1,1.2,1.7*3D
$GPGSV,3,1,12,06,85,058,39,03,76,236,39,22,73,119,39,19,44,222,39*7C
$GPGSV,3,2,12,18,35,133,39,16,34,330,36,14,25,045,23,30,18,347,*72
$GPGSV,3,3,12,21,11,103,35,11,10,254,37,32,02,321,,24,02,270,28*73
$GPRMC,194929.996,A,3434.7509,S,06902.7079,W,6.48,65.53,090511,,,A*55
$GPGGA,194931.001,3434.7505,S,06902.7052,W,1,07,1.4,1355.0,M,27.8,M,,0000*62
$GPGSA,M,3,06,03,22,19,18,16,21,,,,,,2.2,1.4,1.7*3D
$GPRMC,194931.001,A,3434.7505,S,06902.7052,W,7.96,78.30,090511,,,A*55
$GPGGA,194932.001,3434.7500,S,06902.7024,W,1,08,1.2,1354.8,M,27.8,M,,0000*65
$GPGSA,M,3,06,03,22,19,18,16,14,21,,,,,2.1,1.2,1.7*3D
$GPRMC,194932.001,A,3434.7500,S,06902.7024,W,9.21,81.27,090511,,,A*50
$GPGGA,194933.001,3434.7497,S,06902.6990,W,1,08,1.2,1354.9,M,27.8,M,,0000*6D
$GPGSA,M,3,06,03,22,19,18,16,14,21,,,,,2.1,1.2,1.7*3D
$GPRMC,194933.001,A,3434.7497,S,06902.6990,W,10.10,81.33,090511,,,A*66
$GPGGA,194934.000,3434.7495,S,06902.6951,W,1,08,1.2,1354.3,M,27.8,M,,0000*6E
$GPGSA,M,3,06,03,22,19,18,16,14,21,,,,,2.1,1.2,1.7*3D
$GPRMC,194934.000,A,3434.7495,S,06902.6951,W,10.56,84.21,090511,,,A*6B
$GPGGA,194935.001,3434.7495,S,06902.6910,W,1,08,1.2,1355.5,M,27.8,M,,0000*6C
$GPGSA,M,3,06,03,22,19,18,16,14,21,,,,,2.1,1.2,1.7*3D
$GPGSV,3,1,12,06,85,058,40,03,76,236,39,22,73,119,39,19,44,222,39*72
$GPGSV,3,2,12,18,35,133,40,16,34,330,39,14,25,045,31,30,18,347,*70
$GPGSV,3,3,12,21,11,103,36,11,10,254,36,32,02,321,,24,02,270,27*7E
$GPRMC,194935.001,A,3434.7495,S,06902.6910,W,11.65,84.96,090511,,,A*63
$GPGGA,194935.999,3434.7491,S,06902.6871,W,1,08,1.2,1354.9,M,27.8,M,,0000*6B
$GPGSA,M,3,06,03,22,19,18,16,14,21,,,,,2.1,1.2,1.7*3D
$GPRMC,194935.999,A,3434.7491,S,06902.6871,W,12.13,87.61,090511,,,A*60
$GPGGA,194936.999,3434.7488,S,06902.6828,W,1,08,1.2,1353.9,M,27.8,M,,0000*6B
$GPGSA,M,3,06,03,22,19,18,16,14,21,,,,,2.1,1.2,1.7*3D
$GPRMC,194936.999,A,3434.7488,S,06902.6828,W,13.30,91.50,090511,,,A*62
$GPGGA,194937.999,3434.7489,S,06902.6785,W,1,08,1.2,1354.8,M,27.8,M,,0000*65
$GPGSA,M,3,06,03,22,19,18,16,14,21,,,,,2.1,1.2,1.7*3D
$GPRMC,194937.999,A,3434.7489,S,06902.6785,W,13.04,91.23,090511,,,A*69
$GPGGA,194938.999,3434.7491,S,06902.6741,W,1,08,1.2,1354.7,M,27.8,M,,0000*64
$GPGSA,M,3,06,03,22,19,18,16,14,21,,,,,2.1,1.2,1.7*3D
$GPRMC,194938.999,A,3434.7491,S,06902.6741,W,13.79,99.76,090511,,,A*65
$GPGGA,194940.000,3434.7501,S,06902.6697,W,1,08,1.2,1354.2,M,27.8,M,,0000*65
$GPGSA,M,3,06,03,22,19,18,16,14,21,,,,,2.1,1.2,1.7*3D
$GPGSV,3,1,12,06,85,058,39,03,76,236,39,22,73,119,39,19,44,222,39*7C
$GPGSV,3,2,12,18,35,133,39,16,34,330,39,14,25,045,33,30,18,347,*7C
$GPGSV,3,3,12,21,11,103,34,11,10,254,37,32,02,321,,24,02,270,29*73
$GPRMC,194940.000,A,3434.7501,S,06902.6697,W,14.58,104.45,090511,,,A*50
$GPGGA,194940.997,3434.7511,S,06902.6651,W,1,07,1.4,1354.3,M,27.8,M,,0000*61
$GPGSA,M,3,06,03,22,19,18,16,21,,,,,,2.2,1.4,1.7*3D
$GPRMC,194940.997,A,3434.7511,S,06902.6651,W,14.81,110.80,090511,,,A*54
$GPGGA,194942.004,3434.7523,S,06902.6602,W,1,07,1.3,1354.8,M,27.8,M,,0000*6B
$GPGSA,M,3,06,03,22,19,18,16,14,,,,,,2.4,1.3,2.0*3E
$GPRMC,194942.004,A,3434.7523,S,06902.6602,W,15.84,115.45,090511,,,A*5A
$GPGGA,194942.998,3434.7539,S,06902.6551,W,1,07,1.3,1355.0,M,27.8,M,,0000*60
$GPGSA,M,3,06,03,22,19,18,16,14,,,,,,2.4,1.3,2.0*3E
$GPRMC,194942.998,A,3434.7539,S,06902.6551,W,16.47,120.92,090511,,,A*58
$GPGGA,194944.000,3434.7565,S,06902.6504,W,1,07,1.3,1354.4,M,27.8,M,,0000*62
$GPGSA,M,3,06,03,22,19,18,16,14,,,,,,2.4,1.3,2.0*3E
$GPRMC,194944.000,A,3434.7565,S,06902.6504,W,16.87,122.97,090511,,,A*54
$GPGGA,194944.998,3434.7596,S,06902.6456,W,1,06,1.6,1354.7,M,27.8,M,,0000*67
$GPGSA,M,3,06,03,22,19,18,16,,,,,,,2.7,1.6,2.2*3F
$GPGSV,3,1,12,06,85,058,39,03,76,236,39,22,73,119,38,19,44,222,39*7D
$GPGSV,3,2,12,18,35,133,36,16,34,330,34,14,25,045,,30,18,347,*7E
$GPGSV,3,3,12,21,11,103,,11,10,254,38,32,02,321,,24,02,270,34*77
$GPRMC,194944.998,A,3434.7596,S,06902.6456,W,17.86,126.30,090511,,,A*5F
$GPGGA,194946.000,3434.7626,S,06902.6411,W,1,06,1.6,1353.5,M,27.8,M,,0000*63
$GPGSA,M,3,06,03,22,19,18,16,,,,,,,2.7,1.6,2.2*3F
$GPRMC,194946.000,A,3434.7626,S,06902.6411,W,17.87,129.20,090511,,,A*51
$GPGGA,194947.002,3434.7663,S,06902.6369,W,1,07,1.4,1353.5,M,27.8,M,,0000*6A
$GPGSA,M,3,06,03,22,19,18,16,21,,,,,,2.2,1.4,1.7*3D
$GPRMC,194947.002,A,3434.7663,S,06902.6369,W,18.06,132.14,090511,,,A*50
$GPGGA,194948.001,3434.7696,S,06902.6325,W,1,07,1.4,1352.1,M,27.8,M,,0000*61
