$GPGGA,181602.998,1452.9877,S,07355.1229,W,1,09,0.9,4151.5,M,23.4,M,,0000*69
$GPGSA,M,3,18,21,30,31,25,22,29,16,06,,,,2.2,0.9,2.0*33
$GPRMC,181602.998,A,1452.9877,S,07355.1229,W,9.34,260.84,180411,,,A*61
$GPGGA,181603.997,1452.9877,S,07355.1258,W,1,08,1.0,4150.7,M,23.4,M,,0000*6B
$GPGSA,M,3,18,21,30,31,25,22,29,16,,,,,2.5,1.0,2.3*39
$GPRMC,181603.997,A,1452.9877,S,07355.1258,W,9.66,265.86,180411,,,A*69
$GPGGA,181605.002,1452.9878,S,07355.1287,W,1,06,1.3,4149.0,M,23.4,M,,0000*67
$GPGSA,M,3,18,21,31,25,22,29,,,,,,,3.3,1.3,3.0*3B
$GPGSV,3,1,12,18,52,044,37,21,51,166,31,30,42,208,,31,42,302,34*7B
$GPGSV,3,2,12,25,38,051,38,22,35,002,33,29,20,119,36,16,20,212,*7D
$GPGSV,3,3,12,06,14,236,,03,05,242,25,14,04,352,,12,01,043,*7B
$GPRMC,181605.002,A,1452.9878,S,07355.1287,W,9.30,267.45,180411,,,A*69
$GPGGA,181605.998,1452.9880,S,07355.1311,W,1,08,1.0,4149.0,M,23.4,M,,0000*69
$GPGSA,M,3,18,21,30,31,25,22,29,16,,,,,2.5,1.0,2.3*39
$GPRMC,181605.998,A,1452.9880,S,07355.1311,W,8.45,265.91,180411,,,A*62
$GPGGA,181607.003,1452.9882,S,07355.1336,W,1,07,1.1,4146.7,M,23.4,M,,0000*61
$GPGSA,M,3,18,21,30,25,22,29,06,,,,,,2.3,1.1,2.1*3F
$GPRMC,181607.003,A,1452.9882,S,07355.1336,W,9.14,269.41,180411,,,A*68
$GPGGA,181608.001,1452.9880,S,07355.1362,W,1,08,1.0,4146.2,M,23.4,M,,0000*64
$GPGSA,M,3,18,21,30,25,22,29,16,06,,,,,2.3,1.0,2.0*38
$GPRMC,181608.001,A,1452.9880,S,07355.1362,W,9.34,268.86,180411,,,A*6E
$GPGGA,181608.996,1452.9878,S,07355.1386,W,1,08,1.0,4145.5,M,23.4,M,,0000*6A
$GPGSA,M,3,18,21,30,31,25,22,29,16,,,,,2.5,1.0,2.3*39
$GPRMC,181608.996,A,1452.9878,S,07355.1386,W,8.28,276.04,180411,,,A*6D
$GPGGA,181610.001,1452.9879,S,07355.1409,W,1,08,1.0,4144.2,M,23.4,M,,0000*63
$GPGSA,M,3,18,21,30,31,25,29,16,06,,,,,2.3,1.0,2.0*3A
$GPGSV,3,1,12,18,52,044,35,21,51,166,33,30,42,208,23,31,42,302,35*7B
$GPGSV,3,2,12,25,38,051,40,22,35,002,,29,20,119,31,16,20,212,28*7F
$GPGSV,3,3,12,06,14,236,26,03,05,242,,14,04,352,,12,01,043,*78
$GPRMC,181610.001,A,1452.9879,S,07355.1409,W,8.73,266.31,180411,,,A*6B
$GPGGA,181610.999,1452.9880,S,07355.1439,W,1,09,0.9,4143.6,M,23.4,M,,0000*64
$GPGSA,M,3,18,21,30,31,25,22,29,16,06,,,,2.2,0.9,2.0*33
$GPRMC,181610.999,A,1452.9880,S,07355.1439,W,9.28,272.93,180411,,,A*64
$GPGGA,181611.999,1452.9878,S,07355.1465,W,1,08,0.9,4142.4,M,23.4,M,,0000*69
$GPGSA,M,3,18,21,30,31,25,22,29,06,,,,,2.2,0.9,2.0*34
$GPRMC,181611.999,A,1452.9878,S,07355.1465,W,9.50,270.62,180411,,,A*68
$GPGGA,181613.001,1452.9880,S,07355.1493,W,1,08,1.0,4142.3,M,23.4,M,,0000*62
$GPGSA,M,3,18,21,31,25,22,29,16,06,,,,,2.4,1.0,2.2*3C
$GPRMC,181613.001,A,1452.9880,S,07355.1493,W,9.51,265.97,180411,,,A*63
$GPGGA,181614.001,1452.9884,S,07355.1519,W,1,08,0.9,4141.8,M,23.4,M,,0000*62
$GPGSA,M,3,18,21,30,31,25,22,29,06,,,,,2.2,0.9,2.0*34
$GPRMC,181614.001,A,1452.9884,S,07355.1519,W,8.92,261.32,180411,,,A*66
$GPGGA,181614.997,1452.9889,S,07355.1543,W,1,08,1.0,4140.9,M,23.4,M,,0000*6E
$GPGSA,M,3,18,21,30,31,25,22,29,16,,,,,2.5,1.0,2.3*39
$GPGSV,3,1,12,18,52,044,39,21,51,166,35,30,42,208,30,31,42,302,41*70
$GPGSV,3,2,12,25,38,051,40,22,35,002,31,29,20,119,33,16,20,212,24*73
$GPGSV,3,3,12,06,14,236,,03,05,242,,14,04,352,,12,01,043,*7C
$GPRMC,181614.997,A,1452.9889,S,07355.1543,W,8.99,251.77,180411,,,A*6B
$GPGGA,181616.002,1452.9898,S,07355.1569,W,1,09,0.9,4140.3,M,23.4,M,,0000*62
$GPGSA,M,3,18,21,30,31,25,22,29,16,06,,,,2.2,0.9,2.0*33
$GPRMC,181616.002,A,1452.9898,S,07355.1569,W,9.27,244.19,180411,,,A*6C
$GPGGA,181617.000,1452.9912,S,07355.1592,W,1,08,1.0,4139.4,M,23.4,M,,0000*66
$GPGSA,M,3,18,21,30,25,22,29,16,06,,,,,2.3,1.0,2.0*38
$GPRMC,181617.000,A,1452.9912,S,07355.1592,W,9.40,233.64,180411,,,A*63
$GPGGA,181618.002,1452.9927,S,07355.1612,W,1,09,0.9,4137.9,M,23.4,M,,0000*6C
$GPGSA,M,3,18,21,30,31,25,22,29,16,06,,,,2.2,0.9,2.0*33
$GPRMC,181618.002,A,1452.9927,S,07355.1612,W,9.76,225.06,180411,,,A*65
$GPGGA,181619.000,1452.9950,S,07355.1629,W,1,09,0.9,4137.9,M,23.4,M,,0000*67
$GPGSA,M,3,18,21,30,31,25,22,29,16,06,,,,2.2,0.9,2.0*33
$GPRMC,181619.000,A,1452.9950,S,07355.1629,W,9.48,214.41,180411,,,A*62
$GPGGA,181619.999,1452.9975,S,07355.1642,W,1,09,0.9,4137.7,M,23.4,M,,0000*6A
$GPGSA,M,3,18,21,30,31,25,22,29,16,06,,,,2.2,0.9,2.0*33
$GPGSV,3,1,12,18,52,044,37,21,51,166,29,30,42,208,32,31,42,302,32*75
$GPGSV,3,2,12,25,38,051,38,22,35,002,37,29,20,119,28,16,20,212,35*70
$GPGSV,3,3,12,06,14,236,34,03,05,242,31,14,04,352,,12,01,043,*79
$GPRMC,181619.999,A,1452.9975,S,07355.1642,W,9.61,205.94,180411,,,A*62
$GPGGA,181620.997,1453.0004,S,07355.1647,W,1,08,1.0,4138.4,M,23.4,M,,0000*69
$GPGSA,M,3,18,21,30,31,25,22,29,16,,,,,2.5,1.0,2.3*39
$GPRMC,181620.997,A,1453.0004,S,07355.1647,W,9.89,193.04,180411,,,A*67
$GPGGA,181622.002,1453.0033,S,07355.1652,W,1,09,0.9,4138.2,M,23.4,M,,0000*61
$GPGSA,M,3,18,21,30,31,25,22,29,16,06,,,,2.2,0.9,2.0*33
$GPRMC,181622.002,A,1453.0033,S,07355.1652,W,10.61,183.61,180411,,,A*5C
$GPGGA,181623.000,1453.0061,S,07355.1652,W,1,06,1.3,4137.1,M,23.4,M,,0000*6D
$GPGSA,M,3,18,21,31,25,22,16,,,,,,,3.4,1.3,3.2*32
$GPRMC,181623.000,A,1453.0061,S,07355.1652,W,10.27,176.69,180411,,,A*58
$GPGGA,181624.000,1453.0089,S,07355.1650,W,1,08,0.9,4136.7,M,23.4,M,,0000*6C
$GPGSA,M,3,18,21,30,31,25,22,29,06,,,,,2.2,0.9,2.0*34
$GPRMC,181624.000,A,1453.0089,S,07355.1650,W,10.01,173.35,180411,,,A*53
$GPGGA,181624.998,1453.0116,S,07355.1645,W,1,07,1.3,4135.3,M,23.4,M,,0000*64
$GPGSA,M,3,18,21,30,31,25,22,06,,,,,,3.1,1.3,2.8*3E
$GPGSV,3,1,12,18,52,044,37,21,51,166,41,30,42,208,33,31,42,302,40*7F
$GPGSV,3,2,12,25,38,051,34,22,35,002,38,29,20,119,,16,20,212,*7F
$GPGSV,3,3,12,06,14,236,31,03,05,242,31,14,04,352,,12,01,043,*7C
$GPRMC,181624.998,A,1453.0116,S,07355.1645,W,10.08,172.32,180411,,,A*57
$GPGGA,181626.002,1453.0143,S,07355.1641,W,1,08,1.2,4135.0,M,23.4,M,,0000*65
$GPGSA,M,3,18,21,30,31,25,22,16,06,,,,,2.8,1.2,2.5*3D
$GPRMC,181626.002,A,1453.0143,S,07355.1641,W,10.35,174.11,180411,,,A*52
$GPGGA,181627.000,1453.0171,S,07355.1638,W,1,08,0.9,4134.6,M,23.4,M,,0000*64
$GPGSA,M,3,18,21,30,31,25,22,29,06,,,,,2.2,0.9,2.0*34
$GPRMC,181627.000,A,1453.0171,S,07355.1638,W,10.18,173.23,180411,,,A*57
$GPGGA,181627.999,1453.0200,S,07355.1637,W,1,08,0.9,4134.2,M,23.4,M,,0000*63
$GPGSA,M,3,18,21,30,31,25,22,29,06,,,,,2.2,0.9,2.0*34
$GPRMC,181627.999,A,1453.0200,S,07355.1637,W,10.00,177.83,180411,,,A*53
$GPGGA,181628.999,1453.0230,S,07355.1637,W,1,08,0.9,4133.6,M,23.4,M,,0000*6C
$GPGSA,M,3,18,21,30,31,25,22,29,06,,,,,2.2,0.9,2.0*34
$GPRMC,181628.999,A,1453.0230,S,07355.1637,W,10.68,174.67,180411,,,A*58
$GPGGA,181629.996,1453.0258,S,07355.1636,W,1,09,0.9,4133.8,M,23.4,M,,0000*62
$GPGSA,M,3,18,21,30,31,25,22,29,16,06,,,,2.2,0.9,2.0*33
$GPGSV,3,1,12,18,52,044,36,21,51,166,40,30,42,208,32,31,42,302,39*70
$GPGSV,3,2,12,25,38,051,29,22,35,002,38,29,20,119,29,16,20,212,30*7B
$GPGSV,3,3,12,06,14,236,31,03,05,242,31,14,04,352,,12,01,043,*7C
$GPRMC,181629.996,A,1453.0258,S,07355.1636,W,10.58,173.42,180411,,,A*5A
$GPGGA,181631.002,1453.0287,S,07355.1634,W,1,09,0.9,4133.6,M,23.4,M,,0000*61
$GPGSA,M,3,18,21,30,31,25,22,29,16,06,,,,2.2,0.9,2.0*33
$GPRMC,181631.002,A,1453.0287,S,07355.1634,W,11.04,172.51,180411,,,A*5C
$GPGGA,181632.000,1453.0318,S,07355.1630,W,1,09,0.9,4134.7,M,23.4,M,,0000*65
$GPGSA,M,3,18,21,30,31,25,22,29,16,06,,,,2.2,0.9,2.0*33
$GPRMC,181632.000,A,1453.0318,S,07355.1630,W,11.52,169.81,180411,,,A*5A
$GPGGA,181633.002,1453.0350,S,07355.1627,W,1,08,1.0,4135.1,M,23.4,M,,0000*62
$GPGSA,M,3,18,21,30,31,22,29,16,06,,,,,2.2,1.0,2.0*3C
$GPRMC,181633.002,A,1453.0350,S,07355.1627,W,10.85,172.22,180411,,,A*5B
$GPGGA,181633.996,1453.0381,S,07355.1621,W,1,09,0.9,4133.7,M,23.4,M,,0000*65
$GPGSA,M,3,18,21,30,31,25,22,29,16,06,,,,2.2,0.9,2.0*33
$GPRMC,181633.996,A,1453.0381,S,07355.1621,W,11.03,174.75,180411,,,A*5E
$GPGGA,181635.002,1453.0412,S,07355.1620,W,1,07,1.0,4133.1,M,23.4,M,,0000*6B
$GPGSA,M,3,18,21,31,25,22,29,06,,,,,,2.4,1.0,2.2*3B
$GPGSV,3,1,12,18,52,044,37,21,51,166,40,30,42,208,,31,42,302,39*70
$GPGSV,3,2,12,25,38,051,37,22,35,002,37,29,20,119,21,16,20,212,*70
$GPGSV,3,3,12,06,14,236,35,03,05,242,30,14,04,352,,12,01,043,*79
$GPRMC,181635.002,A,1453.0412,S,07355.1620,W,11.07,181.16,180411,,,A*5B
$GPGGA,181635.998,1453.0442,S,07355.1624,W,1,09,0.9,4132.4,M,23.4,M,,0000*62
$GPGSA,M,3,18,21,30,31,25,22,29,16,06,,,,2.2,0.9,2.0*33
$GPRMC,181635.998,A,1453.0442,S,07355.1624,W,11.20,184.05,180411,,,A*52
$GPGGA,181637.001,1453.0472,S,07355.1627,W,1,09,0.9,4132.6,M,23.4,M,,0000*6B
$GPGSA,M,3,18,21,30,31,25,22,29,16,06,,,,2.2,0.9,2.0*33
$GPRMC,181637.001,A,1453.0472,S,07355.1627,W,11.03,183.45,180411,,,A*5B
$GPGGA,181637.999,1453.0503,S,07355.1628,W,1,09,0.9,4131.9,M,23.4,M,,0000*67
$GPGSA,M,3,18,21,30,31,25,22,29,16,06,,,,2.2,0.9,2.0*33
$GPRMC,181637.999,A,1453.0503,S,07355.1628,W,11.01,181.20,180411,,,A*58
$GPGGA,181639.000,1453.0536,S,07355.1626,W,1,09,0.9,4132.2,M,23.4,M,,0000*60
$GPGSA,M,3,18,21,30,31,25,22,29,16,06,,,,2.2,0.9,2.0*33
$GPRMC,181639.000,A,1453.0536,S,07355.1626,W,10.57,175.55,180411,,,A*5C
$GPGGA,181639.999,1453.0568,S,07355.1623,W,1,09,0.9,4131.7,M,23.4,M,,0000*61
$GPGSA,M,3,18,21,30,31,25,22,29,16,06,,,,2.2,0.9,2.0*33
$GPGSV,3,1,12,18,52,044,38,21,51,166,41,30,42,208,32,31,42,302,40*71
$GPGSV,3,2,12,25,38,051,36,22,35,002,38,29,20,119,33,16,20,212,32*7C
$GPGSV,3,3,12,06,14,236,26,03,05,242,30,14,04,352,,12,01,043,*7B
$GPRMC,181639.999,A,1453.0568,S,07355.1623,W,10.52,177.81,180411,,,A*55
$GPGGA,181641.000,1453.0598,S,07355.1622,W,1,07,1.2,4130.3,M,23.4,M,,0000*68
$GPGSA,M,3,18,21,30,31,25,22,16,,,,,,3.3,1.2,3.0*35
$GPRMC,181641.000,A,1453.0598,S,07355.1622,W,11.11,178.32,180411,,,A*5C
$GPGGA,181642.003,1453.0628,S,07355.1620,W,1,06,1.4,4130.2,M,23.4,M,,0000*64
$GPGSA,M,3,18,21,30,31,25,22,,,,,,,6.7,1.4,6.6*36
$GPRMC,181642.003,A,1453.0628,S,07355.1620,W,10.63,173.92,180411,,,A*53
$GPGGA,181642.997,1453.0656,S,07355.1619,W,1,09,0.9,4129.7,M,23.4,M,,0000*6D
$GPGSA,M,3,18,21,30,31,25,22,29,16,06,,,,2.2,0.9,2.0*33
$GPRMC,181642.997,A,1453.0656,S,07355.1619,W,10.61,170.97,180411,,,A*50
$GPGGA,181644.003,1453.0682,S,07355.1611,W,1,08,0.9,4129.9,M,23.4,M,,0000*61
$GPGSA,M,3,21,30,31,25,22,29,16,06,,,,,2.3,0.9,2.1*3A
$GPRMC,181644.003,A,1453.0682,S,07355.1611,W,9.79,160.58,180411,,,A*60
$GPGGA,181644.999,1453.0706,S,07355.1598,W,1,08,1.2,4129.0,M,23.4,M,,0000*67
$GPGSA,M,3,18,21,30,31,25,22,16,06,,,,,2.8,1.2,2.5*3D
$GPGSV,3,1,12,18,52,044,29,21,51,166,38,30,42,208,39,31,42,302,39*7A
$GPGSV,3,2,12,25,38,051,33,22,35,002,36,29,20,119,,16,20,212,38*7D
$GPGSV,3,3,12,06,14,236,32,03,05,242,36,14,04,352,,12,01,043,*78
$GPRMC,181644.999,A,1453.0706,S,07355.1598,W,10.73,158.23,180411,,,A*50
$GPGGA,181645.997,1453.0734,S,07355.1588,W,1,09,0.9,4128.6,M,23.4,M,,0000*64
$GPGSA,M,3,18,21,30,31,25,22,29,16,06,,,,2.2,0.9,2.0*33
$GPRMC,181645.997,A,1453.0734,S,07355.1588,W,10.60,158.49,180411,,,A*51
$GPGGA,181647.003,1453.0763,S,07355.1579,W,1,06,1.3,4129.8,M,23.4,M,,0000*65
$GPGSA,M,3,21,30,31,25,22,16,,,,,,,3.4,1.3,3.2*38
$GPRMC,181647.003,A,1453.0763,S,07355.1579,W,10.25,166.94,180411,,,A*57
$GPGGA,181647.999,1453.0789,S,07355.1570,W,1,07,1.1,4128.3,M,23.4,M,,0000*6B
$GPGSA,M,3,18,21,30,31,25,22,29,,,,,,3.2,1.1,3.0*3B
$GPRMC,181647.999,A,1453.0789,S,07355.1570,W,10.07,167.22,180411,,,A*5C
$GPGGA,181648.999,1453.0818,S,07355.1566,W,1,08,0.9,4129.6,M,23.4,M,,0000*66
$GPGSA,M,3,21,30,31,25,22,29,16,06,,,,,2.3,0.9,2.1*3A
$GPRMC,181648.999,A,1453.0818,S,07355.1566,W,10.00,173.86,180411,,,A*5F
$GPGGA,181649.999,1453.0846,S,07355.1563,W,1,07,1.0,4129.6,M,23.4,M,,0000*6E
$GPGSA,M,3,18,21,30,31,22,29,06,,,,,,2.3,1.0,2.0*3A
$GPGSV,3,1,12,18,52,044,32,21,51,166,37,30,42,208,32,31,42,302,41*7B
$GPGSV,3,2,12,25,38,051,,22,35,002,38,29,20,119,34,16,20,212,*7F
$GPGSV,3,3,12,06,14,236,36,03,05,242,27,14,04,352,,12,01,043,*7C
$GPRMC,181649.999,A,1453.0846,S,07355.1563,W,10.49,173.21,180411,,,A*50
$GPGGA,181650.998,1453.0876,S,07355.1560,W,1,08,1.0,4128.0,M,23.4,M,,0000*6F
$GPGSA,M,3,18,21,31,25,22,29,16,06,,,,,2.4,1.0,2.2*3C
$GPRMC,181650.998,A,1453.0876,S,07355.1560,W,10.60,176.47,180411,,,A*57
$GPGGA,181652.002,1453.0907,S,07355.1559,W,1,09,0.9,4128.3,M,23.4,M,,0000*60
$GPGSA,M,3,18,21,30,31,25,22,29,16,06,,,,2.2,0.9,2.0*33
$GPRMC,181652.002,A,1453.0907,S,07355.1559,W,10.69,181.15,180411,,,A*54
$GPGGA,181653.001,1453.0937,S,07355.1558,W,1,09,0.9,4126.7,M,23.4,M,,0000*6A
$GPGSA,M,3,18,21,30,31,25,22,29,16,06,,,,2.2,0.9,2.0*33
$GPRMC,181653.001,A,1453.0937,S,07355.1558,W,10.90,178.99,180411,,,A*50
$GPGGA,181653.999,1453.0968,S,07355.1555,W,1,08,0.9,4127.0,M,23.4,M,,0000*62
$GPGSA,M,3,18,21,30,31,25,22,29,06,,,,,2.2,0.9,2.0*34
$GPRMC,181653.999,A,1453.0968,S,07355.1555,W,11.17,180.07,180411,,,A*51
$GPGGA,181654.996,1453.0998,S,07355.1556,W,1,08,0.9,4125.7,M,23.4,M,,0000*63
$GPGSA,M,3,18,21,30,31,25,22,29,06,,,,,2.2,0.9,2.0*34
$GPGSV,3,1,12,18,52,044,29,21,51,166,37,30,42,208,38,31,42,302,40*7A
$GPGSV,3,2,12,25,38,051,34,22,35,002,38,29,20,119,32,16,20,212,*7E
$GPGSV,3,3,12,06,14,236,33,03,05,242,,14,04,352,,12,01,043,*7C
$GPRMC,181654.996,A,1453.0998,S,07355.1556,W,11.05,180.53,180411,,,A*57
$GPGGA,181656.001,1453.1029,S,07355.1558,W,1,08,0.9,4125.9,M,23.4,M,,0000*64
$GPGSA,M,3,18,21,30,31,25,22,29,06,,,,,2.2,0.9,2.0*34
$GPRMC,181656.001,A,1453.1029,S,07355.1558,W,10.64,185.36,180411,,,A*5E
$GPGGA,181656.999,1453.1059,S,07355.1559,W,1,08,0.9,4125.1,M,23.4,M,,0000*62
$GPGSA,M,3,18,21,30,31,25,22,29,06,,,,,2.2,0.9,2.0*34
$GPRMC,181656.999,A,1453.1059,S,07355.1559,W,11.05,186.85,180411,,,A*5D
$GPGGA,181658.002,1453.1088,S,07355.1565,W,1,09,0.9,4124.1,M,23.4,M,,0000*64
$GPGSA,M,3,18,21,30,31,25,22,29,16,06,,,,2.2,0.9,2.0*33
$GPRMC,181658.002,A,1453.1088,S,07355.1565,W,10.81,188.19,180411,,,A*5D
$GPGGA,181658.997,1453.1118,S,07355.1564,W,1,08,1.0,4122.2,M,23.4,M,,0000*64
$GPGSA,M,3,18,21,31,25,22,29,16,06,,,,,2.4,1.0,2.2*3C
$GPRMC,181658.997,A,1453.1118,S,07355.1564,W,10.80,183.50,180411,,,A*56
$GPGGA,181700.001,1453.1149,S,07355.1567,W,1,08,0.9,4121.1,M,23.4,M,,0000*61
$GPGSA,M,3,18,21,30,31,25,22,29,06,,,,,2.2,0.9,2.0*34
$GPGSV,3,1,12,18,52,044,34,21,51,166,37,30,42,208,31,31,42,302,37*7F
$GPGSV,3,2,12,25,38,051,33,22,35,002,38,29,20,119,34,16,20,212,*7F
$GPGSV,3,3,12,06,14,236,33,03,05,242,,14,04,352,,12,01,043,*7C
$GPRMC,181700.001,A,1453.1149,S,07355.1567,W,11.42,188.37,180411,,,A*5E
$GPGGA,181701.001,1453.1179,S,07355.1575,W,1,07,1.0,4121.7,M,23.4,M,,0000*61
$GPGSA,M,3,21,30,31,25,22,29,06,,,,,,2.4,1.0,2.2*31
$GPRMC,181701.001,A,1453.1179,S,07355.1575,W,11.20,191.38,180411,,,A*5C
$GPGGA,181702.000,1453.1211,S,07355.1580,W,1,06,1.4,4122.1,M,23.4,M,,0000*64
$GPGSA,M,3,18,21,30,31,25,22,,,,,,,6.7,1.4,6.6*36
$GPRMC,181702.000,A,1453.1211,S,07355.1580,W,10.86,189.56,180411,,,A*55
$GPGGA,181703.002,1453.1241,S,07355.1584,W,1,08,1.0,4121.9,M,23.4,M,,0000*67
$GPGSA,M,3,18,21,30,31,25,22,16,29,,,,,2.5,1.0,2.3*39
$GPRMC,181703.002,A,1453.1241,S,07355.1584,W,9.55,187.31,180411,,,A*6E
$GPGGA,181703.998,1453.1269,S,07355.1592,W,1,09,0.9,4122.8,M,23.4,M,,0000*6B
$GPGSA,M,3,18,21,30,31,25,22,16,29,06,,,,2.2,0.9,2.0*33
$GPRMC,181703.998,A,1453.1269,S,07355.1592,W,9.79,189.57,180411,,,A*69
$GPGGA,181705.021,1453.1295,S,07355.1599,W,1,09,0.9,4122.4,M,23.4,M,,0000*62
$GPGSA,M,3,18,21,30,31,25,22,16,29,06,,,,2.2,0.9,2.0*33
$GPGSV,3,1,12,18,52,045,38,21,50,165,34,30,43,208,37,31,42,303,37*75
$GPGSV,3,2,12,25,38,051,29,22,36,002,38,16,20,212,32,29,20,119,28*7B
$GPGSV,3,3,12,06,14,235,28,03,05,241,,14,04,352,,12,00,042,*76
$GPRMC,181705.021,A,1453.1295,S,07355.1599,W,9.94,195.18,180411,,,A*69
$GPGGA,181705.979,1453.1319,S,07355.1606,W,1,08,1.0,4121.3,M,23.4,M,,0000*6B
$GPGSA,M,3,18,21,30,31,25,22,16,29,,,,,2.5,1.0,2.3*39
$GPRMC,181705.979,A,1453.1319,S,07355.1606,W,9.10,190.63,180411,,,A*68
$GPGGA,181706.999,1453.1343,S,07355.1614,W,1,08,1.0,4121.4,M,23.4,M,,0000*6D
$GPGSA,M,3,18,21,30,31,25,22,16,29,,,,,2.5,1.0,2.3*39
$GPRMC,181706.999,A,1453.1343,S,07355.1614,W,8.62,195.59,180411,,,A*61
$GPGGA,181707.999,1453.1363,S,07355.1618,W,1,08,1.0,4120.6,M,23.4,M,,0000*61
$GPGSA,M,3,18,21,30,31,25,22,16,29,,,,,2.5,1.0,2.3*39
$GPRMC,181707.999,A,1453.1363,S,07355.1618,W,8.36,189.44,180411,,,A*6E
$GPGGA,181708.998,1453.1385,S,07355.1622,W,1,08,1.0,4119.5,M,23.4,M,,0000*67
$GPGSA,M,3,18,21,30,31,25,22,16,29,,,,,2.5,1.0,2.4*3E
$GPRMC,181708.998,A,1453.1385,S,07355.1622,W,8.55,185.16,180411,,,A*6F
$GPGGA,181710.002,1453.1409,S,07355.1626,W,1,09,0.9,4120.7,M,23.4,M,,0000*62
$GPGSA,M,3,18,21,30,31,25,22,16,29,06,,,,2.2,0.9,2.0*33
$GPGSV,3,1,12,18,52,045,34,21,50,165,36,30,43,208,39,31,42,303,37*75
$GPGSV,3,2,12,25,38,051,38,22,36,002,39,16,20,212,31,29,20,119,31*71
$GPGSV,3,3,12,06,14,235,34,03,05,241,,14,04,352,,12,00,042,*7B
$GPRMC,181710.002,A,1453.1409,S,07355.1626,W,8.73,187.69,180411,,,A*65
$GPGGA,181711.000,1453.1432,S,07355.1632,W,1,09,0.9,4120.5,M,23.4,M,,0000*6E
$GPGSA,M,3,18,21,30,31,25,22,16,29,06,,,,2.2,0.9,2.0*33
$GPRMC,181711.000,A,1453.1432,S,07355.1632,W,8.55,184.62,180411,,,A*67
$GPGGA,181712.000,1453.1457,S,07355.1637,W,1,09,0.9,4121.6,M,23.4,M,,0000*69
$GPGSA,M,3,18,21,30,31,25,22,16,29,06,,,,2.2,0.9,2.0*33
$GPRMC,181712.000,A,1453.1457,S,07355.1637,W,8.99,188.74,180411,,,A*69
$GPGGA,181713.001,1453.1484,S,07355.1636,W,1,07,1.1,4122.1,M,23.4,M,,0000*65
$GPGSA,M,3,18,21,30,31,25,22,29,,,,,,3.2,1.1,3.0*3B
$GPRMC,181713.001,A,1453.1484,S,07355.1636,W,9.08,182.40,180411,,,A*62
$GPGGA,181713.999,1453.1508,S,07355.1635,W,1,09,0.9,4122.2,M,23.4,M,,0000*6F
$GPGSA,M,3,18,21,30,31,25,22,16,29,06,,,,2.2,0.9,2.0*33
$GPRMC,181713.999,A,1453.1508,S,07355.1635,W,9.00,185.82,180411,,,A*6D
$GPGGA,181714.999,1453.1535,S,07355.1637,W,1,09,0.9,4122.5,M,23.4,M,,0000*63
$GPGSA,M,3,18,21,30,31,25,22,16,29,06,,,,2.2,0.9,2.0*33
$GPGSV,3,1,12,18,52,045,36,21,50,165,39,30,43,208,36,31,42,303,39*79
$GPGSV,3,2,12,25,38,051,31,22,36,002,38,16,20,212,31,29,20,119,36*7E
$GPGSV,3,3,12,06,14,235,23,03,05,241,,14,04,352,,12,00,042,*7D
$GPRMC,181714.999,A,1453.1535,S,07355.1637,W,9.80,182.83,180411,,,A*68
$GPGGA,181715.999,1453.1564,S,07355.1641,W,1,07,1.1,4122.3,M,23.4,M,,0000*66
$GPGSA,M,3,18,21,30,31,25,22,29,,,,,,3.2,1.1,3.0*3B
$GPRMC,181715.999,A,1453.1564,S,07355.1641,W,10.45,185.23,180411,,,A*50
$GPGGA,181717.000,1453.1593,S,07355.1646,W,1,07,1.5,4122.3,M,23.4,M,,0000*66
$GPGSA,M,3,18,21,30,31,22,16,06,,,,,,3.3,1.5,2.9*3B
$GPRMC,181717.000,A,1453.1593,S,07355.1646,W,9.84,186.88,180411,,,A*63
$GPGGA,181718.000,1453.1618,S,07355.1646,W,1,09,0.9,4122.9,M,23.4,M,,0000*60
$GPGSA,M,3,18,21,30,31,25,22,16,29,06,,,,2.2,0.9,2.0*33
$GPRMC,181718.000,A,1453.1618,S,07355.1646,W,8.97,180.65,180411,,,A*6A
$GPGGA,181719.001,1453.1642,S,07355.1649,W,1,09,0.9,4122.1,M,23.4,M,,0000*68
$GPGSA,M,3,18,21,30,31,25,22,16,29,06,,,,2.2,0.9,2.0*33
$GPRMC,181719.001,A,1453.1642,S,07355.1649,W,9.28,188.27,180411,,,A*61
$GPGGA,181720.000,1453.1668,S,07355.1653,W,1,09,0.9,4122.1,M,23.4,M,,0000*60
$GPGSA,M,3,18,21,30,31,25,22,16,29,06,,,,2.2,0.9,2.0*33
$GPGSV,3,1,12,18,52,045,32,21,50,165,35,30,43,208,35,31,42,303,37*7C
$GPGSV,3,2,12,25,38,051,37,22,36,002,37,16,20,212,24,29,20,119,30*75
$GPGSV,3,3,12,06,14,235,24,03,05,241,,14,04,352,,12,00,042,*7A
$GPRMC,181720.000,A,1453.1668,S,07355.1653,W,8.67,193.45,180411,,,A*6D
$GPGGA,181720.999,1453.1691,S,07355.1655,W,1,08,1.0,4121.1,M,23.4,M,,0000*63
$GPGSA,M,3,18,21,30,31,25,22,16,29,,,,,2.5,1.0,2.4*3E
$GPRMC,181720.999,A,1453.1691,S,07355.1655,W,8.95,190.03,180411,,,A*68
$GPGGA,181722.001,1453.1717,S,07355.1658,W,1,07,1.0,4120.1,M,23.4,M,,0000*65
$GPGSA,M,3,18,21,31,25,22,29,06,,,,,,2.5,1.0,2.2*3A
$GPRMC,181722.001,A,1453.1717,S,07355.1658,W,9.30,187.38,180411,,,A*60
$GPGGA,181723.002,1453.1741,S,07355.1663,W,1,09,0.9,4121.0,M,23.4,M,,0000*6A
$GPGSA,M,3,18,21,30,31,25,22,16,29,06,,,,2.2,0.9,2.0*33
$GPRMC,181723.002,A,1453.1741,S,07355.1663,W,9.31,186.89,180411,,,A*63
$GPGGA,181723.999,1453.1765,S,07355.1665,W,1,09,0.9,4120.3,M,23.4,M,,0000*63
$GPGSA,M,3,18,21,30,31,25,22,16,29,06,,,,2.2,0.9,2.0*33
$GPRMC,181723.999,A,1453.1765,S,07355.1665,W,9.37,184.24,180411,,,A*6B
$GPGGA,181725.001,1453.1791,S,07355.1666,W,1,09,0.9,4118.6,M,23.4,M,,0000*6B
$GPGSA,M,3,18,21,30,31,25,22,16,29,06,,,,2.2,0.9,2.0*33
$GPGSV,3,1,12,18,52,045,28,21,50,165,38,30,43,208,30,31,42,303,36*7E
$GPGSV,3,2,12,25,38,051,37,22,36,002,38,16,20,212,31,29,20,119,31*7F
$GPGSV,3,3,12,06,14,235,29,03,05,241,,14,04,352,,12,00,042,*77
$GPRMC,181725.001,A,1453.1791,S,07355.1666,W,9.21,185.50,180411,,,A*68
$GPGGA,181726.000,1453.1814,S,07355.1667,W,1,09,0.9,4117.1,M,23.4,M,,0000*62
$GPGSA,M,3,18,21,30,31,25,22,16,29,06,,,,2.2,0.9,2.0*33
$GPRMC,181726.000,A,1453.1814,S,07355.1667,W,9.00,186.48,180411,,,A*60
$GPGGA,181726.998,1453.1837,S,07355.1671,W,1,08,1.0,4117.9,M,23.4,M,,0000*6D
$GPGSA,M,3,18,21,30,31,25,22,16,29,,,,,2.5,1.0,2.4*3E
$GPRMC,181726.998,A,1453.1837,S,07355.1671,W,9.06,187.48,180411,,,A*69
$GPGGA,181728.004,1453.1861,S,07355.1674,W,1,07,1.0,4118.1,M,23.4,M,,0000*61
$GPGSA,M,3,21,30,31,25,22,16,29,,,,,,2.8,1.0,2.6*38
$GPRMC,181728.004,A,1453.1861,S,07355.1674,W,7.80,183.26,180411,,,A*61
$GPGGA,181728.999,1453.1881,S,07355.1677,W,1,09,0.9,4117.9,M,23.4,M,,0000*60
$GPGSA,M,3,18,21,30,31,25,22,16,29,06,,,,2.2,0.9,2.0*33
$GPRMC,181728.999,A,1453.1881,S,07355.1677,W,6.99,185.94,180411,,,A*67
$GPGGA,181730.021,1453.1900,S,07355.1679,W,1,07,1.0,4117.5,M,23.4,M,,0000*6F
$GPGSA,M,3,21,30,31,25,22,16,29,,,,,,2.8,1.0,2.6*38
$GPGSV,3,1,12,18,52,045,,21,50,165,38,30,43,208,38,31,42,303,39*73
$GPGSV,3,2,12,25,38,051,38,22,36,002,37,16,20,212,31,29,20,119,36*78
$GPGSV,3,3,12,06,14,235,,03,05,241,,14,04,352,,12,00,042,*7C
$GPRMC,181730.021,A,1453.1900,S,07355.1679,W,7.20,184.72,180411,,,A*68
$GPGGA,181730.980,1453.1920,S,07355.1679,W,1,07,1.0,4118.1,M,23.4,M,,0000*64
$GPGSA,M,3,21,30,31,25,22,29,06,,,,,,2.4,1.0,2.2*31
$GPRMC,181730.980,A,1453.1920,S,07355.1679,W,7.84,181.80,180411,,,A*6E
$GPGGA,181731.997,1453.1941,S,07355.1678,W,1,09,0.9,4117.7,M,23.4,M,,0000*6A
$GPGSA,M,3,18,21,30,31,25,22,16,29,06,,,,2.2,0.9,2.0*33
$GPRMC,181731.997,A,1453.1941,S,07355.1678,W,6.71,184.89,180411,,,A*68
$GPGGA,181732.999,1453.1958,S,07355.1678,W,1,08,1.0,4116.9,M,23.4,M,,0000*69
$GPGSA,M,3,18,21,30,31,25,22,16,29,,,,,2.6,1.0,2.4*3D
$GPRMC,181732.999,A,1453.1958,S,07355.1678,W,6.73,184.03,180411,,,A*6D
$GPGGA,181734.002,1453.1976,S,07355.1678,W,1,07,1.0,4117.2,M,23.4,M,,0000*6D
$GPGSA,M,3,18,21,31,25,22,16,29,,,,,,2.7,1.0,2.5*3E
$GPRMC,181734.002,A,1453.1976,S,07355.1678,W,7.03,180.99,180411,,,A*6D
$GPGGA,181735.000,1453.1995,S,07355.1680,W,1,07,1.0,4117.1,M,23.4,M,,0000*67
$GPGSA,M,3,21,30,31,25,22,16,29,,,,,,2.8,1.0,2.6*38
$GPGSV,3,1,12,18,52,045,,21,50,165,39,30,43,208,36,31,42,303,38*7D
$GPGSV,3,2,12,25,38,051,36,22,36,002,36,16,20,212,30,29,20,119,34*74
$GPGSV,3,3,12,06,14,235,,03,05,241,,14,04,352,,12,00,042,*7C
$GPRMC,181735.000,A,1453.1995,S,07355.1680,W,6.86,182.09,180411,,,A*63
$GPGGA,181736.001,1453.2015,S,07355.1680,W,1,07,1.0,4118.6,M,23.4,M,,0000*6F
$GPGSA,M,3,21,30,31,25,22,16,29,,,,,,2.8,1.0,2.6*38
$GPRMC,181736.001,A,1453.2015,S,07355.1680,W,7.45,181.90,180411,,,A*6E
$GPGGA,181737.001,1453.2036,S,07355.1684,W,1,07,1.1,4118.7,M,23.4,M,,0000*6B
$GPGSA,M,3,18,21,30,31,25,22,29,,,,,,3.2,1.1,3.0*3B
$GPRMC,181737.001,A,1453.2036,S,07355.1684,W,8.26,180.35,180411,,,A*6E
$GPGGA,181737.999,1453.2059,S,07355.1682,W,1,08,0.9,4118.7,M,23.4,M,,0000*6A
$GPGSA,M,3,18,21,30,31,25,22,29,06,,,,,2.3,0.9,2.0*35
$GPRMC,181737.999,A,1453.2059,S,07355.1682,W,7.82,180.24,180411,,,A*68
$GPGGA,181739.002,1453.2080,S,07355.1680,W,1,07,1.1,4117.0,M,23.4,M,,0000*67
$GPGSA,M,3,18,21,30,31,25,22,29,,,,,,3.2,1.1,3.0*3B
$GPRMC,181739.002,A,1453.2080,S,07355.1680,W,7.70,179.77,180411,,,A*66
$GPGGA,181739.998,1453.2102,S,07355.1679,W,1,08,0.9,4117.7,M,23.4,M,,0000*61
$GPGSA,M,3,18,21,30,31,25,22,29,06,,,,,2.3,0.9,2.0*35
$GPGSV,3,1,12,18,52,045,37,21,50,165,40,30,43,208,37,31,42,303,40*79
$GPGSV,3,2,12,25,38,051,37,22,36,002,36,16,20,212,,29,20,119,34*76
$GPGSV,3,3,12,06,14,235,29,03,05,241,,14,04,352,,12,00,042,*77
$GPRMC,181739.998,A,1453.2102,S,07355.1679,W,8.55,180.26,180411,,,A*6B
$GPGGA,181741.002,1453.2128,S,07355.1676,W,1,07,1.2,4118.8,M,23.4,M,,0000*66
$GPGSA,M,3,18,21,30,31,25,22,16,,,,,,3.3,1.2,3.1*34
$GPRMC,181741.002,A,1453.2128,S,07355.1676,W,8.18,177.96,180411,,,A*63
$GPGGA,181741.998,1453.2149,S,07355.1676,W,1,09,0.9,4119.1,M,23.4,M,,0000*67
$GPGSA,M,3,18,21,30,31,25,22,16,29,06,,,,2.2,0.9,2.0*33
$GPRMC,181741.998,A,1453.2149,S,07355.1676,W,8.31,183.27,180411,,,A*64
$GPGGA,181743.000,1453.2171,S,07355.1681,W,1,09,0.9,4120.0,M,23.4,M,,0000*65
$GPGSA,M,3,18,21,30,31,25,22,16,29,06,,,,2.2,0.9,2.0*33
$GPRMC,181743.000,A,1453.2171,S,07355.1681,W,8.00,184.21,180411,,,A*6E
$GPGGA,181744.000,1453.2194,S,07355.1682,W,1,08,0.9,4121.5,M,23.4,M,,0000*6F
$GPGSA,M,3,18,21,30,31,25,22,29,06,,,,,2.3,0.9,2.0*35
$GPRMC,181744.000,A,1453.2194,S,07355.1682,W,7.87,181.48,180411,,,A*6B
$GPGGA,181744.998,1453.2211,S,07355.1678,W,1,08,0.9,4122.2,M,23.4,M,,0000*68
$GPGSA,M,3,18,21,30,31,25,22,29,06,,,,,2.3,0.9,2.0*35
$GPGSV,3,1,12,18,52,045,33,21,50,165,39,30,43,208,38,31,42,303,39*72
$GPGSV,3,2,12,25,38,051,37,22,36,002,39,16,20,212,,29,20,119,29*75
$GPGSV,3,3,12,06,14,235,28,03,05,241,,14,04,352,,12,00,042,*76
$GPRMC,181744.998,A,1453.2211,S,07355.1678,W,6.98,176.24,180411,,,A*65
$GPGGA,181746.004,1453.2230,S,07355.1680,W,1,07,1.3,4121.9,M,23.4,M,,0000*6E
$GPGSA,M,3,18,21,30,31,25,22,06,,,,,,3.1,1.3,2.8*3E
$GPRMC,181746.004,A,1453.2230,S,07355.1680,W,7.65,180.84,180411,,,A*6F
$GPGGA,181746.998,1453.2252,S,07355.1679,W,1,09,0.9,4122.9,M,23.4,M,,0000*66
$GPGSA,M,3,18,21,30,31,25,22,16,29,06,,,,2.2,0.9,2.0*33
$GPRMC,181746.998,A,1453.2252,S,07355.1679,W,8.10,186.05,180411,,,A*63
$GPGGA,181748.020,1453.2276,S,07355.1683,W,1,09,0.9,4122.9,M,23.4,M,,0000*61
$GPGSA,M,3,18,21,30,31,25,22,16,29,06,,,,2.2,0.9,2.0*33
$GPRMC,181748.020,A,1453.2276,S,07355.1683,W,8.58,181.77,180411,,,A*6A
$GPGGA,181748.980,1453.2298,S,07355.1683,W,1,08,0.9,4123.1,M,23.4,M,,0000*6A
$GPGSA,M,3,18,21,30,31,25,22,29,06,,,,,2.3,0.9,2.0*35
$GPRMC,181748.980,A,1453.2298,S,07355.1683,W,8.33,180.26,180411,,,A*61
$GPGGA,181750.001,1453.2321,S,07355.1685,W,1,09,0.9,4122.2,M,23.4,M,,0000*65
$GPGSA,M,3,18,21,30,31,25,22,16,29,06,,,,2.2,0.9,2.0*33
$GPGSV,3,1,12,18,52,045,30,21,50,165,39,30,43,208,39,31,42,303,41*7F
$GPGSV,3,2,12,25,38,051,38,22,36,002,39,16,20,212,31,29,20,119,31*71
$GPGSV,3,3,12,06,14,235,32,03,05,241,,14,04,352,,12,00,042,*7D
$GPRMC,181750.001,A,1453.2321,S,07355.1685,W,8.34,185.27,180411,,,A*6E
$GPGGA,181751.000,1453.2345,S,07355.1687,W,1,09,0.9,4122.4,M,23.4,M,,0000*63
$GPGSA,M,3,18,21,30,31,25,22,16,29,06,,,,2.2,0.9,2.0*33
$GPRMC,181751.000,A,1453.2345,S,07355.1687,W,8.41,187.28,180411,,,A*61
$GPGGA,181752.001,1453.2369,S,07355.1689,W,1,09,0.9,4124.0,M,23.4,M,,0000*63
$GPGSA,M,3,18,21,30,31,25,22,16,29,06,,,,2.2,0.9,2.0*33
$GPRMC,181752.001,A,1453.2369,S,07355.1689,W,8.34,184.44,180411,,,A*68
$GPGGA,181753.001,1453.2393,S,07355.1692,W,1,08,1.0,4122.5,M,23.4,M,,0000*67
$GPGSA,M,3,18,21,30,31,22,16,29,06,,,,,2.2,1.0,2.0*3C
$GPRMC,181753.001,A,1453.2393,S,07355.1692,W,8.30,189.67,180411,,,A*6E
$GPGGA,181754.001,1453.2414,S,07355.1696,W,1,09,0.9,4121.4,M,23.4,M,,0000*67
$GPGSA,M,3,18,21,30,31,25,22,16,29,06,,,,2.2,0.9,2.0*33
$GPRMC,181754.001,A,1453.2414,S,07355.1696,W,8.66,187.24,180411,,,A*6F
$GPGGA,181755.001,1453.2440,S,07355.1697,W,1,09,0.9,4119.7,M,23.4,M,,0000*6E
$GPGSA,M,3,18,21,30,31,25,22,16,29,06,,,,2.2,0.9,2.0*33
$GPGSV,3,1,12,18,52,045,30,21,50,165,39,30,43,208,37,31,42,303,37*70
$GPGSV,3,2,12,25,38,051,31,22,36,002,38,16,20,212,35,29,20,119,35*79
$GPGSV,3,3,12,06,14,235,27,03,05,241,,14,04,352,,12,00,042,*79
$GPRMC,181755.001,A,1453.2440,S,07355.1697,W,9.08,185.02,180411,,,A*61
$GPGGA,181755.999,1453.2462,S,07355.1698,W,1,08,1.2,4119.5,M,23.4,M,,0000*60
$GPGSA,M,3,18,21,30,31,25,22,16,06,,,,,2.8,1.2,2.5*3D
$GPRMC,181755.999,A,1453.2462,S,07355.1698,W,8.44,182.84,180411,,,A*66
$GPGGA,181757.001,1453.2485,S,07355.1698,W,1,09,0.9,4121.0,M,23.4,M,,0000*66
$GPGSA,M,3,18,21,30,31,25,22,16,29,06,,,,2.2,0.9,2.0*33
$GPRMC,181757.001,A,1453.2485,S,07355.1698,W,8.74,185.08,180411,,,A*65
$GPGGA,181758.001,1453.2510,S,07355.1702,W,1,09,0.9,4119.4,M,23.4,M,,0000*69
$GPGSA,M,3,18,21,30,31,25,22,16,29,06,,,,2.2,0.9,2.0*33
$GPRMC,181758.001,A,1453.2510,S,07355.1702,W,9.54,186.04,180411,,,A*69
$GPGGA,181759.002,1453.2536,S,07355.1705,W,1,09,0.9,4118.5,M,23.4,M,,0000*68
$GPGSA,M,3,18,21,30,31,25,22,16,29,06,,,,2.2,0.9,2.0*33
$GPRMC,181759.002,A,1453.2536,S,07355.1705,W,9.15,188.69,180411,,,A*68
$GPGGA,181759.998,1453.2560,S,07355.1709,W,1,08,1.2,4117.8,M,23.4,M,,0000*64
$GPGSA,M,3,18,21,30,31,25,22,16,06,,,,,2.8,1.2,2.5*3D
$GPGSV,3,1,12,18,52,045,36,21,50,165,38,30,43,208,38,31,42,303,38*77
$GPGSV,3,2,12,25,38,051,39,22,36,002,36,16,20,212,32,29,20,119,*7E
$GPGSV,3,3,12,06,14,235,37,03,05,241,,14,04,352,,12,00,042,*78
$GPRMC,181759.998,A,1453.2560,S,07355.1709,W,8.66,185.31,180411,,,A*68
$GPGGA,181801.002,1453.2583,S,07355.1709,W,1,09,0.9,4117.7,M,23.4,M,,0000*65
$GPGSA,M,3,18,21,30,31,25,22,16,29,06,,,,2.2,0.9,2.0*33
$GPRMC,181801.002,A,1453.2583,S,07355.1709,W,8.77,184.09,180411,,,A*67
$GPGGA,181801.999,1453.2607,S,07355.1711,W,1,08,1.2,4117.3,M,23.4,M,,0000*67
$GPGSA,M,3,18,21,30,31,25,22,16,06,,,,,2.8,1.2,2.5*3D
$GPRMC,181801.999,A,1453.2607,S,07355.1711,W,9.21,179.43,180411,,,A*64
$GPGGA,181803.002,1453.2632,S,07355.1707,W,1,08,1.2,4118.5,M,23.4,M,,0000*66
$GPGSA,M,3,18,21,30,31,25,22,16,06,,,,,2.8,1.2,2.5*3D
$GPRMC,181803.002,A,1453.2632,S,07355.1707,W,8.96,174.54,180411,,,A*6A
$GPGGA,181803.998,1453.2657,S,07355.1705,W,1,08,1.2,4118.9,M,23.4,M,,0000*61
$GPGSA,M,3,18,21,30,31,25,22,16,06,,,,,2.8,1.2,2.5*3D
$GPRMC,181803.998,A,1453.2657,S,07355.1705,W,8.78,170.25,180411,,,A*63
$GPGGA,181805.001,1453.2677,S,07355.1701,W,1,08,1.2,4117.9,M,23.4,M,,0000*67
$GPGSA,M,3,18,21,30,31,25,22,16,06,,,,,2.8,1.2,2.5*3D
$GPGSV,3,1,12,18,52,045,31,21,50,165,38,30,43,208,38,31,42,303,39*71
$GPGSV,3,2,12,25,38,051,38,22,36,002,37,16,20,212,29,29,20,119,*74
$GPGSV,3,3,12,06,14,235,35,03,05,241,,14,04,352,29,12,00,042,*71
$GPRMC,181805.001,A,1453.2677,S,07355.1701,W,8.13,172.55,180411,,,A*62
$GPGGA,181806.001,1453.2699,S,07355.1696,W,1,09,0.9,4116.0,M,23.4,M,,0000*68
$GPGSA,M,3,18,21,30,31,25,22,16,29,06,,,,2.2,0.9,2.0*33
$GPRMC,181806.001,A,1453.2699,S,07355.1696,W,8.31,168.97,180411,,,A*6B
$GPGGA,181807.001,1453.2723,S,07355.1691,W,1,08,0.9,4116.4,M,23.4,M,,0000*6B
$GPGSA,M,3,18,21,30,31,25,22,29,06,,,,,2.3,0.9,2.0*35
$GPRMC,181807.001,A,1453.2723,S,07355.1691,W,7.99,170.47,180411,,,A*64
$GPGGA,181808.001,1453.2746,S,07355.1688,W,1,08,1.2,4116.0,M,23.4,M,,0000*61
$GPGSA,M,3,18,21,30,31,25,22,16,06,,,,,2.8,1.2,2.5*3D
$GPRMC,181808.001,A,1453.2746,S,07355.1688,W,8.14,179.84,180411,,,A*6C
$GPGGA,181809.001,1453.2768,S,07355.1686,W,1,08,1.2,4115.0,M,23.4,M,,0000*61
$GPGSA,M,3,18,21,30,31,25,22,16,06,,,,,2.8,1.2,2.5*3D
$GPRMC,181809.001,A,1453.2768,S,07355.1686,W,7.65,175.03,180411,,,A*65
$GPGGA,181810.000,1453.2790,S,07355.1681,W,1,08,1.2,4115.8,M,23.4,M,,0000*60
$GPGSA,M,3,18,21,30,31,25,22,16,06,,,,,2.8,1.2,2.5*3D
$GPGSV,3,1,12,18,52,045,34,21,50,165,39,30,43,208,37,31,42,303,38*7B
$GPGSV,3,2,12,25,38,051,33,22,36,002,34,16,20,212,31,29,20,119,*75
$GPGSV,3,3,12,06,14,235,35,03,05,241,,14,04,352,28,12,00,042,*70
$GPRMC,181810.000,A,1453.2790,S,07355.1681,W,8.42,164.85,180411,,,A*68
$GPGGA,181810.998,1453.2815,S,07355.1675,W,1,07,1.3,4116.9,M,23.4,M,,0000*6D
$GPGSA,M,3,18,21,30,31,25,22,06,,,,,,3.1,1.3,2.8*3E
$GPRMC,181810.998,A,1453.2815,S,07355.1675,W,8.40,174.27,180411,,,A*62
$GPGGA,181812.000,1453.2838,S,07355.1673,W,1,06,1.4,4117.2,M,23.4,M,,0000*62
$GPGSA,M,3,18,21,30,31,25,22,,,,,,,6.8,1.4,6.6*39
$GPRMC,181812.000,A,1453.2838,S,07355.1673,W,8.92,175.45,180411,,,A*6B
$GPGGA,181813.001,1453.2861,S,07355.1672,W,1,08,1.0,4117.1,M,23.4,M,,0000*66
$GPGSA,M,3,18,21,30,31,25,22,16,29,,,,,2.6,1.0,2.4*3D
$GPRMC,181813.001,A,1453.2861,S,07355.1672,W,9.11,175.02,180411,,,A*6F
$GPGGA,181814.003,1453.2886,S,07355.1672,W,1,09,0.9,4117.0,M,23.4,M,,0000*62
$GPGSA,M,3,18,21,30,31,25,22,16,29,06,,,,2.2,0.9,2.0*33
$GPRMC,181814.003,A,1453.2886,S,07355.1672,W,9.51,184.45,180411,,,A*6A
$GPGGA,181814.998,1453.2912,S,07355.1675,W,1,09,0.9,4116.5,M,23.4,M,,0000*66
$GPGSA,M,3,18,21,30,31,25,22,16,29,06,,,,2.2,0.9,2.0*33
$GPGSV,3,1,12,18,52,045,35,21,50,165,39,30,43,208,37,31,42,303,39*7B
$GPGSV,3,2,12,25,38,051,35,22,36,002,34,16,20,212,29,29,20,119,26*7E
$GPGSV,3,3,12,06,14,235,37,03,05,241,,14,04,352,,12,00,042,*78
$GPRMC,181814.998,A,1453.2912,S,07355.1675,W,10.30,185.57,180411,,,A*57
$GPGGA,181815.999,1453.2938,S,07355.1675,W,1,08,1.2,4116.6,M,23.4,M,,0000*66
$GPGSA,M,3,18,21,30,31,25,22,16,06,,,,,2.8,1.2,2.5*3D
$GPRMC,181815.999,A,1453.2938,S,07355.1675,W,10.16,183.18,180411,,,A*56
$GPGGA,181816.999,1453.2965,S,07355.1671,W,1,07,1.2,4116.9,M,23.4,M,,0000*69
$GPGSA,M,3,18,21,30,31,25,22,16,,,,,,3.3,1.2,3.1*34
$GPRMC,181816.999,A,1453.2965,S,07355.1671,W,10.27,177.65,180411,,,A*5A
$GPGGA,181818.003,1453.2993,S,07355.1668,W,1,08,0.9,4117.7,M,23.4,M,,0000*66
$GPGSA,M,3,18,21,30,31,25,22,29,06,,,,,2.3,0.9,2.0*35
$GPRMC,181818.003,A,1453.2993,S,07355.1668,W,9.49,178.46,180411,,,A*61
$GPGGA,181818.998,1453.3019,S,07355.1669,W,1,08,1.2,4117.0,M,23.4,M,,0000*6B
$GPGSA,M,3,18,21,30,31,25,22,16,06,,,,,2.8,1.2,2.5*3D
$GPRMC,181818.998,A,1453.3019,S,07355.1669,W,10.15,184.65,180411,,,A*52
$GPGGA,181820.000,1453.3051,S,07355.1672,W,1,08,1.0,4117.4,M,23.4,M,,0000*68
$GPGSA,M,3,18,21,30,31,25,22,16,29,,,,,2.6,1.0,2.4*3D
$GPGSV,3,1,12,18,52,045,29,21,50,165,39,30,43,208,38,31,42,303,37*77
$GPGSV,3,2,12,25,38,051,38,22,36,002,38,16,20,212,30,29,20,119,34*74
$GPGSV,3,3,12,06,14,235,,03,05,241,,14,04,352,,12,00,042,*7C
$GPRMC,181820.000,A,1453.3051,S,07355.1672,W,9.79,186.89,180411,,,A*65
$GPGGA,181821.003,1453.3079,S,07355.1680,W,1,09,0.9,4118.6,M,23.4,M,,0000*69
$GPGSA,M,3,18,21,30,31,25,22,16,29,06,,,,2.2,0.9,2.0*33
$GPRMC,181821.003,A,1453.3079,S,07355.1680,W,10.35,187.04,180411,,,A*54
$GPGGA,181821.999,1453.3108,S,07355.1683,W,1,07,1.3,4117.5,M,23.4,M,,0000*6E
$GPGSA,M,3,18,21,30,31,25,22,06,,,,,,3.1,1.3,2.8*3E
$GPRMC,181821.999,A,1453.3108,S,07355.1683,W,10.89,185.60,180411,,,A*5D
$GPGGA,181822.999,1453.3138,S,07355.1683,W,1,09,0.9,4119.0,M,23.4,M,,0000*60
$GPGSA,M,3,18,21,30,31,25,22,16,29,06,,,,2.2,0.9,2.0*33
$GPRMC,181822.999,A,1453.3138,S,07355.1683,W,10.95,177.35,180411,,,A*5D
$GPGGA,181823.998,1453.3169,S,07355.1675,W,1,09,0.9,4118.1,M,23.4,M,,0000*6D
$GPGSA,M,3,18,21,30,31,25,22,16,29,06,,,,2.2,0.9,2.0*33
$GPRMC,181823.998,A,1453.3169,S,07355.1675,W,10.98,173.69,180411,,,A*50
$GPGGA,181825.002,1453.3198,S,07355.1669,W,1,08,1.0,4117.8,M,23.4,M,,0000*6D
$GPGSA,M,3,18,21,30,31,25,16,29,06,,,,,2.3,1.0,2.0*3A
$GPGSV,3,1,12,18,52,045,32,21,50,165,40,30,43,208,37,31,42,303,38*73
$GPGSV,3,2,12,25,38,051,37,22,36,002,,16,20,212,31,29,20,119,26*72
$GPGSV,3,3,12,06,14,235,33,03,05,241,,14,04,352,28,12,00,042,*76
$GPRMC,181825.002,A,1453.3198,S,07355.1669,W,10.73,165.75,180411,,,A*50
$GPGGA,181825.999,1453.3226,S,07355.1660,W,1,06,1.3,4116.6,M,23.4,M,,0000*6B
$GPGSA,M,3,21,30,31,25,22,16,,,,,,,3.5,1.3,3.3*38
$GPRMC,181825.999,A,1453.3226,S,07355.1660,W,11.10,162.07,180411,,,A*52
$GPGGA,181827.000,1453.3253,S,07355.1650,W,1,07,1.2,4115.4,M,23.4,M,,0000*60
$GPGSA,M,3,21,30,31,25,22,16,06,,,,,,2.9,1.2,2.6*36
$GPRMC,181827.000,A,1453.3253,S,07355.1650,W,10.85,158.79,180411,,,A*55
$GPGGA,181828.000,1453.3282,S,07355.1638,W,1,08,0.9,4114.3,M,23.4,M,,0000*6E
$GPGSA,M,3,18,21,30,31,25,22,29,06,,,,,2.3,0.9,2.0*35
$GPRMC,181828.000,A,1453.3282,S,07355.1638,W,11.03,156.55,180411,,,A*57
$GPGGA,181829.002,1453.3309,S,07355.1621,W,1,09,0.9,4112.4,M,23.4,M,,0000*67
$GPGSA,M,3,18,21,30,31,25,22,16,29,06,,,,2.2,0.9,2.0*33
$GPRMC,181829.002,A,1453.3309,S,07355.1621,W,10.76,153.15,180411,,,A*5C
$GPGGA,181830.000,1453.3335,S,07355.1607,W,1,09,0.9,4112.2,M,23.4,M,,0000*60
$GPGSA,M,3,18,21,30,31,25,22,16,29,06,,,,2.2,0.9,2.0*33
$GPGSV,3,1,12,18,52,045,31,21,50,165,38,30,43,208,40,31,42,303,39*7E
$GPGSV,3,2,12,25,38,051,36,22,36,002,33,16,20,212,27,29,20,119,26*74
$GPGSV,3,3,12,06,14,235,31,03,05,241,,14,04,352,30,12,00,042,*7D
$GPRMC,181830.000,A,1453.3335,S,07355.1607,W,11.19,153.39,180411,,,A*5B
$GPGGA,181830.997,1453.3364,S,07355.1591,W,1,07,1.2,4113.0,M,23.4,M,,0000*68
$GPGSA,M,3,18,21,30,31,25,22,16,,,,,,3.3,1.2,3.1*34
$GPRMC,181830.997,A,1453.3364,S,07355.1591,W,10.93,154.18,180411,,,A*53
$GPGGA,181832.002,1453.3393,S,07355.1579,W,1,08,1.2,4112.1,M,23.4,M,,0000*6E
$GPGSA,M,3,18,21,30,31,25,22,16,06,,,,,2.8,1.2,2.5*3D
$GPRMC,181832.002,A,1453.3393,S,07355.1579,W,11.10,156.31,180411,,,A*59
$GPGGA,181833.000,1453.3422,S,07355.1565,W,1,08,1.2,4113.7,M,23.4,M,,0000*6A
$GPGSA,M,3,18,21,30,31,25,22,16,06,,,,,2.8,1.2,2.5*3D
$GPRMC,181833.000,A,1453.3422,S,07355.1565,W,11.22,155.53,180411,,,A*5C
$GPGGA,181833.999,1453.3451,S,07355.1552,W,1,08,1.2,4114.1,M,23.4,M,,0000*62
$GPGSA,M,3,18,21,30,31,25,22,16,06,,,,,2.8,1.2,2.6*3E
$GPRMC,181833.999,A,1453.3451,S,07355.1552,W,11.64,158.33,180411,,,A*5C
$GPGGA,181835.002,1453.3480,S,07355.1538,W,1,08,1.0,4113.4,M,23.4,M,,0000*6F
$GPGSA,M,3,18,21,30,31,25,22,16,29,,,,,2.6,1.0,2.4*3D
$GPGSV,3,1,12,18,52,045,30,21,50,165,39,30,43,208,40,31,42,303,38*7F
$GPGSV,3,2,12,25,38,051,31,22,36,002,36,16,20,212,32,29,20,119,24*70
$GPGSV,3,3,12,06,14,235,,03,05,241,,14,04,352,29,12,00,042,*77
$GPRMC,181835.002,A,1453.3480,S,07355.1538,W,10.34,157.40,180411,,,A*5E
$GPGGA,181836.000,1453.3509,S,07355.1525,W,1,09,0.9,4113.6,M,23.4,M,,0000*69
$GPGSA,M,3,18,21,30,31,25,22,16,29,06,,,,2.2,0.9,2.0*33
$GPRMC,181836.000,A,1453.3509,S,07355.1525,W,10.71,158.82,180411,,,A*53
$GPGGA,181836.999,1453.3537,S,07355.1511,W,1,06,1.1,4112.2,M,23.4,M,,0000*69
$GPGSA,M,3,21,30,31,22,16,29,,,,,,,2.9,1.1,2.7*3E
$GPRMC,181836.999,A,1453.3537,S,07355.1511,W,10.50,153.31,180411,,,A*50
$GPGGA,181838.001,1453.3564,S,07355.1499,W,1,09,0.9,4113.0,M,23.4,M,,0000*6D
$GPGSA,M,3,18,21,30,31,25,22,16,29,06,,,,2.2,0.9,2.0*33
$GPRMC,181838.001,A,1453.3564,S,07355.1499,W,10.32,156.27,180411,,,A*57
$GPGGA,181838.999,1453.3589,S,07355.1485,W,1,08,1.0,4112.4,M,23.4,M,,0000*67
$GPGSA,M,3,18,21,30,31,25,16,29,06,,,,,2.3,1.0,2.0*3A
$GPRMC,181838.999,A,1453.3589,S,07355.1485,W,10.17,150.52,180411,,,A*52
$GPGGA,181839.999,1453.3612,S,07355.1468,W,1,08,1.0,4111.3,M,23.4,M,,0000*60
$GPGSA,M,3,18,21,30,31,25,22,16,29,,,,,2.6,1.0,2.4*3D
$GPGSV,3,1,12,18,52,045,33,21,50,165,39,30,43,208,39,31,42,303,38*72
$GPGSV,3,2,12,25,38,051,34,22,36,002,33,16,20,212,33,29,20,119,27*72
$GPGSV,3,3,12,06,14,235,,03,05,241,,14,04,352,,12,00,042,*7C
$GPRMC,181839.999,A,1453.3612,S,07355.1468,W,10.27,152.76,180411,,,A*56
$GPGGA,181841.003,1453.3641,S,07355.1451,W,1,09,0.9,4111.1,M,23.4,M,,0000*62
$GPGSA,M,3,18,21,30,31,25,22,16,29,06,,,,2.2,0.9,2.0*33
$GPRMC,181841.003,A,1453.3641,S,07355.1451,W,11.00,155.48,180411,,,A*51
$GPGGA,181841.999,1453.3671,S,07355.1441,W,1,08,0.9,4111.8,M,23.4,M,,0000*62
$GPGSA,M,3,21,30,31,25,22,16,29,06,,,,,2.3,0.9,2.1*3A
$GPRMC,181841.999,A,1453.3671,S,07355.1441,W,11.33,161.46,180411,,,A*50
$GPGGA,181842.997,1453.3698,S,07355.1430,W,1,08,1.0,4112.5,M,23.4,M,,0000*68
$GPGSA,M,3,18,21,30,31,25,22,16,29,,,,,2.6,1.0,2.4*3D
$GPRMC,181842.997,A,1453.3698,S,07355.1430,W,10.46,161.42,180411,,,A*5B
$GPGGA,181844.003,1453.3726,S,07355.1416,W,1,07,1.0,4111.0,M,23.4,M,,0000*63
$GPGSA,M,3,21,30,31,25,22,16,29,,,,,,2.8,1.0,2.6*38
$GPRMC,181844.003,A,1453.3726,S,07355.1416,W,11.39,157.42,180411,,,A*55
$GPGGA,181845.000,1453.3753,S,07355.1404,W,1,09,0.9,4110.2,M,23.4,M,,0000*65
$GPGSA,M,3,18,21,30,31,25,22,16,29,06,,,,2.2,0.9,2.0*33
$GPGSV,3,1,12,18,52,045,31,21,50,165,36,30,43,208,38,31,42,303,39*7F
$GPGSV,3,2,12,25,38,051,36,22,36,002,25,16,20,212,34,29,20,119,30*76
$GPGSV,3,3,12,06,14,235,33,03,05,241,,14,04,352,,12,00,042,*7C
$GPRMC,181845.000,A,1453.3753,S,07355.1404,W,10.71,162.10,180411,,,A*5A
$GPGGA,181845.997,1453.3782,S,07355.1397,W,1,08,0.9,4109.2,M,23.4,M,,0000*6A
$GPGSA,M,3,18,21,30,31,25,22,29,06,,,,,2.3,0.9,2.0*35
$GPRMC,181845.997,A,1453.3782,S,07355.1397,W,10.64,170.31,180411,,,A*58
$GPGGA,181847.003,1453.3811,S,07355.1390,W,1,07,1.3,4108.9,M,23.4,M,,0000*60
$GPGSA,M,3,18,21,30,31,25,22,06,,,,,,3.1,1.3,2.8*3E
$GPRMC,181847.003,A,1453.3811,S,07355.1390,W,10.45,169.86,180411,,,A*5B
$GPGGA,181848.000,1453.3841,S,07355.1384,W,1,09,0.9,4107.8,M,23.4,M,,0000*67
$GPGSA,M,3,18,21,30,31,25,22,16,29,06,,,,2.2,0.9,2.0*33
$GPRMC,181848.000,A,1453.3841,S,07355.1384,W,11.18,173.21,180411,,,A*58
$GPGGA,181849.000,1453.3874,S,07355.1381,W,1,09,0.9,4107.6,M,23.4,M,,0000*6B
$GPGSA,M,3,18,21,30,31,25,22,16,29,06,,,,2.2,0.9,2.0*33
$GPRMC,181849.000,A,1453.3874,S,07355.1381,W,11.32,179.10,180411,,,A*5A
$GPGGA,181850.001,1453.3904,S,07355.1380,W,1,07,1.3,4106.8,M,23.4,M,,0000*6F
$GPGSA,M,3,18,21,30,31,25,22,06,,,,,,3.1,1.3,2.8*3E
$GPGSV,3,1,12,18,52,045,31,21,50,165,39,30,43,208,38,31,42,303,41*7F
$GPGSV,3,2,12,25,38,051,38,22,36,002,36,16,20,212,,29,20,119,*7E
$GPGSV,3,3,12,06,14,235,35,03,05,241,,14,04,352,,12,00,042,*7A
$GPRMC,181850.001,A,1453.3904,S,07355.1380,W,10.67,174.05,180411,,,A*5C
$GPGGA,181850.998,1453.3933,S,07355.1375,W,1,08,0.9,4107.1,M,23.4,M,,0000*64
$GPGSA,M,3,18,21,30,31,25,22,29,06,,,,,2.3,0.9,2.0*35
$GPRMC,181850.998,A,1453.3933,S,07355.1375,W,10.84,174.69,180411,,,A*5C
$GPGGA,181852.002,1453.3962,S,07355.1371,W,1,09,0.9,4106.1,M,23.4,M,,0000*6C
$GPGSA,M,3,18,21,30,31,25,22,16,29,06,,,,2.2,0.9,2.0*33
$GPRMC,181852.002,A,1453.3962,S,07355.1371,W,10.27,173.89,180411,,,A*54
$GPGGA,181852.998,1453.3990,S,07355.1369,W,1,08,0.9,4106.8,M,23.4,M,,0000*6A
$GPGSA,M,3,18,21,30,31,25,22,29,06,,,,,2.3,0.9,2.0*35
$GPRMC,181852.998,A,1453.3990,S,07355.1369,W,10.94,173.45,180411,,,A*52
$GPGGA,181854.003,1453.4020,S,07355.1366,W,1,07,1.3,4106.6,M,23.4,M,,0000*67
$GPGSA,M,3,18,21,30,31,25,22,06,,,,,,3.1,1.3,2.8*3E
$GPRMC,181854.003,A,1453.4020,S,07355.1366,W,11.19,172.51,180411,,,A*55
$GPGGA,181854.998,1453.4053,S,07355.1364,W,1,08,0.9,4106.1,M,23.4,M,,0000*69
$GPGSA,M,3,18,21,30,31,25,22,29,06,,,,,2.3,0.9,2.0*35
$GPGSV,3,1,12,18,52,045,23,21,50,165,41,30,43,208,37,31,42,303,41*7C
$GPGSV,3,2,12,25,38,051,37,22,36,002,35,16,20,212,,29,20,119,30*71
$GPGSV,3,3,12,06,14,235,37,03,05,241,,14,04,352,,12,00,042,*78
$GPRMC,181854.998,A,1453.4053,S,07355.1364,W,11.82,173.56,180411,,,A*5C
$GPGGA,181855.998,1453.4086,S,07355.1361,W,1,09,0.9,4104.8,M,23.4,M,,0000*6F
$GPGSA,M,3,18,21,30,31,25,22,16,29,06,,,,2.2,0.9,2.0*33
$GPRMC,181855.998,A,1453.4086,S,07355.1361,W,11.94,175.14,180411,,,A*57
$GPGGA,181857.002,1453.4117,S,07355.1359,W,1,09,0.9,4104.2,M,23.4,M,,0000*6F
$GPGSA,M,3,18,21,30,31,25,22,16,29,06,,,,2.2,0.9,2.0*33
$GPRMC,181857.002,A,1453.4117,S,07355.1359,W,11.57,177.79,180411,,,A*5B
$GPGGA,181858.000,1453.4151,S,07355.1355,W,1,09,0.9,4103.3,M,23.4,M,,0000*6A
$GPGSA,M,3,18,21,30,31,25,22,16,29,06,,,,2.2,0.9,2.0*33
$GPRMC,181858.000,A,1453.4151,S,07355.1355,W,12.06,175.27,180411,,,A*56
$GPGGA,181859.000,1453.4183,S,07355.1351,W,1,09,0.9,4103.4,M,23.4,M,,0000*67
$GPGSA,M,3,18,21,30,31,25,22,16,29,06,,,,2.2,0.9,2.0*33
$GPRMC,181859.000,A,1453.4183,S,07355.1351,W,11.52,174.13,180411,,,A*58
$GPGGA,181900.002,1453.4215,S,07355.1352,W,1,09,0.9,4102.8,M,23.4,M,,0000*6A
$GPGSA,M,3,18,21,30,31,25,22,16,29,06,,,,2.2,0.9,2.0*33
$GPGSV,3,1,12,18,52,045,31,21,50,165,39,30,43,208,30,31,42,303,41*77
$GPGSV,3,2,12,25,38,051,35,22,36,002,38,16,20,212,31,29,20,119,34*78
$GPGSV,3,3,12,06,14,235,29,03,05,241,25,14,04,352,,12,00,042,*70
$GPRMC,181900.002,A,1453.4215,S,07355.1352,W,11.84,181.06,180411,,,A*5D
$GPGGA,181900.999,1453.4249,S,07355.1356,W,1,07,1.0,4100.8,M,23.4,M,,0000*68
$GPGSA,M,3,18,21,31,25,22,29,06,,,,,,2.5,1.0,2.3*3B
$GPRMC,181900.999,A,1453.4249,S,07355.1356,W,12.11,185.11,180411,,,A*56
$GPGGA,181902.000,1453.4283,S,07355.1357,W,1,09,0.9,4100.4,M,23.4,M,,0000*6E
$GPGSA,M,3,18,21,30,31,25,22,16,29,06,,,,2.2,0.9,2.0*33
$GPRMC,181902.000,A,1453.4283,S,07355.1357,W,11.78,184.35,180411,,,A*51
$GPGGA,181902.999,1453.4318,S,07355.1358,W,1,08,0.9,4100.0,M,23.4,M,,0000*6E
$GPGSA,M,3,18,21,30,31,25,22,29,06,,,,,2.3,0.9,2.0*35
$GPRMC,181902.999,A,1453.4318,S,07355.1358,W,12.14,184.62,180411,,,A*5F
$GPGGA,181904.002,1453.4350,S,07355.1359,W,1,09,0.9,4100.6,M,23.4,M,,0000*69
$GPGSA,M,3,18,21,30,31,25,22,16,29,06,,,,2.2,0.9,2.0*33
$GPRMC,181904.002,A,1453.4350,S,07355.1359,W,11.67,182.54,180411,,,A*5B
$GPGGA,181904.998,1453.4382,S,07355.1358,W,1,06,1.3,4100.8,M,23.4,M,,0000*67
$GPGSA,M,3,21,30,31,25,22,16,,,,,,,3.6,1.3,3.3*3B
$GPGSV,3,1,12,18,52,045,,21,50,165,33,30,43,208,38,31,42,303,41*77
$GPGSV,3,2,12,25,38,051,37,22,36,002,38,16,20,212,26,29,20,119,*7B
$GPGSV,3,3,12,06,14,235,,03,05,241,23,14,04,352,,12,00,042,*7D
$GPRMC,181904.998,A,1453.4382,S,07355.1358,W,11.81,175.98,180411,,,A*5F
$GPGGA,181906.000,1453.4412,S,07355.1354,W,1,09,0.9,4100.3,M,23.4,M,,0000*60
$GPGSA,M,3,18,21,30,31,25,22,16,29,06,,,,2.2,0.9,2.0*33
$GPRMC,181906.000,A,1453.4412,S,07355.1354,W,11.48,176.42,180411,,,A*56
$GPGGA,181906.999,1453.4444,S,07355.1352,W,1,08,0.9,4100.1,M,23.4,M,,0000*6F
$GPGSA,M,3,18,21,30,31,25,22,29,06,,,,,2.3,0.9,2.0*35
$GPRMC,181906.999,A,1453.4444,S,07355.1352,W,11.27,173.49,180411,,,A*5D
$GPGGA,181908.002,1453.4475,S,07355.1348,W,1,09,0.9,4099.6,M,23.4,M,,0000*64
$GPGSA,M,3,18,21,30,31,25,22,16,29,06,,,,2.2,0.9,2.0*33
$GPRMC,181908.002,A,1453.4475,S,07355.1348,W,10.97,170.04,180411,,,A*51
$GPGGA,181909.001,1453.4506,S,07355.1339,W,1,08,1.2,4100.3,M,23.4,M,,0000*6A
$GPGSA,M,3,18,21,30,31,25,22,16,06,,,,,2.8,1.2,2.6*3E
$GPRMC,181909.001,A,1453.4506,S,07355.1339,W,11.56,165.64,180411,,,A*5E
$GPGGA,181910.000,1453.4537,S,07355.1330,W,1,08,1.2,4100.0,M,23.4,M,,0000*6B
$GPGSA,M,3,18,21,30,31,25,22,16,06,,,,,2.8,1.2,2.6*3E
$GPGSV,3,1,12,18,52,045,26,21,50,165,38,30,43,208,38,31,42,303,40*79
$GPGSV,3,2,12,25,38,051,30,22,36,002,30,16,20,212,35,29,20,119,*76
$GPGSV,3,3,12,06,14,235,36,03,05,241,32,14,04,352,28,12,00,042,*72
$GPRMC,181910.000,A,1453.4537,S,07355.1330,W,11.10,160.23,180411,,,A*58
$GPGGA,181911.001,1453.4565,S,07355.1316,W,1,08,1.2,4099.4,M,23.4,M,,0000*6D
$GPGSA,M,3,18,21,30,31,25,22,16,06,,,,,2.8,1.2,2.6*3E
$GPRMC,181911.001,A,1453.4565,S,07355.1316,W,11.44,159.29,180411,,,A*5A
$GPGGA,181912.000,1453.4594,S,07355.1303,W,1,09,0.9,4099.3,M,23.4,M,,0000*69
$GPGSA,M,3,18,21,30,31,25,22,16,29,06,,,,2.2,0.9,2.0*33
$GPRMC,181912.000,A,1453.4594,S,07355.1303,W,11.08,161.65,180411,,,A*59
$GPGGA,181912.998,1453.4623,S,07355.1293,W,1,09,0.9,4097.6,M,23.4,M,,0000*6D
$GPGSA,M,3,18,21,30,31,25,22,16,29,06,,,,2.2,0.9,2.0*33
$GPRMC,181912.998,A,1453.4623,S,07355.1293,W,10.93,161.12,180411,,,A*55
$GPGGA,181914.000,1453.4651,S,07355.1282,W,1,07,1.2,4097.1,M,23.4,M,,0000*65
$GPGSA,M,3,21,30,31,25,22,16,06,,,,,,2.9,1.2,2.6*36
$GPRMC,181914.000,A,1453.4651,S,07355.1282,W,10.97,161.17,180411,,,A*5F
$GPGGA,181915.002,1453.4682,S,07355.1270,W,1,09,0.9,4097.7,M,23.4,M,,0000*67
$GPGSA,M,3,18,21,30,31,25,22,16,29,06,,,,2.2,0.9,2.0*33
$GPGSV,3,1,12,18,52,045,18,21,50,165,38,30,43,208,38,31,42,303,38*7B
$GPGSV,3,2,12,25,38,051,37,22,36,002,32,16,20,212,34,29,20,119,26*76
$GPGSV,3,3,12,06,14,235,30,03,05,241,,14,04,352,17,12,00,042,*79
$GPRMC,181915.002,A,1453.4682,S,07355.1270,W,12.13,161.51,180411,,,A*53
$GPGGA,181915.997,1453.4713,S,07355.1262,W,1,07,1.0,4098.2,M,23.4,M,,0000*64
$GPGSA,M,3,21,31,25,22,16,29,06,,,,,,2.6,1.0,2.4*31
$GPRMC,181915.997,A,1453.4713,S,07355.1262,W,11.60,163.11,180411,,,A*5D
$GPGGA,181917.003,1453.4746,S,07355.1253,W,1,08,0.9,4098.5,M,23.4,M,,0000*60
$GPGSA,M,3,21,30,31,25,22,16,29,06,,,,,2.3,0.9,2.1*3A
$GPRMC,181917.003,A,1453.4746,S,07355.1253,W,12.28,164.52,180411,,,A*56
$GPGGA,181917.998,1453.4779,S,07355.1244,W,1,09,0.9,4096.5,M,23.4,M,,0000*6E
$GPGSA,M,3,18,21,30,31,25,22,16,29,06,,,,2.2,0.9,2.0*33
$GPRMC,181917.998,A,1453.4779,S,07355.1244,W,12.06,161.67,180411,,,A*58
$GPGGA,181919.000,1453.4810,S,07355.1233,W,1,07,1.2,4095.3,M,23.4,M,,0000*69
$GPGSA,M,3,21,30,31,25,22,16,06,,,,,,2.9,1.2,2.6*36
$GPRMC,181919.000,A,1453.4810,S,07355.1233,W,12.11,161.36,180411,,,A*5C
$GPGGA,181920.001,1453.4839,S,07355.1219,W,1,09,0.9,4093.5,M,23.4,M,,0000*65
$GPGSA,M,3,18,21,30,31,25,22,16,29,06,,,,2.2,0.9,2.0*33
$GPGSV,3,1,12,18,52,045,23,21,50,165,38,30,43,208,39,31,42,303,39*73
$GPGSV,3,2,12,25,38,051,36,22,36,002,32,16,20,212,37,29,20,119,23*71
$GPGSV,3,3,12,06,14,235,35,03,05,241,30,14,04,352,24,12,00,042,*7F
$GPRMC,181920.001,A,1453.4839,S,07355.1219,W,12.41,159.96,180411,,,A*50
$GPGGA,181921.000,1453.4871,S,07355.1209,W,1,07,1.1,4092.5,M,23.4,M,,0000*6E
$GPGSA,M,3,21,30,31,25,16,29,06,,,,,,2.4,1.1,2.1*34
$GPRMC,181921.000,A,1453.4871,S,07355.1209,W,12.04,159.71,180411,,,A*55
$GPGGA,181921.999,1453.4902,S,07355.1196,W,1,07,1.1,4093.9,M,23.4,M,,0000*6A
$GPGSA,M,3,21,30,31,25,16,29,06,,,,,,2.4,1.1,2.1*34
$GPRMC,181921.999,A,1453.4902,S,07355.1196,W,11.70,154.89,180411,,,A*56
$GPGGA,181923.000,1453.4933,S,07355.1180,W,1,08,1.0,4092.3,M,23.4,M,,0000*61
$GPGSA,M,3,18,21,30,31,22,16,29,06,,,,,2.2,1.0,2.0*3C
$GPRMC,181923.000,A,1453.4933,S,07355.1180,W,12.17,153.41,180411,,,A*59
$GPGGA,181924.002,1453.4963,S,07355.1163,W,1,08,1.0,4091.2,M,23.4,M,,0000*6E
$GPGSA,M,3,18,21,30,31,25,16,29,06,,,,,2.3,1.0,2.0*3A
$GPRMC,181924.002,A,1453.4963,S,07355.1163,W,11.89,150.85,180411,,,A*5B
$GPGGA,181924.999,1453.4993,S,07355.1146,W,1,08,1.0,4091.1,M,23.4,M,,0000*6E
$GPGSA,M,3,18,21,30,31,25,22,16,29,,,,,2.6,1.0,2.4*3D
$GPGSV,3,1,12,18,52,045,34,21,50,165,38,30,43,208,37,31,42,303,38*7A
$GPGSV,3,2,12,25,38,051,31,22,36,002,32,16,20,212,36,29,20,119,35*70
$GPGSV,3,3,12,06,14,235,,03,05,241,29,14,04,352,27,12,00,042,*72
$GPRMC,181924.999,A,1453.4993,S,07355.1146,W,12.43,150.41,180411,,,A*55
$GPGGA,181925.998,1453.5022,S,07355.1128,W,1,09,0.9,4092.1,M,23.4,M,,0000*6E
$GPGSA,M,3,18,21,30,31,25,22,16,29,06,,,,2.2,0.9,2.0*33
$GPRMC,181925.998,A,1453.5022,S,07355.1128,W,11.78,146.52,180411,,,A*51
$GPGGA,181927.001,1453.5050,S,07355.1111,W,1,09,0.9,4091.4,M,23.4,M,,0000*6C
$GPGSA,M,3,18,21,30,31,25,22,16,29,06,,,,2.2,0.9,2.0*33
$GPRMC,181927.001,A,1453.5050,S,07355.1111,W,11.31,147.57,180411,,,A*5C
$GPGGA,181928.003,1453.5076,S,07355.1094,W,1,08,1.0,4091.0,M,23.4,M,,0000*64
$GPGSA,M,3,18,21,30,31,22,16,29,06,,,,,2.2,1.0,2.0*3C
$GPRMC,181928.003,A,1453.5076,S,07355.1094,W,10.43,143.82,180411,,,A*51
$GPGGA,181928.998,1453.5101,S,07355.1076,W,1,08,1.0,4090.9,M,23.4,M,,0000*6A
$GPGSA,M,3,18,21,31,25,22,16,29,06,,,,,2.5,1.0,2.3*3C
$GPRMC,181928.998,A,1453.5101,S,07355.1076,W,10.69,138.80,180411,,,A*51
$GPGGA,181930.001,1453.5122,S,07355.1055,W,1,09,0.9,4089.4,M,23.4,M,,0000*66
$GPGSA,M,3,18,21,30,31,25,22,16,29,06,,,,2.2,0.9,2.0*33
$GPGSV,3,1,12,18,52,045,38,21,50,165,38,30,43,208,28,31,42,303,38*78
$GPGSV,3,2,12,25,38,051,31,22,36,002,33,16,20,212,35,29,20,119,24*72
$GPGSV,3,3,12,06,14,235,32,03,05,241,,14,04,352,,12,00,042,*7D
$GPRMC,181930.001,A,1453.5122,S,07355.1055,W,10.96,134.75,180411,,,A*57
$GPGGA,181930.999,1453.5143,S,07355.1035,W,1,08,1.0,4088.6,M,23.4,M,,0000*65
$GPGSA,M,3,18,21,30,31,22,16,29,06,,,,,2.2,1.0,2.0*3C
$GPRMC,181930.999,A,1453.5143,S,07355.1035,W,11.36,136.74,180411,,,A*56
$GPGGA,181932.001,1453.5166,S,07355.1014,W,1,06,1.7,4087.9,M,23.4,M,,0000*62
$GPGSA,M,3,18,21,31,22,16,06,,,,,,,4.0,1.7,3.6*30
$GPRMC,181932.001,A,1453.5166,S,07355.1014,W,11.22,132.96,180411,,,A*55
$GPGGA,181933.003,1453.5186,S,07355.0991,W,1,07,1.3,4086.9,M,23.4,M,,0000*6E
$GPGSA,M,3,18,21,31,25,22,16,06,,,,,,3.2,1.3,2.9*38
$GPRMC,181933.003,A,1453.5186,S,07355.0991,W,10.71,135.64,180411,,,A*50
$GPGGA,181933.998,1453.5208,S,07355.0971,W,1,08,1.0,4086.4,M,23.4,M,,0000*6F
$GPGSA,M,3,18,21,30,31,22,16,29,06,,,,,2.2,1.0,2.0*3C
$GPRMC,181933.998,A,1453.5208,S,07355.0971,W,10.20,136.51,180411,,,A*51
$GPGGA,181934.999,1453.5230,S,07355.0952,W,1,08,1.0,4087.5,M,23.4,M,,0000*63
$GPGSA,M,3,18,21,30,31,22,16,29,06,,,,,2.2,1.0,2.0*3C
$GPGSV,3,1,12,18,52,045,34,21,50,165,37,30,43,208,26,31,42,303,40*7A
$GPGSV,3,2,12,25,38,051,,22,36,002,37,16,20,212,30,29,20,119,27*72
$GPGSV,3,3,12,06,14,235,30,03,05,241,,14,04,352,,12,00,042,*7F
$GPRMC,181934.999,A,1453.5230,S,07355.0952,W,10.29,139.06,180411,,,A*59
$GPGGA,181936.001,1453.5252,S,07355.0932,W,1,07,1.5,4087.9,M,23.4,M,,0000*6D
$GPGSA,M,3,18,21,30,31,22,16,06,,,,,,3.4,1.5,3.1*35
$GPRMC,181936.001,A,1453.5252,S,07355.0932,W,9.96,135.96,180411,,,A*68
$GPGGA,181937.000,1453.5271,S,07355.0912,W,1,07,1.5,4086.7,M,23.4,M,,0000*61
$GPGSA,M,3,18,21,30,31,22,16,06,,,,,,3.4,1.5,3.1*35
$GPRMC,181937.000,A,1453.5271,S,07355.0912,W,9.66,136.77,180411,,,A*68
$GPGGA,181938.001,1453.5291,S,07355.0892,W,1,08,1.2,4088.2,M,23.4,M,,0000*6B
$GPGSA,M,3,18,21,30,31,25,22,16,06,,,,,2.8,1.2,2.6*3E
$GPRMC,181938.001,A,1453.5291,S,07355.0892,W,10.26,132.47,180411,,,A*5A
$GPGGA,181939.002,1453.5310,S,07355.0874,W,1,07,1.5,4088.9,M,23.4,M,,0000*6A
$GPGSA,M,3,18,21,30,31,22,16,06,,,,,,3.4,1.5,3.1*35
$GPRMC,181939.002,A,1453.5310,S,07355.0874,W,9.90,131.79,180411,,,A*63
$GPGGA,181939.999,1453.5331,S,07355.0852,W,1,08,1.2,4088.7,M,23.4,M,,0000*60
$GPGSA,M,3,18,21,30,31,25,22,16,06,,,,,2.8,1.2,2.6*3E
$GPGSV,3,1,12,18,52,045,31,21,50,165,38,30,43,208,28,31,42,303,39*70
$GPGSV,3,2,12,25,38,051,26,22,36,002,38,16,20,212,33,29,20,119,*7F
$GPGSV,3,3,12,06,14,235,31,03,05,241,,14,04,352,,12,00,042,*7E
$GPRMC,181939.999,A,1453.5331,S,07355.0852,W,10.57,133.19,180411,,,A*58
$GPGGA,181940.999,1453.5352,S,07355.0829,W,1,08,1.0,4090.4,M,23.4,M,,0000*6F
$GPGSA,M,3,18,21,30,31,22,16,29,06,,,,,2.2,1.0,2.0*3C
$GPRMC,181940.999,A,1453.5352,S,07355.0829,W,10.20,131.92,180411,,,A*5E
$GPGGA,181942.003,1453.5372,S,07355.0807,W,1,08,1.0,4091.3,M,23.4,M,,0000*6F
$GPGSA,M,3,18,21,30,31,25,16,29,06,,,,,2.3,1.0,2.0*3A
$GPRMC,181942.003,A,1453.5372,S,07355.0807,W,10.38,137.41,180411,,,A*59
$GPGGA,181943.000,1453.5392,S,07355.0781,W,1,09,0.9,4088.7,M,23.4,M,,0000*67
$GPGSA,M,3,18,21,30,31,25,22,16,29,06,,,,2.2,0.9,2.0*33
$GPRMC,181943.000,A,1453.5392,S,07355.0781,W,10.94,131.80,180411,,,A*59
$GPGGA,181943.998,1453.5412,S,07355.0758,W,1,09,0.9,4089.2,M,23.4,M,,0000*60
$GPGSA,M,3,18,21,30,31,25,22,16,29,06,,,,2.2,0.9,2.0*33
$GPRMC,181943.998,A,1453.5412,S,07355.0758,W,10.20,130.17,180411,,,A*5A
$GPGGA,181945.001,1453.5431,S,07355.0734,W,1,09,0.9,4088.1,M,23.4,M,,0000*66
$GPGSA,M,3,18,21,30,31,25,22,16,29,06,,,,2.2,0.9,2.0*33
$GPGSV,3,1,12,18,52,045,32,21,50,165,36,30,43,208,32,31,42,303,39*76
$GPGSV,3,2,12,25,38,051,29,22,36,002,32,16,20,212,34,29,20,119,33*7D
$GPGSV,3,3,12,06,14,235,32,03,05,241,,14,04,352,,12,00,042,*7D
$GPRMC,181945.001,A,1453.5431,S,07355.0734,W,10.64,130.56,180411,,,A*5B
$GPGGA,181946.000,1453.5451,S,07355.0712,W,1,07,1.0,4088.6,M,23.4,M,,0000*67
$GPGSA,M,3,21,30,31,22,16,29,06,,,,,,2.4,1.0,2.1*32
$GPRMC,181946.000,A,1453.5451,S,07355.0712,W,10.81,131.96,180411,,,A*5D
$GPGGA,181947.001,1453.5468,S,07355.0687,W,1,07,1.0,4087.4,M,23.4,M,,0000*6D
$GPGSA,M,3,18,21,30,31,22,16,29,,,,,,2.6,1.0,2.4*3A
$GPRMC,181947.001,A,1453.5468,S,07355.0687,W,10.83,129.58,180411,,,A*53
$GPGGA,181948.000,1453.5488,S,07355.0663,W,1,09,0.9,4087.2,M,23.4,M,,0000*67
$GPGSA,M,3,18,21,30,31,25,22,16,29,06,,,,2.2,0.9,2.0*33
$GPRMC,181948.000,A,1453.5488,S,07355.0663,W,10.30,132.11,180411,,,A*56
$GPGGA,181949.003,1453.5503,S,07355.0642,W,1,09,0.9,4086.5,M,23.4,M,,0000*62
$GPGSA,M,3,18,21,30,31,25,22,16,29,06,,,,2.2,0.9,2.0*33
$GPRMC,181949.003,A,1453.5503,S,07355.0642,W,10.31,131.45,180411,,,A*56
$GPGGA,181949.998,1453.5523,S,07355.0618,W,1,08,1.0,4086.5,M,23.4,M,,0000*6D
$GPGSA,M,3,18,21,30,31,22,16,29,06,,,,,2.2,1.0,2.0*3C
$GPGSV,3,1,12,18,52,045,28,21,50,165,38,30,43,208,33,31,42,303,39*72
$GPGSV,3,2,12,25,38,051,,22,36,002,29,16,20,212,28,29,20,119,27*74
$GPGSV,3,3,12,06,14,235,31,03,05,241,,14,04,352,29,12,00,042,*75
$GPRMC,181949.998,A,1453.5523,S,07355.0618,W,11.46,131.04,180411,,,A*54
$GPGGA,181951.000,1453.5545,S,07355.0596,W,1,09,0.9,4086.6,M,23.4,M,,0000*63
$GPGSA,M,3,18,21,30,31,25,22,16,29,06,,,,2.2,0.9,2.0*33
$GPRMC,181951.000,A,1453.5545,S,07355.0596,W,11.19,135.85,180411,,,A*57
$GPGGA,181952.002,1453.5566,S,07355.0571,W,1,09,0.9,4085.1,M,23.4,M,,0000*6E
$GPGSA,M,3,18,21,30,31,25,22,16,29,06,,,,2.2,0.9,2.0*33
$GPRMC,181952.002,A,1453.5566,S,07355.0571,W,11.99,136.29,180411,,,A*53
$GPGGA,181952.996,1453.5591,S,07355.0545,W,1,08,1.0,4085.5,M,23.4,M,,0000*68
$GPGSA,M,3,18,21,30,31,25,16,29,06,,,,,2.3,1.0,2.0*3A
$GPRMC,181952.996,A,1453.5591,S,07355.0545,W,12.48,134.13,180411,,,A*5C
$GPGGA,181954.001,1453.5615,S,07355.0518,W,1,08,1.0,4084.7,M,23.4,M,,0000*6D
$GPGSA,M,3,18,21,31,25,22,16,29,06,,,,,2.5,1.0,2.3*3C
$GPRMC,181954.001,A,1453.5615,S,07355.0518,W,12.30,133.38,180411,,,A*5B
$GPGGA,181955.004,1453.5639,S,07355.0493,W,1,08,1.0,4085.0,M,23.4,M,,0000*63
$GPGSA,M,3,18,21,30,31,25,22,16,29,,,,,2.6,1.0,2.4*3D
$GPGSV,3,1,12,18,52,045,32,21,50,165,39,30,43,208,32,31,42,303,37*77
$GPGSV,3,2,12,25,38,051,32,22,36,002,36,16,20,212,34,29,20,119,32*72
$GPGSV,3,3,12,06,14,235,,03,05,241,,14,04,352,,12,00,042,*7C
$GPRMC,181955.004,A,1453.5639,S,07355.0493,W,12.13,130.47,180411,,,A*59
$GPGGA,181955.998,1453.5661,S,07355.0467,W,1,09,0.9,4084.6,M,23.4,M,,0000*67
$GPGSA,M,3,18,21,30,31,25,22,16,29,06,,,,2.2,0.9,2.0*33
$GPRMC,181955.998,A,1453.5661,S,07355.0467,W,12.12,128.27,180411,,,A*5D
$GPGGA,181957.023,1453.5683,S,07355.0438,W,1,09,0.9,4085.1,M,23.4,M,,0000*6C
$GPGSA,M,3,18,21,30,31,25,22,16,29,06,,,,2.2,0.9,2.0*33
$GPRMC,181957.023,A,1453.5683,S,07355.0438,W,11.78,128.12,180411,,,A*59
$GPGGA,181957.977,1453.5700,S,07355.0413,W,1,09,0.9,4084.3,M,23.4,M,,0000*64
$GPGSA,M,3,18,21,30,31,25,22,16,29,06,,,,2.2,0.9,2.0*33
$GPRMC,181957.977,A,1453.5700,S,07355.0413,W,11.90,126.88,180411,,,A*59
$GPGGA,181959.000,1453.5720,S,07355.0385,W,1,09,0.9,4084.2,M,23.4,M,,0000*68
$GPGSA,M,3,18,21,30,31,25,22,16,29,06,,,,2.2,0.9,2.0*33
$GPRMC,181959.000,A,1453.5720,S,07355.0385,W,11.56,127.58,180411,,,A*52
$GPGGA,181959.999,1453.5742,S,07355.0360,W,1,09,0.9,4084.6,M,23.4,M,,0000*6A
$GPGSA,M,3,18,21,30,31,25,22,16,29,06,,,,2.2,0.9,2.0*33
$GPGSV,3,1,12,18,52,045,30,21,50,165,41,30,43,208,33,31,42,303,40*7B
$GPGSV,3,2,12,25,38,051,29,22,36,002,35,16,20,212,36,29,20,119,31*7A
$GPGSV,3,3,12,06,14,235,35,03,05,241,,14,04,352,,12,00,042,*7A
$GPRMC,181959.999,A,1453.5742,S,07355.0360,W,12.21,125.97,180411,,,A*56
$GPGGA,182001.000,1453.5764,S,07355.0334,W,1,09,0.9,4085.0,M,23.4,M,,0000*66
$GPGSA,M,3,18,21,30,31,25,22,16,29,06,,,,2.2,0.9,2.0*33
$GPRMC,182001.000,A,1453.5764,S,07355.0334,W,12.15,129.12,180411,,,A*5B
$GPGGA,182002.001,1453.5786,S,07355.0310,W,1,08,1.0,4085.6,M,23.4,M,,0000*61
$GPGSA,M,3,18,21,30,31,25,22,16,29,,,,,2.6,1.0,2.4*3D
$GPRMC,182002.001,A,1453.5786,S,07355.0310,W,11.50,135.65,180411,,,A*5C
$GPGGA,182003.003,1453.5807,S,07355.0284,W,1,09,0.9,4085.3,M,23.4,M,,0000*64
$GPGSA,M,3,18,21,30,31,22,25,16,29,06,,,,2.2,0.9,2.0*33
$GPRMC,182003.003,A,1453.5807,S,07355.0284,W,11.55,134.39,180411,,,A*58
$GPGGA,182003.995,1453.5830,S,07355.0258,W,1,08,1.0,4085.6,M,23.4,M,,0000*6B
$GPGSA,M,3,18,21,30,31,22,16,29,06,,,,,2.2,1.0,2.0*3C
$GPRMC,182003.995,A,1453.5830,S,07355.0258,W,11.39,135.31,180411,,,A*58
$GPGGA,182005.019,1453.5855,S,07355.0234,W,1,07,1.0,4086.3,M,23.4,M,,0000*60
$GPGSA,M,3,18,21,31,22,16,29,06,,,,,,2.5,1.0,2.3*3B
$GPGSV,3,1,11,18,53,047,30,21,49,164,38,30,44,208,,31,41,304,38*70
$GPGSV,3,2,11,22,37,003,32,25,37,049,,16,21,212,27,29,19,117,32*75
$GPGSV,3,3,11,06,15,234,33,03,05,240,,14,04,353,29*41
$GPRMC,182005.019,A,1453.5855,S,07355.0234,W,11.50,140.60,180411,,,A*53
$GPGGA,182005.982,1453.5880,S,07355.0215,W,1,09,0.9,4086.1,M,23.4,M,,0000*64
$GPGSA,M,3,18,21,30,31,22,25,16,29,06,,,,2.2,0.9,2.0*33
$GPRMC,182005.982,A,1453.5880,S,07355.0215,W,11.42,142.55,180411,,,A*54
$GPGGA,182007.000,1453.5907,S,07355.0195,W,1,09,0.9,4085.8,M,23.4,M,,0000*6A
$GPGSA,M,3,18,21,30,31,22,25,16,29,06,,,,2.2,0.9,2.0*33
$GPRMC,182007.000,A,1453.5907,S,07355.0195,W,11.50,146.73,180411,,,A*53
$GPGGA,182007.999,1453.5935,S,07355.0178,W,1,09,0.9,4086.7,M,23.4,M,,0000*6D
$GPGSA,M,3,18,21,30,31,22,25,16,29,06,,,,2.2,0.9,2.0*33
$GPRMC,182007.999,A,1453.5935,S,07355.0178,W,12.18,148.09,180411,,,A*54
$GPGGA,182009.000,1453.5961,S,07355.0158,W,1,09,0.9,4087.3,M,23.4,M,,0000*6C
$GPGSA,M,3,18,21,30,31,22,25,16,29,06,,,,2.2,0.9,2.0*33
$GPRMC,182009.000,A,1453.5961,S,07355.0158,W,11.55,149.56,180411,,,A*51
$GPGGA,182010.001,1453.5987,S,07355.0144,W,1,09,0.9,4086.9,M,23.4,M,,0000*6B
