$GPGGA,165914.000,1640.9805,S,06932.5702,W,1,08,1.0,4153.0,M,34.1,M,,0000*68
$GPGSA,M,3,21,25,31,18,29,30,22,12,,,,,2.0,1.0,1.7*3F
$GPRMC,165914.000,A,1640.9805,S,06932.5702,W,26.66,270.67,280411,,,A*58
$GPGGA,165915.000,1640.9805,S,06932.5779,W,1,08,1.0,4152.7,M,34.1,M,,0000*63
$GPGSA,M,3,21,25,31,18,29,30,22,12,,,,,2.0,1.0,1.7*3F
$GPGSV,3,1,11,21,70,194,39,25,53,065,37,31,43,277,38,18,39,019,38*73
$GPGSV,3,2,11,29,29,136,31,30,26,212,32,22,18,351,39,12,15,050,33*7F
$GPGSV,3,3,11,06,05,250,,16,05,217,,14,02,335,*49
$GPRMC,165915.000,A,1640.9805,S,06932.5779,W,26.50,270.18,280411,,,A*58
$GPGGA,165916.000,1640.9806,S,06932.5855,W,1,08,1.0,4152.4,M,34.1,M,,0000*61
$GPGSA,M,3,21,25,31,18,29,30,22,12,,,,,2.0,1.0,1.7*3F
$GPRMC,165916.000,A,1640.9806,S,06932.5855,W,26.32,270.16,280411,,,A*53
$GPGGA,165917.002,1640.9804,S,06932.5931,W,1,08,1.0,4153.0,M,34.1,M,,0000*66
$GPGSA,M,3,21,25,31,18,29,30,22,12,,,,,2.0,1.0,1.7*3F
$GPRMC,165917.002,A,1640.9804,S,06932.5931,W,26.65,269.47,280411,,,A*5F
$GPGGA,165918.001,1640.9803,S,06932.6007,W,1,08,1.0,4153.8,M,34.1,M,,0000*6A
$GPGSA,M,3,21,25,31,18,29,30,22,12,,,,,2.0,1.0,1.7*3F
$GPRMC,165918.001,A,1640.9803,S,06932.6007,W,26.81,267.97,280411,,,A*52
$GPGGA,165919.000,1640.9805,S,06932.6082,W,1,08,1.0,4154.0,M,34.1,M,,0000*6E
$GPGSA,M,3,21,25,31,18,29,30,22,12,,,,,2.0,1.0,1.7*3F
$GPRMC,165919.000,A,1640.9805,S,06932.6082,W,26.48,267.16,280411,,,A*55
$GPGGA,165920.000,1640.9807,S,06932.6158,W,1,08,1.0,4154.3,M,34.1,M,,0000*63
$GPGSA,M,3,21,25,31,18,29,30,22,12,,,,,2.0,1.0,1.7*3F
$GPGSV,3,1,11,21,70,194,39,25,53,065,37,31,43,277,39,18,39,019,35*7F
$GPGSV,3,2,11,29,29,136,28,30,26,212,32,22,18,351,38,12,15,050,32*77
$GPGSV,3,3,11,06,05,250,29,16,05,217,,14,02,335,*42
$GPRMC,165920.000,A,1640.9807,S,06932.6158,W,26.80,266.28,280411,,,A*53
$GPGGA,165921.000,1640.9814,S,06932.6232,W,1,08,1.0,4154.1,M,34.1,M,,0000*6D
$GPGSA,M,3,21,25,31,18,29,30,22,12,,,,,2.0,1.0,1.7*3F
$GPRMC,165921.000,A,1640.9814,S,06932.6232,W,26.53,262.89,280411,,,A*5E
$GPGGA,165921.998,1640.9824,S,06932.6311,W,1,07,1.0,4153.8,M,34.1,M,,0000*67
$GPGSA,M,3,21,25,31,18,29,30,22,,,,,,2.2,1.0,2.0*3A
$GPRMC,165921.998,A,1640.9824,S,06932.6311,W,27.26,260.15,280411,,,A*51
$GPGGA,165923.000,1640.9841,S,06932.6384,W,1,07,1.2,4153.2,M,34.1,M,,0000*6A
$GPGSA,M,3,21,25,31,18,29,22,12,,,,,,2.4,1.2,2.0*3E
$GPRMC,165923.000,A,1640.9841,S,06932.6384,W,26.45,259.11,280411,,,A*5E
$GPGGA,165924.000,1640.9855,S,06932.6461,W,1,07,1.2,4152.2,M,34.1,M,,0000*65
$GPGSA,M,3,21,25,31,18,29,22,12,,,,,,2.4,1.2,2.0*3E
$GPRMC,165924.000,A,1640.9855,S,06932.6461,W,27.30,257.56,280411,,,A*5E
$GPGGA,165925.002,1640.9872,S,06932.6536,W,1,08,1.0,4152.2,M,34.1,M,,0000*6D
$GPGSA,M,3,21,25,31,18,29,30,22,12,,,,,2.0,1.0,1.7*3F
$GPGSV,3,1,11,21,70,194,39,25,53,065,38,31,43,277,39,18,39,019,37*72
$GPGSV,3,2,11,29,29,136,29,30,26,212,26,22,18,351,37,12,15,050,32*7C
$GPGSV,3,3,11,06,05,250,28,16,05,217,,14,02,335,*43
$GPRMC,165925.002,A,1640.9872,S,06932.6536,W,27.28,255.17,280411,,,A*55
$GPGGA,165925.998,1640.9894,S,06932.6616,W,1,07,1.2,4151.6,M,34.1,M,,0000*64
$GPGSA,M,3,21,25,31,18,30,22,12,,,,,,2.2,1.2,1.8*3B
$GPRMC,165925.998,A,1640.9894,S,06932.6616,W,27.38,252.51,280411,,,A*52
$GPGGA,165927.000,1640.9919,S,06932.6692,W,1,07,1.2,4151.8,M,34.1,M,,0000*68
$GPGSA,M,3,21,25,31,18,30,22,12,,,,,,2.2,1.2,1.8*3B
$GPRMC,165927.000,A,1640.9919,S,06932.6692,W,27.51,251.18,280411,,,A*51
$GPGGA,165928.004,1640.9946,S,06932.6766,W,1,08,1.0,4151.0,M,34.1,M,,0000*66
$GPGSA,M,3,21,25,31,18,29,30,22,12,,,,,2.0,1.0,1.7*3F
$GPRMC,165928.004,A,1640.9946,S,06932.6766,W,27.33,247.98,280411,,,A*51
$GPGGA,165928.999,1640.9979,S,06932.6834,W,1,08,1.0,4149.1,M,34.1,M,,0000*67
$GPGSA,M,3,21,25,31,18,29,30,22,12,,,,,2.0,1.0,1.7*3F
$GPRMC,165928.999,A,1640.9979,S,06932.6834,W,26.59,246.99,280411,,,A*55
$GPGGA,165930.000,1641.0006,S,06932.6905,W,1,08,1.0,4149.7,M,34.1,M,,0000*6B
$GPGSA,M,3,21,25,31,18,29,30,22,12,,,,,2.0,1.0,1.7*3F
$GPGSV,3,1,11,21,70,194,38,25,53,065,38,31,43,277,40,18,39,019,37*7D
$GPGSV,3,2,11,29,29,136,34,30,26,212,33,22,18,351,30,12,15,050,37*76
$GPGSV,3,3,11,06,05,250,35,16,05,217,28,14,02,335,*45
$GPRMC,165930.000,A,1641.0006,S,06932.6905,W,27.11,244.85,280411,,,A*5D
$GPGGA,165931.000,1641.0041,S,06932.6976,W,1,08,1.0,4148.4,M,34.1,M,,0000*6F
$GPGSA,M,3,21,25,31,18,29,30,22,12,,,,,2.0,1.0,1.7*3F
$GPRMC,165931.000,A,1641.0041,S,06932.6976,W,27.10,243.10,280411,,,A*51
$GPGGA,165931.998,1641.0077,S,06932.7044,W,1,07,1.1,4147.3,M,34.1,M,,0000*6D
$GPGSA,M,3,21,25,31,18,29,30,12,,,,,,2.2,1.1,1.9*32
$GPRMC,165931.998,A,1641.0077,S,06932.7044,W,27.43,241.34,280411,,,A*57
$GPGGA,165933.002,1641.0117,S,06932.7113,W,1,08,1.0,4145.1,M,34.1,M,,0000*6F
$GPGSA,M,3,21,25,31,18,29,30,22,12,,,,,2.0,1.0,1.7*3F
$GPRMC,165933.002,A,1641.0117,S,06932.7113,W,27.21,239.46,280411,,,A*55
$GPGGA,165933.996,1641.0158,S,06932.7182,W,1,08,1.0,4144.2,M,34.1,M,,0000*6A
$GPGSA,M,3,21,25,31,18,29,30,22,12,,,,,2.0,1.0,1.7*3F
$GPRMC,165933.996,A,1641.0158,S,06932.7182,W,27.76,237.72,280411,,,A*59
$GPGGA,165935.001,1641.0200,S,06932.7250,W,1,07,1.0,4143.0,M,34.1,M,,0000*63
$GPGSA,M,3,21,25,31,18,29,30,22,,,,,,2.2,1.0,2.0*3A
$GPGSV,3,1,11,21,70,194,35,25,53,065,38,31,43,277,37,18,39,019,40*70
$GPGSV,3,2,11,29,29,136,38,30,26,212,31,22,18,351,30,12,15,050,*7C
$GPGSV,3,3,11,06,05,250,,16,05,217,28,14,02,335,*43
$GPRMC,165935.001,A,1641.0200,S,06932.7250,W,27.21,235.87,280411,,,A*50
$GPGGA,165936.002,1641.0242,S,06932.7317,W,1,07,1.0,4141.8,M,34.1,M,,0000*6D
$GPGSA,M,3,21,25,31,18,29,30,22,,,,,,2.2,1.0,2.0*3A
$GPRMC,165936.002,A,1641.0242,S,06932.7317,W,27.04,233.73,280411,,,A*5E
$GPGGA,165937.002,1641.0291,S,06932.7379,W,1,07,1.0,4139.7,M,34.1,M,,0000*6A
$GPGSA,M,3,21,25,31,18,29,30,22,,,,,,2.2,1.0,2.0*3A
$GPRMC,165937.002,A,1641.0291,S,06932.7379,W,27.24,231.63,280411,,,A*58
$GPGGA,165937.998,1641.0338,S,06932.7441,W,1,08,1.0,4138.9,M,34.1,M,,0000*6E
$GPGSA,M,3,21,25,31,18,29,30,22,12,,,,,2.0,1.0,1.7*3F
$GPRMC,165937.998,A,1641.0338,S,06932.7441,W,27.64,229.86,280411,,,A*5A
$GPGGA,165938.998,1641.0388,S,06932.7501,W,1,07,1.0,4138.8,M,34.1,M,,0000*61
$GPGSA,M,3,21,25,31,18,29,30,22,,,,,,2.2,1.0,2.0*3A
$GPRMC,165938.998,A,1641.0388,S,06932.7501,W,27.65,228.26,280411,,,A*51
$GPGGA,165940.002,1641.0440,S,06932.7563,W,1,07,1.0,4137.4,M,34.1,M,,0000*60
$GPGSA,M,3,21,25,31,18,29,30,22,,,,,,2.2,1.0,2.0*3A
$GPGSV,3,1,11,21,70,194,31,25,53,065,37,31,43,277,38,18,39,019,38*7B
$GPGSV,3,2,11,29,29,136,33,30,26,212,27,22,18,351,29,12,15,050,*78
$GPGSV,3,3,11,06,05,250,27,16,05,217,30,14,02,335,*4F
$GPRMC,165940.002,A,1641.0440,S,06932.7563,W,27.78,229.13,280411,,,A*58
$GPGGA,165940.998,1641.0495,S,06932.7620,W,1,08,1.0,4135.3,M,34.1,M,,0000*6C
$GPGSA,M,3,21,25,31,18,29,30,22,12,,,,,2.0,1.0,1.7*3F
$GPRMC,165940.998,A,1641.0495,S,06932.7620,W,27.76,228.11,280411,,,A*53
$GPGGA,165942.002,1641.0550,S,06932.7679,W,1,07,1.0,4133.1,M,34.1,M,,0000*6B
$GPGSA,M,3,21,25,31,18,29,30,22,,,,,,2.2,1.0,2.0*3A
$GPRMC,165942.002,A,1641.0550,S,06932.7679,W,27.55,228.48,280411,,,A*52
$GPGGA,165942.998,1641.0600,S,06932.7741,W,1,08,1.0,4132.3,M,34.1,M,,0000*61
$GPGSA,M,3,21,25,31,18,29,30,22,12,,,,,2.0,1.0,1.7*3F
$GPRMC,165942.998,A,1641.0600,S,06932.7741,W,26.76,229.48,280411,,,A*55
$GPGGA,165944.002,1641.0654,S,06932.7800,W,1,07,1.0,4129.6,M,34.1,M,,0000*66
$GPGSA,M,3,21,25,31,18,29,30,22,,,,,,2.2,1.0,2.0*3A
$GPRMC,165944.002,A,1641.0654,S,06932.7800,W,27.40,229.01,280411,,,A*5B
$GPGGA,165944.998,1641.0706,S,06932.7857,W,1,07,1.0,4127.6,M,34.1,M,,0000*66
$GPGSA,M,3,21,25,31,18,29,30,22,,,,,,2.2,1.0,2.0*3A
$GPGSV,3,1,11,21,70,194,32,25,53,065,37,31,43,277,37,18,39,019,38*77
$GPGSV,3,2,11,29,29,136,37,30,26,212,29,22,18,351,27,12,15,050,*7C
$GPGSV,3,3,11,06,05,250,,16,05,217,30,14,02,335,*4A
$GPRMC,165944.998,A,1641.0706,S,06932.7857,W,27.30,229.31,280411,,,A*51
$GPGGA,165946.004,1641.0757,S,06932.7916,W,1,07,1.0,4126.4,M,34.1,M,,0000*6B
$GPGSA,M,3,21,25,31,18,29,30,22,,,,,,2.2,1.0,2.0*3A
$GPRMC,165946.004,A,1641.0757,S,06932.7916,W,27.07,229.41,280411,,,A*5C
$GPGGA,165946.998,1641.0807,S,06932.7975,W,1,07,1.0,4124.6,M,34.1,M,,0000*68
$GPGSA,M,3,21,25,31,18,29,30,22,,,,,,2.2,1.0,2.0*3A
$GPRMC,165946.998,A,1641.0807,S,06932.7975,W,27.29,229.41,280411,,,A*53
$GPGGA,165948.000,1641.0857,S,06932.8035,W,1,07,1.1,4124.1,M,34.1,M,,0000*6F
$GPGSA,M,3,21,25,31,18,29,30,12,,,,,,2.2,1.1,1.9*32
$GPRMC,165948.000,A,1641.0857,S,06932.8035,W,26.99,228.24,280411,,,A*5A
$GPGGA,165948.998,1641.0909,S,06932.8092,W,1,07,1.1,4122.9,M,34.1,M,,0000*6E
$GPGSA,M,3,21,25,31,18,29,30,12,,,,,,2.2,1.1,1.9*32
$GPRMC,165948.998,A,1641.0909,S,06932.8092,W,27.24,228.44,280411,,,A*54
$GPGGA,165950.002,1641.0960,S,06932.8150,W,1,06,1.2,4121.2,M,34.1,M,,0000*67
$GPGSA,M,3,21,25,31,18,29,30,,,,,,,2.9,1.2,2.6*35
$GPGSV,3,1,11,21,70,192,33,25,53,064,37,31,43,278,37,18,40,020,38*7A
$GPGSV,3,2,11,29,29,135,36,30,27,212,29,22,19,351,,12,14,049,*72
$GPGSV,3,3,11,16,05,217,30,06,05,250,,14,02,336,*49
$GPRMC,165950.002,A,1641.0960,S,06932.8150,W,27.38,228.96,280411,,,A*55
$GPGGA,165950.998,1641.1015,S,06932.8210,W,1,06,1.2,4119.4,M,34.1,M,,0000*6D
$GPGSA,M,3,21,25,31,18,29,30,,,,,,,2.9,1.2,2.6*35
$GPRMC,165950.998,A,1641.1015,S,06932.8210,W,28.04,229.90,280411,,,A*55
$GPGGA,165952.000,1641.1066,S,06932.8270,W,1,06,1.2,4118.4,M,34.1,M,,0000*64
$GPGSA,M,3,21,25,31,18,29,30,,,,,,,2.9,1.2,2.6*35
$GPRMC,165952.000,A,1641.1066,S,06932.8270,W,27.40,228.91,280411,,,A*52
$GPGGA,165953.000,1641.1118,S,06932.8329,W,1,06,1.2,4116.1,M,34.1,M,,0000*6B
$GPGSA,M,3,21,25,31,18,29,30,,,,,,,2.9,1.2,2.6*35
$GPRMC,165953.000,A,1641.1118,S,06932.8329,W,27.45,229.55,280411,,,A*5A
$GPGGA,165954.001,1641.1166,S,06932.8387,W,1,07,1.1,4115.0,M,34.1,M,,0000*60
$GPGSA,M,3,21,25,31,18,29,30,12,,,,,,2.2,1.1,1.9*32
$GPRMC,165954.001,A,1641.1166,S,06932.8387,W,27.46,229.17,280411,,,A*54
$GPGGA,165955.004,1641.1217,S,06932.8444,W,1,07,1.1,4114.1,M,34.1,M,,0000*69
$GPGSA,M,3,21,25,31,18,29,30,12,,,,,,2.2,1.1,1.9*32
$GPGSV,3,1,11,21,70,192,32,25,53,064,37,31,43,278,38,18,40,020,38*74
$GPGSV,3,2,11,29,29,135,36,30,27,212,27,22,19,351,,12,14,049,24*7A
$GPGSV,3,3,11,16,05,217,31,06,05,250,38,14,02,336,*43
$GPRMC,165955.004,A,1641.1217,S,06932.8444,W,27.16,228.28,280411,,,A*55
$GPGGA,165955.997,1641.1267,S,06932.8502,W,1,07,1.1,4112.1,M,34.1,M,,0000*68
$GPGSA,M,3,21,25,31,18,29,30,12,,,,,,2.2,1.1,1.9*32
$GPRMC,165955.997,A,1641.1267,S,06932.8502,W,27.22,229.22,280411,,,A*5E
$GPGGA,165957.002,1641.1323,S,06932.8559,W,1,06,1.2,4111.3,M,34.1,M,,0000*63
$GPGSA,M,3,21,25,31,18,29,30,,,,,,,2.9,1.2,2.6*35
$GPRMC,165957.002,A,1641.1323,S,06932.8559,W,27.31,229.32,280411,,,A*55
$GPGGA,165957.997,1641.1374,S,06932.8620,W,1,06,1.2,4109.9,M,34.1,M,,0000*6A
$GPGSA,M,3,21,25,31,18,29,30,,,,,,,2.9,1.2,2.6*35
$GPRMC,165957.997,A,1641.1374,S,06932.8620,W,27.49,228.80,280411,,,A*58
$GPGGA,165959.000,1641.1424,S,06932.8679,W,1,06,1.2,4108.6,M,34.1,M,,0000*63
$GPGSA,M,3,21,25,31,18,29,30,,,,,,,2.9,1.2,2.6*35
$GPRMC,165959.000,A,1641.1424,S,06932.8679,W,27.10,229.79,280411,,,A*54
$GPGGA,170000.003,1641.1478,S,06932.8742,W,1,06,1.2,4108.3,M,34.1,M,,0000*64
$GPGSA,M,3,21,25,31,18,29,30,,,,,,,2.9,1.2,2.6*35
$GPGSV,3,1,11,21,70,192,32,25,53,064,38,31,43,278,38,18,40,020,38*7B
$GPGSV,3,2,11,29,29,135,35,30,27,212,26,22,19,351,,12,14,049,*7E
$GPGSV,3,3,11,16,05,217,32,06,05,250,38,14,02,336,*40
$GPRMC,170000.003,A,1641.1478,S,06932.8742,W,27.84,229.04,280411,,,A*51
$GPGGA,170000.996,1641.1526,S,06932.8807,W,1,06,1.2,4108.2,M,34.1,M,,0000*64
$GPGSA,M,3,21,25,31,18,29,30,,,,,,,2.9,1.2,2.6*35
$GPRMC,170000.996,A,1641.1526,S,06932.8807,W,27.34,229.72,280411,,,A*5A
$GPGGA,170002.002,1641.1579,S,06932.8870,W,1,07,1.0,4107.2,M,34.1,M,,0000*64
$GPGSA,M,3,21,25,31,18,29,30,22,,,,,,2.2,1.0,2.0*3A
$GPRMC,170002.002,A,1641.1579,S,06932.8870,W,27.50,229.55,280411,,,A*51
$GPGGA,170002.998,1641.1631,S,06932.8931,W,1,08,1.0,4107.1,M,34.1,M,,0000*69
$GPGSA,M,3,21,25,31,18,29,30,22,12,,,,,2.0,1.0,1.7*3F
$GPRMC,170002.998,A,1641.1631,S,06932.8931,W,27.36,229.72,280411,,,A*55
$GPGGA,170004.000,1641.1680,S,06932.8990,W,1,08,1.0,4107.6,M,34.1,M,,0000*61
$GPGSA,M,3,21,25,31,18,29,30,22,12,,,,,2.0,1.0,1.7*3F
$GPRMC,170004.000,A,1641.1680,S,06932.8990,W,27.29,229.15,280411,,,A*55
$GPGGA,170005.002,1641.1731,S,06932.9049,W,1,07,1.0,4106.5,M,34.1,M,,0000*68
$GPGSA,M,3,21,25,31,18,29,30,22,,,,,,2.2,1.0,2.0*3A
$GPGSV,3,1,11,21,70,192,34,25,53,064,37,31,43,278,38,18,40,020,38*72
$GPGSV,3,2,11,29,29,135,32,30,27,212,28,22,19,351,36,12,14,049,*72
$GPGSV,3,3,11,16,05,217,29,06,05,250,38,14,02,336,*4A
$GPRMC,170005.002,A,1641.1731,S,06932.9049,W,27.47,229.10,280411,,,A*5C
$GPGGA,170006.000,1641.1781,S,06932.9110,W,1,07,1.0,4104.5,M,34.1,M,,0000*6D
$GPGSA,M,3,21,25,31,18,29,30,22,,,,,,2.2,1.0,2.0*3A
$GPRMC,170006.000,A,1641.1781,S,06932.9110,W,27.15,230.73,280411,,,A*51
$GPGGA,170007.000,1641.1830,S,06932.9170,W,1,07,1.0,4104.0,M,34.1,M,,0000*6A
$GPGSA,M,3,21,25,31,18,29,30,22,,,,,,2.2,1.0,2.0*3A
$GPRMC,170007.000,A,1641.1830,S,06932.9170,W,27.20,230.05,280411,,,A*54
$GPGGA,170008.000,1641.1881,S,06932.9232,W,1,07,1.0,4103.7,M,34.1,M,,0000*6A
$GPGSA,M,3,21,25,31,18,29,30,22,,,,,,2.2,1.0,2.0*3A
$GPRMC,170008.000,A,1641.1881,S,06932.9232,W,27.60,228.33,280411,,,A*5C
$GPGGA,170009.000,1641.1929,S,06932.9293,W,1,07,1.0,4103.6,M,34.1,M,,0000*62
$GPGSA,M,3,21,25,31,18,29,30,22,,,,,,2.2,1.0,2.0*3A
$GPRMC,170009.000,A,1641.1929,S,06932.9293,W,27.39,229.09,280411,,,A*51
$GPGGA,170010.000,1641.1980,S,06932.9353,W,1,07,1.0,4101.5,M,34.1,M,,0000*65
$GPGSA,M,3,21,25,31,18,29,30,22,,,,,,2.2,1.0,2.0*3A
$GPGSV,3,1,11,21,70,192,32,25,53,064,38,31,43,278,38,18,40,020,38*7B
$GPGSV,3,2,11,29,29,135,36,30,27,212,30,22,19,351,35,12,14,049,*7C
$GPGSV,3,3,11,16,05,217,31,06,05,250,38,14,02,336,*43
$GPRMC,170010.000,A,1641.1980,S,06932.9353,W,27.72,229.06,280411,,,A*57
$GPGGA,170011.000,1641.2030,S,06932.9409,W,1,07,1.0,4101.2,M,34.1,M,,0000*6A
$GPGSA,M,3,21,25,31,18,29,30,22,,,,,,2.2,1.0,2.0*3A
$GPRMC,170011.000,A,1641.2030,S,06932.9409,W,26.95,229.51,280411,,,A*55
$GPGGA,170011.998,1641.2080,S,06932.9469,W,1,06,1.3,4099.5,M,34.1,M,,0000*6A
$GPGSA,M,3,21,25,31,18,29,22,,,,,,,2.6,1.3,2.3*3D
$GPRMC,170011.998,A,1641.2080,S,06932.9469,W,27.61,230.01,280411,,,A*57
$GPGGA,170013.000,1641.2129,S,06932.9530,W,1,07,1.2,4097.9,M,34.1,M,,0000*6D
$GPGSA,M,3,21,25,31,18,29,22,12,,,,,,2.4,1.2,2.0*3E
$GPRMC,170013.000,A,1641.2129,S,06932.9530,W,27.72,229.15,280411,,,A*5D
$GPGGA,170014.002,1641.2177,S,06932.9590,W,1,06,1.3,4096.3,M,34.1,M,,0000*62
$GPGSA,M,3,21,25,31,18,29,12,,,,,,,2.6,1.3,2.3*3E
$GPRMC,170014.002,A,1641.2177,S,06932.9590,W,27.50,233.01,280411,,,A*57
$GPGGA,170015.000,1641.2220,S,06932.9653,W,1,08,1.0,4095.9,M,34.1,M,,0000*68
$GPGSA,M,3,21,25,31,18,29,30,22,12,,,,,2.0,1.0,1.7*3F
$GPGSV,3,1,11,21,70,192,37,25,53,064,38,31,43,278,39,18,40,020,38*7F
$GPGSV,3,2,11,29,29,135,33,30,27,212,29,22,19,351,30,12,14,049,31*76
$GPGSV,3,3,11,16,05,217,,06,05,250,31,14,02,336,*48
$GPRMC,170015.000,A,1641.2220,S,06932.9653,W,26.95,235.71,280411,,,A*50
$GPGGA,170016.000,1641.2259,S,06932.9720,W,1,08,1.0,4094.7,M,34.1,M,,0000*6F
$GPGSA,M,3,21,25,31,18,29,30,22,12,,,,,2.0,1.0,1.7*3F
$GPRMC,170016.000,A,1641.2259,S,06932.9720,W,26.96,239.61,280411,,,A*56
$GPGGA,170017.000,1641.2293,S,06932.9786,W,1,08,1.0,4093.8,M,34.1,M,,0000*6C
$GPGSA,M,3,21,25,31,18,29,30,22,12,,,,,2.0,1.0,1.7*3F
$GPRMC,170017.000,A,1641.2293,S,06932.9786,W,26.94,240.47,280411,,,A*55
$GPGGA,170018.000,1641.2327,S,06932.9855,W,1,08,1.0,4092.2,M,34.1,M,,0000*67
$GPGSA,M,3,21,25,31,18,29,30,22,12,,,,,2.0,1.0,1.7*3F
$GPRMC,170018.000,A,1641.2327,S,06932.9855,W,26.69,244.16,280411,,,A*57
$GPGGA,170018.998,1641.2357,S,06932.9925,W,1,07,1.2,4091.1,M,34.1,M,,0000*63
$GPGSA,M,3,21,25,31,18,29,22,12,,,,,,2.4,1.2,2.0*3E
$GPRMC,170018.998,A,1641.2357,S,06932.9925,W,26.60,246.04,280411,,,A*56
$GPGGA,170020.000,1641.2387,S,06932.9995,W,1,08,1.0,4091.2,M,34.1,M,,0000*68
$GPGSA,M,3,21,25,31,18,29,30,22,12,,,,,2.0,1.0,1.7*3F
$GPGSV,3,1,11,21,70,192,38,25,53,064,36,31,43,278,40,18,40,020,38*70
$GPGSV,3,2,11,29,29,135,30,30,27,212,29,22,19,351,36,12,14,049,37*75
$GPGSV,3,3,11,16,05,217,,06,05,250,,14,02,336,*4A
$GPRMC,170020.000,A,1641.2387,S,06932.9995,W,26.55,246.62,280411,,,A*55
$GPGGA,170021.001,1641.2415,S,06933.0063,W,1,08,1.0,4091.5,M,34.1,M,,0000*6B
$GPGSA,M,3,21,25,31,18,29,30,22,12,,,,,2.0,1.0,1.7*3F
$GPRMC,170021.001,A,1641.2415,S,06933.0063,W,26.82,249.52,280411,,,A*57
$GPGGA,170022.004,1641.2439,S,06933.0135,W,1,08,1.0,4091.8,M,34.1,M,,0000*6C
$GPGSA,M,3,21,25,31,18,29,30,22,12,,,,,2.0,1.0,1.7*3F
$GPRMC,170022.004,A,1641.2439,S,06933.0135,W,26.33,250.39,280411,,,A*52
$GPGGA,170022.996,1641.2460,S,06933.0210,W,1,07,1.2,4089.7,M,34.1,M,,0000*6D
$GPGSA,M,3,21,25,31,18,30,22,12,,,,,,2.2,1.2,1.8*3B
$GPRMC,170022.996,A,1641.2460,S,06933.0210,W,26.27,253.97,280411,,,A*5A
$GPGGA,170024.002,1641.2478,S,06933.0285,W,1,06,1.9,4088.3,M,34.1,M,,0000*65
$GPGSA,M,3,21,25,31,18,22,12,,,,,,,3.6,1.9,3.0*3C
$GPRMC,170024.002,A,1641.2478,S,06933.0285,W,26.48,255.63,280411,,,A*59
$GPGGA,170024.998,1641.2495,S,06933.0358,W,1,07,1.2,4088.8,M,34.1,M,,0000*6C
$GPGSA,M,3,21,25,31,18,29,22,12,,,,,,2.4,1.2,2.0*3E
$GPGSV,3,1,11,21,70,192,39,25,53,064,38,31,43,278,40,18,40,020,38*7F
$GPGSV,3,2,11,29,29,135,31,30,27,212,,22,19,351,37,12,14,049,36*7F
$GPGSV,3,3,11,16,05,217,,06,05,250,31,14,02,336,*48
$GPRMC,170024.998,A,1641.2495,S,06933.0358,W,26.61,256.53,280411,,,A*5A
$GPGGA,170026.000,1641.2510,S,06933.0430,W,1,07,1.2,4087.9,M,34.1,M,,0000*6D
$GPGSA,M,3,21,25,31,18,29,22,12,,,,,,2.4,1.2,2.0*3E
$GPRMC,170026.000,A,1641.2510,S,06933.0430,W,26.25,257.43,280411,,,A*55
$GPGGA,170027.004,1641.2523,S,06933.0503,W,1,08,1.0,4087.3,M,34.1,M,,0000*6E
$GPGSA,M,3,21,25,31,18,29,30,22,12,,,,,2.0,1.0,1.7*3F
$GPRMC,170027.004,A,1641.2523,S,06933.0503,W,26.39,258.90,280411,,,A*5D
$GPGGA,170027.997,1641.2536,S,06933.0577,W,1,08,1.0,4087.4,M,34.1,M,,0000*6D
$GPGSA,M,3,21,25,31,18,29,30,22,12,,,,,2.0,1.0,1.7*3F
$GPRMC,170027.997,A,1641.2536,S,06933.0577,W,26.38,257.52,280411,,,A*59
$GPGGA,170029.000,1641.2551,S,06933.0651,W,1,08,1.0,4087.2,M,34.1,M,,0000*64
$GPGSA,M,3,21,25,31,18,29,30,22,12,,,,,2.0,1.0,1.7*3F
$GPRMC,170029.000,A,1641.2551,S,06933.0651,W,26.22,256.86,280411,,,A*55
$GPGGA,170030.000,1641.2568,S,06933.0725,W,1,08,1.0,4086.0,M,34.1,M,,0000*67
$GPGSA,M,3,21,25,31,18,29,30,22,12,,,,,2.0,1.0,1.7*3F
$GPGSV,3,1,11,21,70,192,39,25,53,064,38,31,43,278,39,18,40,020,35*7C
$GPGSV,3,2,11,29,29,135,33,30,27,212,27,22,19,351,38,12,14,049,33*72
$GPGSV,3,3,11,16,05,217,,06,05,250,31,14,02,336,*48
$GPRMC,170030.000,A,1641.2568,S,06933.0725,W,26.31,258.30,280411,,,A*54
$GPGGA,170031.000,1641.2582,S,06933.0797,W,1,08,1.0,4084.8,M,34.1,M,,0000*61
$GPGSA,M,3,21,25,31,18,29,30,22,12,,,,,2.0,1.0,1.7*3F
$GPRMC,170031.000,A,1641.2582,S,06933.0797,W,26.50,258.08,280411,,,A*54
$GPGGA,170032.000,1641.2596,S,06933.0874,W,1,08,1.0,4083.6,M,34.1,M,,0000*6C
$GPGSA,M,3,21,25,31,18,29,30,22,12,,,,,2.0,1.0,1.7*3F
$GPRMC,170032.000,A,1641.2596,S,06933.0874,W,26.61,258.45,280411,,,A*5B
$GPGGA,170033.002,1641.2610,S,06933.0947,W,1,07,1.2,4083.4,M,34.1,M,,0000*6C
$GPGSA,M,3,21,25,31,18,29,22,12,,,,,,2.4,1.2,2.0*3E
$GPRMC,170033.002,A,1641.2610,S,06933.0947,W,26.98,258.38,280411,,,A*58
$GPGGA,170034.000,1641.2622,S,06933.1024,W,1,08,1.0,4084.8,M,34.1,M,,0000*63
$GPGSA,M,3,21,25,31,18,29,30,22,12,,,,,2.0,1.0,1.7*3F
$GPRMC,170034.000,A,1641.2622,S,06933.1024,W,27.04,258.35,280411,,,A*58
$GPGGA,170034.998,1641.2633,S,06933.1103,W,1,08,1.0,4085.5,M,34.1,M,,0000*63
$GPGSA,M,3,21,25,31,18,29,30,22,12,,,,,2.0,1.0,1.7*3F
$GPGSV,3,1,11,21,70,192,39,25,53,064,38,31,43,278,40,18,40,020,37*70
$GPGSV,3,2,11,29,29,135,34,30,27,212,26,22,19,351,37,12,14,049,28*71
$GPGSV,3,3,11,16,05,217,27,06,05,250,,14,02,336,*4F
$GPRMC,170034.998,A,1641.2633,S,06933.1103,W,27.23,259.29,280411,,,A*5D
$GPGGA,170036.002,1641.2648,S,06933.1181,W,1,07,1.2,4084.4,M,34.1,M,,0000*60
$GPGSA,M,3,21,25,31,18,29,22,12,,,,,,2.4,1.2,2.0*3E
$GPRMC,170036.002,A,1641.2648,S,06933.1181,W,26.89,258.71,280411,,,A*5E
$GPGGA,170036.996,1641.2662,S,06933.1258,W,1,08,1.0,4085.5,M,34.1,M,,0000*66
$GPGSA,M,3,21,25,31,18,29,30,22,12,,,,,2.0,1.0,1.7*3F
$GPRMC,170036.996,A,1641.2662,S,06933.1258,W,27.33,256.98,280411,,,A*5C
$GPGGA,170038.002,1641.2682,S,06933.1333,W,1,08,1.0,4085.2,M,34.1,M,,0000*69
$GPGSA,M,3,21,25,31,18,29,30,22,12,,,,,2.0,1.0,1.7*3F
$GPRMC,170038.002,A,1641.2682,S,06933.1333,W,27.06,253.92,280411,,,A*5D
$GPGGA,170038.998,1641.2702,S,06933.1408,W,1,08,1.0,4085.2,M,34.1,M,,0000*65
$GPGSA,M,3,21,25,31,18,29,30,22,12,,,,,2.0,1.0,1.7*3F
$GPRMC,170038.998,A,1641.2702,S,06933.1408,W,26.70,253.80,280411,,,A*52
$GPGGA,170040.002,1641.2724,S,06933.1483,W,1,08,1.0,4084.6,M,34.1,M,,0000*62
$GPGSA,M,3,21,25,31,18,29,30,22,12,,,,,2.0,1.0,1.7*3F
$GPGSV,3,1,11,21,70,192,40,25,53,064,38,31,43,278,41,18,40,020,37*7F
$GPGSV,3,2,11,29,29,135,29,30,27,212,29,22,19,351,36,12,14,049,36*7C
$GPGSV,3,3,11,16,05,217,,06,05,250,31,14,02,336,*48
$GPRMC,170040.002,A,1641.2724,S,06933.1483,W,27.51,251.91,280411,,,A*50
$GPGGA,170041.000,1641.2751,S,06933.1559,W,1,08,1.0,4083.7,M,34.1,M,,0000*63
$GPGSA,M,3,21,25,31,18,29,30,22,12,,,,,2.0,1.0,1.7*3F
$GPRMC,170041.000,A,1641.2751,S,06933.1559,W,27.32,249.00,280411,,,A*53
$GPGGA,170042.000,1641.2781,S,06933.1631,W,1,08,1.0,4082.5,M,34.1,M,,0000*63
$GPGSA,M,3,21,25,31,18,29,30,22,12,,,,,2.0,1.0,1.7*3F
$GPRMC,170042.000,A,1641.2781,S,06933.1631,W,27.36,246.57,280411,,,A*59
$GPGGA,170043.001,1641.2810,S,06933.1701,W,1,08,1.0,4082.6,M,34.1,M,,0000*65
$GPGSA,M,3,21,25,31,18,29,30,22,12,,,,,2.0,1.0,1.7*3F
$GPRMC,170043.001,A,1641.2810,S,06933.1701,W,27.35,244.92,280411,,,A*54
$GPGGA,170044.000,1641.2847,S,06933.1773,W,1,08,1.0,4081.9,M,34.1,M,,0000*68
$GPGSA,M,3,21,25,31,18,29,30,22,12,,,,,2.0,1.0,1.7*3F
$GPRMC,170044.000,A,1641.2847,S,06933.1773,W,27.62,242.93,280411,,,A*50
$GPGGA,170045.000,1641.2880,S,06933.1844,W,1,08,1.0,4083.6,M,34.1,M,,0000*64
$GPGSA,M,3,21,25,31,18,29,30,22,12,,,,,2.0,1.0,1.7*3F
$GPGSV,3,1,11,21,70,192,36,25,53,064,38,31,43,278,39,18,40,020,37*71
$GPGSV,3,2,11,29,29,135,37,30,27,212,33,22,19,351,31,12,14,049,36*7F
$GPGSV,3,3,11,16,05,217,25,06,05,250,,14,02,336,*4D
$GPRMC,170045.000,A,1641.2880,S,06933.1844,W,28.16,241.66,280411,,,A*54
$GPGGA,170046.000,1641.2916,S,06933.1914,W,1,08,1.0,4083.7,M,34.1,M,,0000*6C
$GPGSA,M,3,21,25,31,18,29,30,22,12,,,,,2.0,1.0,1.7*3F
$GPRMC,170046.000,A,1641.2916,S,06933.1914,W,27.10,241.08,280411,,,A*5C
$GPGGA,170047.000,1641.2956,S,06933.1982,W,1,07,1.2,4083.4,M,34.1,M,,0000*68
$GPGSA,M,3,21,25,31,18,29,22,12,,,,,,2.4,1.2,2.0*3E
$GPRMC,170047.000,A,1641.2956,S,06933.1982,W,27.86,237.87,280411,,,A*5F
$GPGGA,170047.998,1641.2997,S,06933.2051,W,1,06,1.3,4082.8,M,34.1,M,,0000*64
$GPGSA,M,3,21,25,31,18,29,12,,,,,,,2.6,1.3,2.3*3E
$GPRMC,170047.998,A,1641.2997,S,06933.2051,W,27.70,235.44,280411,,,A*5A
$GPGGA,170049.002,1641.3045,S,06933.2115,W,1,07,1.1,4081.9,M,34.1,M,,0000*67
$GPGSA,M,3,21,25,31,18,29,30,12,,,,,,2.2,1.1,1.9*32
$GPRMC,170049.002,A,1641.3045,S,06933.2115,W,27.64,233.34,280411,,,A*5C
$GPGGA,170049.998,1641.3093,S,06933.2178,W,1,06,1.3,4081.2,M,34.1,M,,0000*65
$GPGSA,M,3,21,25,31,18,29,12,,,,,,,2.6,1.3,2.3*3E
$GPGSV,3,1,11,21,70,192,31,25,53,064,38,31,43,278,37,18,40,020,39*76
$GPGSV,3,2,11,29,29,135,33,30,27,212,,22,19,351,,12,14,049,28*76
$GPGSV,3,3,11,16,05,217,31,06,05,250,38,14,02,336,*43
$GPRMC,170049.998,A,1641.3093,S,06933.2178,W,27.84,231.76,280411,,,A*5C
$GPGGA,170051.002,1641.3144,S,06933.2242,W,1,07,1.0,4080.4,M,34.1,M,,0000*62
$GPGSA,M,3,21,25,31,18,29,30,22,,,,,,2.2,1.0,2.0*3A
$GPRMC,170051.002,A,1641.3144,S,06933.2242,W,27.75,230.69,280411,,,A*5F
$GPGGA,170052.000,1641.3196,S,06933.2305,W,1,07,1.0,4079.4,M,34.1,M,,0000*68
$GPGSA,M,3,21,25,31,18,29,30,22,,,,,,2.2,1.0,2.0*3A
$GPRMC,170052.000,A,1641.3196,S,06933.2305,W,27.79,229.26,280411,,,A*5C
$GPGGA,170053.001,1641.3249,S,06933.2365,W,1,08,1.0,4078.8,M,34.1,M,,0000*6D
$GPGSA,M,3,21,25,31,18,29,30,22,12,,,,,2.0,1.0,1.7*3F
$GPRMC,170053.001,A,1641.3249,S,06933.2365,W,27.60,225.08,280411,,,A*53
$GPGGA,170054.001,1641.3306,S,06933.2421,W,1,08,1.0,4077.6,M,34.1,M,,0000*66
$GPGSA,M,3,21,25,31,18,29,30,22,12,,,,,2.0,1.0,1.7*3F
$GPRMC,170054.001,A,1641.3306,S,06933.2421,W,27.01,222.89,280411,,,A*50
$GPGGA,170055.001,1641.3363,S,06933.2475,W,1,08,1.0,4076.1,M,34.1,M,,0000*63
$GPGSA,M,3,21,25,31,18,29,30,22,12,,,,,2.0,1.0,1.7*3F
$GPGSV,3,1,11,21,70,192,34,25,53,064,38,31,43,278,38,18,40,020,38*7D
$GPGSV,3,2,11,29,29,135,33,30,27,212,36,22,19,351,29,12,14,049,32*73
$GPGSV,3,3,11,16,05,217,32,06,05,250,37,14,02,336,*4F
$GPRMC,170055.001,A,1641.3363,S,06933.2475,W,27.68,221.90,280411,,,A*57
$GPGGA,170056.001,1641.3423,S,06933.2526,W,1,08,1.0,4075.9,M,34.1,M,,0000*6F
$GPGSA,M,3,21,25,31,18,29,30,22,12,,,,,2.0,1.0,1.7*3F
$GPRMC,170056.001,A,1641.3423,S,06933.2526,W,27.81,219.40,280411,,,A*51
$GPGGA,170057.001,1641.3480,S,06933.2575,W,1,08,1.0,4076.3,M,34.1,M,,0000*68
$GPGSA,M,3,21,25,31,18,29,30,22,12,,,,,2.0,1.0,1.7*3F
$GPRMC,170057.001,A,1641.3480,S,06933.2575,W,27.40,217.82,280411,,,A*52
$GPGGA,170058.001,1641.3542,S,06933.2622,W,1,08,1.0,4076.1,M,34.1,M,,0000*6B
$GPGSA,M,3,21,25,31,18,29,30,22,12,,,,,2.0,1.0,1.7*3F
$GPRMC,170058.001,A,1641.3542,S,06933.2622,W,27.91,215.94,280411,,,A*5A
$GPGGA,170059.001,1641.3605,S,06933.2666,W,1,08,1.0,4076.1,M,34.1,M,,0000*6A
$GPGSA,M,3,21,25,31,18,29,30,22,12,,,,,2.0,1.0,1.7*3F
$GPRMC,170059.001,A,1641.3605,S,06933.2666,W,27.57,215.65,280411,,,A*5F
$GPGGA,170059.999,1641.3667,S,06933.2709,W,1,07,1.0,4075.9,M,34.1,M,,0000*6A
$GPGSA,M,3,21,25,31,18,29,30,22,,,,,,2.2,1.0,2.0*3A
$GPGSV,3,1,11,21,70,192,32,25,53,064,37,31,43,278,39,18,40,020,33*7E
$GPGSV,3,2,11,29,29,135,27,30,27,212,38,22,19,351,25,12,14,049,*75
$GPGSV,3,3,11,16,05,217,31,06,05,250,31,14,02,336,*4A
$GPRMC,170059.999,A,1641.3667,S,06933.2709,W,27.97,215.42,280411,,,A*52
$GPGGA,170101.000,1641.3733,S,06933.2754,W,1,07,1.1,4074.5,M,34.1,M,,0000*6B
$GPGSA,M,3,21,25,31,18,29,30,12,,,,,,2.2,1.1,1.9*32
$GPRMC,170101.000,A,1641.3733,S,06933.2754,W,27.58,214.48,280411,,,A*57
$GPGGA,170102.002,1641.3797,S,06933.2796,W,1,06,1.3,4073.7,M,34.1,M,,0000*6C
$GPGSA,M,3,21,25,31,18,29,12,,,,,,,2.6,1.3,2.3*3E
$GPRMC,170102.002,A,1641.3797,S,06933.2796,W,27.33,214.83,280411,,,A*5C
$GPGGA,170103.000,1641.3858,S,06933.2840,W,1,08,1.0,4074.4,M,34.1,M,,0000*6E
$GPGSA,M,3,21,25,31,18,29,30,22,12,,,,,2.0,1.0,1.7*3F
$GPRMC,170103.000,A,1641.3858,S,06933.2840,W,27.27,213.71,280411,,,A*58
$GPGGA,170103.998,1641.3918,S,06933.2887,W,1,07,1.1,4074.6,M,34.1,M,,0000*64
$GPGSA,M,3,21,25,31,18,29,30,12,,,,,,2.2,1.1,1.9*32
$GPRMC,170103.998,A,1641.3918,S,06933.2887,W,27.53,214.29,280411,,,A*57
$GPGGA,170104.998,1641.3983,S,06933.2935,W,1,08,1.0,4074.8,M,34.1,M,,0000*69
$GPGSA,M,3,21,25,31,18,29,30,22,12,,,,,2.0,1.0,1.7*3F
$GPGSV,3,1,11,21,70,192,28,25,53,064,37,31,43,278,40,18,40,020,38*70
$GPGSV,3,2,11,29,29,135,31,30,27,212,38,22,19,351,28,12,14,049,34*78
$GPGSV,3,3,11,16,05,217,33,06,05,250,29,14,02,336,*41
$GPRMC,170104.998,A,1641.3983,S,06933.2935,W,27.19,213.12,280411,,,A*5B
$GPGGA,170106.000,1641.4046,S,06933.2977,W,1,08,1.0,4075.4,M,34.1,M,,0000*6F
$GPGSA,M,3,21,25,31,18,29,30,22,12,,,,,2.0,1.0,1.7*3F
$GPRMC,170106.000,A,1641.4046,S,06933.2977,W,26.98,213.27,280411,,,A*5E
$GPGGA,170107.004,1641.4109,S,06933.3018,W,1,08,1.0,4076.0,M,34.1,M,,0000*66
$GPGSA,M,3,21,25,31,18,29,30,22,12,,,,,2.0,1.0,1.7*3F
$GPRMC,170107.004,A,1641.4109,S,06933.3018,W,26.76,212.45,280411,,,A*55
$GPGGA,170107.998,1641.4168,S,06933.3065,W,1,07,1.0,4076.9,M,34.1,M,,0000*61
$GPGSA,M,3,21,25,31,18,29,30,22,,,,,,2.3,1.0,2.0*3B
$GPRMC,170107.998,A,1641.4168,S,06933.3065,W,26.85,213.23,280411,,,A*59
$GPGGA,170108.998,1641.4227,S,06933.3107,W,1,08,1.0,4078.0,M,34.1,M,,0000*6B
$GPGSA,M,3,21,25,31,18,29,30,22,12,,,,,2.0,1.0,1.7*3F
$GPRMC,170108.998,A,1641.4227,S,06933.3107,W,26.83,213.77,280411,,,A*5C
$GPGGA,170110.002,1641.4287,S,06933.3148,W,1,07,1.0,4078.7,M,34.1,M,,0000*61
$GPGSA,M,3,21,25,31,18,29,30,22,,,,,,2.3,1.0,2.0*3B
$GPGSV,3,1,11,21,70,192,30,25,53,064,38,31,43,278,39,18,40,020,37*77
$GPGSV,3,2,11,29,29,135,31,30,27,212,37,22,19,351,26,12,14,049,*7E
$GPGSV,3,3,11,16,05,217,31,06,05,250,36,14,02,336,*4D
$GPRMC,170110.002,A,1641.4287,S,06933.3148,W,26.87,214.21,280411,,,A*5E
$GPGGA,170110.998,1641.4350,S,06933.3189,W,1,08,1.0,4078.4,M,34.1,M,,0000*61
$GPGSA,M,3,21,25,31,18,29,30,22,12,,,,,2.0,1.0,1.7*3F
$GPRMC,170110.998,A,1641.4350,S,06933.3189,W,27.07,213.91,280411,,,A*57
$GPGGA,170112.002,1641.4410,S,06933.3231,W,1,07,1.1,4079.0,M,34.1,M,,0000*61
$GPGSA,M,3,21,25,31,18,29,30,12,,,,,,2.2,1.1,1.9*32
$GPRMC,170112.002,A,1641.4410,S,06933.3231,W,26.83,214.63,280411,,,A*5B
$GPGGA,170113.000,1641.4469,S,06933.3272,W,1,07,1.1,4080.3,M,34.1,M,,0000*6E
$GPGSA,M,3,21,25,31,18,29,30,12,,,,,,2.2,1.1,1.9*32
$GPRMC,170113.000,A,1641.4469,S,06933.3272,W,27.34,214.07,280411,,,A*5E
$GPGGA,170114.001,1641.4531,S,06933.3317,W,1,08,1.0,4079.2,M,34.1,M,,0000*6F
$GPGSA,M,3,21,25,31,18,29,30,22,12,,,,,2.0,1.0,1.7*3F
$GPRMC,170114.001,A,1641.4531,S,06933.3317,W,27.41,212.57,280411,,,A*57
$GPGGA,170115.001,1641.4597,S,06933.3360,W,1,08,1.0,4078.0,M,34.1,M,,0000*61
$GPGSA,M,3,21,25,31,18,29,30,22,12,,,,,2.0,1.0,1.7*3F
$GPGSV,3,1,11,21,70,192,30,25,53,064,38,31,43,278,41,18,40,020,37*78
$GPGSV,3,2,11,29,29,135,30,30,27,212,39,22,19,351,29,12,14,049,27*7B
$GPGSV,3,3,11,16,05,217,33,06,05,250,35,14,02,336,*4C
$GPRMC,170115.001,A,1641.4597,S,06933.3360,W,27.39,213.26,280411,,,A*52
$GPGGA,170116.000,1641.4661,S,06933.3402,W,1,07,1.1,4078.0,M,34.1,M,,0000*64
$GPGSA,M,3,21,25,31,18,29,30,12,,,,,,2.2,1.1,1.9*32
$GPRMC,170116.000,A,1641.4661,S,06933.3402,W,26.95,213.85,280411,,,A*57
$GPGGA,170117.001,1641.4723,S,06933.3445,W,1,08,1.0,4077.8,M,34.1,M,,0000*69
$GPGSA,M,3,21,25,31,18,29,30,22,12,,,,,2.0,1.0,1.7*3F
$GPRMC,170117.001,A,1641.4723,S,06933.3445,W,27.63,214.82,280411,,,A*5B
$GPGGA,170118.000,1641.4785,S,06933.3491,W,1,07,1.0,4078.6,M,34.1,M,,0000*6C
$GPGSA,M,3,21,25,31,18,29,30,22,,,,,,2.3,1.0,2.0*3B
$GPRMC,170118.000,A,1641.4785,S,06933.3491,W,27.17,215.25,280411,,,A*5F
$GPGGA,170119.000,1641.4846,S,06933.3534,W,1,07,1.0,4078.3,M,34.1,M,,0000*66
$GPGSA,M,3,25,31,18,29,30,22,12,,,,,,2.3,1.0,2.1*3A
$GPRMC,170119.000,A,1641.4846,S,06933.3534,W,27.32,214.59,280411,,,A*5D
$GPGGA,170119.998,1641.4909,S,06933.3577,W,1,06,1.1,4078.2,M,34.1,M,,0000*62
$GPGSA,M,3,25,31,18,29,30,12,,,,,,,2.7,1.1,2.5*3B
$GPGSV,3,1,11,21,70,192,,25,53,064,38,31,43,278,39,18,40,020,38*7B
$GPGSV,3,2,11,29,29,135,30,30,27,212,38,22,19,351,,12,14,049,29*7F
$GPGSV,3,3,11,16,05,217,30,06,05,250,31,14,02,336,*4B
$GPRMC,170119.998,A,1641.4909,S,06933.3577,W,27.35,214.63,280411,,,A*56
$GPGGA,170121.000,1641.4969,S,06933.3622,W,1,06,1.1,4078.7,M,34.1,M,,0000*61
$GPGSA,M,3,25,31,18,29,30,12,,,,,,,2.7,1.1,2.5*3B
$GPRMC,170121.000,A,1641.4969,S,06933.3622,W,27.10,214.73,280411,,,A*56
$GPGGA,170122.000,1641.5032,S,06933.3665,W,1,06,1.1,4078.5,M,34.1,M,,0000*65
$GPGSA,M,3,25,31,18,29,30,12,,,,,,,2.7,1.1,2.5*3B
$GPRMC,170122.000,A,1641.5032,S,06933.3665,W,27.14,215.94,280411,,,A*5C
$GPGGA,170123.002,1641.5091,S,06933.3711,W,1,07,1.0,4079.0,M,34.1,M,,0000*69
$GPGSA,M,3,25,31,18,29,30,22,12,,,,,,2.3,1.0,2.1*3A
$GPRMC,170123.002,A,1641.5091,S,06933.3711,W,26.91,215.58,280411,,,A*58
$GPGGA,170124.000,1641.5150,S,06933.3756,W,1,07,1.0,4079.3,M,34.1,M,,0000*60
$GPGSA,M,3,25,31,18,29,30,22,12,,,,,,2.3,1.0,2.1*3A
$GPRMC,170124.000,A,1641.5150,S,06933.3756,W,26.86,213.91,280411,,,A*57
$GPGGA,170124.998,1641.5212,S,06933.3797,W,1,06,1.1,4079.3,M,34.1,M,,0000*60
$GPGSA,M,3,25,31,18,29,30,12,,,,,,,2.7,1.1,2.5*3B
$GPGSV,3,1,11,21,70,192,,25,53,064,38,31,43,278,41,18,40,020,37*7B
$GPGSV,3,2,11,29,29,135,30,30,27,212,38,22,19,351,,12,14,049,31*76
$GPGSV,3,3,11,16,05,217,31,06,05,250,34,14,02,336,*4F
$GPRMC,170124.998,A,1641.5212,S,06933.3797,W,26.67,213.55,280411,,,A*50
$GPGGA,170126.002,1641.5278,S,06933.3841,W,1,07,1.0,4078.7,M,34.1,M,,0000*65
$GPGSA,M,3,25,31,18,29,30,22,12,,,,,,2.3,1.0,2.1*3A
$GPRMC,170126.002,A,1641.5278,S,06933.3841,W,27.16,212.76,280411,,,A*57
$GPGGA,170126.998,1641.5338,S,06933.3885,W,1,06,1.1,4077.5,M,34.1,M,,0000*6F
$GPGSA,M,3,25,31,18,29,30,22,,,,,,,2.9,1.1,2.7*34
$GPRMC,170126.998,A,1641.5338,S,06933.3885,W,27.05,214.40,280411,,,A*51
$GPGGA,170128.001,1641.5400,S,06933.3929,W,1,07,1.1,4078.2,M,34.1,M,,0000*6A
$GPGSA,M,3,21,25,31,18,29,30,12,,,,,,2.2,1.1,1.9*32
$GPRMC,170128.001,A,1641.5400,S,06933.3929,W,27.34,214.27,280411,,,A*5E
$GPGGA,170129.002,1641.5463,S,06933.3969,W,1,07,1.0,4078.8,M,34.1,M,,0000*62
$GPGSA,M,3,25,31,18,29,30,22,12,,,,,,2.3,1.0,2.1*3A
$GPRMC,170129.002,A,1641.5463,S,06933.3969,W,27.43,213.75,280411,,,A*5D
$GPGGA,170129.999,1641.5527,S,06933.4013,W,1,07,1.1,4079.1,M,34.1,M,,0000*62
$GPGSA,M,3,21,25,31,18,29,30,12,,,,,,2.2,1.1,1.9*32
$GPGSV,3,1,11,21,70,192,28,25,53,064,37,31,43,278,41,18,40,020,38*71
$GPGSV,3,2,11,29,29,135,31,30,27,212,39,22,19,351,,12,14,049,35*72
$GPGSV,3,3,11,16,05,217,31,06,05,250,39,14,02,336,*42
$GPRMC,170129.999,A,1641.5527,S,06933.4013,W,27.39,213.16,280411,,,A*5C
$GPGGA,170131.002,1641.5593,S,06933.4057,W,1,08,1.0,4078.5,M,34.1,M,,0000*64
$GPGSA,M,3,21,25,31,18,29,30,22,12,,,,,2.0,1.0,1.7*3F
$GPRMC,170131.002,A,1641.5593,S,06933.4057,W,27.42,213.27,280411,,,A*5F
$GPGGA,170132.000,1641.5657,S,06933.4101,W,1,08,1.0,4078.3,M,34.1,M,,0000*6A
$GPGSA,M,3,21,25,31,18,29,30,22,12,,,,,2.0,1.0,1.7*3F
$GPRMC,170132.000,A,1641.5657,S,06933.4101,W,27.88,212.98,280411,,,A*54
$GPGGA,170132.998,1641.5723,S,06933.4148,W,1,07,1.1,4076.2,M,34.1,M,,0000*6C
$GPGSA,M,3,21,25,31,18,29,30,12,,,,,,2.2,1.1,1.9*32
$GPRMC,170132.998,A,1641.5723,S,06933.4148,W,28.04,213.46,280411,,,A*5A
$GPGGA,170133.998,1641.5787,S,06933.4190,W,1,08,1.0,4075.9,M,34.1,M,,0000*60
$GPGSA,M,3,21,25,31,18,29,30,22,12,,,,,2.0,1.0,1.7*3F
$GPRMC,170133.998,A,1641.5787,S,06933.4190,W,27.46,213.57,280411,,,A*59
$GPGGA,170135.000,1641.5850,S,06933.4233,W,1,08,1.0,4076.5,M,34.1,M,,0000*6E
$GPGSA,M,3,21,25,31,18,29,30,22,12,,,,,2.0,1.0,1.7*3F
$GPGSV,3,1,11,21,70,192,28,25,53,064,37,31,43,278,40,18,40,020,38*70
$GPGSV,3,2,11,29,29,135,31,30,27,212,37,22,19,351,30,12,14,049,28*73
$GPGSV,3,3,11,16,05,217,31,06,05,250,31,14,02,336,*4A
$GPRMC,170135.000,A,1641.5850,S,06933.4233,W,27.56,213.38,280411,,,A*50
$GPGGA,170136.002,1641.5914,S,06933.4274,W,1,07,1.1,4077.9,M,34.1,M,,0000*6E
$GPGSA,M,3,21,25,31,18,29,30,12,,,,,,2.2,1.1,1.9*32
$GPRMC,170136.002,A,1641.5914,S,06933.4274,W,27.36,213.63,280411,,,A*5B
$GPGGA,170136.998,1641.5978,S,06933.4316,W,1,08,1.0,4077.5,M,34.1,M,,0000*69
$GPGSA,M,3,21,25,31,18,29,30,22,12,,,,,2.0,1.0,1.7*3F
$GPRMC,170136.998,A,1641.5978,S,06933.4316,W,27.70,213.52,280411,,,A*5E
$GPGGA,170138.000,1641.6042,S,06933.4356,W,1,08,1.0,4076.6,M,34.1,M,,0000*6A
$GPGSA,M,3,21,25,31,18,29,30,22,12,,,,,2.0,1.0,1.7*3F
$GPRMC,170138.000,A,1641.6042,S,06933.4356,W,28.01,213.22,280411,,,A*51
$GPGGA,170139.000,1641.6104,S,06933.4401,W,1,08,1.0,4076.9,M,34.1,M,,0000*62
$GPGSA,M,3,21,25,31,18,29,30,22,12,,,,,2.0,1.0,1.7*3F
$GPRMC,170139.000,A,1641.6104,S,06933.4401,W,27.62,214.06,280411,,,A*5D
$GPGGA,170140.000,1641.6168,S,06933.4443,W,1,08,1.0,4076.6,M,34.1,M,,0000*6F
$GPGSA,M,3,21,25,31,18,29,30,22,12,,,,,2.0,1.0,1.7*3F
$GPGSV,3,1,11,21,70,192,27,25,53,064,38,31,43,278,41,18,40,020,37*7E
$GPGSV,3,2,11,29,29,135,28,30,27,212,38,22,19,351,30,12,14,049,24*78
$GPGSV,3,3,11,16,05,217,31,06,05,250,33,14,02,336,*48
$GPRMC,170140.000,A,1641.6168,S,06933.4443,W,28.03,213.86,280411,,,A*58
$GPGGA,170141.000,1641.6229,S,06933.4487,W,1,08,1.0,4075.8,M,34.1,M,,0000*6D
$GPGSA,M,3,21,25,31,18,29,30,22,12,,,,,2.0,1.0,1.7*3F
$GPRMC,170141.000,A,1641.6229,S,06933.4487,W,27.50,214.88,280411,,,A*57
$GPGGA,170142.003,1641.6291,S,06933.4529,W,1,08,1.0,4075.5,M,34.1,M,,0000*66
$GPGSA,M,3,21,25,31,18,29,30,22,12,,,,,2.0,1.0,1.7*3F
$GPRMC,170142.003,A,1641.6291,S,06933.4529,W,27.79,213.51,280411,,,A*59
$GPGGA,170142.999,1641.6354,S,06933.4573,W,1,07,1.0,4075.2,M,34.1,M,,0000*63
$GPGSA,M,3,21,25,31,18,29,30,22,,,,,,2.3,1.0,2.0*3B
$GPRMC,170142.999,A,1641.6354,S,06933.4573,W,27.53,213.83,280411,,,A*53
$GPGGA,170144.000,1641.6417,S,06933.4616,W,1,07,1.1,4075.7,M,34.1,M,,0000*68
$GPGSA,M,3,21,25,31,18,29,30,12,,,,,,2.2,1.1,1.9*32
$GPRMC,170144.000,A,1641.6417,S,06933.4616,W,27.40,214.71,280411,,,A*54
$GPGGA,170145.001,1641.6479,S,06933.4661,W,1,08,1.0,4076.0,M,34.1,M,,0000*6A
$GPGSA,M,3,21,25,31,18,29,30,22,12,,,,,2.0,1.0,1.7*3F
$GPGSV,3,1,11,21,70,192,27,25,53,064,37,31,43,278,42,18,40,020,38*7D
$GPGSV,3,2,11,29,29,135,30,30,27,212,37,22,19,351,28,12,14,049,31*73
$GPGSV,3,3,11,16,05,217,32,06,05,250,36,14,02,336,*4E
$GPRMC,170145.001,A,1641.6479,S,06933.4661,W,27.51,213.80,280411,,,A*55
$GPGGA,170146.000,1641.6542,S,06933.4703,W,1,07,1.0,4075.1,M,34.1,M,,0000*69
$GPGSA,M,3,21,25,31,18,29,30,22,,,,,,2.3,1.0,2.0*3B
$GPRMC,170146.000,A,1641.6542,S,06933.4703,W,27.21,213.06,280411,,,A*52
$GPGGA,170147.001,1641.6605,S,06933.4746,W,1,08,1.0,4076.1,M,34.1,M,,0000*64
$GPGSA,M,3,21,25,31,18,29,30,22,12,,,,,2.0,1.0,1.7*3F
$GPRMC,170147.001,A,1641.6605,S,06933.4746,W,27.53,214.03,280411,,,A*54
$GPGGA,170148.000,1641.6667,S,06933.4789,W,1,05,1.6,4077.1,M,34.1,M,,0000*67
$GPGSA,M,3,25,31,18,29,30,,,,,,,,6.2,1.6,6.0*3F
$GPRMC,170148.000,A,1641.6667,S,06933.4789,W,27.43,213.60,280411,,,A*5E
$GPGGA,170149.001,1641.6731,S,06933.4833,W,1,08,1.0,4076.5,M,34.1,M,,0000*65
$GPGSA,M,3,21,25,31,18,29,30,22,12,,,,,2.0,1.0,1.7*3F
$GPRMC,170149.001,A,1641.6731,S,06933.4833,W,27.46,213.94,280411,,,A*5C
$GPGGA,170150.001,1641.6794,S,06933.4877,W,1,08,1.0,4076.1,M,34.1,M,,0000*66
$GPGSA,M,3,21,25,31,18,29,30,22,12,,,,,2.0,1.0,1.7*3F
$GPGSV,3,1,11,21,70,192,25,25,53,064,36,31,43,278,40,18,40,020,37*73
$GPGSV,3,2,11,29,29,135,29,30,27,212,38,22,19,351,30,12,14,049,31*7D
$GPGSV,3,3,11,16,05,217,29,06,05,250,32,14,02,336,*40
$GPRMC,170150.001,A,1641.6794,S,06933.4877,W,27.62,214.19,280411,,,A*5F
$GPGGA,170151.001,1641.6860,S,06933.4919,W,1,08,1.0,4075.7,M,34.1,M,,0000*6F
$GPGSA,M,3,21,25,31,18,29,30,22,12,,,,,2.0,1.0,1.7*3F
$GPRMC,170151.001,A,1641.6860,S,06933.4919,W,28.07,212.78,280411,,,A*5E
$GPGGA,170152.001,1641.6923,S,06933.4966,W,1,08,1.0,4076.2,M,34.1,M,,0000*64
$GPGSA,M,3,21,25,31,18,29,30,22,12,,,,,2.0,1.0,1.7*3F
$GPRMC,170152.001,A,1641.6923,S,06933.4966,W,27.71,213.72,280411,,,A*56
$GPGGA,170153.001,1641.6988,S,06933.5011,W,1,08,1.0,4076.3,M,34.1,M,,0000*6D
$GPGSA,M,3,21,25,31,18,29,30,22,12,,,,,2.0,1.0,1.7*3F
$GPRMC,170153.001,A,1641.6988,S,06933.5011,W,27.87,213.29,280411,,,A*59
$GPGGA,170153.998,1641.7051,S,06933.5055,W,1,06,1.2,4075.9,M,34.1,M,,0000*6D
$GPGSA,M,3,21,25,31,18,29,30,,,,,,,3.0,1.2,2.7*3C
$GPRMC,170153.998,A,1641.7051,S,06933.5055,W,28.07,213.50,280411,,,A*55
$GPGGA,170155.003,1641.7114,S,06933.5102,W,1,08,1.0,4074.7,M,34.1,M,,0000*60
$GPGSA,M,3,21,25,31,18,29,30,22,12,,,,,2.0,1.0,1.7*3F
$GPGSV,3,1,11,21,70,192,29,25,53,064,37,31,43,278,41,18,40,020,37*7F
$GPGSV,3,2,11,29,29,135,27,30,27,212,38,22,19,351,28,12,14,049,27*7D
$GPGSV,3,3,11,16,05,217,31,06,05,250,36,14,02,336,*4D
$GPRMC,170155.003,A,1641.7114,S,06933.5102,W,27.75,213.74,280411,,,A*57
$GPGGA,170156.001,1641.7176,S,06933.5147,W,1,06,1.1,4075.6,M,34.1,M,,0000*6B
$GPGSA,M,3,25,31,18,29,30,12,,,,,,,2.7,1.1,2.5*3B
$GPRMC,170156.001,A,1641.7176,S,06933.5147,W,27.77,214.09,280411,,,A*5C
$GPGGA,170157.000,1641.7240,S,06933.5189,W,1,08,1.0,4075.8,M,34.1,M,,0000*6E
$GPGSA,M,3,21,25,31,18,29,30,22,12,,,,,2.0,1.0,1.7*3F
$GPRMC,170157.000,A,1641.7240,S,06933.5189,W,27.90,213.15,280411,,,A*5B
$GPGGA,170158.000,1641.7305,S,06933.5235,W,1,08,1.0,4076.8,M,34.1,M,,0000*66
$GPGSA,M,3,21,25,31,18,29,30,22,12,,,,,2.0,1.0,1.7*3F
$GPRMC,170158.000,A,1641.7305,S,06933.5235,W,28.33,214.16,280411,,,A*52
$GPGGA,170159.000,1641.7368,S,06933.5281,W,1,06,1.1,4076.2,M,34.1,M,,0000*66
$GPGSA,M,3,25,31,18,29,30,22,,,,,,,2.9,1.1,2.7*34
$GPRMC,170159.000,A,1641.7368,S,06933.5281,W,28.15,214.97,280411,,,A*5A
$GPGGA,170159.998,1641.7433,S,06933.5325,W,1,07,1.1,4076.8,M,34.1,M,,0000*63
$GPGSA,M,3,21,25,31,18,29,30,12,,,,,,2.2,1.1,1.9*32
$GPGSV,3,1,11,21,70,192,27,25,53,064,38,31,43,278,41,18,40,020,38*71
$GPGSV,3,2,11,29,29,135,28,30,27,212,38,22,19,351,,12,14,049,27*78
$GPGSV,3,3,11,16,05,217,30,06,05,250,37,14,02,336,*4D
$GPRMC,170159.998,A,1641.7433,S,06933.5325,W,28.03,213.64,280411,,,A*58
$GPGGA,170201.001,1641.7501,S,06933.5370,W,1,05,1.6,4076.6,M,34.1,M,,0000*6F
$GPGSA,M,3,25,31,18,29,30,,,,,,,,6.3,1.6,6.1*3F
$GPRMC,170201.001,A,1641.7501,S,06933.5370,W,28.25,213.15,280411,,,A*5D
$GPGGA,170202.000,1641.7568,S,06933.5414,W,1,07,1.1,4076.2,M,34.1,M,,0000*66
$GPGSA,M,3,21,25,31,18,29,30,12,,,,,,2.2,1.1,1.9*32
$GPRMC,170202.000,A,1641.7568,S,06933.5414,W,27.89,213.92,280411,,,A*53
$GPGGA,170203.000,1641.7632,S,06933.5459,W,1,07,1.1,4075.2,M,34.1,M,,0000*61
$GPGSA,M,3,21,25,31,18,29,30,12,,,,,,2.2,1.1,1.9*32
$GPRMC,170203.000,A,1641.7632,S,06933.5459,W,27.90,213.80,280411,,,A*5C
$GPGGA,170204.002,1641.7692,S,06933.5505,W,1,08,1.0,4075.4,M,34.1,M,,0000*6E
$GPGSA,M,3,21,25,31,18,29,30,22,12,,,,,2.0,1.0,1.7*3F
$GPRMC,170204.002,A,1641.7692,S,06933.5505,W,27.48,214.11,280411,,,A*51
$GPGGA,170204.998,1641.7754,S,06933.5551,W,1,07,1.0,4075.9,M,34.1,M,,0000*6C
$GPGSA,M,3,21,25,31,18,29,30,22,,,,,,2.3,1.0,2.0*3B
$GPGSV,3,1,11,21,70,192,25,25,53,064,38,31,43,278,41,18,40,020,37*7C
$GPGSV,3,2,11,29,29,135,29,30,27,212,38,22,19,351,30,12,14,049,*7F
$GPGSV,3,3,11,16,05,217,31,06,05,250,32,14,02,336,*49
$GPRMC,170204.998,A,1641.7754,S,06933.5551,W,27.32,213.64,280411,,,A*59
$GPGGA,170205.998,1641.7818,S,06933.5595,W,1,06,1.2,4075.9,M,34.1,M,,0000*61
$GPGSA,M,3,21,25,31,18,29,30,,,,,,,3.0,1.2,2.7*3C
$GPRMC,170205.998,A,1641.7818,S,06933.5595,W,27.63,214.59,280411,,,A*5A
$GPGGA,170207.001,1641.7886,S,06933.5640,W,1,06,1.1,4074.5,M,34.1,M,,0000*68
$GPGSA,M,3,25,31,18,29,30,12,,,,,,,2.7,1.1,2.5*3B
$GPRMC,170207.001,A,1641.7886,S,06933.5640,W,27.63,214.23,280411,,,A*50
$GPGGA,170208.002,1641.7952,S,06933.5684,W,1,07,1.1,4072.8,M,34.1,M,,0000*6E
$GPGSA,M,3,21,25,31,18,29,30,12,,,,,,2.2,1.1,1.9*32
$GPRMC,170208.002,A,1641.7952,S,06933.5684,W,27.66,212.83,280411,,,A*55
$GPGGA,170208.998,1641.8015,S,06933.5726,W,1,08,1.0,4073.4,M,34.1,M,,0000*6B
$GPGSA,M,3,21,25,31,18,29,30,22,12,,,,,2.0,1.0,1.7*3F
$GPRMC,170208.998,A,1641.8015,S,06933.5726,W,27.75,213.98,280411,,,A*5A
$GPGGA,170210.000,1641.8080,S,06933.5768,W,1,08,1.0,4073.6,M,34.1,M,,0000*6E
$GPGSA,M,3,21,25,31,18,29,30,22,12,,,,,2.0,1.0,1.7*3F
$GPGSV,3,1,11,21,70,192,26,25,53,064,38,31,43,278,41,18,40,020,38*70
$GPGSV,3,2,11,29,29,135,29,30,27,212,38,22,19,351,35,12,14,049,27*7F
$GPGSV,3,3,11,16,05,217,30,06,05,250,31,14,02,336,*4B
$GPRMC,170210.000,A,1641.8080,S,06933.5768,W,27.71,212.98,280411,,,A*58
$GPGGA,170211.002,1641.8142,S,06933.5811,W,1,07,1.0,4073.8,M,34.1,M,,0000*62
$GPGSA,M,3,21,25,31,18,29,30,22,,,,,,2.3,1.0,2.0*3B
$GPRMC,170211.002,A,1641.8142,S,06933.5811,W,27.29,213.50,280411,,,A*5D
$GPGGA,170212.000,1641.8204,S,06933.5856,W,1,07,1.0,4073.5,M,34.1,M,,0000*6C
$GPGSA,M,3,21,25,31,18,29,30,22,,,,,,2.3,1.0,2.0*3B
$GPRMC,170212.000,A,1641.8204,S,06933.5856,W,27.75,213.51,280411,,,A*56
$GPGGA,170213.000,1641.8269,S,06933.5900,W,1,06,1.2,4074.2,M,34.1,M,,0000*67
$GPGSA,M,3,21,25,31,18,29,30,,,,,,,3.0,1.2,2.7*3C
$GPRMC,170213.000,A,1641.8269,S,06933.5900,W,27.74,213.92,280411,,,A*50
$GPGGA,170214.000,1641.8333,S,06933.5944,W,1,08,1.0,4073.0,M,34.1,M,,0000*67
$GPGSA,M,3,21,25,31,18,29,30,22,12,,,,,2.0,1.0,1.7*3F
$GPRMC,170214.000,A,1641.8333,S,06933.5944,W,27.61,214.51,280411,,,A*55
$GPGGA,170214.998,1641.8396,S,06933.5991,W,1,07,1.0,4070.3,M,34.1,M,,0000*67
$GPGSA,M,3,21,25,31,18,29,30,22,,,,,,2.3,1.0,2.0*3B
$GPGSV,3,1,11,21,70,192,27,25,53,064,38,31,43,278,40,18,40,020,37*7F
$GPGSV,3,2,11,29,29,135,28,30,27,212,38,22,19,351,22,12,14,049,*7D
$GPGSV,3,3,11,16,05,217,,06,05,250,38,14,02,336,*41
$GPRMC,170214.998,A,1641.8396,S,06933.5991,W,26.98,214.58,280411,,,A*54
$GPGGA,170216.004,1641.8458,S,06933.6036,W,1,07,1.0,4070.7,M,34.1,M,,0000*6F
$GPGSA,M,3,21,25,31,18,29,30,22,,,,,,2.3,1.0,2.0*3B
$GPRMC,170216.004,A,1641.8458,S,06933.6036,W,27.02,213.06,280411,,,A*56
$GPGGA,170216.999,1641.8520,S,06933.6080,W,1,06,1.1,4070.2,M,34.1,M,,0000*64
$GPGSA,M,3,25,31,18,29,30,22,,,,,,,2.9,1.1,2.7*34
$GPRMC,170216.999,A,1641.8520,S,06933.6080,W,27.34,213.89,280411,,,A*5A
$GPGGA,170217.997,1641.8584,S,06933.6123,W,1,07,1.0,4071.5,M,34.1,M,,0000*6B
$GPGSA,M,3,21,25,31,18,29,30,22,,,,,,2.3,1.0,2.0*3B
$GPRMC,170217.997,A,1641.8584,S,06933.6123,W,27.08,213.41,280411,,,A*58
$GPGGA,170219.004,1641.8648,S,06933.6165,W,1,06,1.1,4071.5,M,34.1,M,,0000*67
$GPGSA,M,3,25,31,18,29,30,12,,,,,,,2.7,1.1,2.4*3A
$GPRMC,170219.004,A,1641.8648,S,06933.6165,W,26.71,214.10,280411,,,A*58
$GPGGA,170219.998,1641.8710,S,06933.6207,W,1,06,1.1,4072.4,M,34.1,M,,0000*62
$GPGSA,M,3,25,31,18,29,30,12,,,,,,,2.7,1.1,2.4*3A
$GPGSV,3,1,11,21,70,192,,25,53,064,38,31,43,278,39,18,40,020,37*74
$GPGSV,3,2,11,29,29,135,28,30,27,212,37,22,19,351,,12,14,049,30*71
$GPGSV,3,3,11,16,05,217,,06,05,250,34,14,02,336,*4D
$GPRMC,170219.998,A,1641.8710,S,06933.6207,W,26.81,214.68,280411,,,A*5F
$GPGGA,170221.000,1641.8773,S,06933.6249,W,1,06,1.1,4071.9,M,34.1,M,,0000*60
$GPGSA,M,3,25,31,18,29,30,12,,,,,,,2.7,1.1,2.4*3A
$GPRMC,170221.000,A,1641.8773,S,06933.6249,W,26.63,213.97,280411,,,A*58
$GPGGA,170221.998,1641.8835,S,06933.6291,W,1,07,1.0,4071.6,M,34.1,M,,0000*6F
$GPGSA,M,3,25,31,18,29,30,22,12,,,,,,2.3,1.0,2.1*3A
$GPRMC,170221.998,A,1641.8835,S,06933.6291,W,26.76,213.99,280411,,,A*52
$GPGGA,170223.002,1641.8901,S,06933.6333,W,1,06,1.2,4074.1,M,34.1,M,,0000*69
$GPGSA,M,3,21,25,31,18,29,30,,,,,,,3.0,1.2,2.7*3C
$GPRMC,170223.002,A,1641.8901,S,06933.6333,W,26.93,213.69,280411,,,A*51
$GPGGA,170223.998,1641.8964,S,06933.6374,W,1,06,1.1,4073.2,M,34.1,M,,0000*64
$GPGSA,M,3,25,31,18,29,30,22,,,,,,,3.0,1.1,2.8*33
$GPRMC,170223.998,A,1641.8964,S,06933.6374,W,26.81,214.73,280411,,,A*54
$GPGGA,170225.003,1641.9024,S,06933.6418,W,1,08,1.0,4072.3,M,34.1,M,,0000*67
$GPGSA,M,3,21,25,31,18,29,30,22,12,,,,,2.0,1.0,1.7*3F
$GPGSV,3,1,11,21,70,192,25,25,53,064,38,31,43,278,40,18,40,020,37*7D
$GPGSV,3,2,11,29,29,135,30,30,27,212,38,22,19,351,27,12,14,049,25*76
$GPGSV,3,3,11,16,05,217,,06,05,250,34,14,02,336,22*4D
$GPRMC,170225.003,A,1641.9024,S,06933.6418,W,26.84,214.06,280411,,,A*5F
$GPGGA,170225.999,1641.9088,S,06933.6459,W,1,06,1.1,4072.3,M,34.1,M,,0000*61
$GPGSA,M,3,25,31,18,29,30,12,,,,,,,2.7,1.1,2.4*3A
$GPRMC,170225.999,A,1641.9088,S,06933.6459,W,26.95,214.13,280411,,,A*52
$GPGGA,170226.998,1641.9153,S,06933.6501,W,1,07,1.0,4072.7,M,34.1,M,,0000*6C
$GPGSA,M,3,21,25,31,18,29,30,22,,,,,,2.3,1.0,2.0*3B
$GPRMC,170226.998,A,1641.9153,S,06933.6501,W,26.92,214.24,280411,,,A*58
$GPGGA,170228.001,1641.9217,S,06933.6543,W,1,08,1.0,4072.3,M,34.1,M,,0000*65
$GPGSA,M,3,21,25,31,18,29,30,22,12,,,,,2.0,1.0,1.7*3F
$GPRMC,170228.001,A,1641.9217,S,06933.6543,W,27.15,212.42,280411,,,A*52
$GPGGA,170229.001,1641.9282,S,06933.6586,W,1,08,1.0,4073.0,M,34.1,M,,0000*63
$GPGSA,M,3,21,25,31,18,29,30,22,12,,,,,2.0,1.0,1.7*3F
$GPRMC,170229.001,A,1641.9282,S,06933.6586,W,27.10,214.08,280411,,,A*5B
$GPGGA,170230.001,1641.9347,S,06933.6630,W,1,07,1.0,4072.2,M,34.1,M,,0000*61
$GPGSA,M,3,25,31,18,29,30,22,12,,,,,,2.3,1.0,2.1*3A
$GPGSV,3,1,11,21,70,192,,25,53,064,37,31,43,278,41,18,40,020,38*7B
$GPGSV,3,2,11,29,29,135,27,30,27,212,38,22,19,351,25,12,14,049,30*76
$GPGSV,3,3,11,16,05,217,,06,05,250,35,14,02,336,25*4B
$GPRMC,170230.001,A,1641.9347,S,06933.6630,W,27.07,214.52,280411,,,A*5C
$GPGGA,170231.001,1641.9412,S,06933.6674,W,1,07,1.0,4072.8,M,34.1,M,,0000*6D
$GPGSA,M,3,25,31,18,29,30,22,12,,,,,,2.3,1.0,2.1*3A
$GPRMC,170231.001,A,1641.9412,S,06933.6674,W,27.20,214.19,280411,,,A*50
$GPGGA,170232.000,1641.9474,S,06933.6718,W,1,06,1.1,4073.6,M,34.1,M,,0000*6B
$GPGSA,M,3,25,31,18,29,30,22,,,,,,,3.0,1.1,2.8*33
$GPRMC,170232.000,A,1641.9474,S,06933.6718,W,27.20,214.65,280411,,,A*52
$GPGGA,170233.000,1641.9538,S,06933.6763,W,1,08,1.0,4073.6,M,34.1,M,,0000*60
$GPGSA,M,3,21,25,31,18,29,30,22,12,,,,,2.0,1.0,1.7*3F
$GPRMC,170233.000,A,1641.9538,S,06933.6763,W,27.13,214.07,280411,,,A*52
$GPGGA,170234.000,1641.9599,S,06933.6804,W,1,08,1.0,4073.7,M,34.1,M,,0000*63
$GPGSA,M,3,21,25,31,18,29,30,22,12,,,,,2.0,1.0,1.7*3F
$GPRMC,170234.000,A,1641.9599,S,06933.6804,W,26.75,214.53,280411,,,A*50
$GPGGA,170235.002,1641.9660,S,06933.6847,W,1,07,1.1,4074.3,M,34.1,M,,0000*6F
$GPGSA,M,3,21,25,31,18,29,30,12,,,,,,2.2,1.1,1.9*32
$GPGSV,3,1,11,21,70,192,24,25,53,064,38,31,43,278,40,18,40,020,38*73
$GPGSV,3,2,11,29,29,135,29,30,27,212,37,22,19,351,,12,14,049,25*74
$GPGSV,3,3,11,16,05,217,,06,05,250,35,14,02,336,29*47
$GPRMC,170235.002,A,1641.9660,S,06933.6847,W,26.75,214.87,280411,,,A*58
$GPGGA,170235.997,1641.9723,S,06933.6890,W,1,08,1.0,4074.3,M,34.1,M,,0000*68
$GPGSA,M,3,21,25,31,18,29,30,22,12,,,,,2.0,1.0,1.7*3F
$GPRMC,170235.997,A,1641.9723,S,06933.6890,W,26.84,214.41,280411,,,A*55
$GPGGA,170237.000,1641.9786,S,06933.6933,W,1,07,1.0,4074.5,M,34.1,M,,0000*63
$GPGSA,M,3,21,25,31,18,29,30,22,,,,,,2.3,1.0,2.0*3B
$GPRMC,170237.000,A,1641.9786,S,06933.6933,W,27.04,213.48,280411,,,A*50
$GPGGA,170238.001,1641.9847,S,06933.6976,W,1,08,1.0,4074.6,M,34.1,M,,0000*62
$GPGSA,M,3,21,25,31,18,29,30,22,12,,,,,2.0,1.0,1.7*3F
$GPRMC,170238.001,A,1641.9847,S,06933.6976,W,26.63,214.47,280411,,,A*55
$GPGGA,170239.001,1641.9907,S,06933.7019,W,1,08,1.0,4074.2,M,34.1,M,,0000*63
$GPGSA,M,3,21,25,31,18,29,30,22,12,,,,,2.0,1.0,1.7*3F
$GPRMC,170239.001,A,1641.9907,S,06933.7019,W,26.89,213.55,280411,,,A*50
$GPGGA,170240.001,1641.9967,S,06933.7059,W,1,08,1.0,4074.6,M,34.1,M,,0000*6B
$GPGSA,M,3,21,25,31,18,29,30,22,12,,,,,2.0,1.0,1.7*3F
$GPGSV,3,1,11,21,70,192,27,25,53,064,38,31,43,278,39,18,40,020,37*71
$GPGSV,3,2,11,29,29,135,30,30,27,212,38,22,19,351,27,12,14,049,28*7B
$GPGSV,3,3,11,16,05,217,26,06,05,250,32,14,02,336,29*44
$GPRMC,170240.001,A,1641.9967,S,06933.7059,W,26.32,212.93,280411,,,A*57
$GPGGA,170241.000,1642.0029,S,06933.7098,W,1,07,1.0,4075.9,M,34.1,M,,0000*6E
$GPGSA,M,3,21,25,31,18,29,30,22,,,,,,2.3,1.0,2.0*3B
$GPRMC,170241.000,A,1642.0029,S,06933.7098,W,26.76,213.48,280411,,,A*54
$GPGGA,170242.002,1642.0090,S,06933.7140,W,1,06,1.2,4076.6,M,34.1,M,,0000*66
$GPGSA,M,3,21,25,31,18,29,30,,,,,,,3.0,1.2,2.7*3C
$GPRMC,170242.002,A,1642.0090,S,06933.7140,W,26.42,214.60,280411,,,A*59
$GPGGA,170243.001,1642.0150,S,06933.7183,W,1,07,1.1,4076.5,M,34.1,M,,0000*67
$GPGSA,M,3,21,25,31,18,29,30,12,,,,,,2.2,1.1,1.9*32
$GPRMC,170243.001,A,1642.0150,S,06933.7183,W,27.17,213.58,280411,,,A*54
$GPGGA,170244.000,1642.0214,S,06933.7229,W,1,07,1.1,4075.1,M,34.1,M,,0000*66
$GPGSA,M,3,21,25,31,18,29,30,12,,,,,,2.2,1.1,1.9*32
$GPRMC,170244.000,A,1642.0214,S,06933.7229,W,26.87,214.51,280411,,,A*54
$GPGGA,170244.999,1642.0280,S,06933.7272,W,1,08,1.0,4075.0,M,34.1,M,,0000*63
$GPGSA,M,3,21,25,31,18,29,30,22,12,,,,,2.0,1.0,1.7*3F
$GPGSV,3,1,11,21,70,192,24,25,53,064,37,31,43,278,38,18,40,020,37*7C
$GPGSV,3,2,11,29,29,135,28,30,27,212,38,22,19,351,26,12,14,049,29*72
$GPGSV,3,3,11,16,05,217,26,06,05,250,37,14,02,336,30*49
$GPRMC,170244.999,A,1642.0280,S,06933.7272,W,27.23,214.71,280411,,,A*53
$GPGGA,170245.999,1642.0342,S,06933.7315,W,1,07,1.0,4073.8,M,34.1,M,,0000*6C
$GPGSA,M,3,25,31,18,29,30,22,12,,,,,,2.4,1.0,2.1*3D
$GPRMC,170245.999,A,1642.0342,S,06933.7315,W,27.14,213.78,280411,,,A*57
$GPGGA,170247.004,1642.0405,S,06933.7358,W,1,07,1.0,4073.6,M,34.1,M,,0000*60
$GPGSA,M,3,25,31,18,29,30,22,12,,,,,,2.4,1.0,2.1*3D
$GPRMC,170247.004,A,1642.0405,S,06933.7358,W,27.21,214.12,280411,,,A*58
$GPGGA,170247.997,1642.0466,S,06933.7403,W,1,08,1.0,4072.4,M,34.1,M,,0000*63
$GPGSA,M,3,21,25,31,18,29,30,22,12,,,,,2.0,1.0,1.7*3F
$GPRMC,170247.997,A,1642.0466,S,06933.7403,W,26.89,213.93,280411,,,A*5A
$GPGGA,170249.014,1642.0530,S,06933.7446,W,1,06,1.1,4070.9,M,34.1,M,,0000*6C
$GPGSA,M,3,25,31,18,29,30,12,,,,,,,2.7,1.1,2.4*3A
$GPRMC,170249.014,A,1642.0530,S,06933.7446,W,27.03,212.81,280411,,,A*54
$GPGGA,170249.987,1642.0591,S,06933.7488,W,1,06,1.1,4069.6,M,34.1,M,,0000*61
$GPGSA,M,3,25,31,18,29,30,22,,,,,,,3.0,1.1,2.8*33
$GPGSV,3,1,11,21,68,190,,25,52,062,38,31,43,280,39,18,41,021,38*70
$GPGSV,3,2,11,29,29,134,30,30,28,212,37,22,20,352,22,12,13,048,*7A
$GPGSV,3,3,11,16,06,217,32,06,06,249,35,14,02,337,34*43
$GPRMC,170249.987,A,1642.0591,S,06933.7488,W,27.16,215.01,280411,,,A*55
$GPGGA,170251.000,1642.0655,S,06933.7534,W,1,06,1.1,4069.8,M,34.1,M,,0000*6D
$GPGSA,M,3,25,31,18,29,30,12,,,,,,,2.7,1.1,2.4*3A
$GPRMC,170251.000,A,1642.0655,S,06933.7534,W,27.41,214.91,280411,,,A*5D
$GPGGA,170252.001,1642.0717,S,06933.7578,W,1,07,1.0,4070.2,M,34.1,M,,0000*62
$GPGSA,M,3,25,31,18,29,30,22,12,,,,,,2.4,1.0,2.1*3D
$GPRMC,170252.001,A,1642.0717,S,06933.7578,W,26.80,214.70,280411,,,A*53
$GPGGA,170253.000,1642.0781,S,06933.7620,W,1,06,1.1,4069.6,M,34.1,M,,0000*6F
$GPGSA,M,3,25,31,18,29,30,12,,,,,,,2.7,1.1,2.4*3A
$GPRMC,170253.000,A,1642.0781,S,06933.7620,W,26.96,214.38,280411,,,A*59
$GPGGA,170254.001,1642.0845,S,06933.7664,W,1,07,1.0,4069.8,M,34.1,M,,0000*60
$GPGSA,M,3,25,31,18,29,30,22,12,,,,,,2.4,1.0,2.1*3D
$GPRMC,170254.001,A,1642.0845,S,06933.7664,W,26.88,213.43,280411,,,A*5C
$GPGGA,170255.000,1642.0908,S,06933.7708,W,1,06,1.1,4071.0,M,34.1,M,,0000*62
$GPGSA,M,3,25,31,18,29,30,12,,,,,,,2.7,1.1,2.4*3A
$GPGSV,3,1,11,21,68,190,,25,52,062,37,31,43,280,39,18,41,021,38*7F
$GPGSV,3,2,11,29,29,134,30,30,28,212,37,22,20,352,,12,13,048,26*7E
$GPGSV,3,3,11,16,06,217,29,06,06,249,36,14,02,337,35*4B
$GPRMC,170255.000,A,1642.0908,S,06933.7708,W,26.92,214.03,280411,,,A*57
$GPGGA,170256.001,1642.0973,S,06933.7751,W,1,06,1.1,4070.3,M,34.1,M,,0000*62
$GPGSA,M,3,25,31,18,29,30,12,,,,,,,2.7,1.1,2.4*3A
$GPRMC,170256.001,A,1642.0973,S,06933.7751,W,26.86,213.77,280411,,,A*54
$GPGGA,170257.000,1642.1036,S,06933.7793,W,1,08,1.0,4070.6,M,34.1,M,,0000*6F
$GPGSA,M,3,21,25,31,18,29,30,22,12,,,,,2.0,1.0,1.7*3F
$GPRMC,170257.000,A,1642.1036,S,06933.7793,W,26.81,213.85,280411,,,A*59
$GPGGA,170257.998,1642.1096,S,06933.7839,W,1,06,1.1,4070.9,M,34.1,M,,0000*62
$GPGSA,M,3,25,31,18,29,30,12,,,,,,,2.7,1.1,2.4*3A
$GPRMC,170257.998,A,1642.1096,S,06933.7839,W,26.94,215.55,280411,,,A*5B
$GPGGA,170258.998,1642.1157,S,06933.7881,W,1,07,1.1,4070.2,M,34.1,M,,0000*68
$GPGSA,M,3,21,25,31,18,29,30,12,,,,,,2.2,1.1,1.9*32
$GPRMC,170258.998,A,1642.1157,S,06933.7881,W,26.98,213.37,280411,,,A*55
$GPGGA,170300.002,1642.1219,S,06933.7928,W,1,08,1.0,4069.7,M,34.1,M,,0000*66
$GPGSA,M,3,21,25,31,18,29,30,22,12,,,,,2.0,1.0,1.7*3F
$GPGSV,3,1,11,21,68,190,29,25,52,062,38,31,43,280,39,18,41,021,38*7B
$GPGSV,3,2,11,29,29,134,30,30,28,212,37,22,20,352,22,12,13,048,30*79
$GPGSV,3,3,11,16,06,217,27,06,06,249,37,14,02,337,30*41
$GPRMC,170300.002,A,1642.1219,S,06933.7928,W,26.94,213.21,280411,,,A*53
$GPGGA,170300.999,1642.1282,S,06933.7970,W,1,08,1.0,4068.9,M,34.1,M,,0000*6D
$GPGSA,M,3,21,25,31,18,29,30,22,12,,,,,2.0,1.0,1.7*3F
$GPRMC,170300.999,A,1642.1282,S,06933.7970,W,26.74,213.39,280411,,,A*50
$GPGGA,170302.000,1642.1344,S,06933.8015,W,1,06,1.1,4069.4,M,34.1,M,,0000*6B
$GPGSA,M,3,25,31,18,29,30,12,,,,,,,2.7,1.1,2.4*3A
$GPRMC,170302.000,A,1642.1344,S,06933.8015,W,27.01,215.07,280411,,,A*5D
$GPGGA,170302.999,1642.1408,S,06933.8058,W,1,07,1.1,4068.6,M,34.1,M,,0000*66
$GPGSA,M,3,21,25,31,18,29,30,12,,,,,,2.2,1.1,1.9*32
$GPRMC,170302.999,A,1642.1408,S,06933.8058,W,26.83,216.00,280411,,,A*5D
$GPGGA,170304.001,1642.1472,S,06933.8103,W,1,08,1.0,4067.9,M,34.1,M,,0000*64
$GPGSA,M,3,21,25,31,18,29,30,22,12,,,,,2.0,1.0,1.7*3F
$GPRMC,170304.001,A,1642.1472,S,06933.8103,W,27.15,214.58,280411,,,A*50
$GPGGA,170305.002,1642.1534,S,06933.8149,W,1,06,1.1,4069.5,M,34.1,M,,0000*66
$GPGSA,M,3,25,31,18,29,30,12,,,,,,,2.7,1.1,2.4*3A
$GPGSV,3,1,11,21,68,190,,25,52,062,39,31,43,280,39,18,41,021,38*71
$GPGSV,3,2,11,29,29,134,30,30,28,212,36,22,20,352,,12,13,048,32*7A
$GPGSV,3,3,11,16,06,217,31,06,06,249,38,14,02,337,31*48
$GPRMC,170305.002,A,1642.1534,S,06933.8149,W,26.65,215.16,280411,,,A*52
$GPGGA,170306.000,1642.1593,S,06933.8193,W,1,07,1.1,4069.5,M,34.1,M,,0000*6C
$GPGSA,M,3,21,25,31,18,29,30,12,,,,,,2.2,1.1,1.9*32
$GPRMC,170306.000,A,1642.1593,S,06933.8193,W,26.51,214.98,280411,,,A*59
$GPGGA,170307.001,1642.1659,S,06933.8234,W,1,07,1.2,4070.2,M,34.1,M,,0000*6B
$GPGSA,M,3,21,25,31,18,29,22,12,,,,,,2.4,1.2,2.1*3F
$GPRMC,170307.001,A,1642.1659,S,06933.8234,W,26.89,215.45,280411,,,A*56
$GPGGA,170307.998,1642.1717,S,06933.8280,W,1,06,1.2,4069.6,M,34.1,M,,0000*6B
$GPGSA,M,3,25,31,18,29,22,12,,,,,,,2.6,1.2,2.3*3C
$GPRMC,170307.998,A,1642.1717,S,06933.8280,W,26.56,215.99,280411,,,A*58
$GPGGA,170309.004,1642.1778,S,06933.8326,W,1,07,1.0,4069.2,M,34.1,M,,0000*6A
$GPGSA,M,3,25,31,18,29,30,22,12,,,,,,2.4,1.0,2.1*3D
$GPRMC,170309.004,A,1642.1778,S,06933.8326,W,27.03,217.42,280411,,,A*5B
$GPGGA,170310.000,1642.1840,S,06933.8371,W,1,07,1.0,4069.5,M,34.1,M,,0000*67
$GPGSA,M,3,25,31,18,29,30,22,12,,,,,,2.4,1.0,2.1*3D
$GPGSV,3,1,11,21,68,190,,25,52,062,38,31,43,280,39,18,41,021,38*70
$GPGSV,3,2,11,29,29,134,32,30,28,212,37,22,20,352,26,12,13,048,34*7B
$GPGSV,3,3,11,16,06,217,31,06,06,249,38,14,02,337,32*4B
$GPRMC,170310.000,A,1642.1840,S,06933.8371,W,27.13,217.96,280411,,,A*59
$GPGGA,170310.997,1642.1898,S,06933.8421,W,1,08,1.0,4068.9,M,34.1,M,,0000*65
$GPGSA,M,3,21,25,31,18,29,30,22,12,,,,,2.0,1.0,1.7*3F
$GPRMC,170310.997,A,1642.1898,S,06933.8421,W,27.26,218.51,280411,,,A*5B
$GPGGA,170312.000,1642.1958,S,06933.8467,W,1,08,1.0,4069.6,M,34.1,M,,0000*61
$GPGSA,M,3,21,25,31,18,29,30,22,12,,,,,2.0,1.0,1.7*3F
$GPRMC,170312.000,A,1642.1958,S,06933.8467,W,27.36,219.02,280411,,,A*57
$GPGGA,170313.000,1642.2018,S,06933.8516,W,1,08,1.0,4069.1,M,34.1,M,,0000*6E
$GPGSA,M,3,21,25,31,18,29,30,22,12,,,,,2.0,1.0,1.7*3F
$GPRMC,170313.000,A,1642.2018,S,06933.8516,W,27.86,220.74,280411,,,A*5F
$GPGGA,170314.000,1642.2077,S,06933.8568,W,1,08,1.0,4067.8,M,34.1,M,,0000*6E
$GPGSA,M,3,21,25,31,18,29,30,22,12,,,,,2.0,1.0,1.7*3F
$GPRMC,170314.000,A,1642.2077,S,06933.8568,W,27.70,220.86,280411,,,A*5C
$GPGGA,170315.002,1642.2133,S,06933.8617,W,1,08,1.0,4068.2,M,34.1,M,,0000*62
$GPGSA,M,3,21,25,31,18,29,30,22,12,,,,,2.0,1.0,1.7*3F
$GPGSV,3,1,11,21,68,190,27,25,52,062,37,31,43,280,38,18,41,021,38*7B
$GPGSV,3,2,11,29,29,134,36,30,28,212,35,22,20,352,21,12,13,048,31*7F
$GPGSV,3,3,11,16,06,217,29,06,06,249,37,14,02,337,*4C
$GPRMC,170315.002,A,1642.2133,S,06933.8617,W,26.84,221.11,280411,,,A*50
$GPGGA,170316.000,1642.2191,S,06933.8667,W,1,08,1.0,4068.0,M,34.1,M,,0000*6E
$GPGSA,M,3,21,25,31,18,29,30,22,12,,,,,2.0,1.0,1.7*3F
$GPRMC,170316.000,A,1642.2191,S,06933.8667,W,27.21,221.78,280411,,,A*5F
$GPGGA,170316.998,1642.2246,S,06933.8721,W,1,08,1.0,4067.1,M,34.1,M,,0000*62
$GPGSA,M,3,21,25,31,18,29,30,22,12,,,,,2.0,1.0,1.7*3F
$GPRMC,170316.998,A,1642.2246,S,06933.8721,W,27.23,223.30,280411,,,A*51
$GPGGA,170318.001,1642.2302,S,06933.8775,W,1,08,1.0,4067.8,M,34.1,M,,0000*6C
$GPGSA,M,3,21,25,31,18,29,30,22,12,,,,,2.0,1.0,1.7*3F
$GPRMC,170318.001,A,1642.2302,S,06933.8775,W,27.17,223.27,280411,,,A*57
$GPGGA,170319.001,1642.2358,S,06933.8828,W,1,08,1.0,4067.7,M,34.1,M,,0000*6A
$GPGSA,M,3,21,25,31,18,29,30,22,12,,,,,2.0,1.0,1.7*3F
$GPRMC,170319.001,A,1642.2358,S,06933.8828,W,27.31,224.36,280411,,,A*5D
$GPGGA,170320.002,1642.2411,S,06933.8887,W,1,08,1.0,4066.1,M,34.1,M,,0000*6B
$GPGSA,M,3,21,25,31,18,29,30,22,12,,,,,2.0,1.0,1.7*3F
$GPGSV,3,1,11,21,68,190,29,25,52,062,37,31,43,280,38,18,41,021,39*74
$GPGSV,3,2,11,29,29,134,36,30,28,212,32,22,20,352,30,12,13,048,28*70
$GPGSV,3,3,11,16,06,217,28,06,06,249,38,14,02,337,*42
$GPRMC,170320.002,A,1642.2411,S,06933.8887,W,27.01,225.65,280411,,,A*5F
$GPGGA,170321.000,1642.2464,S,06933.8946,W,1,08,1.0,4065.0,M,34.1,M,,0000*64
$GPGSA,M,3,21,25,31,18,29,30,22,12,,,,,2.0,1.0,1.7*3F
$GPRMC,170321.000,A,1642.2464,S,06933.8946,W,27.17,227.59,280411,,,A*58
$GPGGA,170322.000,1642.2516,S,06933.9006,W,1,07,1.0,4065.1,M,34.1,M,,0000*61
$GPGSA,M,3,21,25,31,18,29,30,22,,,,,,2.3,1.0,2.1*3A
$GPRMC,170322.000,A,1642.2516,S,06933.9006,W,27.35,228.27,280411,,,A*55
$GPGGA,170323.000,1642.2564,S,06933.9068,W,1,07,1.0,4063.5,M,34.1,M,,0000*6F
$GPGSA,M,3,21,25,31,18,29,30,22,,,,,,2.3,1.0,2.1*3A
$GPRMC,170323.000,A,1642.2564,S,06933.9068,W,27.21,229.32,280411,,,A*59
$GPGGA,170324.000,1642.2616,S,06933.9127,W,1,07,1.0,4062.8,M,34.1,M,,0000*68
