$GPGGA,143910.021,1725.9759,S,06958.0896,W,1,07,1.0,4159.3,M,34.5,M,,0000*66
$GPGSA,M,3,29,25,12,21,14,27,02,,,,,,2.3,1.0,2.0*32
$GPRMC,143910.021,A,1725.9759,S,06958.0896,W,8.09,223.33,290411,,,A*67
$GPGGA,143910.981,1725.9778,S,06958.0913,W,1,07,1.0,4157.3,M,34.5,M,,0000*64
$GPGSA,M,3,29,25,12,21,14,27,02,,,,,,2.3,1.0,2.0*32
$GPRMC,143910.981,A,1725.9778,S,06958.0913,W,8.64,216.61,290411,,,A*61
$GPGGA,143911.998,1725.9797,S,06958.0929,W,1,08,0.9,4160.8,M,34.5,M,,0000*6D
$GPGSA,M,3,29,25,12,09,21,14,27,02,,,,,2.1,0.9,1.9*3B
$GPGSV,3,1,11,29,54,211,37,25,46,178,38,12,41,119,37,09,39,023,31*7C
$GPGSV,3,2,11,21,34,339,35,14,21,280,36,27,18,027,33,02,13,139,35*7E
$GPGSV,3,3,11,31,12,216,38,05,09,088,,18,00,340,*44
$GPRMC,143911.998,A,1725.9797,S,06958.0929,W,9.26,214.69,290411,,,A*6D
$GPGGA,143913.001,1725.9820,S,06958.0944,W,1,08,0.9,4160.2,M,34.5,M,,0000*64
$GPGSA,M,3,29,25,12,09,21,14,27,02,,,,,2.1,0.9,1.9*3B
$GPRMC,143913.001,A,1725.9820,S,06958.0944,W,9.55,210.04,290411,,,A*65
$GPGGA,143914.000,1725.9844,S,06958.0952,W,1,08,0.9,4158.9,M,34.5,M,,0000*67
$GPGSA,M,3,29,25,12,09,21,14,27,02,,,,,2.1,0.9,1.9*3B
$GPRMC,143914.000,A,1725.9844,S,06958.0952,W,9.71,204.32,290411,,,A*60
$GPGGA,143914.998,1725.9868,S,06958.0964,W,1,07,1.0,4159.3,M,34.5,M,,0000*68
$GPGSA,M,3,29,25,12,21,14,27,02,,,,,,2.3,1.0,2.0*32
$GPRMC,143914.998,A,1725.9868,S,06958.0964,W,9.65,204.09,290411,,,A*6E
$GPGGA,143916.004,1725.9896,S,06958.0973,W,1,07,1.0,4160.0,M,34.5,M,,0000*68
$GPGSA,M,3,29,25,12,21,14,27,02,,,,,,2.3,1.0,2.0*32
$GPRMC,143916.004,A,1725.9896,S,06958.0973,W,10.06,195.66,290411,,,A*58
$GPGGA,143916.998,1725.9923,S,06958.0980,W,1,08,0.9,4159.9,M,34.5,M,,0000*63
$GPGSA,M,3,29,25,12,09,21,14,27,02,,,,,2.1,0.9,1.9*3B
$GPGSV,3,1,11,29,54,211,40,25,46,178,38,12,41,119,38,09,39,023,23*70
$GPGSV,3,2,11,21,34,339,30,14,21,280,36,27,18,027,30,02,13,139,30*7D
$GPGSV,3,3,11,31,12,216,38,05,09,088,,18,00,340,*44
$GPRMC,143916.998,A,1725.9923,S,06958.0980,W,9.89,188.65,290411,,,A*67
$GPGGA,143918.000,1725.9949,S,06958.0983,W,1,08,0.9,4161.0,M,34.5,M,,0000*68
$GPGSA,M,3,29,25,12,09,21,14,27,02,,,,,2.1,0.9,1.9*3B
$GPRMC,143918.000,A,1725.9949,S,06958.0983,W,10.14,184.84,290411,,,A*51
$GPGGA,143919.000,1725.9977,S,06958.0984,W,1,06,1.1,4160.3,M,34.5,M,,0000*66
$GPGSA,M,3,29,25,09,21,14,02,,,,,,,2.3,1.1,2.1*3D
$GPRMC,143919.000,A,1725.9977,S,06958.0984,W,10.99,182.25,290411,,,A*52
$GPGGA,143919.998,1726.0006,S,06958.0984,W,1,07,1.4,4160.6,M,34.5,M,,0000*6A
$GPGSA,M,3,29,25,12,09,21,27,02,,,,,,2.9,1.4,2.5*35
$GPRMC,143919.998,A,1726.0006,S,06958.0984,W,10.24,175.92,290411,,,A*5D
$GPGGA,143921.001,1726.0032,S,06958.0980,W,1,05,2.9,4160.5,M,34.5,M,,0000*64
$GPGSA,M,3,29,25,12,21,27,,,,,,,,9.4,2.9,8.9*30
$GPRMC,143921.001,A,1726.0032,S,06958.0980,W,10.94,174.87,290411,,,A*52
$GPGGA,143922.001,1726.0060,S,06958.0973,W,1,06,1.6,4160.2,M,34.5,M,,0000*64
$GPGSA,M,3,29,25,12,21,27,02,,,,,,,3.3,1.6,2.9*39
$GPGSV,3,1,11,29,54,211,38,25,46,178,40,12,41,119,32,09,39,023,*7B
$GPGSV,3,2,11,21,34,339,31,14,21,280,,27,18,027,28,02,13,139,34*74
$GPGSV,3,3,11,31,12,216,36,05,09,088,,18,00,340,*4A
$GPRMC,143922.001,A,1726.0060,S,06958.0973,W,10.62,172.49,290411,,,A*57
$GPGGA,143923.000,1726.0090,S,06958.0968,W,1,06,1.8,4160.0,M,34.5,M,,0000*6D
$GPGSA,M,3,29,25,12,09,27,02,,,,,,,3.3,1.8,2.7*33
$GPRMC,143923.000,A,1726.0090,S,06958.0968,W,10.29,171.81,290411,,,A*5A
$GPGGA,143923.998,1726.0116,S,06958.0961,W,1,07,1.0,4159.5,M,34.5,M,,0000*65
$GPGSA,M,3,29,25,09,21,14,27,02,,,,,,2.2,1.0,2.0*39
$GPRMC,143923.998,A,1726.0116,S,06958.0961,W,9.93,164.74,290411,,,A*63
$GPGGA,143925.003,1726.0143,S,06958.0954,W,1,08,0.9,4158.6,M,34.5,M,,0000*6B
$GPGSA,M,3,29,25,12,09,21,14,27,02,,,,,2.1,0.9,1.9*3B
$GPRMC,143925.003,A,1726.0143,S,06958.0954,W,9.38,161.97,290411,,,A*61
$GPGGA,143925.999,1726.0164,S,06958.0945,W,1,08,0.9,4159.0,M,34.5,M,,0000*63
$GPGSA,M,3,29,25,12,09,21,14,27,02,,,,,2.1,0.9,1.9*3B
$GPRMC,143925.999,A,1726.0164,S,06958.0945,W,8.80,162.70,290411,,,A*66
$GPGGA,143927.000,1726.0191,S,06958.0939,W,1,07,1.0,4159.0,M,34.5,M,,0000*6E
$GPGSA,M,3,29,25,09,21,14,27,02,,,,,,2.2,1.0,2.0*39
$GPGSV,3,1,11,29,54,211,32,25,46,178,41,12,41,119,,09,39,023,37*75
$GPGSV,3,2,11,21,34,339,33,14,21,280,37,27,18,027,33,02,13,139,26*7B
$GPGSV,3,3,11,31,12,216,31,05,09,088,,18,00,340,*4D
$GPRMC,143927.000,A,1726.0191,S,06958.0939,W,9.46,162.39,290411,,,A*6A
$GPGGA,143927.998,1726.0217,S,06958.0926,W,1,08,0.9,4158.7,M,34.5,M,,0000*64
$GPGSA,M,3,29,25,12,09,21,14,27,02,,,,,2.1,0.9,1.9*3B
$GPRMC,143927.998,A,1726.0217,S,06958.0926,W,10.34,158.81,290411,,,A*56
$GPGGA,143929.000,1726.0244,S,06958.0916,W,1,08,0.9,4158.9,M,34.5,M,,0000*69
$GPGSA,M,3,29,25,12,09,21,14,27,02,,,,,2.1,0.9,1.9*3B
$GPRMC,143929.000,A,1726.0244,S,06958.0916,W,10.66,151.88,290411,,,A*52
$GPGGA,143930.001,1726.0270,S,06958.0904,W,1,07,1.0,4158.0,M,34.5,M,,0000*6A
$GPGSA,M,3,29,25,12,21,14,27,02,,,,,,2.3,1.0,2.0*32
$GPRMC,143930.001,A,1726.0270,S,06958.0904,W,10.89,149.38,290411,,,A*5C
$GPGGA,143931.000,1726.0297,S,06958.0891,W,1,06,1.0,4156.8,M,34.5,M,,0000*69
$GPGSA,M,3,25,12,21,14,27,02,,,,,,,2.5,1.0,2.3*3C
$GPRMC,143931.000,A,1726.0297,S,06958.0891,W,11.17,150.77,290411,,,A*5D
$GPGGA,143932.000,1726.0326,S,06958.0873,W,1,06,1.1,4156.1,M,34.5,M,,0000*65
$GPGSA,M,3,29,25,12,14,27,02,,,,,,,2.4,1.1,2.1*36
$GPGSV,3,1,11,29,54,211,27,25,46,178,41,12,41,119,32,09,39,023,*74
$GPGSV,3,2,11,21,34,339,,14,21,280,33,27,18,027,27,02,13,139,37*7A
$GPGSV,3,3,11,31,12,216,37,05,09,088,,18,00,340,*4B
$GPRMC,143932.000,A,1726.0326,S,06958.0873,W,10.91,156.14,290411,,,A*55
$GPGGA,143932.999,1726.0355,S,06958.0860,W,1,08,0.9,4155.5,M,34.5,M,,0000*6A
$GPGSA,M,3,29,25,12,09,21,14,27,02,,,,,2.1,0.9,1.9*3B
$GPRMC,143932.999,A,1726.0355,S,06958.0860,W,10.59,157.64,290411,,,A*58
$GPGGA,143934.000,1726.0383,S,06958.0851,W,1,08,0.9,4155.5,M,34.5,M,,0000*6C
$GPGSA,M,3,29,25,12,09,21,14,27,02,,,,,2.1,0.9,1.9*3B
$GPRMC,143934.000,A,1726.0383,S,06958.0851,W,10.35,161.84,290411,,,A*5F
$GPGGA,143934.997,1726.0414,S,06958.0848,W,1,07,1.2,4154.6,M,34.5,M,,0000*6D
$GPGSA,M,3,29,25,12,09,21,14,27,,,,,,3.3,1.2,3.1*3A
$GPRMC,143934.997,A,1726.0414,S,06958.0848,W,9.84,169.62,290411,,,A*6B
$GPGGA,143936.001,1726.0441,S,06958.0846,W,1,07,1.0,4154.3,M,34.5,M,,0000*60
$GPGSA,M,3,29,25,12,09,21,14,02,,,,,,2.2,1.0,2.0*3F
$GPRMC,143936.001,A,1726.0441,S,06958.0846,W,10.42,176.97,290411,,,A*57
$GPGGA,143937.000,1726.0466,S,06958.0842,W,1,07,1.0,4155.5,M,34.5,M,,0000*66
$GPGSA,M,3,29,25,12,09,21,14,02,,,,,,2.2,1.0,2.0*3F
$GPGSV,3,1,11,29,54,211,40,25,46,178,39,12,41,119,33,09,39,023,37*7F
$GPGSV,3,2,11,21,34,339,30,14,21,280,38,27,18,027,,02,13,139,30*70
$GPGSV,3,3,11,31,12,216,37,05,09,088,,18,00,340,*4B
$GPRMC,143937.000,A,1726.0466,S,06958.0842,W,10.02,179.87,290411,,,A*5C
$GPGGA,143938.000,1726.0494,S,06958.0843,W,1,07,1.0,4154.6,M,34.5,M,,0000*67
$GPGSA,M,3,29,25,12,09,21,14,02,,,,,,2.2,1.0,2.0*3F
$GPRMC,143938.000,A,1726.0494,S,06958.0843,W,10.45,185.21,290411,,,A*53
$GPGGA,143939.001,1726.0521,S,06958.0847,W,1,08,0.9,4155.0,M,34.5,M,,0000*6C
$GPGSA,M,3,29,25,12,09,21,14,27,02,,,,,2.1,0.9,1.9*3B
$GPRMC,143939.001,A,1726.0521,S,06958.0847,W,9.79,196.77,290411,,,A*6E
$GPGGA,143940.000,1726.0546,S,06958.0858,W,1,08,0.9,4154.6,M,34.5,M,,0000*6B
$GPGSA,M,3,29,25,12,09,21,14,27,02,,,,,2.1,0.9,1.9*3B
$GPRMC,143940.000,A,1726.0546,S,06958.0858,W,9.37,210.96,290411,,,A*66
$GPGGA,143941.002,1726.0568,S,06958.0876,W,1,07,1.0,4153.7,M,34.5,M,,0000*69
$GPGSA,M,3,29,25,12,09,21,14,02,,,,,,2.2,1.0,2.0*3F
$GPRMC,143941.002,A,1726.0568,S,06958.0876,W,10.60,225.61,290411,,,A*51
$GPGGA,143941.996,1726.0587,S,06958.0902,W,1,07,1.0,4153.5,M,34.5,M,,0000*6C
$GPGSA,M,3,29,25,12,09,21,14,02,,,,,,2.2,1.0,2.0*3F
$GPGSV,3,1,11,29,54,211,38,25,46,178,33,12,41,119,31,09,39,023,37*78
$GPGSV,3,2,11,21,34,339,37,14,21,280,32,27,18,027,,02,13,139,30*7D
$GPGSV,3,3,11,31,12,216,31,05,09,088,,18,00,340,*4D
$GPRMC,143941.996,A,1726.0587,S,06958.0902,W,11.63,237.77,290411,,,A*50
$GPGGA,143943.004,1726.0603,S,06958.0932,W,1,07,1.0,4153.3,M,34.5,M,,0000*66
$GPGSA,M,3,29,25,12,09,21,14,02,,,,,,2.2,1.0,2.0*3F
$GPRMC,143943.004,A,1726.0603,S,06958.0932,W,11.40,245.25,290411,,,A*5F
$GPGGA,143943.995,1726.0613,S,06958.0957,W,1,07,1.2,4153.4,M,34.5,M,,0000*60
$GPGSA,M,3,29,25,12,09,21,14,27,,,,,,3.3,1.2,3.1*3A
$GPRMC,143943.995,A,1726.0613,S,06958.0957,W,11.31,250.34,290411,,,A*5E
$GPGGA,143945.018,1726.0621,S,06958.0983,W,1,08,0.9,4154.0,M,34.5,M,,0000*64
$GPGSA,M,3,29,25,12,09,21,14,27,02,,,,,2.1,0.9,1.9*3B
$GPRMC,143945.018,A,1726.0621,S,06958.0983,W,10.82,251.98,290411,,,A*52
$GPGGA,143945.986,1726.0632,S,06958.1012,W,1,08,0.9,4154.3,M,34.5,M,,0000*6B
$GPGSA,M,3,29,25,12,09,21,14,27,02,,,,,2.1,0.9,1.9*3B
$GPRMC,143945.986,A,1726.0632,S,06958.1012,W,11.83,251.75,290411,,,A*5D
$GPGGA,143946.999,1726.0642,S,06958.1041,W,1,08,0.9,4154.4,M,34.5,M,,0000*60
$GPGSA,M,3,29,25,12,09,21,14,27,02,,,,,2.1,0.9,1.9*3B
$GPGSV,3,1,11,29,54,211,37,25,46,178,38,12,41,119,35,09,39,023,32*7D
$GPGSV,3,2,11,21,34,339,41,14,21,280,39,27,18,027,32,02,13,139,28*7F
$GPGSV,3,3,11,31,12,216,26,05,09,088,,18,00,340,*4B
$GPRMC,143946.999,A,1726.0642,S,06958.1041,W,11.59,251.92,290411,,,A*5F
$GPGGA,143947.999,1726.0653,S,06958.1076,W,1,07,1.2,4155.6,M,34.5,M,,0000*63
$GPGSA,M,3,29,25,12,09,21,14,27,,,,,,3.3,1.2,3.1*3A
$GPRMC,143947.999,A,1726.0653,S,06958.1076,W,11.71,254.29,290411,,,A*55
$GPGGA,143948.997,1726.0660,S,06958.1104,W,1,08,0.9,4155.2,M,34.5,M,,0000*67
$GPGSA,M,3,29,25,12,09,21,14,27,02,,,,,2.1,0.9,1.9*3B
$GPRMC,143948.997,A,1726.0660,S,06958.1104,W,11.32,254.20,290411,,,A*5E
$GPGGA,143950.000,1726.0669,S,06958.1135,W,1,08,0.9,4154.7,M,34.5,M,,0000*66
$GPGSA,M,3,29,25,12,09,21,14,27,02,,,,,2.1,0.9,1.9*3B
$GPRMC,143950.000,A,1726.0669,S,06958.1135,W,11.07,257.28,290411,,,A*56
$GPGGA,143951.002,1726.0674,S,06958.1168,W,1,08,0.9,4153.7,M,34.5,M,,0000*66
$GPGSA,M,3,29,25,12,09,21,14,27,02,,,,,2.1,0.9,1.9*3B
$GPRMC,143951.002,A,1726.0674,S,06958.1168,W,10.98,261.42,290411,,,A*5F
$GPGGA,143952.000,1726.0682,S,06958.1202,W,1,08,0.9,4153.9,M,34.5,M,,0000*6F
$GPGSA,M,3,29,25,12,09,21,14,27,02,,,,,2.1,0.9,1.9*3B
$GPGSV,3,1,11,29,54,211,38,25,46,178,38,12,41,119,37,09,39,023,37*75
$GPGSV,3,2,11,21,34,339,36,14,21,280,38,27,18,027,37,02,13,139,31*73
$GPGSV,3,3,11,31,12,216,31,05,09,088,,18,00,340,*4D
$GPRMC,143952.000,A,1726.0682,S,06958.1202,W,11.50,262.52,290411,,,A*5F
$GPGGA,143953.000,1726.0685,S,06958.1235,W,1,08,0.9,4154.7,M,34.5,M,,0000*64
$GPGSA,M,3,29,25,12,09,21,14,27,02,,,,,2.1,0.9,1.9*3B
$GPRMC,143953.000,A,1726.0685,S,06958.1235,W,11.43,268.55,290411,,,A*52
$GPGGA,143954.000,1726.0686,S,06958.1269,W,1,08,0.9,4154.2,M,34.5,M,,0000*6C
$GPGSA,M,3,29,25,12,09,21,14,27,02,,,,,2.1,0.9,1.9*3B
$GPRMC,143954.000,A,1726.0686,S,06958.1269,W,11.13,272.65,290411,,,A*52
$GPGGA,143954.999,1726.0685,S,06958.1299,W,1,08,0.9,4151.9,M,34.5,M,,0000*67
$GPGSA,M,3,29,25,12,09,21,14,27,02,,,,,2.1,0.9,1.9*3B
$GPRMC,143954.999,A,1726.0685,S,06958.1299,W,10.83,273.35,290411,,,A*5B
$GPGGA,143955.999,1726.0682,S,06958.1331,W,1,08,0.9,4151.5,M,34.5,M,,0000*6E
$GPGSA,M,3,29,25,12,09,21,14,27,02,,,,,2.1,0.9,1.9*3B
$GPRMC,143955.999,A,1726.0682,S,06958.1331,W,11.41,280.78,290411,,,A*54
$GPGGA,143957.003,1726.0674,S,06958.1364,W,1,08,0.9,4151.4,M,34.5,M,,0000*6E
$GPGSA,M,3,29,25,12,09,21,14,27,02,,,,,2.1,0.9,1.9*3B
$GPGSV,3,1,11,29,54,211,37,25,46,178,37,12,41,119,36,09,39,023,31*72
$GPGSV,3,2,11,21,34,339,31,14,21,280,35,27,18,027,37,02,13,139,34*7C
$GPGSV,3,3,11,31,12,216,29,05,09,088,,18,00,340,*44
$GPRMC,143957.003,A,1726.0674,S,06958.1364,W,11.04,287.95,290411,,,A*50
$GPGGA,143957.996,1726.0660,S,06958.1393,W,1,08,0.9,4151.3,M,34.5,M,,0000*61
$GPGSA,M,3,29,25,12,09,21,14,27,02,,,,,2.1,0.9,1.9*3B
$GPRMC,143957.996,A,1726.0660,S,06958.1393,W,10.88,293.31,290411,,,A*56
$GPGGA,143958.999,1726.0645,S,06958.1424,W,1,08,0.9,4150.8,M,34.5,M,,0000*67
$GPGSA,M,3,29,25,12,09,21,14,27,02,,,,,2.1,0.9,1.9*3B
$GPRMC,143958.999,A,1726.0645,S,06958.1424,W,11.63,294.13,290411,,,A*59
$GPGGA,144000.001,1726.0633,S,06958.1455,W,1,08,0.9,4151.1,M,34.5,M,,0000*63
$GPGSA,M,3,29,25,12,09,21,14,27,02,,,,,2.1,0.9,1.9*3B
$GPRMC,144000.001,A,1726.0633,S,06958.1455,W,11.07,292.65,290411,,,A*50
$GPGGA,144000.999,1726.0619,S,06958.1482,W,1,07,0.9,4151.5,M,34.5,M,,0000*62
$GPGSA,M,3,29,12,09,21,14,27,02,,,,,,2.2,0.9,2.0*35
$GPRMC,144000.999,A,1726.0619,S,06958.1482,W,10.82,296.44,290411,,,A*51
$GPGGA,144002.002,1726.0605,S,06958.1509,W,1,08,0.9,4150.8,M,34.5,M,,0000*67
$GPGSA,M,3,29,25,12,09,21,14,27,02,,,,,2.1,0.9,1.9*3B
$GPGSV,3,1,11,29,54,211,39,25,46,178,34,12,41,119,34,09,39,023,39*75
$GPGSV,3,2,11,21,34,339,38,14,21,280,30,27,18,027,38,02,13,139,36*7D
$GPGSV,3,3,11,31,12,216,34,05,09,088,,18,00,340,*48
$GPRMC,144002.002,A,1726.0605,S,06958.1509,W,11.13,301.66,290411,,,A*51
$GPGGA,144003.000,1726.0589,S,06958.1537,W,1,08,0.9,4151.3,M,34.5,M,,0000*64
$GPGSA,M,3,29,25,12,09,21,14,27,02,,,,,2.1,0.9,1.9*3B
$GPRMC,144003.000,A,1726.0589,S,06958.1537,W,11.12,303.67,290411,,,A*5A
$GPGGA,144003.999,1726.0571,S,06958.1565,W,1,08,0.9,4151.2,M,34.5,M,,0000*6C
$GPGSA,M,3,29,25,12,09,21,14,27,02,,,,,2.1,0.9,1.9*3B
$GPRMC,144003.999,A,1726.0571,S,06958.1565,W,10.68,302.31,290411,,,A*5D
$GPGGA,144004.996,1726.0557,S,06958.1589,W,1,08,0.9,4150.2,M,34.5,M,,0000*63
$GPGSA,M,3,29,25,12,09,21,14,27,02,,,,,2.1,0.9,1.9*3B
$GPRMC,144004.996,A,1726.0557,S,06958.1589,W,10.75,304.04,290411,,,A*5F
$GPGGA,144006.002,1726.0541,S,06958.1618,W,1,08,0.9,4150.9,M,34.5,M,,0000*62
$GPGSA,M,3,29,25,12,09,21,14,27,02,,,,,2.1,0.9,1.9*3B
$GPRMC,144006.002,A,1726.0541,S,06958.1618,W,10.59,306.25,290411,,,A*5A
$GPGGA,144006.999,1726.0524,S,06958.1643,W,1,07,1.4,4150.9,M,34.5,M,,0000*67
$GPGSA,M,3,29,25,12,09,21,27,02,,,,,,2.9,1.4,2.5*35
$GPGSV,3,1,11,29,54,211,39,25,46,178,39,12,41,119,37,09,39,023,37*75
$GPGSV,3,2,11,21,34,339,41,14,21,280,,27,18,027,35,02,13,139,31*7A
$GPGSV,3,3,11,31,12,216,,05,09,088,,18,00,340,*4F
$GPRMC,144006.999,A,1726.0524,S,06958.1643,W,10.84,306.01,290411,,,A*5A
$GPGGA,144008.001,1726.0507,S,06958.1666,W,1,08,0.9,4151.2,M,34.5,M,,0000*6E
$GPGSA,M,3,29,25,12,09,21,14,27,02,,,,,2.1,0.9,1.9*3B
$GPRMC,144008.001,A,1726.0507,S,06958.1666,W,10.78,311.14,290411,,,A*5B
$GPGGA,144008.999,1726.0486,S,06958.1689,W,1,07,1.4,4150.6,M,34.5,M,,0000*69
$GPGSA,M,3,29,25,12,09,21,27,02,,,,,,2.9,1.4,2.5*35
$GPRMC,144008.999,A,1726.0486,S,06958.1689,W,11.18,315.82,290411,,,A*56
$GPGGA,144010.000,1726.0466,S,06958.1708,W,1,07,1.0,4151.0,M,34.5,M,,0000*6C
$GPGSA,M,3,29,25,12,09,21,14,02,,,,,,2.2,1.0,2.0*3F
$GPRMC,144010.000,A,1726.0466,S,06958.1708,W,10.13,315.68,290411,,,A*5E
$GPGGA,144010.999,1726.0445,S,06958.1726,W,1,07,1.0,4151.1,M,34.5,M,,0000*69
$GPGSA,M,3,29,25,12,09,21,14,02,,,,,,2.2,1.0,2.0*3F
$GPRMC,144010.999,A,1726.0445,S,06958.1726,W,10.31,314.89,290411,,,A*54
$GPGGA,144011.998,1726.0422,S,06958.1741,W,1,06,1.3,4150.6,M,34.5,M,,0000*6D
$GPGSA,M,3,29,25,12,09,21,14,,,,,,,4.4,1.3,4.2*3A
$GPGSV,3,1,11,29,54,211,37,25,46,178,27,12,41,119,35,09,39,023,29*79
$GPGSV,3,2,11,21,34,339,40,14,21,280,29,27,18,027,,02,13,139,*74
$GPGSV,3,3,11,31,12,216,,05,09,088,,18,00,340,*4F
$GPRMC,144011.998,A,1726.0422,S,06958.1741,W,9.49,319.70,290411,,,A*68
$GPGGA,144013.002,1726.0403,S,06958.1757,W,1,05,1.4,4150.5,M,34.5,M,,0000*66
$GPGSA,M,3,29,25,12,09,21,,,,,,,,1.7,1.4,1.0*39
$GPRMC,144013.002,A,1726.0403,S,06958.1757,W,8.81,321.73,290411,,,A*69
$GPGGA,144013.998,1726.0385,S,06958.1770,W,1,05,1.4,4150.1,M,34.5,M,,0000*64
$GPGSA,M,3,29,25,12,09,21,,,,,,,,1.7,1.4,1.0*39
$GPRMC,144013.998,A,1726.0385,S,06958.1770,W,8.37,317.41,290411,,,A*66
$GPGGA,144015.002,1726.0367,S,06958.1788,W,1,07,1.0,4150.9,M,34.5,M,,0000*6D
$GPGSA,M,3,29,25,12,09,21,14,02,,,,,,2.2,1.0,2.0*3F
$GPRMC,144015.002,A,1726.0367,S,06958.1788,W,8.52,307.45,290411,,,A*67
$GPGGA,144016.001,1726.0355,S,06958.1813,W,1,07,1.0,4150.5,M,34.5,M,,0000*6D
$GPGSA,M,3,29,25,12,09,21,14,02,,,,,,2.2,1.0,2.0*3F
$GPRMC,144016.001,A,1726.0355,S,06958.1813,W,7.73,294.85,290411,,,A*60
$GPGGA,144017.000,1726.0351,S,06958.1833,W,1,07,1.0,4149.1,M,34.5,M,,0000*67
$GPGSA,M,3,29,25,12,09,21,14,02,,,,,,2.2,1.0,2.0*3F
$GPGSV,3,1,11,29,54,211,39,25,46,178,40,12,41,119,35,09,39,023,37*79
$GPGSV,3,2,11,21,34,339,39,14,21,280,40,27,18,027,,02,13,139,33*75
$GPGSV,3,3,11,31,12,216,31,05,09,088,,18,00,340,*4D
$GPRMC,144017.000,A,1726.0351,S,06958.1833,W,6.84,287.53,290411,,,A*66
$GPGGA,144017.998,1726.0357,S,06958.1853,W,1,07,1.0,4148.7,M,34.5,M,,0000*68
$GPGSA,M,3,29,25,12,09,21,14,02,,,,,,2.2,1.0,2.0*3F
$GPRMC,144017.998,A,1726.0357,S,06958.1853,W,6.28,264.97,290411,,,A*6D
$GPGGA,144019.003,1726.0373,S,06958.1882,W,1,07,1.0,4148.5,M,34.5,M,,0000*65
$GPGSA,M,3,29,25,12,09,21,14,02,,,,,,2.2,1.0,2.0*3F
$GPRMC,144019.003,A,1726.0373,S,06958.1882,W,7.55,248.45,290411,,,A*68
$GPGGA,144019.995,1726.0379,S,06958.1902,W,1,05,1.4,4148.3,M,34.5,M,,0000*60
$GPGSA,M,3,29,25,12,09,21,,,,,,,,1.7,1.4,1.0*39
$GPRMC,144019.995,A,1726.0379,S,06958.1902,W,7.79,244.66,290411,,,A*6E
$GPGGA,144021.005,1726.0393,S,06958.1926,W,1,07,1.0,4147.4,M,34.5,M,,0000*67
$GPGSA,M,3,29,25,12,09,21,14,02,,,,,,2.2,1.0,2.0*3F
$GPRMC,144021.005,A,1726.0393,S,06958.1926,W,9.83,231.65,290411,,,A*6D
$GPGGA,144021.996,1726.0428,S,06958.1913,W,1,06,1.3,4148.5,M,34.5,M,,0000*69
$GPGSA,M,3,29,25,12,21,14,02,,,,,,,2.4,1.3,2.0*33
$GPGSV,3,1,11,29,54,211,36,25,46,178,37,12,41,119,38,09,39,023,*7F
$GPGSV,3,2,11,21,34,339,32,14,21,280,26,27,18,027,,02,13,139,40*7A
$GPGSV,3,3,11,31,12,216,36,05,09,088,,18,00,340,*4A
$GPRMC,144021.996,A,1726.0428,S,06958.1913,W,8.03,197.15,290411,,,A*6E
$GPGGA,144023.018,1726.0448,S,06958.1918,W,1,06,1.5,4149.4,M,34.5,M,,0000*6F
$GPGSA,M,3,29,25,12,09,21,02,,,,,,,3.1,1.5,2.7*3A
$GPRMC,144023.018,A,1726.0448,S,06958.1918,W,7.92,187.62,290411,,,A*68
$GPGGA,144023.982,1726.0470,S,06958.1917,W,1,06,1.5,4149.5,M,34.5,M,,0000*60
$GPGSA,M,3,29,25,12,09,21,02,,,,,,,3.1,1.5,2.7*3A
$GPRMC,144023.982,A,1726.0470,S,06958.1917,W,5.80,186.08,290411,,,A*6A
$GPGGA,144025.003,1726.0501,S,06958.1907,W,1,07,1.0,4150.7,M,34.5,M,,0000*6E
$GPGSA,M,3,29,25,12,09,21,14,02,,,,,,2.2,1.0,2.0*3F
$GPRMC,144025.003,A,1726.0501,S,06958.1907,W,6.57,166.81,290411,,,A*6C
$GPGGA,144025.998,1726.0508,S,06958.1863,W,1,06,1.5,4150.3,M,34.5,M,,0000*6F
$GPGSA,M,3,29,25,12,09,21,02,,,,,,,3.1,1.5,2.7*3A
$GPRMC,144025.998,A,1726.0508,S,06958.1863,W,8.12,132.98,290411,,,A*6B
$GPGGA,144027.002,1726.0523,S,06958.1841,W,1,05,1.8,4151.0,M,34.5,M,,0000*62
$GPGSA,M,3,29,25,12,21,02,,,,,,,,3.4,1.8,2.9*35
$GPGSV,3,1,11,29,54,211,38,25,46,178,33,12,41,119,39,09,39,023,*74
$GPGSV,3,2,11,21,34,339,36,14,21,280,,27,18,027,,02,13,139,40*7A
$GPGSV,3,3,11,31,12,216,33,05,09,088,,18,00,340,*4F
$GPRMC,144027.002,A,1726.0523,S,06958.1841,W,9.41,120.11,290411,,,A*6F
$GPGGA,144027.997,1726.0536,S,06958.1813,W,1,08,0.9,4149.4,M,34.5,M,,0000*64
$GPGSA,M,3,29,25,12,09,21,14,27,02,,,,,2.1,0.9,1.9*3B
$GPRMC,144027.997,A,1726.0536,S,06958.1813,W,9.18,126.57,290411,,,A*61
$GPGGA,144028.999,1726.0555,S,06958.1781,W,1,07,1.4,4147.8,M,34.5,M,,0000*65
$GPGSA,M,3,29,25,12,09,21,27,02,,,,,,2.9,1.4,2.5*35
$GPRMC,144028.999,A,1726.0555,S,06958.1781,W,9.18,132.51,290411,,,A*62
$GPGGA,144029.998,1726.0580,S,06958.1761,W,1,07,1.4,4147.7,M,34.5,M,,0000*6C
$GPGSA,M,3,29,25,12,09,21,27,02,,,,,,2.9,1.4,2.5*35
$GPRMC,144029.998,A,1726.0580,S,06958.1761,W,9.77,134.39,290411,,,A*65
$GPGGA,144031.003,1726.0601,S,06958.1735,W,1,06,1.5,4148.5,M,34.5,M,,0000*68
$GPGSA,M,3,29,25,12,09,21,02,,,,,,,3.1,1.5,2.7*3A
$GPRMC,144031.003,A,1726.0601,S,06958.1735,W,10.20,139.32,290411,,,A*50
$GPGGA,144031.998,1726.0615,S,06958.1710,W,1,06,1.5,4147.9,M,34.5,M,,0000*62
$GPGSA,M,3,29,25,12,09,21,02,,,,,,,3.1,1.5,2.7*3A
$GPGSV,3,1,11,29,54,211,36,25,46,178,40,12,41,119,38,09,39,023,27*7A
$GPGSV,3,2,11,21,34,339,28,14,21,280,,27,18,027,20,02,13,139,38*78
$GPGSV,3,3,11,31,12,216,40,05,09,088,,18,00,340,*4B
$GPRMC,144031.998,A,1726.0615,S,06958.1710,W,9.52,136.91,290411,,,A*62
$GPGGA,144033.002,1726.0630,S,06958.1692,W,1,06,1.1,4146.9,M,34.5,M,,0000*63
$GPGSA,M,3,29,25,12,09,14,02,,,,,,,2.3,1.1,2.0*3C
$GPRMC,144033.002,A,1726.0630,S,06958.1692,W,9.27,138.49,290411,,,A*6F
$GPGGA,144033.999,1726.0649,S,06958.1669,W,1,05,1.9,4146.5,M,34.5,M,,0000*65
$GPGSA,M,3,29,25,12,27,02,,,,,,,,3.4,1.9,2.9*32
$GPRMC,144033.999,A,1726.0649,S,06958.1669,W,9.37,144.31,290411,,,A*6B
$GPGGA,144034.998,1726.0671,S,06958.1658,W,1,07,1.0,4145.6,M,34.5,M,,0000*61
$GPGSA,M,3,29,25,12,09,14,27,02,,,,,,2.1,1.0,1.9*30
$GPRMC,144034.998,A,1726.0671,S,06958.1658,W,9.31,140.79,290411,,,A*6A
$GPGGA,144036.000,1726.0690,S,06958.1631,W,1,07,1.0,4144.9,M,34.5,M,,0000*65
$GPGSA,M,3,29,25,12,09,14,27,02,,,,,,2.1,1.0,1.9*30
$GPRMC,144036.000,A,1726.0690,S,06958.1631,W,10.55,139.11,290411,,,A*5A
$GPGGA,144037.001,1726.0712,S,06958.1607,W,1,06,1.6,4144.2,M,34.5,M,,0000*67
$GPGSA,M,3,29,25,12,21,27,02,,,,,,,3.3,1.6,2.8*38
$GPGSV,3,1,11,29,54,211,37,25,46,178,40,12,41,119,37,09,39,023,*71
$GPGSV,3,2,11,21,34,339,27,14,21,280,,27,18,027,31,02,13,139,38*77
$GPGSV,3,3,11,31,12,216,40,05,09,088,,18,00,340,*4B
$GPRMC,144037.001,A,1726.0712,S,06958.1607,W,10.67,140.65,290411,,,A*58
$GPGGA,144038.000,1726.0733,S,06958.1581,W,1,05,1.9,4143.9,M,34.5,M,,0000*67
$GPGSA,M,3,29,25,12,27,02,,,,,,,,3.4,1.9,2.9*32
$GPRMC,144038.000,A,1726.0733,S,06958.1581,W,11.05,137.19,290411,,,A*56
$GPGGA,144039.000,1726.0759,S,06958.1556,W,1,05,1.8,4143.5,M,34.5,M,,0000*6D
$GPGSA,M,3,29,25,12,21,02,,,,,,,,3.4,1.8,2.9*35
$GPRMC,144039.000,A,1726.0759,S,06958.1556,W,11.28,138.17,290411,,,A*5F
$GPGGA,144040.001,1726.0781,S,06958.1529,W,1,06,1.6,4143.0,M,34.5,M,,0000*67
$GPGSA,M,3,29,25,12,21,27,02,,,,,,,3.3,1.6,2.8*38
$GPRMC,144040.001,A,1726.0781,S,06958.1529,W,11.53,136.11,290411,,,A*59
$GPGGA,144040.998,1726.0802,S,06958.1509,W,1,08,0.9,4143.1,M,34.5,M,,0000*69
$GPGSA,M,3,29,25,12,09,21,14,27,02,,,,,2.1,0.9,1.9*3B
$GPRMC,144040.998,A,1726.0802,S,06958.1509,W,11.02,129.09,290411,,,A*55
$GPGGA,144042.001,1726.0817,S,06958.1478,W,1,07,1.5,4142.9,M,34.5,M,,0000*6A
$GPGSA,M,3,29,25,12,09,21,27,02,,,,,,2.9,1.5,2.5*34
$GPGSV,3,1,11,29,54,211,38,25,46,178,36,12,41,119,39,09,39,023,37*75
$GPGSV,3,2,11,21,34,339,37,14,21,280,,27,18,027,31,02,13,139,40*79
$GPGSV,3,3,11,31,12,216,32,05,09,088,27,18,00,340,*4B
$GPRMC,144042.001,A,1726.0817,S,06958.1478,W,10.79,125.89,290411,,,A*54
$GPGGA,144043.000,1726.0835,S,06958.1448,W,1,07,1.5,4143.3,M,34.5,M,,0000*62
$GPGSA,M,3,29,25,12,09,21,27,02,,,,,,2.9,1.5,2.5*34
$GPRMC,144043.000,A,1726.0835,S,06958.1448,W,11.07,117.47,290411,,,A*5C
$GPGGA,144044.000,1726.0845,S,06958.1417,W,1,08,0.9,4143.0,M,34.5,M,,0000*69
$GPGSA,M,3,29,25,12,09,21,14,27,02,,,,,2.1,0.9,1.9*3B
$GPRMC,144044.000,A,1726.0845,S,06958.1417,W,10.99,113.20,290411,,,A*55
$GPGGA,144044.999,1726.0857,S,06958.1383,W,1,08,0.9,4143.1,M,34.5,M,,0000*68
$GPGSA,M,3,29,25,12,09,21,14,27,02,,,,,2.1,0.9,1.9*3B
$GPRMC,144044.999,A,1726.0857,S,06958.1383,W,11.78,110.87,290411,,,A*55
$GPGGA,144046.001,1726.0868,S,06958.1356,W,1,08,0.9,4142.7,M,34.5,M,,0000*61
$GPGSA,M,3,29,25,12,09,21,14,27,02,,,,,2.1,0.9,1.9*3B
$GPRMC,144046.001,A,1726.0868,S,06958.1356,W,11.74,111.56,290411,,,A*5A
$GPGGA,144047.001,1726.0883,S,06958.1326,W,1,07,1.0,4142.2,M,34.5,M,,0000*60
$GPGSA,M,3,29,25,12,09,14,27,02,,,,,,2.1,1.0,1.9*30
$GPGSV,3,1,11,29,54,211,33,25,46,178,39,12,41,119,40,09,39,023,34*7C
$GPGSV,3,2,11,21,34,339,,14,21,280,32,27,18,027,33,02,13,139,39*70
$GPGSV,3,3,11,31,12,216,,05,09,088,25,18,00,340,*48
$GPRMC,144047.001,A,1726.0883,S,06958.1326,W,11.59,113.33,290411,,,A*57
$GPGGA,144047.997,1726.0892,S,06958.1294,W,1,07,1.0,4142.1,M,34.5,M,,0000*6D
$GPGSA,M,3,29,25,12,09,14,27,02,,,,,,2.1,1.0,1.9*30
$GPRMC,144047.997,A,1726.0892,S,06958.1294,W,11.81,109.19,290411,,,A*5F
$GPGGA,144049.003,1726.0900,S,06958.1266,W,1,07,1.0,4141.2,M,34.5,M,,0000*60
$GPGSA,M,3,29,25,12,09,14,27,02,,,,,,2.1,1.0,1.9*30
$GPRMC,144049.003,A,1726.0900,S,06958.1266,W,11.77,105.64,290411,,,A*5D
$GPGGA,144049.996,1726.0910,S,06958.1235,W,1,07,1.0,4141.6,M,34.5,M,,0000*66
$GPGSA,M,3,29,25,12,09,14,27,02,,,,,,2.1,1.0,1.9*30
$GPRMC,144049.996,A,1726.0910,S,06958.1235,W,11.83,106.58,290411,,,A*58
$GPGGA,144051.001,1726.0918,S,06958.1210,W,1,07,1.0,4140.4,M,34.5,M,,0000*64
$GPGSA,M,3,29,25,12,09,21,14,02,,,,,,2.2,1.0,2.0*3F
$GPRMC,144051.001,A,1726.0918,S,06958.1210,W,11.90,105.58,290411,,,A*58
$GPGGA,144052.000,1726.0927,S,06958.1184,W,1,08,0.9,4140.6,M,34.5,M,,0000*61
$GPGSA,M,3,29,25,12,09,21,14,27,02,,,,,2.1,0.9,1.9*3B
$GPGSV,3,1,11,29,54,211,37,25,46,178,33,12,41,119,40,09,39,023,31*77
$GPGSV,3,2,11,21,34,339,27,14,21,280,32,27,18,027,30,02,13,139,37*78
$GPGSV,3,3,11,31,12,216,30,05,09,088,26,18,00,340,*48
$GPRMC,144052.000,A,1726.0927,S,06958.1184,W,11.51,101.84,290411,,,A*50
$GPGGA,144053.000,1726.0935,S,06958.1153,W,1,08,0.9,4140.4,M,34.5,M,,0000*6B
$GPGSA,M,3,29,25,12,09,21,14,27,02,,,,,2.1,0.9,1.9*3B
$GPRMC,144053.000,A,1726.0935,S,06958.1153,W,11.83,97.99,290411,,,A*65
$GPGGA,144053.999,1726.0939,S,06958.1122,W,1,07,1.0,4140.9,M,34.5,M,,0000*62
$GPGSA,M,3,29,25,12,21,14,27,02,,,,,,2.2,1.0,2.0*33
$GPRMC,144053.999,A,1726.0939,S,06958.1122,W,11.32,94.13,290411,,,A*6D
$GPGGA,144054.999,1726.0941,S,06958.1089,W,1,08,0.9,4140.6,M,34.5,M,,0000*62
$GPGSA,M,3,29,25,12,09,21,14,27,02,,,,,2.1,0.9,1.9*3B
$GPRMC,144054.999,A,1726.0941,S,06958.1089,W,11.17,95.20,290411,,,A*63
$GPGGA,144056.002,1726.0944,S,06958.1049,W,1,07,1.0,4141.9,M,34.5,M,,0000*6B
$GPGSA,M,3,29,25,12,21,14,27,02,,,,,,2.2,1.0,2.0*33
$GPRMC,144056.002,A,1726.0944,S,06958.1049,W,11.58,96.03,290411,,,A*6A
$GPGGA,144057.001,1726.0947,S,06958.1016,W,1,07,1.0,4141.8,M,34.5,M,,0000*61
$GPGSA,M,3,29,25,12,21,14,27,02,,,,,,2.2,1.0,2.0*33
$GPGSV,3,1,11,29,54,211,37,25,46,178,38,12,41,119,41,09,39,023,*7F
$GPGSV,3,2,11,21,34,339,34,14,21,280,32,27,18,027,34,02,13,139,38*71
$GPGSV,3,3,11,31,12,216,37,05,09,088,27,18,00,340,*4E
$GPRMC,144057.001,A,1726.0947,S,06958.1016,W,11.55,95.88,290411,,,A*6C
$GPGGA,144058.000,1726.0950,S,06958.0982,W,1,07,1.0,4141.6,M,34.5,M,,0000*62
$GPGSA,M,3,29,25,12,21,14,27,02,,,,,,2.2,1.0,2.0*33
$GPRMC,144058.000,A,1726.0950,S,06958.0982,W,11.95,96.18,290411,,,A*67
$GPGGA,144058.999,1726.0955,S,06958.0952,W,1,08,0.9,4141.6,M,34.5,M,,0000*64
$GPGSA,M,3,29,25,12,09,21,14,27,02,,,,,2.1,0.9,1.9*3B
$GPRMC,144058.999,A,1726.0955,S,06958.0952,W,11.59,98.15,290411,,,A*65
$GPGGA,144100.024,1726.0960,S,06958.0917,W,0,00,,4141.5,M,34.5,M,,0000*4D
$GPGSA,M,1,,,,,,,,,,,,,,,*12
$GPRMC,144100.024,V,1726.0960,S,06958.0917,W,,,290411,,,N*70
$GPGGA,144100.720,1726.0963,S,06958.0894,W,0,00,,4141.4,M,34.5,M,,0000*46
$GPGSA,M,1,,,,,,,,,,,,,,,*12
$GPRMC,144100.720,V,1726.0963,S,06958.0894,W,,,290411,,,N*7A
$GPGGA,144101.000,1726.0965,S,06958.0885,W,0,00,,4141.4,M,34.5,M,,0000*44
$GPGSA,M,1,,,,,,,,,,,,,,,*12
$GPRMC,144101.000,V,1726.0965,S,06958.0885,W,,,290411,,,N*78
$GPGGA,144102.000,1726.0969,S,06958.0852,W,0,00,,4141.3,M,34.5,M,,0000*46
$GPGSA,M,1,,,,,,,,,,,,,,,*12
$GPGSV,3,1,11,29,53,209,,25,46,177,,12,41,118,,09,38,023,*74
$GPGSV,3,2,11,21,35,339,32,14,21,282,32,27,17,026,,02,12,139,*77
$GPGSV,3,3,11,31,13,216,,05,09,089,,18,00,341,*4E
$GPRMC,144102.000,V,1726.0969,S,06958.0852,W,,,290411,,,N*7D
$GPGGA,144103.000,1726.0990,S,06958.0820,W,1,04,2.1,4140.5,M,34.5,M,,0000*6B
$GPGSA,M,3,02,29,12,09,,,,,,,,,4.0,2.1,3.4*3D
$GPRMC,144103.000,A,1726.0990,S,06958.0820,W,11.88,101.00,290411,,,A*57
$GPGGA,144104.000,1726.1003,S,06958.0789,W,1,08,0.9,4140.6,M,34.5,M,,0000*67
$GPGSA,M,3,21,14,02,29,12,09,27,25,,,,,2.1,0.9,1.9*3B
$GPRMC,144104.000,A,1726.1003,S,06958.0789,W,11.79,99.14,290411,,,A*65
$GPGGA,144105.000,1726.1023,S,06958.0763,W,1,08,0.9,4142.7,M,34.5,M,,0000*63
$GPGSA,M,3,21,14,02,29,12,09,27,25,,,,,2.1,0.9,1.9*3B
$GPRMC,144105.000,A,1726.1023,S,06958.0763,W,11.79,99.11,290411,,,A*67
$GPGGA,144106.000,1726.1038,S,06958.0731,W,1,08,0.9,4141.6,M,34.5,M,,0000*6F
$GPGSA,M,3,21,14,02,29,12,09,27,25,,,,,2.1,0.9,1.9*3B
$GPRMC,144106.000,A,1726.1038,S,06958.0731,W,11.63,102.79,290411,,,A*5F
$GPGGA,144107.000,1726.1051,S,06958.0698,W,1,08,0.9,4140.8,M,34.5,M,,0000*6C
$GPGSA,M,3,21,14,02,29,12,09,27,25,,,,,2.1,0.9,1.9*3B
$GPGSV,3,1,11,29,53,209,36,25,46,176,42,12,41,118,47,09,38,023,37*71
$GPGSV,3,2,11,21,35,339,30,14,21,282,30,27,17,026,30,31,13,217,29*71
$GPGSV,3,3,11,02,12,139,44,05,09,089,,18,00,341,*41
$GPRMC,144107.000,A,1726.1051,S,06958.0698,W,11.14,109.05,290411,,,A*53
$GPGGA,144108.000,1726.1062,S,06958.0666,W,1,08,0.9,4140.3,M,34.5,M,,0000*69
$GPGSA,M,3,21,14,02,29,12,09,27,25,,,,,2.1,0.9,1.9*3B
$GPRMC,144108.000,A,1726.1062,S,06958.0666,W,10.93,111.61,290411,,,A*58
$GPGGA,144109.000,1726.1076,S,06958.0631,W,1,08,0.9,4142.0,M,34.5,M,,0000*6E
$GPGSA,M,3,21,14,02,29,12,09,27,25,,,,,2.1,0.9,1.9*3B
$GPRMC,144109.000,A,1726.1076,S,06958.0631,W,10.74,112.66,290411,,,A*53
$GPGGA,144110.000,1726.1088,S,06958.0603,W,1,08,0.9,4141.8,M,34.5,M,,0000*6D
$GPGSA,M,3,21,14,02,29,12,09,27,25,,,,,2.1,0.9,1.9*3B
$GPRMC,144110.000,A,1726.1088,S,06958.0603,W,10.81,112.27,290411,,,A*54
$GPGGA,144111.000,1726.1102,S,06958.0572,W,1,08,0.9,4141.5,M,34.5,M,,0000*67
$GPGSA,M,3,21,14,02,29,12,09,27,25,,,,,2.1,0.9,1.9*3B
$GPRMC,144111.000,A,1726.1102,S,06958.0572,W,10.64,112.80,290411,,,A*55
$GPGGA,144112.000,1726.1117,S,06958.0544,W,1,08,0.9,4141.1,M,34.5,M,,0000*61
$GPGSA,M,3,21,14,02,29,12,09,27,25,,,,,2.1,0.9,1.9*3B
$GPGSV,3,1,11,29,53,209,39,25,46,176,41,12,41,118,46,09,38,023,35*7E
$GPGSV,3,2,11,21,35,339,36,14,21,282,30,27,17,026,31,31,13,217,34*7A
$GPGSV,3,3,11,02,12,139,43,05,09,089,,18,00,341,*46
$GPRMC,144112.000,A,1726.1117,S,06958.0544,W,10.02,114.70,290411,,,A*5E
$GPGGA,144113.000,1726.1130,S,06958.0520,W,1,07,1.5,4140.4,M,34.5,M,,0000*61
$GPGSA,M,3,21,02,29,12,09,27,25,,,,,,2.9,1.5,2.5*34
$GPRMC,144113.000,A,1726.1130,S,06958.0520,W,8.76,118.98,290411,,,A*68
$GPGGA,144114.009,1726.1142,S,06958.0500,W,1,07,1.0,4140.0,M,34.5,M,,0000*69
$GPGSA,M,3,29,25,12,09,21,14,02,,,,,,2.2,1.0,2.0*3F
$GPRMC,144114.009,A,1726.1142,S,06958.0500,W,7.18,124.25,290411,,,A*6F
$GPGGA,144114.987,1726.1153,S,06958.0491,W,1,07,1.0,4139.6,M,34.5,M,,0000*67
$GPGSA,M,3,29,25,12,09,21,14,02,,,,,,2.2,1.0,2.0*3F
$GPRMC,144114.987,A,1726.1153,S,06958.0491,W,5.35,152.50,290411,,,A*67
$GPGGA,144116.001,1726.1167,S,06958.0485,W,1,07,1.0,4139.2,M,34.5,M,,0000*64
$GPGSA,M,3,29,25,12,09,21,14,02,,,,,,2.2,1.0,2.0*3F
$GPRMC,144116.001,A,1726.1167,S,06958.0485,W,5.22,158.20,290411,,,A*6B
$GPGGA,144117.001,1726.1180,S,06958.0483,W,1,06,1.3,4138.8,M,34.5,M,,0000*63
$GPGSA,M,3,29,25,12,21,14,02,,,,,,,2.4,1.3,2.0*33
$GPGSV,3,1,11,29,53,209,40,25,46,176,38,12,41,118,36,09,38,023,*7F
$GPGSV,3,2,11,21,35,339,31,14,21,282,34,27,17,026,,31,13,217,37*78
$GPGSV,3,3,11,02,12,139,33,05,09,089,,18,00,341,*41
$GPRMC,144117.001,A,1726.1180,S,06958.0483,W,5.45,185.55,290411,,,A*66
$GPGGA,144118.000,1726.1196,S,06958.0487,W,1,08,0.9,4138.9,M,34.5,M,,0000*6A
$GPGSA,M,3,29,25,12,09,21,14,27,02,,,,,2.1,0.9,1.9*3B
$GPRMC,144118.000,A,1726.1196,S,06958.0487,W,5.62,206.70,290411,,,A*61
$GPGGA,144119.000,1726.1210,S,06958.0495,W,1,06,1.3,4138.9,M,34.5,M,,0000*60
$GPGSA,M,3,29,25,12,21,14,02,,,,,,,2.4,1.3,2.0*33
$GPRMC,144119.000,A,1726.1210,S,06958.0495,W,5.34,215.44,290411,,,A*68
$GPGGA,144119.999,1726.1218,S,06958.0504,W,1,07,1.0,4138.5,M,34.5,M,,0000*66
$GPGSA,M,3,29,25,12,09,21,14,02,,,,,,2.2,1.0,2.0*3F
$GPRMC,144119.999,A,1726.1218,S,06958.0504,W,5.44,244.13,290411,,,A*61
$GPGGA,144120.999,1726.1220,S,06958.0518,W,1,08,0.9,4138.7,M,34.5,M,,0000*6F
$GPGSA,M,3,29,25,12,09,21,14,27,02,,,,,2.1,0.9,1.9*3B
$GPRMC,144120.999,A,1726.1220,S,06958.0518,W,5.65,268.26,290411,,,A*66
$GPGGA,144122.002,1726.1217,S,06958.0536,W,1,08,0.9,4138.9,M,34.5,M,,0000*60
$GPGSA,M,3,29,25,12,09,21,14,27,02,,,,,2.1,0.9,1.9*3B
$GPGSV,3,1,11,29,53,209,38,25,46,176,36,12,41,118,39,09,38,023,39*7B
$GPGSV,3,2,11,21,35,339,29,14,21,282,36,27,17,026,32,31,13,217,36*73
$GPGSV,3,3,11,02,12,139,28,05,09,089,,18,00,341,*4B
$GPRMC,144122.002,A,1726.1217,S,06958.0536,W,5.82,291.24,290411,,,A*6A
$GPGGA,144122.996,1726.1208,S,06958.0549,W,1,08,0.9,4138.4,M,34.5,M,,0000*6F
$GPGSA,M,3,29,25,12,09,21,14,27,02,,,,,2.1,0.9,1.9*3B
$GPRMC,144122.996,A,1726.1208,S,06958.0549,W,6.03,317.39,290411,,,A*61
$GPGGA,144124.002,1726.1192,S,06958.0558,W,1,08,0.9,4138.5,M,34.5,M,,0000*6C
$GPGSA,M,3,29,25,12,09,21,14,27,02,,,,,2.1,0.9,1.9*3B
$GPRMC,144124.002,A,1726.1192,S,06958.0558,W,6.87,330.60,290411,,,A*66
$GPGGA,144125.000,1726.1175,S,06958.0572,W,1,07,1.2,4138.2,M,34.5,M,,0000*6C
$GPGSA,M,3,29,25,12,09,21,14,27,,,,,,3.3,1.2,3.1*3A
$GPRMC,144125.000,A,1726.1175,S,06958.0572,W,7.54,315.36,290411,,,A*6F
$GPGGA,144126.000,1726.1162,S,06958.0590,W,1,06,1.4,4137.6,M,34.5,M,,0000*69
$GPGSA,M,3,29,25,09,21,14,27,,,,,,,3.5,1.4,3.2*3A
$GPRMC,144126.000,A,1726.1162,S,06958.0590,W,7.34,307.39,290411,,,A*6C
$GPGGA,144127.002,1726.1149,S,06958.0609,W,1,08,0.9,4137.3,M,34.5,M,,0000*67
$GPGSA,M,3,29,25,12,09,21,14,27,02,,,,,2.1,0.9,1.9*3B
$GPGSV,3,1,11,29,53,209,39,25,46,176,39,12,41,118,38,09,38,023,39*74
$GPGSV,3,2,11,21,35,339,38,14,21,282,32,27,17,026,39,31,13,217,32*78
$GPGSV,3,3,11,02,12,139,33,05,09,089,,18,00,341,*41
$GPRMC,144127.002,A,1726.1149,S,06958.0609,W,7.65,302.93,290411,,,A*64
$GPGGA,144127.998,1726.1139,S,06958.0628,W,1,08,0.9,4136.8,M,34.5,M,,0000*63
$GPGSA,M,3,29,25,12,09,21,14,27,02,,,,,2.1,0.9,1.9*3B
$GPRMC,144127.998,A,1726.1139,S,06958.0628,W,8.14,295.06,290411,,,A*60
$GPGGA,144129.000,1726.1129,S,06958.0653,W,1,08,0.9,4135.5,M,34.5,M,,0000*66
$GPGSA,M,3,29,25,12,09,21,14,27,02,,,,,2.1,0.9,1.8*3A
$GPRMC,144129.000,A,1726.1129,S,06958.0653,W,8.61,287.49,290411,,,A*61
$GPGGA,144130.001,1726.1123,S,06958.0678,W,1,08,0.9,4135.5,M,34.5,M,,0000*6C
$GPGSA,M,3,29,25,12,09,21,14,27,02,,,,,2.1,0.9,1.8*3A
$GPRMC,144130.001,A,1726.1123,S,06958.0678,W,9.01,282.02,290411,,,A*66
$GPGGA,144131.001,1726.1118,S,06958.0704,W,1,07,1.0,4135.2,M,34.5,M,,0000*6F
$GPGSA,M,3,29,25,12,09,21,14,02,,,,,,2.2,1.0,2.0*3F
$GPRMC,144131.001,A,1726.1118,S,06958.0704,W,9.26,274.05,290411,,,A*6E
$GPGGA,144132.000,1726.1120,S,06958.0732,W,1,08,0.9,4135.8,M,34.5,M,,0000*6E
$GPGSA,M,3,29,25,12,09,21,14,27,02,,,,,2.1,0.9,1.8*3A
$GPGSV,3,1,11,29,53,209,37,25,46,176,38,12,41,118,35,09,38,023,38*77
$GPGSV,3,2,11,21,35,339,38,14,21,282,38,27,17,026,31,31,13,217,34*7C
$GPGSV,3,3,11,02,12,139,26,05,09,089,,18,00,341,*45
$GPRMC,144132.000,A,1726.1120,S,06958.0732,W,9.82,266.28,290411,,,A*60
$GPGGA,144132.999,1726.1122,S,06958.0760,W,1,08,0.9,4136.0,M,34.5,M,,0000*69
$GPGSA,M,3,29,25,12,09,21,14,27,02,,,,,2.1,0.9,1.8*3A
$GPRMC,144132.999,A,1726.1122,S,06958.0760,W,9.11,262.98,290411,,,A*69
$GPGGA,144133.999,1726.1126,S,06958.0788,W,1,08,0.9,4136.0,M,34.5,M,,0000*6A
$GPGSA,M,3,29,25,12,09,21,14,27,02,,,,,2.1,0.9,1.8*3A
$GPRMC,144133.999,A,1726.1126,S,06958.0788,W,8.98,261.35,290411,,,A*6E
$GPGGA,144134.998,1726.1127,S,06958.0812,W,1,08,0.9,4135.6,M,34.5,M,,0000*64
$GPGSA,M,3,29,25,12,09,21,14,27,02,,,,,2.1,0.9,1.8*3A
$GPRMC,144134.998,A,1726.1127,S,06958.0812,W,8.82,262.18,290411,,,A*62
$GPGGA,144135.998,1726.1132,S,06958.0840,W,1,07,1.0,4135.9,M,34.5,M,,0000*6E
$GPGSA,M,3,29,25,12,09,21,14,02,,,,,,2.2,1.0,2.0*3F
$GPRMC,144135.998,A,1726.1132,S,06958.0840,W,9.62,260.17,290411,,,A*62
$GPGGA,144137.002,1726.1136,S,06958.0868,W,1,08,0.9,4135.3,M,34.5,M,,0000*65
$GPGSA,M,3,29,25,12,09,21,14,27,02,,,,,2.1,0.9,1.8*3A
$GPGSV,3,1,11,29,53,209,36,25,46,176,36,12,41,118,37,09,38,023,31*73
$GPGSV,3,2,11,21,35,339,37,14,21,282,40,27,17,026,31,31,13,217,34*7C
$GPGSV,3,3,11,02,12,139,31,05,09,089,,18,00,341,*43
$GPRMC,144137.002,A,1726.1136,S,06958.0868,W,9.44,260.94,290411,,,A*6B
$GPGGA,144138.000,1726.1141,S,06958.0893,W,1,08,0.9,4136.0,M,34.5,M,,0000*6C
$GPGSA,M,3,29,25,12,09,21,14,27,02,,,,,2.1,0.9,1.8*3A
$GPRMC,144138.000,A,1726.1141,S,06958.0893,W,9.82,258.58,290411,,,A*63
$GPGGA,144139.000,1726.1147,S,06958.0919,W,1,08,0.9,4135.5,M,34.5,M,,0000*6E
$GPGSA,M,3,29,25,12,09,21,14,27,02,,,,,2.1,0.9,1.8*3A
$GPRMC,144139.000,A,1726.1147,S,06958.0919,W,9.65,257.17,290411,,,A*6A
$GPGGA,144140.000,1726.1151,S,06958.0946,W,1,08,0.9,4135.5,M,34.5,M,,0000*6D
$GPGSA,M,3,29,25,12,09,21,14,27,02,,,,,2.1,0.9,1.8*3A
$GPRMC,144140.000,A,1726.1151,S,06958.0946,W,9.82,260.31,290411,,,A*60
$GPGGA,144141.000,1726.1155,S,06958.0974,W,1,08,0.9,4134.5,M,34.5,M,,0000*68
$GPGSA,M,3,29,25,12,09,21,14,27,02,,,,,2.1,0.9,1.8*3A
$GPRMC,144141.000,A,1726.1155,S,06958.0974,W,9.80,255.52,290411,,,A*65
$GPGGA,144142.000,1726.1161,S,06958.1002,W,1,08,0.9,4134.1,M,34.5,M,,0000*61
$GPGSA,M,3,29,25,12,09,21,14,27,02,,,,,2.1,0.9,1.8*3A
$GPGSV,3,1,11,29,53,209,39,25,46,176,43,12,41,117,32,09,37,023,40*7D
$GPGSV,3,2,11,21,36,339,41,14,21,282,46,27,17,026,32,02,12,139,33*72
$GPGSV,3,3,11,31,14,217,28,05,09,090,,18,00,342,*49
$GPRMC,144142.000,A,1726.1161,S,06958.1002,W,9.43,252.64,290411,,,A*65
$GPGGA,144143.000,1726.1169,S,06958.1029,W,1,08,0.9,4133.9,M,34.5,M,,0000*6E
$GPGSA,M,3,29,25,12,09,21,14,27,02,,,,,2.1,0.9,1.8*3A
$GPRMC,144143.000,A,1726.1169,S,06958.1029,W,9.17,253.63,290411,,,A*62
$GPGGA,144144.000,1726.1175,S,06958.1055,W,1,08,0.9,4134.1,M,34.5,M,,0000*60
$GPGSA,M,3,29,25,12,09,21,14,27,02,,,,,2.1,0.9,1.8*3A
$GPRMC,144144.000,A,1726.1175,S,06958.1055,W,9.33,259.49,290411,,,A*67
$GPGGA,144145.000,1726.1181,S,06958.1084,W,1,08,0.9,4134.0,M,34.5,M,,0000*67
$GPGSA,M,3,29,25,12,09,21,14,27,02,,,,,2.1,0.9,1.8*3A
$GPRMC,144145.000,A,1726.1181,S,06958.1084,W,9.78,261.63,290411,,,A*6D
$GPGGA,144146.000,1726.1184,S,06958.1113,W,1,08,0.9,4134.1,M,34.5,M,,0000*6F
$GPGSA,M,3,29,25,12,09,21,14,27,02,,,,,2.1,0.9,1.8*3A
$GPRMC,144146.000,A,1726.1184,S,06958.1113,W,9.91,265.12,290411,,,A*61
$GPGGA,144147.000,1726.1187,S,06958.1142,W,1,08,0.9,4133.8,M,34.5,M,,0000*67
$GPGSA,M,3,29,25,12,09,21,14,27,02,,,,,2.1,0.9,1.8*3A
$GPGSV,3,1,11,29,53,209,41,25,46,176,44,12,41,117,37,09,37,023,36*71
$GPGSV,3,2,11,21,36,339,43,14,21,282,44,27,17,026,35,02,12,139,31*77
$GPGSV,3,3,11,31,14,217,39,05,09,090,,18,00,342,*49
$GPRMC,144147.000,A,1726.1187,S,06958.1142,W,10.18,265.52,290411,,,A*5A
$GPGGA,144148.000,1726.1190,S,06958.1173,W,1,08,0.9,4133.7,M,34.5,M,,0000*63
$GPGSA,M,3,29,25,12,09,21,14,27,02,,,,,2.1,0.9,1.8*3A
$GPRMC,144148.000,A,1726.1190,S,06958.1173,W,10.44,265.00,290411,,,A*5F
$GPGGA,144149.000,1726.1193,S,06958.1204,W,1,08,0.9,4133.6,M,34.5,M,,0000*63
$GPGSA,M,3,29,25,12,09,21,14,27,02,,,,,2.1,0.9,1.8*3A
$GPRMC,144149.000,A,1726.1193,S,06958.1204,W,10.38,265.00,290411,,,A*55
$GPGGA,144150.000,1726.1195,S,06958.1234,W,1,08,0.9,4133.5,M,34.5,M,,0000*6D
$GPGSA,M,3,29,25,12,09,21,14,27,02,,,,,2.1,0.9,1.8*3A
$GPRMC,144150.000,A,1726.1195,S,06958.1234,W,10.22,266.25,290411,,,A*57
$GPGGA,144151.000,1726.1197,S,06958.1264,W,1,08,0.9,4133.2,M,34.5,M,,0000*6C
$GPGSA,M,3,29,25,12,09,21,14,27,02,,,,,2.1,0.9,1.8*3A
$GPRMC,144151.000,A,1726.1197,S,06958.1264,W,10.07,269.00,290411,,,A*5E
$GPGGA,144152.000,1726.1197,S,06958.1294,W,1,08,0.9,4133.0,M,34.5,M,,0000*62
$GPGSA,M,3,29,25,12,09,21,14,27,02,,,,,2.1,0.9,1.8*3A
$GPGSV,3,1,11,29,53,209,43,25,46,176,44,12,41,117,24,09,37,023,36*71
$GPGSV,3,2,11,21,36,339,40,14,21,282,44,27,17,026,30,02,12,139,37*77
$GPGSV,3,3,11,31,14,217,26,05,09,090,,18,00,342,*47
$GPRMC,144152.000,A,1726.1197,S,06958.1294,W,10.12,271.70,290411,,,A*58
$GPGGA,144153.000,1726.1196,S,06958.1324,W,1,08,0.9,4132.9,M,34.5,M,,0000*60
$GPGSA,M,3,29,25,12,09,21,14,27,02,,,,,2.1,0.9,1.8*3A
$GPRMC,144153.000,A,1726.1196,S,06958.1324,W,10.27,273.49,290411,,,A*5C
$GPGGA,144154.002,1726.1195,S,06958.1353,W,1,06,1.1,4132.7,M,34.5,M,,0000*6F
$GPGSA,M,3,29,25,09,21,14,02,,,,,,,2.3,1.1,2.0*3C
$GPRMC,144154.002,A,1726.1195,S,06958.1353,W,10.14,273.15,290411,,,A*53
$GPGGA,144154.997,1726.1192,S,06958.1383,W,1,07,1.0,4132.4,M,34.5,M,,0000*63
$GPGSA,M,3,29,25,12,09,21,14,02,,,,,,2.2,1.0,2.0*3F
$GPRMC,144154.997,A,1726.1192,S,06958.1383,W,10.59,276.73,290411,,,A*50
$GPGGA,144156.002,1726.1188,S,06958.1411,W,1,06,1.3,4131.9,M,34.5,M,,0000*6F
$GPGSA,M,3,29,25,12,09,21,14,,,,,,,4.4,1.3,4.2*3A
$GPRMC,144156.002,A,1726.1188,S,06958.1411,W,9.52,277.89,290411,,,A*67
$GPGGA,144156.997,1726.1185,S,06958.1439,W,1,07,1.0,4131.7,M,34.5,M,,0000*61
$GPGSA,M,3,29,25,12,09,21,14,02,,,,,,2.2,1.0,2.0*3F
$GPGSV,3,1,11,29,53,209,39,25,46,176,39,12,41,117,30,09,37,023,29*7D
$GPGSV,3,2,11,21,36,339,34,14,21,282,38,27,17,026,,31,14,217,31*73
$GPGSV,3,3,11,02,12,139,36,05,09,090,,18,00,342,*4F
$GPRMC,144156.997,A,1726.1185,S,06958.1439,W,9.24,271.23,290411,,,A*62
$GPGGA,144158.001,1726.1184,S,06958.1466,W,1,06,1.1,4131.5,M,34.5,M,,0000*60
$GPGSA,M,3,29,25,12,09,14,02,,,,,,,2.3,1.1,2.0*3C
$GPRMC,144158.001,A,1726.1184,S,06958.1466,W,10.00,274.25,290411,,,A*5C
$GPGGA,144158.999,1726.1181,S,06958.1494,W,1,07,1.0,4131.6,M,34.5,M,,0000*63
$GPGSA,M,3,29,25,12,09,21,14,02,,,,,,2.2,1.0,2.0*3F
$GPRMC,144158.999,A,1726.1181,S,06958.1494,W,9.57,272.82,290411,,,A*6D
$GPGGA,144200.002,1726.1178,S,06958.1522,W,1,07,1.0,4131.0,M,34.5,M,,0000*6A
$GPGSA,M,3,29,25,12,09,21,14,02,,,,,,2.2,1.0,2.0*3F
$GPRMC,144200.002,A,1726.1178,S,06958.1522,W,9.62,276.94,290411,,,A*67
$GPGGA,144201.000,1726.1175,S,06958.1550,W,1,07,1.0,4131.0,M,34.5,M,,0000*61
$GPGSA,M,3,29,25,12,09,21,14,02,,,,,,2.2,1.0,2.0*3F
$GPRMC,144201.000,A,1726.1175,S,06958.1550,W,9.95,277.29,290411,,,A*63
$GPGGA,144201.998,1726.1169,S,06958.1579,W,1,07,1.0,4130.5,M,34.5,M,,0000*6B
$GPGSA,M,3,29,25,12,09,21,14,02,,,,,,2.2,1.0,2.0*3F
$GPGSV,3,1,11,29,53,209,38,25,46,176,37,12,41,117,31,09,37,023,36*7D
$GPGSV,3,2,11,21,36,339,33,14,21,282,36,27,17,026,,31,14,217,30*7B
$GPGSV,3,3,11,02,12,139,33,05,09,090,,18,00,342,*4A
$GPRMC,144201.998,A,1726.1169,S,06958.1579,W,10.05,280.52,290411,,,A*58
$GPGGA,144203.002,1726.1162,S,06958.1606,W,1,07,1.0,4129.9,M,34.5,M,,0000*67
$GPGSA,M,3,29,25,12,09,21,14,02,,,,,,2.2,1.0,2.0*3F
$GPRMC,144203.002,A,1726.1162,S,06958.1606,W,9.53,288.27,290411,,,A*61
$GPGGA,144203.999,1726.1152,S,06958.1634,W,1,07,1.0,4130.4,M,34.5,M,,0000*6B
$GPGSA,M,3,29,25,09,21,14,27,02,,,,,,2.2,1.0,1.9*33
$GPRMC,144203.999,A,1726.1152,S,06958.1634,W,10.08,287.97,290411,,,A*5A
$GPGGA,144204.997,1726.1144,S,06958.1660,W,1,07,1.0,4130.4,M,34.5,M,,0000*64
$GPGSA,M,3,29,25,12,09,21,14,02,,,,,,2.2,1.0,2.0*3F
$GPRMC,144204.997,A,1726.1144,S,06958.1660,W,9.74,286.37,290411,,,A*6D
$GPGGA,144206.002,1726.1135,S,06958.1688,W,1,06,1.1,4130.7,M,34.5,M,,0000*60
$GPGSA,M,3,29,12,09,21,14,02,,,,,,,2.4,1.1,2.1*3E
$GPRMC,144206.002,A,1726.1135,S,06958.1688,W,9.90,293.31,290411,,,A*62
$GPGGA,144207.002,1726.1121,S,06958.1712,W,1,08,0.9,4129.9,M,34.5,M,,0000*67
$GPGSA,M,3,29,25,12,09,21,14,27,02,,,,,2.1,0.9,1.8*3A
$GPGSV,3,1,11,29,53,209,38,25,46,176,30,12,41,117,34,09,37,023,34*7D
$GPGSV,3,2,11,21,36,339,38,14,21,282,31,27,17,026,34,31,14,217,31*71
$GPGSV,3,3,11,02,12,139,32,05,09,090,,18,00,342,*4B
$GPRMC,144207.002,A,1726.1121,S,06958.1712,W,9.87,302.04,290411,,,A*6D
$GPGGA,144207.999,1726.1106,S,06958.1735,W,1,08,0.9,4129.8,M,34.5,M,,0000*6D
$GPGSA,M,3,29,25,12,09,21,14,27,02,,,,,2.1,0.9,1.8*3A
$GPRMC,144207.999,A,1726.1106,S,06958.1735,W,9.65,303.76,290411,,,A*6E
$GPGGA,144208.999,1726.1093,S,06958.1763,W,1,08,0.9,4129.8,M,34.5,M,,0000*6C
$GPGSA,M,3,29,25,12,09,21,14,27,02,,,,,2.1,0.9,1.8*3A
$GPRMC,144208.999,A,1726.1093,S,06958.1763,W,10.34,297.04,290411,,,A*5A
$GPGGA,144209.996,1726.1079,S,06958.1788,W,1,07,1.0,4129.9,M,34.5,M,,0000*65
$GPGSA,M,3,29,25,12,09,21,14,02,,,,,,2.2,1.0,2.0*3F
$GPRMC,144209.996,A,1726.1079,S,06958.1788,W,10.42,302.04,290411,,,A*59
$GPGGA,144211.001,1726.1062,S,06958.1812,W,1,08,0.9,4130.3,M,34.5,M,,0000*68
$GPGSA,M,3,29,25,12,09,21,14,27,02,,,,,2.1,0.9,1.8*3A
$GPRMC,144211.001,A,1726.1062,S,06958.1812,W,9.48,306.78,290411,,,A*6C
$GPGGA,144211.999,1726.1046,S,06958.1834,W,1,08,0.9,4130.0,M,34.5,M,,0000*61
$GPGSA,M,3,29,25,12,09,21,14,27,02,,,,,2.1,0.9,1.8*3A
$GPGSV,3,1,11,29,53,209,38,25,46,176,37,12,41,117,35,09,37,023,37*78
$GPGSV,3,2,11,21,36,339,39,14,21,282,32,27,17,026,33,31,14,217,*76
$GPGSV,3,3,11,02,12,139,31,05,09,090,,18,00,342,*48
$GPRMC,144211.999,A,1726.1046,S,06958.1834,W,10.13,303.53,290411,,,A*5C
$GPGGA,144213.003,1726.1028,S,06958.1857,W,1,08,0.9,4129.5,M,34.5,M,,0000*69
$GPGSA,M,3,29,25,12,09,21,14,27,02,,,,,2.1,0.9,1.8*3A
$GPRMC,144213.003,A,1726.1028,S,06958.1857,W,9.73,310.36,290411,,,A*66
$GPGGA,144213.998,1726.1009,S,06958.1877,W,1,07,1.2,4128.7,M,34.5,M,,0000*65
$GPGSA,M,3,29,25,12,09,21,14,27,,,,,,3.3,1.2,3.1*3A
$GPRMC,144213.998,A,1726.1009,S,06958.1877,W,10.17,313.28,290411,,,A*5A
$GPGGA,144215.020,1726.0991,S,06958.1896,W,1,07,1.5,4128.5,M,34.5,M,,0000*6A
$GPGSA,M,3,29,25,12,09,21,27,02,,,,,,2.9,1.5,2.5*34
$GPRMC,144215.020,A,1726.0991,S,06958.1896,W,9.68,313.13,290411,,,A*68
$GPGGA,144215.981,1726.0973,S,06958.1913,W,1,07,1.2,4128.4,M,34.5,M,,0000*6E
$GPGSA,M,3,29,25,12,09,21,14,27,,,,,,3.3,1.2,3.1*3A
$GPRMC,144215.981,A,1726.0973,S,06958.1913,W,9.76,317.33,290411,,,A*63
$GPGGA,144217.000,1726.0953,S,06958.1934,W,1,08,0.9,4128.4,M,34.5,M,,0000*6E
$GPGSA,M,3,29,25,12,09,21,14,27,02,,,,,2.1,0.9,1.8*3A
$GPGSV,3,1,11,29,53,209,39,25,46,176,32,12,41,117,34,09,37,023,36*7C
$GPGSV,3,2,11,21,36,339,40,14,21,282,24,27,17,026,30,31,14,217,34*7B
$GPGSV,3,3,11,02,12,139,23,05,09,090,,18,00,342,*4B
$GPRMC,144217.000,A,1726.0953,S,06958.1934,W,10.13,313.72,290411,,,A*5C
$GPGGA,144217.997,1726.0935,S,06958.1955,W,1,07,1.0,4128.4,M,34.5,M,,0000*69
$GPGSA,M,3,29,25,12,09,21,14,02,,,,,,2.2,1.0,2.0*3F
$GPRMC,144217.997,A,1726.0935,S,06958.1955,W,9.25,307.86,290411,,,A*6F
$GPGGA,144219.004,1726.0916,S,06958.1979,W,1,07,1.0,4128.1,M,34.5,M,,0000*6E
$GPGSA,M,3,29,25,12,09,21,14,02,,,,,,2.2,1.0,2.0*3F
$GPRMC,144219.004,A,1726.0916,S,06958.1979,W,10.11,310.11,290411,,,A*5A
$GPGGA,144220.001,1726.0897,S,06958.2002,W,1,07,1.0,4128.1,M,34.5,M,,0000*6F
$GPGSA,M,3,29,25,12,09,21,14,02,,,,,,2.2,1.0,2.0*3F
$GPRMC,144220.001,A,1726.0897,S,06958.2002,W,10.29,311.73,290411,,,A*55
$GPGGA,144221.025,1726.0880,S,06958.2025,W,1,07,1.0,4127.1,M,34.5,M,,0000*64
$GPGSA,M,3,29,25,12,09,21,14,02,,,,,,2.2,1.0,2.0*3F
$GPRMC,144221.025,A,1726.0880,S,06958.2025,W,9.27,310.08,290411,,,A*6A
$GPGGA,144221.969,1726.0867,S,06958.2042,W,1,06,1.1,4126.2,M,34.5,M,,0000*6F
$GPGSA,M,3,29,25,09,21,14,02,,,,,,,2.3,1.1,2.0*3C
$GPGSV,3,1,11,29,53,209,39,25,46,176,35,12,41,117,,09,37,023,37*7D
$GPGSV,3,2,11,21,36,339,40,14,21,282,31,27,17,026,,31,14,217,27*7E
$GPGSV,3,3,11,02,12,139,29,05,09,090,,18,00,342,22*41
$GPRMC,144221.969,A,1726.0867,S,06958.2042,W,7.98,308.19,290411,,,A*60
$GPGGA,144223.004,1726.0852,S,06958.2062,W,1,07,1.0,4125.3,M,34.5,M,,0000*69
$GPGSA,M,3,29,25,12,09,21,14,02,,,,,,2.2,1.0,2.0*3F
$GPRMC,144223.004,A,1726.0852,S,06958.2062,W,8.02,307.28,290411,,,A*65
$GPGGA,144223.998,1726.0839,S,06958.2079,W,1,07,1.0,4124.8,M,34.5,M,,0000*68
$GPGSA,M,3,29,25,12,09,21,14,02,,,,,,2.2,1.0,2.0*3F
$GPRMC,144223.998,A,1726.0839,S,06958.2079,W,7.58,305.44,290411,,,A*66
$GPGGA,144225.021,1726.0825,S,06958.2098,W,1,07,1.0,4125.1,M,34.5,M,,0000*6F
$GPGSA,M,3,29,25,12,09,21,14,02,,,,,,2.2,1.0,2.0*3F
$GPRMC,144225.021,A,1726.0825,S,06958.2098,W,8.29,302.80,290411,,,A*6F
$GPGGA,144225.982,1726.0813,S,06958.2115,W,1,07,1.0,4124.9,M,34.5,M,,0000*67
$GPGSA,M,3,29,25,12,09,21,14,02,,,,,,2.2,1.0,2.0*3F
$GPRMC,144225.982,A,1726.0813,S,06958.2115,W,7.69,305.82,290411,,,A*60
$GPGGA,144227.000,1726.0799,S,06958.2130,W,1,07,1.0,4125.0,M,34.5,M,,0000*64
$GPGSA,M,3,29,25,12,09,21,14,02,,,,,,2.2,1.0,2.0*3F
$GPGSV,3,1,11,29,53,209,38,25,46,176,36,12,41,117,35,09,37,023,29*76
$GPGSV,3,2,11,21,36,339,41,14,21,282,28,27,17,026,,31,14,217,*72
$GPGSV,3,3,11,02,12,139,25,05,09,090,,18,00,342,*4D
$GPRMC,144227.000,A,1726.0799,S,06958.2130,W,7.09,314.87,290411,,,A*68
$GPGGA,144228.000,1726.0785,S,06958.2146,W,1,05,1.4,4125.1,M,34.5,M,,0000*60
$GPGSA,M,3,29,25,12,09,21,,,,,,,,1.7,1.4,1.0*39
$GPRMC,144228.000,A,1726.0785,S,06958.2146,W,7.50,305.08,290411,,,A*60
$GPGGA,144228.997,1726.0773,S,06958.2163,W,1,07,1.0,4125.0,M,34.5,M,,0000*6E
$GPGSA,M,3,29,25,12,09,21,14,02,,,,,,2.2,1.0,2.0*3F
$GPRMC,144228.997,A,1726.0773,S,06958.2163,W,7.46,308.01,290411,,,A*6A
$GPGGA,144230.000,1726.0759,S,06958.2178,W,1,06,1.3,4125.0,M,34.5,M,,0000*60
$GPGSA,M,3,29,25,12,09,21,14,,,,,,,4.4,1.3,4.2*3A
$GPRMC,144230.000,A,1726.0759,S,06958.2178,W,6.88,309.98,290411,,,A*64
$GPGGA,144231.001,1726.0747,S,06958.2194,W,1,06,1.5,4123.9,M,34.5,M,,0000*64
$GPGSA,M,3,29,25,12,09,21,02,,,,,,,3.1,1.5,2.7*3A
$GPRMC,144231.001,A,1726.0747,S,06958.2194,W,7.89,307.22,290411,,,A*66
$GPGGA,144231.998,1726.0733,S,06958.2212,W,1,06,1.3,4122.3,M,34.5,M,,0000*6E
$GPGSA,M,3,29,25,12,09,21,14,,,,,,,4.4,1.3,4.2*3A
$GPGSV,3,1,11,29,53,209,38,25,46,176,31,12,41,117,35,09,37,023,38*71
$GPGSV,3,2,11,21,36,339,41,14,21,282,29,27,17,026,,31,14,217,*73
$GPGSV,3,3,11,02,12,139,,05,09,090,,18,00,342,*4A
$GPRMC,144231.998,A,1726.0733,S,06958.2212,W,7.44,314.89,290411,,,A*63
$GPGGA,144233.001,1726.0719,S,06958.2226,W,1,08,0.9,4121.6,M,34.5,M,,0000*69
$GPGSA,M,3,29,25,12,09,21,14,27,02,,,,,2.0,0.9,1.8*3B
$GPRMC,144233.001,A,1726.0719,S,06958.2226,W,7.19,320.15,290411,,,A*6D
$GPGGA,144234.002,1726.0701,S,06958.2237,W,1,06,1.3,4122.2,M,34.5,M,,0000*66
$GPGSA,M,3,29,25,12,09,21,14,,,,,,,4.4,1.3,4.2*3A
$GPRMC,144234.002,A,1726.0701,S,06958.2237,W,7.51,327.31,290411,,,A*6D
$GPGGA,144235.000,1726.0684,S,06958.2247,W,1,06,1.5,4122.4,M,34.5,M,,0000*6E
$GPGSA,M,3,29,25,12,09,21,02,,,,,,,3.1,1.5,2.7*3A
$GPRMC,144235.000,A,1726.0684,S,06958.2247,W,7.81,324.63,290411,,,A*6C
$GPGGA,144235.999,1726.0667,S,06958.2262,W,1,07,1.0,4122.3,M,34.5,M,,0000*6E
$GPGSA,M,3,29,25,12,09,21,14,02,,,,,,2.2,1.0,2.0*3F
$GPRMC,144235.999,A,1726.0667,S,06958.2262,W,7.86,323.94,290411,,,A*67
$GPGGA,144236.997,1726.0648,S,06958.2276,W,1,07,1.0,4122.3,M,34.5,M,,0000*6B
$GPGSA,M,3,29,25,12,09,21,14,02,,,,,,2.2,1.0,2.0*3F
$GPGSV,3,1,11,29,53,209,30,25,46,176,34,12,41,117,36,09,37,023,37*70
$GPGSV,3,2,11,21,36,339,40,14,21,282,29,27,17,026,,31,14,217,*72
$GPGSV,3,3,11,02,12,139,29,05,09,090,,18,00,342,*41
$GPRMC,144236.997,A,1726.0648,S,06958.2276,W,7.54,328.05,290411,,,A*6E
$GPGGA,144237.999,1726.0630,S,06958.2287,W,1,08,0.9,4122.7,M,34.5,M,,0000*66
$GPGSA,M,3,29,25,12,09,21,14,27,02,,,,,2.0,0.9,1.8*3B
$GPRMC,144237.999,A,1726.0630,S,06958.2287,W,7.41,331.69,290411,,,A*66
$GPGGA,144239.003,1726.0612,S,06958.2299,W,1,07,1.2,4122.5,M,34.5,M,,0000*6A
$GPGSA,M,3,29,25,12,09,21,14,27,,,,,,3.3,1.2,3.1*3A
$GPRMC,144239.003,A,1726.0612,S,06958.2299,W,7.34,331.54,290411,,,A*61
$GPGGA,144239.998,1726.0594,S,06958.2311,W,1,05,2.1,4120.5,M,34.5,M,,0000*6D
$GPGSA,M,3,29,25,09,21,14,,,,,,,,6.0,2.1,5.6*3B
$GPRMC,144239.998,A,1726.0594,S,06958.2311,W,8.20,331.14,290411,,,A*68
$GPGGA,144241.001,1726.0574,S,06958.2323,W,1,08,0.9,4121.1,M,34.5,M,,0000*66
$GPGSA,M,3,29,25,12,09,21,14,27,02,,,,,2.0,0.9,1.8*3B
$GPRMC,144241.001,A,1726.0574,S,06958.2323,W,7.86,328.03,290411,,,A*6C
$GPGGA,144242.000,1726.0556,S,06958.2335,W,1,06,1.3,4121.7,M,34.5,M,,0000*60
$GPGSA,M,3,29,25,12,09,21,14,,,,,,,4.4,1.3,4.2*3A
$GPGSV,3,1,11,29,53,209,31,25,46,176,32,12,41,117,37,09,37,023,35*74
$GPGSV,3,2,11,21,36,339,38,14,21,282,29,27,17,026,,31,14,217,30*7E
$GPGSV,3,3,11,02,12,139,,05,09,090,,18,00,342,*4A
$GPRMC,144242.000,A,1726.0556,S,06958.2335,W,7.77,332.04,290411,,,A*6B
$GPGGA,144243.000,1726.0535,S,06958.2345,W,1,06,1.3,4120.8,M,34.5,M,,0000*6D
$GPGSA,M,3,29,25,12,09,21,14,,,,,,,4.4,1.3,4.2*3A
$GPRMC,144243.000,A,1726.0535,S,06958.2345,W,7.95,336.68,290411,,,A*6A
$GPGGA,144244.000,1726.0516,S,06958.2356,W,1,06,1.3,4120.6,M,34.5,M,,0000*67
$GPGSA,M,3,29,25,12,09,21,14,,,,,,,4.4,1.3,4.2*3A
$GPRMC,144244.000,A,1726.0516,S,06958.2356,W,8.50,331.54,290411,,,A*60
$GPGGA,144245.000,1726.0497,S,06958.2368,W,1,07,1.0,4121.2,M,34.5,M,,0000*64
$GPGSA,M,3,29,25,12,09,21,14,02,,,,,,2.2,1.0,2.0*3F
$GPRMC,144245.000,A,1726.0497,S,06958.2368,W,7.54,335.50,290411,,,A*6F
$GPGGA,144245.998,1726.0478,S,06958.2380,W,1,07,1.2,4121.2,M,34.5,M,,0000*69
$GPGSA,M,3,29,25,12,09,21,14,27,,,,,,3.3,1.2,3.1*3A
$GPRMC,144245.998,A,1726.0478,S,06958.2380,W,7.74,335.33,290411,,,A*67
$GPGGA,144247.004,1726.0457,S,06958.2387,W,1,06,1.2,4121.2,M,34.5,M,,0000*6C
$GPGSA,M,3,29,12,09,21,14,27,,,,,,,3.3,1.2,3.1*3D
$GPGSV,3,1,11,29,53,209,36,25,46,176,,12,41,117,38,09,37,023,38*70
$GPGSV,3,2,11,21,36,339,39,14,21,282,28,27,17,026,28,31,14,217,30*74
$GPGSV,3,3,11,02,12,139,,05,09,090,,18,00,342,*4A
$GPRMC,144247.004,A,1726.0457,S,06958.2387,W,7.87,344.51,290411,,,A*6D
$GPGGA,144247.997,1726.0434,S,06958.2393,W,1,07,1.0,4119.6,M,34.5,M,,0000*63
$GPGSA,M,3,29,25,12,09,21,14,02,,,,,,2.2,1.0,2.0*3F
$GPRMC,144247.997,A,1726.0434,S,06958.2393,W,8.16,343.59,290411,,,A*66
$GPGGA,144249.017,1726.0411,S,06958.2395,W,1,07,1.0,4119.6,M,34.5,M,,0000*6D
$GPGSA,M,3,29,25,12,09,21,14,02,,,,,,2.2,1.0,2.0*3F
$GPRMC,144249.017,A,1726.0411,S,06958.2395,W,7.92,353.28,290411,,,A*6C
$GPGGA,144249.983,1726.0389,S,06958.2394,W,1,06,1.3,4118.1,M,34.5,M,,0000*6A
$GPGSA,M,3,29,25,12,09,21,14,,,,,,,4.4,1.3,4.2*3A
$GPRMC,144249.983,A,1726.0389,S,06958.2394,W,7.70,357.20,290411,,,A*6F
$GPGGA,144250.998,1726.0364,S,06958.2393,W,1,07,1.2,4117.4,M,34.5,M,,0000*66
$GPGSA,M,3,29,25,12,09,21,14,27,,,,,,3.3,1.2,3.1*3A
$GPRMC,144250.998,A,1726.0364,S,06958.2393,W,8.52,3.23,290411,,,A*67
$GPGGA,144251.999,1726.0342,S,06958.2390,W,1,07,1.2,4116.8,M,34.5,M,,0000*6C
$GPGSA,M,3,29,25,12,09,21,14,27,,,,,,3.3,1.2,3.1*3A
$GPGSV,3,1,11,29,53,209,31,25,46,176,35,12,41,117,28,09,37,023,40*7F
$GPGSV,3,2,11,21,36,339,37,14,21,282,32,27,17,026,37,31,14,217,35*7A
$GPGSV,3,3,11,02,12,139,,05,09,090,,18,00,342,*4A
$GPRMC,144251.999,A,1726.0342,S,06958.2390,W,8.41,11.58,290411,,,A*5D
$GPGGA,144253.001,1726.0320,S,06958.2383,W,1,05,2.0,4117.0,M,34.5,M,,0000*6A
$GPGSA,M,3,25,12,09,21,27,,,,,,,,5.3,2.0,5.0*34
$GPRMC,144253.001,A,1726.0320,S,06958.2383,W,7.97,19.95,290411,,,A*5C
$GPGGA,144253.999,1726.0298,S,06958.2373,W,1,05,2.4,4117.8,M,34.5,M,,0000*63
$GPGSA,M,3,29,25,09,21,27,,,,,,,,5.8,2.4,5.3*30
$GPRMC,144253.999,A,1726.0298,S,06958.2373,W,8.44,20.53,290411,,,A*58
$GPGGA,144255.002,1726.0276,S,06958.2365,W,1,06,1.8,4117.9,M,34.5,M,,0000*64
$GPGSA,M,3,29,25,12,09,21,27,,,,,,,5.3,1.8,5.0*34
$GPRMC,144255.002,A,1726.0276,S,06958.2365,W,8.49,22.79,290411,,,A*55
$GPGGA,144255.999,1726.0255,S,06958.2358,W,1,06,1.4,4118.3,M,34.5,M,,0000*69
$GPGSA,M,3,29,25,09,21,14,27,,,,,,,3.5,1.4,3.2*3A
$GPRMC,144255.999,A,1726.0255,S,06958.2358,W,8.33,20.96,290411,,,A*5F
$GPGGA,144257.001,1726.0233,S,06958.2351,W,1,04,2.2,4119.2,M,34.5,M,,0000*6D
$GPGSA,M,3,29,25,09,21,,,,,,,,,2.4,2.2,1.0*3F
$GPGSV,3,1,11,29,53,209,29,25,46,176,37,12,41,117,,09,37,023,41*7F
$GPGSV,3,2,11,21,36,339,32,14,21,282,,27,17,026,,31,14,217,29*77
$GPGSV,3,3,11,02,12,139,,05,09,090,,18,00,342,*4A
$GPRMC,144257.001,A,1726.0233,S,06958.2351,W,8.03,21.89,290411,,,A*50
$GPGGA,144258.000,1726.0210,S,06958.2340,W,1,04,2.2,4119.2,M,34.5,M,,0000*62
$GPGSA,M,3,29,25,09,21,,,,,,,,,2.4,2.2,1.0*3F
$GPRMC,144258.000,A,1726.0210,S,06958.2340,W,8.93,22.22,290411,,,A*54
$GPGGA,144258.999,1726.0187,S,06958.2330,W,0,00,,4119.2,M,34.5,M,,0000*4A
$GPGSA,M,1,,,,,,,,,,,,,,,*12
$GPRMC,144258.999,V,1726.0187,S,06958.2330,W,,,290411,,,N*7D
$GPGGA,144300.000,1726.0164,S,06958.2320,W,0,00,,4119.3,M,34.5,M,,0000*42
$GPGSA,M,1,,,,,,,,,,,,,,,*12
$GPRMC,144300.000,V,1726.0164,S,06958.2320,W,,,290411,,,N*74
$GPGGA,144301.000,1726.0141,S,06958.2310,W,0,00,,4119.3,M,34.5,M,,0000*47
$GPGSA,M,1,,,,,,,,,,,,,,,*12
$GPRMC,144301.000,V,1726.0141,S,06958.2310,W,,,290411,,,N*71
$GPGGA,144302.000,1726.0134,S,06958.2353,W,1,06,1.3,4119.7,M,34.5,M,,0000*6E
$GPGSA,M,3,29,09,21,25,12,14,,,,,,,4.4,1.3,4.2*3A
$GPGSV,3,1,11,29,53,208,43,25,47,175,44,12,40,116,31,09,37,022,37*76
$GPGSV,3,2,11,21,36,339,46,14,20,282,36,27,16,026,,02,11,139,*70
$GPGSV,3,3,11,31,14,217,,05,09,090,,18,01,342,*42
$GPRMC,144302.000,A,1726.0134,S,06958.2353,W,7.10,327.88,290411,,,A*6F
$GPGGA,144303.000,1726.0128,S,06958.2399,W,1,06,1.3,4120.1,M,34.5,M,,0000*68
$GPGSA,M,3,29,09,21,25,12,14,,,,,,,4.4,1.3,4.2*3A
$GPRMC,144303.000,A,1726.0128,S,06958.2399,W,9.46,289.57,290411,,,A*6F
$GPGGA,144304.000,1726.0130,S,06958.2436,W,1,06,1.3,4122.4,M,34.5,M,,0000*63
$GPGSA,M,3,29,09,21,25,12,14,,,,,,,4.4,1.3,4.2*3A
$GPRMC,144304.000,A,1726.0130,S,06958.2436,W,8.99,258.23,290411,,,A*6F
$GPGGA,144305.000,1726.0144,S,06958.2459,W,1,07,1.2,4122.1,M,34.5,M,,0000*6D
$GPGSA,M,3,29,09,21,27,25,12,14,,,,,,3.3,1.2,3.1*3A
$GPRMC,144305.000,A,1726.0144,S,06958.2459,W,9.40,230.80,290411,,,A*66
$GPGGA,144306.000,1726.0165,S,06958.2474,W,1,07,1.2,4122.2,M,34.5,M,,0000*61
$GPGSA,M,3,29,09,21,27,25,12,14,,,,,,3.3,1.2,3.1*3A
$GPRMC,144306.000,A,1726.0165,S,06958.2474,W,9.51,207.31,290411,,,A*67
$GPGGA,144307.000,1726.0193,S,06958.2482,W,1,08,0.9,4120.7,M,34.5,M,,0000*62
$GPGSA,M,3,29,09,21,27,02,25,12,14,,,,,2.0,0.9,1.8*3B
$GPGSV,3,1,11,29,53,208,43,25,47,175,45,12,40,116,42,09,37,022,34*70
$GPGSV,3,2,11,21,36,339,32,14,20,282,36,27,16,026,30,02,11,139,25*77
$GPGSV,3,3,11,31,14,217,44,05,09,090,,18,01,342,*42
$GPRMC,144307.000,A,1726.0193,S,06958.2482,W,9.37,188.24,290411,,,A*66
$GPGGA,144308.000,1726.0220,S,06958.2482,W,1,08,0.9,4121.0,M,34.5,M,,0000*60
$GPGSA,M,3,29,09,21,27,02,25,12,14,,,,,2.0,0.9,1.8*3B
$GPRMC,144308.000,A,1726.0220,S,06958.2482,W,9.21,169.96,290411,,,A*63
$GPGGA,144309.000,1726.0246,S,06958.2472,W,1,08,0.9,4121.4,M,34.5,M,,0000*6A
$GPGSA,M,3,29,09,21,27,02,25,12,14,,,,,2.0,0.9,1.8*3B
$GPRMC,144309.000,A,1726.0246,S,06958.2472,W,9.20,158.80,290411,,,A*69
$GPGGA,144310.000,1726.0270,S,06958.2461,W,1,08,0.9,4121.5,M,34.5,M,,0000*64
$GPGSA,M,3,29,09,21,27,02,25,12,14,,,,,2.0,0.9,1.8*3B
$GPRMC,144310.000,A,1726.0270,S,06958.2461,W,9.39,161.80,290411,,,A*64
$GPGGA,144311.000,1726.0295,S,06958.2453,W,1,07,1.2,4121.4,M,34.5,M,,0000*6B
$GPGSA,M,3,29,09,21,27,25,12,14,,,,,,3.3,1.2,3.1*3A
$GPRMC,144311.000,A,1726.0295,S,06958.2453,W,8.70,168.89,290411,,,A*63
$GPGGA,144312.000,1726.0320,S,06958.2449,W,1,08,0.9,4121.5,M,34.5,M,,0000*68
$GPGSA,M,3,29,09,21,27,02,25,12,14,,,,,2.0,0.9,1.8*3B
$GPGSV,3,1,11,29,53,208,45,25,47,175,45,12,40,116,34,09,37,022,39*7A
$GPGSV,3,2,11,21,36,339,32,14,20,282,35,27,16,026,24,02,11,139,12*75
$GPGSV,3,3,11,31,14,217,39,05,09,090,,18,01,342,*48
$GPRMC,144312.000,A,1726.0320,S,06958.2449,W,8.72,176.38,290411,,,A*63
$GPGGA,144313.000,1726.0344,S,06958.2449,W,1,06,1.3,4121.1,M,34.5,M,,0000*6A
$GPGSA,M,3,29,25,12,09,21,14,,,,,,,4.4,1.3,4.2*3A
$GPRMC,144313.000,A,1726.0344,S,06958.2449,W,8.70,180.95,290411,,,A*6C
$GPGGA,144313.999,1726.0368,S,06958.2450,W,1,06,1.3,4121.3,M,34.5,M,,0000*67
$GPGSA,M,3,29,25,12,09,21,14,,,,,,,4.4,1.3,4.2*3A
$GPRMC,144313.999,A,1726.0368,S,06958.2450,W,9.09,184.57,290411,,,A*66
$GPGGA,144314.996,1726.0392,S,06958.2450,W,1,07,1.0,4120.5,M,34.5,M,,0000*6F
$GPGSA,M,3,29,25,12,09,21,14,02,,,,,,2.2,1.0,1.9*35
$GPRMC,144314.996,A,1726.0392,S,06958.2450,W,9.14,178.59,290411,,,A*6A
$GPGGA,144315.999,1726.0418,S,06958.2448,W,1,07,1.2,4120.1,M,34.5,M,,0000*6B
$GPGSA,M,3,29,25,12,09,21,14,27,,,,,,3.3,1.2,3.1*3A
$GPRMC,144315.999,A,1726.0418,S,06958.2448,W,9.49,177.06,290411,,,A*65
$GPGGA,144317.001,1726.0444,S,06958.2444,W,1,07,1.0,4119.9,M,34.5,M,,0000*64
$GPGSA,M,3,29,25,12,09,21,14,02,,,,,,2.2,1.0,1.9*35
$GPGSV,3,1,11,29,53,208,40,25,47,175,38,12,40,116,25,09,37,022,35*79
$GPGSV,3,2,11,21,36,339,32,14,20,282,29,27,16,026,,31,14,217,37*73
$GPGSV,3,3,11,02,11,139,22,05,09,090,,18,01,342,*48
$GPRMC,144317.001,A,1726.0444,S,06958.2444,W,9.35,169.28,290411,,,A*62
$GPGGA,144317.998,1726.0469,S,06958.2438,W,1,07,1.0,4119.7,M,34.5,M,,0000*67
$GPGSA,M,3,29,25,12,09,21,14,02,,,,,,2.2,1.0,1.9*35
$GPRMC,144317.998,A,1726.0469,S,06958.2438,W,9.72,168.40,290411,,,A*63
$GPGGA,144319.005,1726.0496,S,06958.2433,W,1,07,1.0,4119.5,M,34.5,M,,0000*6D
$GPGSA,M,3,29,25,12,09,21,14,02,,,,,,2.2,1.0,1.9*35
$GPRMC,144319.005,A,1726.0496,S,06958.2433,W,9.96,171.17,290411,,,A*6B
$GPGGA,144319.997,1726.0522,S,06958.2428,W,1,06,1.1,4120.4,M,34.5,M,,0000*60
$GPGSA,M,3,29,25,12,09,14,02,,,,,,,2.2,1.1,1.9*37
$GPRMC,144319.997,A,1726.0522,S,06958.2428,W,9.39,170.19,290411,,,A*67
$GPGGA,144321.018,1726.0548,S,06958.2422,W,1,07,1.0,4119.9,M,34.5,M,,0000*64
$GPGSA,M,3,29,25,12,09,21,14,02,,,,,,2.2,1.0,1.9*35
$GPRMC,144321.018,A,1726.0548,S,06958.2422,W,9.55,168.10,290411,,,A*6E
$GPGGA,144321.983,1726.0574,S,06958.2416,W,1,06,1.1,4119.8,M,34.5,M,,0000*66
$GPGSA,M,3,29,25,12,09,14,02,,,,,,,2.2,1.1,1.9*37
