$GPGGA,163212.063,3948.1830,S,07036.6619,W,1,08,1.1,954.7,M,22.8,M,,0000*5A
$GPGSA,M,3,21,30,16,29,18,31,06,25,,,,,2.2,1.1,1.9*30
$GPRMC,163212.063,A,3948.1830,S,07036.6619,W,1.21,121.62,120511,,,A*65
$GPGGA,163214.002,3948.1832,S,07036.6616,W,1,04,1.7,954.8,M,22.8,M,,0000*53
$GPGSA,M,3,29,18,31,25,,,,,,,,,2.0,1.7,1.0*3C
$GPRMC,163214.002,A,3948.1832,S,07036.6616,W,0.55,198.44,120511,,,A*6D
$GPGGA,163215.000,3948.1834,S,07036.6618,W,1,07,1.7,953.9,M,22.8,M,,0000*5D
$GPGSA,M,3,21,30,16,18,31,06,25,,,,,,2.7,1.7,2.1*33
$GPGSV,3,1,11,21,85,120,32,30,60,240,32,16,36,226,39,29,35,102,*75
$GPGSV,3,2,11,18,27,022,39,31,23,315,36,06,22,251,35,25,21,034,39*70
$GPGSV,3,3,11,03,11,251,35,05,06,145,,22,05,357,35*4B
$GPRMC,163215.000,A,3948.1834,S,07036.6618,W,0.30,300.57,120511,,,A*64
$GPGGA,163215.999,3948.1834,S,07036.6618,W,1,08,1.1,953.6,M,22.8,M,,0000*52
$GPGSA,M,3,21,30,16,29,18,31,06,25,,,,,2.2,1.1,1.9*30
$GPRMC,163215.999,A,3948.1834,S,07036.6618,W,0.26,203.84,120511,,,A*66
$GPGGA,163216.999,3948.1835,S,07036.6619,W,1,08,1.1,952.5,M,22.8,M,,0000*53
$GPGSA,M,3,21,30,16,29,18,31,06,25,,,,,2.2,1.1,1.9*30
$GPRMC,163216.999,A,3948.1835,S,07036.6619,W,0.14,322.54,120511,,,A*6B
$GPGGA,163218.003,3948.1834,S,07036.6620,W,1,08,1.1,952.5,M,22.8,M,,0000*5C
$GPGSA,M,3,21,30,16,29,18,31,06,25,,,,,2.2,1.1,1.9*30
$GPRMC,163218.003,A,3948.1834,S,07036.6620,W,0.42,16.50,120511,,,A*57
$GPGGA,163219.001,3948.1834,S,07036.6619,W,1,08,1.1,952.3,M,22.8,M,,0000*53
$GPGSA,M,3,21,30,16,29,18,31,06,25,,,,,2.2,1.1,1.9*30
$GPRMC,163219.001,A,3948.1834,S,07036.6619,W,0.12,245.72,120511,,,A*6F
$GPGGA,163219.997,3948.1837,S,07036.6619,W,1,07,1.2,952.0,M,22.8,M,,0000*59
$GPGSA,M,3,21,30,16,29,31,06,25,,,,,,2.2,1.2,1.9*3A
$GPGSV,3,1,11,21,85,120,32,30,60,240,40,16,36,226,41,29,35,102,38*74
$GPGSV,3,2,11,18,27,022,,31,23,315,38,06,22,251,35,25,21,034,38*75
$GPGSV,3,3,11,03,11,251,38,05,06,145,,22,05,357,36*45
$GPRMC,163219.997,A,3948.1837,S,07036.6619,W,0.33,138.54,120511,,,A*64
$GPGGA,163221.001,3948.1839,S,07036.6618,W,1,07,1.2,952.6,M,22.8,M,,0000*5D
$GPGSA,M,3,21,30,16,29,31,06,25,,,,,,2.2,1.2,1.9*3A
$GPRMC,163221.001,A,3948.1839,S,07036.6618,W,0.39,78.09,120511,,,A*51
$GPGGA,163222.003,3948.1839,S,07036.6618,W,1,08,1.1,952.3,M,22.8,M,,0000*55
$GPGSA,M,3,21,30,16,29,18,31,06,25,,,,,2.2,1.1,1.9*30
$GPRMC,163222.003,A,3948.1839,S,07036.6618,W,0.24,78.33,120511,,,A*55
$GPGGA,163223.000,3948.1839,S,07036.6616,W,1,08,1.1,952.8,M,22.8,M,,0000*52
$GPGSA,M,3,21,30,16,29,18,31,06,25,,,,,2.2,1.1,1.9*30
$GPRMC,163223.000,A,3948.1839,S,07036.6616,W,0.13,93.75,120511,,,A*5A
$GPGGA,163223.998,3948.1841,S,07036.6615,W,1,07,1.2,952.1,M,22.8,M,,0000*53
$GPGSA,M,3,21,30,16,29,31,06,25,,,,,,2.2,1.2,1.9*3A
$GPRMC,163223.998,A,3948.1841,S,07036.6615,W,0.36,171.22,120511,,,A*66
$GPGGA,163225.001,3948.1838,S,07036.6614,W,1,07,1.2,952.5,M,22.8,M,,0000*57
$GPGSA,M,3,30,16,29,18,31,06,25,,,,,,3.0,1.2,2.8*31
$GPGSV,3,1,11,21,85,120,,30,60,240,38,16,36,226,41,29,35,102,30*72
$GPGSV,3,2,11,18,27,022,31,31,23,315,37,06,22,251,33,25,21,034,40*71
$GPGSV,3,3,11,03,11,251,37,05,06,145,,22,05,357,*4F
$GPRMC,163225.001,A,3948.1838,S,07036.6614,W,0.37,107.34,120511,,,A*61
$GPGGA,163225.995,3948.1840,S,07036.6616,W,1,08,1.1,952.4,M,22.8,M,,0000*53
$GPGSA,M,3,21,30,16,29,18,31,06,25,,,,,2.2,1.1,1.9*30
$GPRMC,163225.995,A,3948.1840,S,07036.6616,W,0.39,178.91,120511,,,A*61
$GPGGA,163227.000,3948.1840,S,07036.6614,W,1,08,1.1,952.7,M,22.8,M,,0000*55
$GPGSA,M,3,21,30,16,29,18,31,06,25,,,,,2.2,1.1,1.9*30
$GPRMC,163227.000,A,3948.1840,S,07036.6614,W,0.32,116.44,120511,,,A*6F
$GPGGA,163228.002,3948.1838,S,07036.6618,W,1,07,1.2,953.2,M,22.8,M,,0000*53
$GPGSA,M,3,30,16,29,18,31,06,25,,,,,,3.0,1.2,2.8*31
$GPRMC,163228.002,A,3948.1838,S,07036.6618,W,0.11,287.74,120511,,,A*68
$GPGGA,163228.999,3948.1839,S,07036.6619,W,1,08,1.1,952.7,M,22.8,M,,0000*50
$GPGSA,M,3,21,30,16,29,18,31,06,25,,,,,2.2,1.1,1.9*30
$GPRMC,163228.999,A,3948.1839,S,07036.6619,W,0.17,324.63,120511,,,A*6B
$GPGGA,163229.999,3948.1837,S,07036.6621,W,1,08,1.1,953.7,M,22.8,M,,0000*55
$GPGSA,M,3,21,30,16,29,18,31,06,25,,,,,2.2,1.1,1.9*30
$GPGSV,3,1,11,21,85,120,33,30,60,240,37,16,36,226,38,29,35,102,34*77
$GPGSV,3,2,11,18,27,022,27,31,23,315,29,06,22,251,36,25,21,034,33*78
$GPGSV,3,3,11,03,11,251,32,05,06,145,,22,05,357,33*4A
$GPRMC,163229.999,A,3948.1837,S,07036.6621,W,0.30,127.40,120511,,,A*6A
$GPGGA,163231.001,3948.1839,S,07036.6618,W,1,08,1.1,953.3,M,22.8,M,,0000*54
$GPGSA,M,3,21,30,16,29,18,31,06,25,,,,,2.2,1.1,1.9*30
$GPRMC,163231.001,A,3948.1839,S,07036.6618,W,0.68,151.58,120511,,,A*6A
$GPGGA,163232.000,3948.1841,S,07036.6620,W,1,08,1.1,953.3,M,22.8,M,,0000*52
$GPGSA,M,3,21,30,16,29,18,31,06,25,,,,,2.2,1.1,1.9*30
$GPRMC,163232.000,A,3948.1841,S,07036.6620,W,0.59,142.91,120511,,,A*69
$GPGGA,163233.001,3948.1844,S,07036.6620,W,1,08,1.1,953.0,M,22.8,M,,0000*54
$GPGSA,M,3,21,30,16,29,18,31,06,25,,,,,2.2,1.1,1.9*30
$GPRMC,163233.001,A,3948.1844,S,07036.6620,W,0.26,127.55,120511,,,A*6F
$GPGGA,163234.001,3948.1848,S,07036.6622,W,1,08,1.1,952.3,M,22.8,M,,0000*5F
$GPGSA,M,3,21,30,16,29,18,31,06,25,,,,,2.2,1.1,1.9*30
$GPRMC,163234.001,A,3948.1848,S,07036.6622,W,0.32,118.38,120511,,,A*64
$GPGGA,163235.000,3948.1846,S,07036.6622,W,1,08,1.1,951.6,M,22.8,M,,0000*57
$GPGSA,M,3,21,30,16,29,18,31,06,25,,,,,2.2,1.1,1.9*30
$GPGSV,3,1,11,21,85,120,36,30,60,240,42,16,36,226,41,29,35,102,37*7D
$GPGSV,3,2,11,18,27,022,34,31,23,315,36,06,22,251,37,25,21,034,38*7E
$GPGSV,3,3,11,03,11,251,37,05,06,145,,22,05,357,36*4A
$GPRMC,163235.000,A,3948.1846,S,07036.6622,W,0.07,92.46,120511,,,A*56
$GPGGA,163236.004,3948.1844,S,07036.6624,W,1,08,1.1,951.9,M,22.8,M,,0000*5B
$GPGSA,M,3,21,30,16,29,18,31,06,25,,,,,2.2,1.1,1.9*30
$GPRMC,163236.004,A,3948.1844,S,07036.6624,W,0.20,32.53,120511,,,A*5E
$GPGGA,163237.002,3948.1844,S,07036.6625,W,1,07,1.2,951.8,M,22.8,M,,0000*50
$GPGSA,M,3,21,30,16,29,18,31,06,,,,,,2.3,1.2,2.0*3F
$GPRMC,163237.002,A,3948.1844,S,07036.6625,W,0.26,342.33,120511,,,A*6C
$GPGGA,163238.003,3948.1847,S,07036.6627,W,1,07,1.7,952.5,M,22.8,M,,0000*54
$GPGSA,M,3,21,30,16,18,31,06,25,,,,,,2.8,1.7,2.1*3C
$GPRMC,163238.003,A,3948.1847,S,07036.6627,W,0.05,13.33,120511,,,A*55
$GPGGA,163238.995,3948.1846,S,07036.6628,W,1,08,1.1,952.6,M,22.8,M,,0000*56
$GPGSA,M,3,21,30,16,29,18,31,06,25,,,,,2.2,1.1,1.9*30
$GPRMC,163238.995,A,3948.1846,S,07036.6628,W,0.31,176.10,120511,,,A*69
$GPGGA,163240.000,3948.1848,S,07036.6627,W,1,08,1.1,952.8,M,22.8,M,,0000*53
$GPGSA,M,3,21,30,16,29,18,31,06,25,,,,,2.2,1.1,1.9*30
$GPGSV,3,1,11,21,85,120,38,30,60,240,41,16,36,226,40,29,35,102,37*71
$GPGSV,3,2,11,18,27,022,35,31,23,315,36,06,22,251,37,25,21,034,39*7E
$GPGSV,3,3,11,03,11,251,37,05,06,145,,22,05,357,37*4B
$GPRMC,163240.000,A,3948.1848,S,07036.6627,W,0.06,63.08,120511,,,A*5A
$GPGGA,163240.998,3948.1846,S,07036.6626,W,1,08,1.1,952.4,M,22.8,M,,0000*58
$GPGSA,M,3,21,30,16,29,18,31,06,25,,,,,2.2,1.1,1.9*30
$GPRMC,163240.998,A,3948.1846,S,07036.6626,W,0.13,113.88,120511,,,A*67
$GPGGA,163242.002,3948.1845,S,07036.6631,W,1,08,1.1,951.0,M,22.8,M,,0000*52
$GPGSA,M,3,21,30,16,29,18,31,06,25,,,,,2.2,1.1,1.9*30
$GPRMC,163242.002,A,3948.1845,S,07036.6631,W,0.94,304.16,120511,,,A*66
$GPGGA,163243.001,3948.1843,S,07036.6633,W,1,08,1.1,951.4,M,22.8,M,,0000*50
$GPGSA,M,3,21,30,16,29,18,31,06,25,,,,,2.2,1.1,1.9*30
$GPRMC,163243.001,A,3948.1843,S,07036.6633,W,0.27,130.59,120511,,,A*66
$GPGGA,163244.002,3948.1840,S,07036.6631,W,1,08,1.1,951.3,M,22.8,M,,0000*52
$GPGSA,M,3,21,30,16,29,18,31,06,25,,,,,2.2,1.1,1.9*30
$GPRMC,163244.002,A,3948.1840,S,07036.6631,W,0.32,146.69,120511,,,A*65
$GPGGA,163244.994,3948.1838,S,07036.6630,W,1,07,1.1,951.3,M,22.8,M,,0000*55
$GPGSA,M,3,21,16,29,18,31,06,25,,,,,,2.4,1.1,2.2*3D
$GPGSV,3,1,11,21,85,120,39,30,60,240,,16,36,226,38,29,35,102,38*75
$GPGSV,3,2,11,18,27,022,31,31,23,315,38,06,22,251,29,25,21,034,40*75
$GPGSV,3,3,11,03,11,251,33,05,06,145,,22,05,357,36*4E
$GPRMC,163244.994,A,3948.1838,S,07036.6630,W,0.20,250.62,120511,,,A*61
$GPGGA,163246.004,3948.1841,S,07036.6629,W,1,08,1.1,950.8,M,22.8,M,,0000*54
$GPGSA,M,3,21,30,16,29,18,31,06,25,,,,,2.2,1.1,1.9*30
$GPRMC,163246.004,A,3948.1841,S,07036.6629,W,0.22,316.33,120511,,,A*60
$GPGGA,163246.999,3948.1841,S,07036.6629,W,1,08,1.1,951.0,M,22.8,M,,0000*50
$GPGSA,M,3,21,30,16,29,18,31,06,25,,,,,2.2,1.1,1.9*30
$GPRMC,163246.999,A,3948.1841,S,07036.6629,W,0.22,65.40,120511,,,A*5E
$GPGGA,163248.001,3948.1840,S,07036.6631,W,1,08,1.1,950.8,M,22.8,M,,0000*57
$GPGSA,M,3,21,30,16,29,18,31,06,25,,,,,2.2,1.1,1.9*30
$GPRMC,163248.001,A,3948.1840,S,07036.6631,W,0.24,120.59,120511,,,A*6E
$GPGGA,163249.000,3948.1841,S,07036.6629,W,1,08,1.1,949.7,M,22.8,M,,0000*58
$GPGSA,M,3,21,30,16,29,18,31,06,25,,,,,2.2,1.1,1.9*30
$GPRMC,163249.000,A,3948.1841,S,07036.6629,W,0.23,147.00,120511,,,A*6C
$GPGGA,163250.001,3948.1843,S,07036.6624,W,1,08,1.1,949.7,M,22.8,M,,0000*5E
$GPGSA,M,3,21,30,16,29,18,31,06,25,,,,,2.2,1.1,1.9*30
$GPGSV,3,1,11,21,85,120,40,30,60,240,40,16,36,226,42,29,35,102,38*72
$GPGSV,3,2,11,18,27,022,33,31,23,315,37,06,22,251,37,25,21,034,38*78
$GPGSV,3,3,11,03,11,251,36,05,06,145,,22,05,357,37*4A
$GPRMC,163250.001,A,3948.1843,S,07036.6624,W,0.19,69.11,120511,,,A*5E
$GPGGA,163251.002,3948.1841,S,07036.6626,W,1,08,1.1,950.5,M,22.8,M,,0000*56
$GPGSA,M,3,21,30,16,29,18,31,06,25,,,,,2.2,1.1,1.9*30
$GPRMC,163251.002,A,3948.1841,S,07036.6626,W,0.31,95.94,120511,,,A*58
$GPGGA,163252.001,3948.1843,S,07036.6624,W,1,08,1.1,949.8,M,22.8,M,,0000*53
$GPGSA,M,3,21,30,16,29,18,31,06,25,,,,,2.2,1.1,1.9*30
$GPRMC,163252.001,A,3948.1843,S,07036.6624,W,0.55,143.61,120511,,,A*6A
$GPGGA,163252.998,3948.1842,S,07036.6625,W,1,08,1.1,949.1,M,22.8,M,,0000*53
$GPGSA,M,3,21,30,16,29,18,31,06,25,,,,,2.2,1.1,1.9*30
$GPRMC,163252.998,A,3948.1842,S,07036.6625,W,0.22,138.62,120511,,,A*6C
$GPGGA,163254.001,3948.1843,S,07036.6623,W,1,08,1.1,947.8,M,22.8,M,,0000*5C
$GPGSA,M,3,21,30,16,29,18,31,06,25,,,,,2.2,1.1,1.9*30
$GPRMC,163254.001,A,3948.1843,S,07036.6623,W,0.49,124.76,120511,,,A*61
$GPGGA,163255.001,3948.1840,S,07036.6625,W,1,08,1.1,948.9,M,22.8,M,,0000*56
$GPGSA,M,3,21,30,16,29,18,31,06,25,,,,,2.2,1.1,1.9*30
$GPGSV,3,1,11,21,85,120,40,30,60,240,40,16,36,226,40,29,35,102,40*7F
$GPGSV,3,2,11,18,27,022,35,31,23,315,36,06,22,251,37,25,21,034,39*7E
$GPGSV,3,3,11,03,11,251,36,05,06,145,,22,05,357,37*4A
$GPRMC,163255.001,A,3948.1840,S,07036.6625,W,0.30,260.71,120511,,,A*6F
$GPGGA,163256.001,3948.1839,S,07036.6627,W,1,08,1.1,949.4,M,22.8,M,,0000*55
$GPGSA,M,3,21,30,16,29,18,31,06,25,,,,,2.2,1.1,1.9*30
$GPRMC,163256.001,A,3948.1839,S,07036.6627,W,0.21,13.19,120511,,,A*58
$GPGGA,163257.001,3948.1839,S,07036.6627,W,1,08,1.1,949.2,M,22.8,M,,0000*52
$GPGSA,M,3,21,30,16,29,18,31,06,25,,,,,2.2,1.1,1.9*30
$GPRMC,163257.001,A,3948.1839,S,07036.6627,W,0.35,105.63,120511,,,A*67
$GPGGA,163258.002,3948.1834,S,07036.6633,W,1,08,1.1,950.4,M,22.8,M,,0000*58
$GPGSA,M,3,21,30,16,29,18,31,06,25,,,,,2.2,1.1,1.9*30
$GPRMC,163258.002,A,3948.1834,S,07036.6633,W,0.45,285.60,120511,,,A*6C
$GPGGA,163259.000,3948.1831,S,07036.6633,W,1,08,1.1,951.1,M,22.8,M,,0000*5A
$GPGSA,M,3,21,30,16,29,18,31,06,25,,,,,2.2,1.1,1.9*30
$GPRMC,163259.000,A,3948.1831,S,07036.6633,W,0.05,250.66,120511,,,A*60
$GPGGA,163300.000,3948.1829,S,07036.6633,W,1,08,1.1,951.8,M,22.8,M,,0000*57
$GPGSA,M,3,21,30,16,29,18,31,06,25,,,,,2.2,1.1,1.9*30
$GPGSV,3,1,11,21,85,120,39,30,60,240,41,16,36,226,41,29,35,102,38*7E
$GPGSV,3,2,11,18,27,022,30,31,23,315,36,06,22,251,37,25,21,034,38*7A
$GPGSV,3,3,11,03,11,251,35,05,06,145,,22,05,357,37*49
$GPRMC,163300.000,A,3948.1829,S,07036.6633,W,0.13,80.58,120511,,,A*51
$GPGGA,163300.997,3948.1828,S,07036.6636,W,1,08,1.1,952.3,M,22.8,M,,0000*5C
$GPGSA,M,3,21,30,16,29,18,31,06,25,,,,,2.2,1.1,1.9*30
$GPRMC,163300.997,A,3948.1828,S,07036.6636,W,0.20,68.18,120511,,,A*50
$GPGGA,163302.001,3948.1828,S,07036.6634,W,1,08,1.1,952.3,M,22.8,M,,0000*5A
$GPGSA,M,3,21,30,16,29,18,31,06,25,,,,,2.2,1.1,1.9*30
$GPRMC,163302.001,A,3948.1828,S,07036.6634,W,0.19,75.90,120511,,,A*50
$GPGGA,163303.000,3948.1828,S,07036.6636,W,1,08,1.1,952.3,M,22.8,M,,0000*58
$GPGSA,M,3,21,30,16,29,18,31,06,25,,,,,2.2,1.1,1.9*30
$GPRMC,163303.000,A,3948.1828,S,07036.6636,W,0.93,279.91,120511,,,A*6F
$GPGGA,163303.999,3948.1828,S,07036.6639,W,1,08,1.1,952.6,M,22.8,M,,0000*5B
$GPGSA,M,3,21,30,16,29,18,31,06,25,,,,,2.2,1.1,1.9*30
$GPRMC,163303.999,A,3948.1828,S,07036.6639,W,0.79,296.33,120511,,,A*64
$GPGGA,163305.000,3948.1827,S,07036.6635,W,1,08,1.1,952.3,M,22.8,M,,0000*52
$GPGSA,M,3,21,30,16,29,18,31,06,25,,,,,2.2,1.1,1.9*30
$GPGSV,3,1,11,21,85,120,41,30,60,240,40,16,36,226,40,29,35,102,36*7F
$GPGSV,3,2,11,18,27,022,30,31,23,315,36,06,22,251,38,25,21,034,37*7A
$GPGSV,3,3,11,03,11,251,34,05,06,145,26,22,05,357,37*4C
$GPRMC,163305.000,A,3948.1827,S,07036.6635,W,0.50,314.67,120511,,,A*69
$GPGGA,163306.000,3948.1826,S,07036.6635,W,1,08,1.1,952.0,M,22.8,M,,0000*53
$GPGSA,M,3,21,30,16,29,18,31,06,25,,,,,2.2,1.1,1.9*30
$GPRMC,163306.000,A,3948.1826,S,07036.6635,W,0.66,304.48,120511,,,A*62
$GPGGA,163307.003,3948.1823,S,07036.6639,W,1,08,1.1,951.6,M,22.8,M,,0000*5D
$GPGSA,M,3,21,30,16,29,18,31,06,25,,,,,2.2,1.1,1.9*30
$GPRMC,163307.003,A,3948.1823,S,07036.6639,W,2.45,308.43,120511,,,A*6D
$GPGGA,163308.001,3948.1821,S,07036.6640,W,1,08,1.1,950.7,M,22.8,M,,0000*5C
$GPGSA,M,3,21,30,16,29,18,31,06,25,,,,,2.2,1.1,1.9*30
$GPRMC,163308.001,A,3948.1821,S,07036.6640,W,0.01,51.82,120511,,,A*5C
$GPGGA,163308.999,3948.1824,S,07036.6639,W,1,08,1.1,950.9,M,22.8,M,,0000*51
$GPGSA,M,3,21,30,16,29,18,31,06,25,,,,,2.2,1.1,1.9*30
$GPRMC,163308.999,A,3948.1824,S,07036.6639,W,0.69,140.18,120511,,,A*63
$GPGGA,163310.001,3948.1826,S,07036.6639,W,1,08,1.1,950.5,M,22.8,M,,0000*5E
$GPGSA,M,3,21,30,16,29,18,31,06,25,,,,,2.2,1.1,1.9*30
$GPGSV,3,1,11,21,85,120,39,30,60,240,40,16,36,226,41,29,35,102,39*7E
$GPGSV,3,2,11,18,27,022,35,31,23,315,36,06,22,251,37,25,21,034,38*7F
$GPGSV,3,3,11,03,11,251,36,05,06,145,25,22,05,357,38*42
$GPRMC,163310.001,A,3948.1826,S,07036.6639,W,0.52,163.02,120511,,,A*62
$GPGGA,163310.998,3948.1824,S,07036.6639,W,1,08,1.1,950.1,M,22.8,M,,0000*51
$GPGSA,M,3,21,30,16,29,18,31,06,25,,,,,2.2,1.1,1.9*30
$GPRMC,163310.998,A,3948.1824,S,07036.6639,W,0.17,155.35,120511,,,A*69
$GPGGA,163312.002,3948.1826,S,07036.6642,W,1,08,1.1,949.8,M,22.8,M,,0000*56
$GPGSA,M,3,21,30,16,29,18,31,06,25,,,,,2.2,1.1,1.9*30
$GPRMC,163312.002,A,3948.1826,S,07036.6642,W,0.64,151.53,120511,,,A*6F
$GPGGA,163313.000,3948.1830,S,07036.6637,W,1,08,1.1,948.6,M,22.8,M,,0000*5F
$GPGSA,M,3,21,30,16,29,18,31,06,25,,,,,2.2,1.1,1.9*30
$GPRMC,163313.000,A,3948.1830,S,07036.6637,W,0.50,130.35,120511,,,A*69
$GPGGA,163313.998,3948.1831,S,07036.6636,W,1,08,1.1,948.0,M,22.8,M,,0000*51
$GPGSA,M,3,21,30,16,29,18,31,06,25,,,,,2.2,1.1,1.9*30
$GPRMC,163313.998,A,3948.1831,S,07036.6636,W,0.06,224.81,120511,,,A*6B
$GPGGA,163315.003,3948.1831,S,07036.6635,W,1,08,1.1,947.0,M,22.8,M,,0000*50
$GPGSA,M,3,21,30,16,29,18,31,06,25,,,,,2.2,1.1,1.9*30
$GPGSV,3,1,11,21,85,120,39,30,60,240,41,16,36,226,41,29,35,102,38*7E
$GPGSV,3,2,11,18,27,022,34,31,23,315,37,06,22,251,36,25,21,034,38*7E
$GPGSV,3,3,11,03,11,251,35,05,06,145,,22,05,357,37*49
$GPRMC,163315.003,A,3948.1831,S,07036.6635,W,0.08,72.84,120511,,,A*5F
$GPGGA,163315.998,3948.1834,S,07036.6636,W,1,08,1.1,946.4,M,22.8,M,,0000*58
$GPGSA,M,3,21,30,16,29,18,31,06,25,,,,,2.2,1.1,1.9*30
$GPRMC,163315.998,A,3948.1834,S,07036.6636,W,0.25,219.52,120511,,,A*69
$GPGGA,163317.001,3948.1832,S,07036.6637,W,1,08,1.1,946.3,M,22.8,M,,0000*53
$GPGSA,M,3,21,30,16,29,18,31,06,25,,,,,2.2,1.1,1.9*30
$GPRMC,163317.001,A,3948.1832,S,07036.6637,W,0.86,339.27,120511,,,A*6D
$GPGGA,163318.004,3948.1830,S,07036.6639,W,1,08,1.1,946.1,M,22.8,M,,0000*57
$GPGSA,M,3,21,30,16,29,18,31,06,25,,,,,2.2,1.1,1.9*30
$GPRMC,163318.004,A,3948.1830,S,07036.6639,W,0.45,198.87,120511,,,A*67
$GPGGA,163318.995,3948.1833,S,07036.6638,W,1,08,1.1,946.9,M,22.8,M,,0000*5C
$GPGSA,M,3,21,30,16,29,18,31,06,25,,,,,2.2,1.1,1.9*30
$GPRMC,163318.995,A,3948.1833,S,07036.6638,W,0.31,62.40,120511,,,A*58
$GPGGA,163320.002,3948.1831,S,07036.6639,W,1,08,1.1,947.1,M,22.8,M,,0000*5A
$GPGSA,M,3,21,30,16,29,18,31,06,25,,,,,2.2,1.1,1.9*30
$GPGSV,3,1,11,21,85,120,40,30,60,240,40,16,36,226,40,29,35,102,38*70
$GPGSV,3,2,11,18,27,022,36,31,23,315,38,06,22,251,37,25,21,034,38*72
$GPGSV,3,3,11,03,11,251,35,05,06,145,,22,05,357,37*49
$GPRMC,163320.002,A,3948.1831,S,07036.6639,W,0.21,353.18,120511,,,A*6A
$GPGGA,163321.001,3948.1832,S,07036.6636,W,1,08,1.1,947.8,M,22.8,M,,0000*5D
$GPGSA,M,3,21,30,16,29,18,31,06,25,,,,,2.2,1.1,1.9*30
$GPRMC,163321.001,A,3948.1832,S,07036.6636,W,0.09,119.33,120511,,,A*6B
$GPGGA,163322.002,3948.1830,S,07036.6635,W,1,08,1.1,947.1,M,22.8,M,,0000*55
$GPGSA,M,3,21,30,16,29,18,31,06,25,,,,,2.2,1.1,1.9*30
$GPRMC,163322.002,A,3948.1830,S,07036.6635,W,0.23,342.44,120511,,,A*6E
$GPGGA,163322.995,3948.1831,S,07036.6633,W,1,08,1.1,947.5,M,22.8,M,,0000*51
$GPGSA,M,3,21,30,16,29,18,31,06,25,,,,,2.2,1.1,1.9*30
$GPRMC,163322.995,A,3948.1831,S,07036.6633,W,0.12,333.31,120511,,,A*68
$GPGGA,163324.002,3948.1830,S,07036.6633,W,1,08,1.1,947.3,M,22.8,M,,0000*57
$GPGSA,M,3,21,30,16,29,18,31,06,25,,,,,2.2,1.1,1.9*30
$GPRMC,163324.002,A,3948.1830,S,07036.6633,W,0.73,169.25,120511,,,A*67
$GPGGA,163325.004,3948.1831,S,07036.6629,W,1,08,1.1,946.5,M,22.8,M,,0000*5D
$GPGSA,M,3,21,30,16,29,18,31,06,25,,,,,2.2,1.1,1.9*30
$GPGSV,3,1,11,21,85,120,40,30,60,240,41,16,36,226,41,29,35,102,39*71
$GPGSV,3,2,11,18,27,022,35,31,23,315,38,06,22,251,37,25,21,034,38*71
$GPGSV,3,3,11,03,11,251,36,05,06,145,,22,05,357,37*4A
$GPRMC,163325.004,A,3948.1831,S,07036.6629,W,0.50,147.87,120511,,,A*6F
$GPGGA,163325.993,3948.1830,S,07036.6627,W,1,08,1.1,947.0,M,22.8,M,,0000*51
$GPGSA,M,3,21,30,16,29,18,31,06,25,,,,,2.2,1.1,1.9*30
$GPRMC,163325.993,A,3948.1830,S,07036.6627,W,0.47,108.17,120511,,,A*63
$GPGGA,163327.004,3948.1831,S,07036.6629,W,1,08,1.1,946.2,M,22.8,M,,0000*58
$GPGSA,M,3,21,30,16,29,18,31,06,25,,,,,2.2,1.1,1.9*30
$GPRMC,163327.004,A,3948.1831,S,07036.6629,W,0.58,170.81,120511,,,A*67
$GPGGA,163327.997,3948.1833,S,07036.6627,W,1,08,1.1,946.5,M,22.8,M,,0000*50
$GPGSA,M,3,21,30,16,29,18,31,06,25,,,,,2.2,1.1,1.9*30
$GPRMC,163327.997,A,3948.1833,S,07036.6627,W,0.03,15.35,120511,,,A*5B
$GPGGA,163328.998,3948.1834,S,07036.6629,W,1,08,1.1,946.2,M,22.8,M,,0000*5E
$GPGSA,M,3,21,30,16,29,18,31,06,25,,,,,2.2,1.1,1.9*30
$GPRMC,163328.998,A,3948.1834,S,07036.6629,W,0.56,254.40,120511,,,A*67
$GPGGA,163330.005,3948.1833,S,07036.6631,W,1,08,1.1,947.4,M,22.8,M,,0000*53
$GPGSA,M,3,21,30,16,29,18,31,06,25,,,,,2.2,1.1,1.9*30
$GPGSV,3,1,11,21,85,120,39,30,60,240,41,16,36,226,41,29,35,102,38*7E
$GPGSV,3,2,11,18,27,022,33,31,23,315,37,06,22,251,36,25,21,034,37*76
$GPGSV,3,3,11,03,11,251,34,05,06,145,,22,05,357,37*48
$GPRMC,163330.005,A,3948.1833,S,07036.6631,W,0.36,306.23,120511,,,A*68
$GPGGA,163331.001,3948.1833,S,07036.6631,W,1,08,1.1,946.7,M,22.8,M,,0000*54
$GPGSA,M,3,21,30,16,29,18,31,06,25,,,,,2.2,1.1,1.9*30
$GPRMC,163331.001,A,3948.1833,S,07036.6631,W,0.06,148.08,120511,,,A*6F
$GPGGA,163332.003,3948.1834,S,07036.6630,W,1,08,1.1,947.2,M,22.8,M,,0000*57
$GPGSA,M,3,21,30,16,29,18,31,06,25,,,,,2.2,1.1,1.9*30
$GPRMC,163332.003,A,3948.1834,S,07036.6630,W,0.29,218.43,120511,,,A*6C
$GPGGA,163332.996,3948.1831,S,07036.6630,W,1,08,1.1,947.0,M,22.8,M,,0000*55
$GPGSA,M,3,21,30,16,29,18,31,06,25,,,,,2.2,1.1,1.9*30
$GPRMC,163332.996,A,3948.1831,S,07036.6630,W,0.44,126.34,120511,,,A*69
$GPGGA,163334.000,3948.1830,S,07036.6631,W,1,07,1.2,947.1,M,22.8,M,,0000*58
$GPGSA,M,3,21,30,16,29,18,31,06,,,,,,2.3,1.2,2.0*3F
$GPRMC,163334.000,A,3948.1830,S,07036.6631,W,0.15,31.74,120511,,,A*5E
$GPGGA,163335.007,3948.1828,S,07036.6631,W,1,08,1.1,947.9,M,22.8,M,,0000*53
$GPGSA,M,3,21,30,16,29,18,31,06,25,,,,,2.2,1.1,1.9*30
$GPGSV,3,1,11,21,85,120,41,30,60,240,42,16,36,226,41,29,35,102,39*73
$GPGSV,3,2,11,18,27,022,34,31,23,315,37,06,22,251,37,25,21,034,37*70
$GPGSV,3,3,11,03,11,251,34,05,06,145,,22,05,357,37*48
$GPRMC,163335.007,A,3948.1828,S,07036.6631,W,0.65,29.37,120511,,,A*58
$GPGGA,163335.995,3948.1827,S,07036.6633,W,1,08,1.1,948.4,M,22.8,M,,0000*5E
$GPGSA,M,3,21,30,16,29,18,31,06,25,,,,,2.2,1.1,1.9*30
$GPRMC,163335.995,A,3948.1827,S,07036.6633,W,0.21,123.68,120511,,,A*66
$GPGGA,163337.001,3948.1827,S,07036.6631,W,1,08,1.1,947.6,M,22.8,M,,0000*57
$GPGSA,M,3,21,30,16,29,18,31,06,25,,,,,2.2,1.1,1.9*30
$GPRMC,163337.001,A,3948.1827,S,07036.6631,W,0.29,59.24,120511,,,A*5E
$GPGGA,163337.999,3948.1827,S,07036.6633,W,1,08,1.1,946.7,M,22.8,M,,0000*5D
$GPGSA,M,3,21,30,16,29,18,31,06,25,,,,,2.2,1.1,1.9*30
$GPRMC,163337.999,A,3948.1827,S,07036.6633,W,0.27,128.36,120511,,,A*6E
$GPGGA,163339.000,3948.1828,S,07036.6632,W,1,08,1.1,946.9,M,22.8,M,,0000*5A
$GPGSA,M,3,21,30,16,29,18,31,06,25,,,,,2.2,1.1,1.9*30
$GPRMC,163339.000,A,3948.1828,S,07036.6632,W,0.34,130.96,120511,,,A*66
$GPGGA,163340.000,3948.1828,S,07036.6631,W,1,08,1.1,947.1,M,22.8,M,,0000*5E
$GPGSA,M,3,21,30,16,29,18,31,06,25,,,,,2.2,1.1,1.9*30
$GPGSV,3,1,11,21,85,120,39,30,60,240,41,16,36,226,41,29,35,102,37*71
$GPGSV,3,2,11,18,27,022,34,31,23,315,36,06,22,251,38,25,21,034,38*71
$GPGSV,3,3,11,03,11,251,33,05,06,145,,22,05,357,37*4F
$GPRMC,163340.000,A,3948.1828,S,07036.6631,W,0.14,173.73,120511,,,A*65
$GPGGA,163341.000,3948.1829,S,07036.6628,W,1,08,1.1,946.6,M,22.8,M,,0000*50
$GPGSA,M,3,21,30,16,29,18,31,06,25,,,,,2.2,1.1,1.9*30
$GPRMC,163341.000,A,3948.1829,S,07036.6628,W,0.15,101.98,120511,,,A*6C
$GPGGA,163342.000,3948.1828,S,07036.6629,W,1,08,1.1,946.4,M,22.8,M,,0000*51
$GPGSA,M,3,21,30,16,29,18,31,06,25,,,,,2.2,1.1,1.9*30
$GPRMC,163342.000,A,3948.1828,S,07036.6629,W,0.34,69.17,120511,,,A*54
$GPGGA,163343.000,3948.1831,S,07036.6627,W,1,08,1.1,945.4,M,22.8,M,,0000*55
$GPGSA,M,3,21,30,16,29,18,31,06,25,,,,,2.2,1.1,1.9*30
$GPRMC,163343.000,A,3948.1831,S,07036.6627,W,0.27,107.33,120511,,,A*6E
$GPGGA,163344.002,3948.1831,S,07036.6626,W,1,08,1.1,945.3,M,22.8,M,,0000*56
$GPGSA,M,3,21,30,16,29,18,31,06,25,,,,,2.2,1.1,1.9*30
$GPRMC,163344.002,A,3948.1831,S,07036.6626,W,0.45,275.81,120511,,,A*61
$GPGGA,163344.999,3948.1830,S,07036.6626,W,1,08,1.1,945.3,M,22.8,M,,0000*5C
$GPGSA,M,3,21,30,16,29,18,31,06,25,,,,,2.2,1.1,1.9*30
$GPGSV,3,1,11,21,85,120,40,30,60,240,40,16,36,226,41,29,35,102,38*71
$GPGSV,3,2,11,18,27,022,32,31,23,315,36,06,22,251,37,25,21,034,37*77
$GPGSV,3,3,11,03,11,251,32,05,06,145,,22,05,357,37*4E
$GPRMC,163344.999,A,3948.1830,S,07036.6626,W,0.24,57.89,120511,,,A*56
$GPGGA,163346.002,3948.1833,S,07036.6627,W,1,08,1.1,943.8,M,22.8,M,,0000*5A
$GPGSA,M,3,21,30,16,29,18,31,06,25,,,,,2.2,1.1,1.9*30
$GPRMC,163346.002,A,3948.1833,S,07036.6627,W,0.64,267.53,120511,,,A*6F
$GPGGA,163346.996,3948.1830,S,07036.6629,W,1,08,1.1,944.9,M,22.8,M,,0000*55
$GPGSA,M,3,21,30,16,29,18,31,06,25,,,,,2.2,1.1,1.9*30
$GPRMC,163346.996,A,3948.1830,S,07036.6629,W,1.18,28.69,120511,,,A*5C
$GPGGA,163347.999,3948.1829,S,07036.6628,W,1,08,1.1,944.4,M,22.8,M,,0000*5F
$GPGSA,M,3,21,30,16,29,18,31,06,25,,,,,2.2,1.1,1.9*30
$GPRMC,163347.999,A,3948.1829,S,07036.6628,W,0.08,181.86,120511,,,A*68
$GPGGA,163349.001,3948.1832,S,07036.6626,W,1,08,1.1,943.7,M,22.8,M,,0000*59
$GPGSA,M,3,21,30,16,29,18,31,06,25,,,,,2.2,1.1,1.9*30
$GPRMC,163349.001,A,3948.1832,S,07036.6626,W,0.25,136.35,120511,,,A*61
$GPGGA,163350.001,3948.1832,S,07036.6628,W,1,08,1.1,944.1,M,22.8,M,,0000*5E
$GPGSA,M,3,21,30,16,29,18,31,06,25,,,,,2.2,1.1,1.9*30
$GPGSV,3,1,11,21,85,120,40,30,60,240,40,16,36,226,40,29,35,102,37*7F
$GPGSV,3,2,11,18,27,022,33,31,23,315,37,06,22,251,37,25,21,034,38*78
$GPGSV,3,3,11,03,11,251,31,05,06,145,,22,05,357,36*4C
$GPRMC,163350.001,A,3948.1832,S,07036.6628,W,0.27,38.89,120511,,,A*5D
$GPGGA,163351.004,3948.1830,S,07036.6627,W,1,08,1.1,943.4,M,22.8,M,,0000*55
$GPGSA,M,3,21,30,16,29,18,31,06,25,,,,,2.2,1.1,1.9*30
$GPRMC,163351.004,A,3948.1830,S,07036.6627,W,0.19,100.97,120511,,,A*6C
$GPGGA,163351.998,3948.1835,S,07036.6626,W,1,08,1.1,943.0,M,22.8,M,,0000*59
$GPGSA,M,3,21,30,16,29,18,31,06,25,,,,,2.2,1.1,1.9*30
$GPRMC,163351.998,A,3948.1835,S,07036.6626,W,0.33,113.97,120511,,,A*6E
$GPGGA,163353.002,3948.1834,S,07036.6626,W,1,08,1.1,943.1,M,22.8,M,,0000*51
$GPGSA,M,3,21,30,16,29,18,31,06,25,,,,,2.2,1.1,1.9*30
$GPRMC,163353.002,A,3948.1834,S,07036.6626,W,0.12,265.45,120511,,,A*69
$GPGGA,163353.994,3948.1833,S,07036.6627,W,1,08,1.1,943.5,M,22.8,M,,0000*55
$GPGSA,M,3,21,30,16,29,18,31,06,25,,,,,2.2,1.1,1.9*30
$GPRMC,163353.994,A,3948.1833,S,07036.6627,W,0.14,67.44,120511,,,A*5E
$GPGGA,163355.005,3948.1833,S,07036.6626,W,1,08,1.1,943.7,M,22.8,M,,0000*51
$GPGSA,M,3,21,30,16,29,18,31,06,25,,,,,2.2,1.1,1.9*30
$GPGSV,3,1,11,21,85,120,39,30,60,240,42,16,36,226,42,29,35,102,39*7F
$GPGSV,3,2,11,18,27,022,34,31,23,315,38,06,22,251,38,25,21,034,39*7E
$GPGSV,3,3,11,03,11,251,30,05,06,145,,22,05,357,37*4C
$GPRMC,163355.005,A,3948.1833,S,07036.6626,W,0.52,156.51,120511,,,A*6D
$GPGGA,163356.000,3948.1833,S,07036.6624,W,1,08,1.1,942.7,M,22.8,M,,0000*54
$GPGSA,M,3,21,30,16,29,18,31,06,25,,,,,2.2,1.1,1.9*30
$GPRMC,163356.000,A,3948.1833,S,07036.6624,W,0.30,78.61,120511,,,A*53
$GPGGA,163356.996,3948.1832,S,07036.6623,W,1,08,1.1,941.5,M,22.8,M,,0000*55
$GPGSA,M,3,21,30,16,29,18,31,06,25,,,,,2.2,1.1,1.9*30
$GPRMC,163356.996,A,3948.1832,S,07036.6623,W,0.34,153.08,120511,,,A*60
$GPGGA,163358.004,3948.1831,S,07036.6623,W,1,08,1.1,942.5,M,22.8,M,,0000*59
$GPGSA,M,3,21,30,16,29,18,31,06,25,,,,,2.2,1.1,1.9*30
$GPRMC,163358.004,A,3948.1831,S,07036.6623,W,0.78,94.07,120511,,,A*52
$GPGGA,163358.996,3948.1833,S,07036.6621,W,1,08,1.1,942.3,M,22.8,M,,0000*5D
$GPGSA,M,3,21,30,16,29,18,31,06,25,,,,,2.2,1.1,1.9*30
$GPRMC,163358.996,A,3948.1833,S,07036.6621,W,0.08,339.85,120511,,,A*69
$GPGGA,163400.001,3948.1833,S,07036.6620,W,1,08,1.1,942.0,M,22.8,M,,0000*52
$GPGSA,M,3,21,30,16,29,18,31,06,25,,,,,2.2,1.1,1.9*30
$GPGSV,3,1,11,21,85,120,41,30,60,240,41,16,36,226,40,29,35,102,38*70
$GPGSV,3,2,11,18,27,022,35,31,23,315,37,06,22,251,37,25,21,034,38*7E
$GPGSV,3,3,11,03,11,251,32,05,06,145,21,22,05,357,38*42
$GPRMC,163400.001,A,3948.1833,S,07036.6620,W,0.63,302.06,120511,,,A*6B
$GPGGA,163401.000,3948.1832,S,07036.6619,W,1,08,1.1,942.0,M,22.8,M,,0000*59
$GPGSA,M,3,21,30,16,29,18,31,06,25,,,,,2.2,1.1,1.9*30
$GPRMC,163401.000,A,3948.1832,S,07036.6619,W,0.12,77.21,120511,,,A*52
$GPGGA,163402.004,3948.1831,S,07036.6618,W,1,08,1.1,941.2,M,22.8,M,,0000*5D
$GPGSA,M,3,21,30,16,29,18,31,06,25,,,,,2.2,1.1,1.9*30
$GPRMC,163402.004,A,3948.1831,S,07036.6618,W,0.47,309.06,120511,,,A*68
$GPGGA,163402.999,3948.1832,S,07036.6618,W,1,08,1.1,940.2,M,22.8,M,,0000*52
$GPGSA,M,3,21,30,16,29,18,31,06,25,,,,,2.2,1.1,1.9*30
$GPRMC,163402.999,A,3948.1832,S,07036.6618,W,0.35,110.79,120511,,,A*61
$GPGGA,163403.996,3948.1832,S,07036.6618,W,1,08,1.1,940.4,M,22.8,M,,0000*5A
$GPGSA,M,3,21,30,16,29,18,31,06,25,,,,,2.2,1.1,1.9*30
$GPRMC,163403.996,A,3948.1832,S,07036.6618,W,0.44,136.37,120511,,,A*67
$GPGGA,163405.002,3948.1831,S,07036.6619,W,1,08,1.1,940.2,M,22.8,M,,0000*5C
$GPGSA,M,3,21,30,16,29,18,31,06,25,,,,,2.2,1.1,1.9*30
$GPGSV,3,1,11,21,85,120,42,30,60,240,40,16,36,226,41,29,35,102,38*73
$GPGSV,3,2,11,18,27,022,31,31,23,315,36,06,22,251,37,25,21,034,38*7B
$GPGSV,3,3,11,03,11,251,30,05,06,145,,22,05,357,37*4C
$GPRMC,163405.002,A,3948.1831,S,07036.6619,W,0.37,222.91,120511,,,A*69
$GPGGA,163405.998,3948.1833,S,07036.6619,W,1,08,1.1,940.5,M,22.8,M,,0000*53
$GPGSA,M,3,21,30,16,29,18,31,06,25,,,,,2.2,1.1,1.9*30
$GPRMC,163405.998,A,3948.1833,S,07036.6619,W,0.82,149.94,120511,,,A*64
$GPGGA,163407.002,3948.1835,S,07036.6619,W,1,08,1.1,939.7,M,22.8,M,,0000*51
$GPGSA,M,3,21,30,16,29,18,31,06,25,,,,,2.2,1.1,1.9*30
$GPRMC,163407.002,A,3948.1835,S,07036.6619,W,0.83,259.91,120511,,,A*6C
$GPGGA,163408.003,3948.1836,S,07036.6619,W,1,08,1.1,939.4,M,22.8,M,,0000*5F
$GPGSA,M,3,21,30,16,29,18,31,06,25,,,,,2.2,1.1,1.9*30
$GPRMC,163408.003,A,3948.1836,S,07036.6619,W,0.11,331.19,120511,,,A*65
$GPGGA,163408.996,3948.1833,S,07036.6622,W,1,08,1.1,940.1,M,22.8,M,,0000*5C
$GPGSA,M,3,21,30,16,29,18,31,06,25,,,,,2.2,1.1,1.9*30
$GPRMC,163408.996,A,3948.1833,S,07036.6622,W,0.17,295.64,120511,,,A*6E
$GPGGA,163410.001,3948.1835,S,07036.6621,W,1,08,1.1,939.8,M,22.8,M,,0000*50
$GPGSA,M,3,21,30,16,29,18,31,06,25,,,,,2.2,1.1,1.9*30
$GPGSV,3,1,11,21,85,120,39,30,60,240,41,16,36,226,41,29,35,102,39*7F
$GPGSV,3,2,11,18,27,022,32,31,23,315,36,06,22,251,37,25,21,034,38*78
$GPGSV,3,3,11,03,11,251,33,05,06,145,,22,05,357,38*40
$GPRMC,163410.001,A,3948.1835,S,07036.6621,W,0.31,135.67,120511,,,A*6B
$GPGGA,163411.002,3948.1835,S,07036.6620,W,1,08,1.1,939.4,M,22.8,M,,0000*5F
$GPGSA,M,3,21,30,16,29,18,31,06,25,,,,,2.2,1.1,1.9*30
$GPRMC,163411.002,A,3948.1835,S,07036.6620,W,0.18,211.03,120511,,,A*64
$GPGGA,163412.005,3948.1837,S,07036.6620,W,1,08,1.1,939.5,M,22.8,M,,0000*58
$GPGSA,M,3,21,30,16,29,18,31,06,25,,,,,2.2,1.1,1.9*30
$GPRMC,163412.005,A,3948.1837,S,07036.6620,W,0.34,101.62,120511,,,A*69
$GPGGA,163412.990,3948.1836,S,07036.6619,W,1,08,1.1,939.7,M,22.8,M,,0000*54
$GPGSA,M,3,21,30,16,29,18,31,06,25,,,,,2.2,1.1,1.9*30
$GPRMC,163412.990,A,3948.1836,S,07036.6619,W,0.63,53.79,120511,,,A*59
$GPGGA,163414.006,3948.1834,S,07036.6618,W,1,08,1.1,940.4,M,22.8,M,,0000*5A
$GPGSA,M,3,21,30,16,29,18,31,06,25,,,,,2.2,1.1,1.9*30
$GPRMC,163414.006,A,3948.1834,S,07036.6618,W,0.36,93.15,120511,,,A*5C
$GPGGA,163414.999,3948.1833,S,07036.6620,W,1,08,1.1,941.4,M,22.8,M,,0000*58
$GPGSA,M,3,21,30,16,29,18,31,06,25,,,,,2.2,1.1,1.9*30
$GPGSV,3,1,11,21,85,120,40,30,60,240,40,16,36,226,40,29,35,102,38*70
$GPGSV,3,2,11,18,27,022,32,31,23,315,37,06,22,251,36,25,21,034,37*77
$GPGSV,3,3,11,03,11,251,36,05,06,145,,22,05,357,37*4A
$GPRMC,163414.999,A,3948.1833,S,07036.6620,W,0.08,63.14,120511,,,A*5C
$GPGGA,163416.001,3948.1833,S,07036.6620,W,1,08,1.1,941.7,M,22.8,M,,0000*51
$GPGSA,M,3,21,30,16,29,18,31,06,25,,,,,2.2,1.1,1.9*30
$GPRMC,163416.001,A,3948.1833,S,07036.6620,W,0.19,203.77,120511,,,A*67
$GPGGA,163417.007,3948.1833,S,07036.6618,W,1,08,1.1,941.9,M,22.8,M,,0000*53
$GPGSA,M,3,21,30,16,29,18,31,06,25,,,,,2.2,1.1,1.9*30
$GPRMC,163417.007,A,3948.1833,S,07036.6618,W,0.97,72.55,120511,,,A*59
$GPGGA,163417.995,3948.1833,S,07036.6616,W,1,08,1.1,941.9,M,22.8,M,,0000*5F
$GPGSA,M,3,21,30,16,29,18,31,06,25,,,,,2.2,1.1,1.9*30
$GPRMC,163417.995,A,3948.1833,S,07036.6616,W,0.27,99.85,120511,,,A*56
$GPGGA,163419.000,3948.1835,S,07036.6613,W,1,08,1.1,942.3,M,22.8,M,,0000*5E
$GPGSA,M,3,21,30,16,29,18,31,06,25,,,,,2.2,1.1,1.9*30
$GPRMC,163419.000,A,3948.1835,S,07036.6613,W,0.25,6.40,120511,,,A*63
$GPGGA,163419.996,3948.1833,S,07036.6611,W,1,08,1.1,942.4,M,22.8,M,,0000*5B
$GPGSA,M,3,21,30,16,29,18,31,06,25,,,,,2.2,1.1,1.9*30
$GPGSV,3,1,11,21,85,120,41,30,60,240,41,16,36,226,42,29,35,102,39*73
$GPGSV,3,2,11,18,27,022,34,31,23,315,36,06,22,251,37,25,21,034,38*7E
$GPGSV,3,3,11,03,11,251,35,05,06,145,,22,05,357,38*46
$GPRMC,163419.996,A,3948.1833,S,07036.6611,W,1.60,7.26,120511,,,A*60
$GPGGA,163421.002,3948.1828,S,07036.6614,W,1,08,1.1,942.9,M,22.8,M,,0000*56
$GPGSA,M,3,21,30,16,29,18,31,06,25,,,,,2.2,1.1,1.9*30
$GPRMC,163421.002,A,3948.1828,S,07036.6614,W,1.59,301.89,120511,,,A*6A
$GPGGA,163421.997,3948.1828,S,07036.6616,W,1,08,1.1,942.7,M,22.8,M,,0000*5F
$GPGSA,M,3,21,30,16,29,18,31,06,25,,,,,2.2,1.1,1.9*30
$GPRMC,163421.997,A,3948.1828,S,07036.6616,W,0.19,181.53,120511,,,A*65
$GPGGA,163423.004,3948.1827,S,07036.6619,W,1,08,1.1,943.6,M,22.8,M,,0000*5E
$GPGSA,M,3,21,30,16,29,18,31,06,25,,,,,2.2,1.1,1.9*30
$GPRMC,163423.004,A,3948.1827,S,07036.6619,W,1.29,249.69,120511,,,A*68
$GPGGA,163423.993,3948.1829,S,07036.6619,W,1,08,1.1,943.2,M,22.8,M,,0000*53
$GPGSA,M,3,21,30,16,29,18,31,06,25,,,,,2.2,1.1,1.9*30
$GPRMC,163423.993,A,3948.1829,S,07036.6619,W,0.28,65.18,120511,,,A*5B
$GPGGA,163425.005,3948.1827,S,07036.6619,W,1,08,1.1,943.8,M,22.8,M,,0000*57
$GPGSA,M,3,21,30,16,29,18,31,06,25,,,,,2.2,1.1,1.9*30
$GPGSV,3,1,11,21,85,120,38,30,60,240,41,16,36,226,41,29,35,102,39*7E
$GPGSV,3,2,11,18,27,022,31,31,23,315,36,06,22,251,37,25,21,034,38*7B
$GPGSV,3,3,11,03,11,251,31,05,06,145,,22,05,357,37*4D
$GPRMC,163425.005,A,3948.1827,S,07036.6619,W,0.37,7.16,120511,,,A*61
$GPGGA,163426.000,3948.1826,S,07036.6620,W,1,08,1.1,944.5,M,22.8,M,,0000*50
$GPGSA,M,3,21,30,16,29,18,31,06,25,,,,,2.2,1.1,1.9*30
$GPRMC,163426.000,A,3948.1826,S,07036.6620,W,0.16,163.75,120511,,,A*69
$GPGGA,163427.010,3948.1825,S,07036.6620,W,1,08,1.1,944.9,M,22.8,M,,0000*5F
$GPGSA,M,3,21,30,16,29,18,31,06,25,,,,,2.2,1.1,1.9*30
$GPRMC,163427.010,A,3948.1825,S,07036.6620,W,0.15,273.89,120511,,,A*68
$GPGGA,163427.989,3948.1826,S,07036.6616,W,1,08,1.1,944.7,M,22.8,M,,0000*5E
$GPGSA,M,3,21,30,16,29,18,31,06,25,,,,,2.2,1.1,1.9*30
$GPRMC,163427.989,A,3948.1826,S,07036.6616,W,1.34,99.20,120511,,,A*50
$GPGGA,163429.001,3948.1830,S,07036.6613,W,1,08,1.1,944.3,M,22.8,M,,0000*5F
$GPGSA,M,3,21,30,16,29,18,31,06,25,,,,,2.2,1.1,1.9*30
$GPRMC,163429.001,A,3948.1830,S,07036.6613,W,0.96,127.55,120511,,,A*6A
$GPGGA,163429.997,3948.1831,S,07036.6610,W,1,08,1.1,943.7,M,22.8,M,,0000*58
$GPGSA,M,3,21,30,16,29,18,31,06,25,,,,,2.2,1.1,1.9*30
$GPGSV,3,1,11,21,85,120,39,30,60,240,41,16,36,226,40,29,35,102,39*7E
$GPGSV,3,2,11,18,27,022,33,31,23,315,36,06,22,251,38,25,21,034,38*76
$GPGSV,3,3,11,03,11,251,30,05,06,145,,22,05,357,38*43
$GPRMC,163429.997,A,3948.1831,S,07036.6610,W,0.06,356.59,120511,,,A*6F
$GPGGA,163431.003,3948.1827,S,07036.6612,W,1,08,1.1,943.3,M,22.8,M,,0000*54
$GPGSA,M,3,21,30,16,29,18,31,06,25,,,,,2.2,1.1,1.9*30
$GPRMC,163431.003,A,3948.1827,S,07036.6612,W,0.95,24.27,120511,,,A*52
$GPGGA,163432.000,3948.1827,S,07036.6610,W,1,08,1.1,943.2,M,22.8,M,,0000*57
$GPGSA,M,3,21,30,16,29,18,31,06,25,,,,,2.2,1.1,1.9*30
$GPRMC,163432.000,A,3948.1827,S,07036.6610,W,0.63,309.02,120511,,,A*62
$GPGGA,163432.998,3948.1827,S,07036.6611,W,1,08,1.1,942.6,M,22.8,M,,0000*5B
$GPGSA,M,3,21,30,16,29,18,31,06,25,,,,,2.2,1.1,1.9*30
$GPRMC,163432.998,A,3948.1827,S,07036.6611,W,0.34,144.27,120511,,,A*65
$GPGGA,163434.007,3948.1828,S,07036.6611,W,1,08,1.1,942.4,M,22.8,M,,0000*5F
$GPGSA,M,3,21,30,16,29,18,31,06,25,,,,,2.2,1.1,1.9*30
$GPRMC,163434.007,A,3948.1828,S,07036.6611,W,0.09,147.23,120511,,,A*6A
$GPGGA,163434.997,3948.1826,S,07036.6611,W,1,08,1.1,942.0,M,22.8,M,,0000*55
$GPGSA,M,3,21,30,16,29,18,31,06,25,,,,,2.2,1.1,1.9*30
$GPGSV,3,1,11,21,85,120,38,30,60,240,41,16,36,226,41,29,35,102,38*7F
$GPGSV,3,2,11,18,27,022,32,31,23,315,36,06,22,251,36,25,21,034,38*79
$GPGSV,3,3,11,03,11,251,31,05,06,145,,22,05,357,37*4D
$GPRMC,163434.997,A,3948.1826,S,07036.6611,W,0.60,132.79,120511,,,A*66
$GPGGA,163436.000,3948.1827,S,07036.6608,W,1,08,1.1,941.8,M,22.8,M,,0000*52
$GPGSA,M,3,21,30,16,29,18,31,06,25,,,,,2.2,1.1,1.9*30
$GPRMC,163436.000,A,3948.1827,S,07036.6608,W,0.44,111.05,120511,,,A*66
$GPGGA,163437.001,3948.1827,S,07036.6608,W,1,08,1.1,942.1,M,22.8,M,,0000*58
$GPGSA,M,3,21,30,16,29,18,31,06,25,,,,,2.2,1.1,1.9*30
$GPRMC,163437.001,A,3948.1827,S,07036.6608,W,0.08,174.83,120511,,,A*63
$GPGGA,163438.001,3948.1826,S,07036.6608,W,1,08,1.1,941.4,M,22.8,M,,0000*50
$GPGSA,M,3,21,30,16,29,18,31,06,25,,,,,2.2,1.1,1.9*30
$GPRMC,163438.001,A,3948.1826,S,07036.6608,W,0.37,156.88,120511,,,A*6A
$GPGGA,163439.000,3948.1825,S,07036.6608,W,1,08,1.1,941.7,M,22.8,M,,0000*50
$GPGSA,M,3,21,30,16,29,18,31,06,25,,,,,2.2,1.1,1.9*30
$GPRMC,163439.000,A,3948.1825,S,07036.6608,W,0.10,210.31,120511,,,A*6F
$GPGGA,163439.998,3948.1826,S,07036.6608,W,1,08,1.1,941.0,M,22.8,M,,0000*5C
$GPGSA,M,3,21,30,16,29,18,31,06,25,,,,,2.2,1.1,1.9*30
$GPGSV,3,1,11,21,85,120,41,30,60,240,40,16,36,226,40,29,35,102,39*70
$GPGSV,3,2,11,18,27,022,34,31,23,315,37,06,22,251,39,25,21,034,37*7E
$GPGSV,3,3,11,03,11,251,32,05,06,145,24,22,05,357,38*47
$GPRMC,163439.998,A,3948.1826,S,07036.6608,W,0.71,271.89,120511,,,A*67
$GPGGA,163441.004,3948.1824,S,07036.6609,W,1,08,1.1,941.1,M,22.8,M,,0000*5D
$GPGSA,M,3,21,30,16,29,18,31,06,25,,,,,2.2,1.1,1.9*30
$GPRMC,163441.004,A,3948.1824,S,07036.6609,W,0.13,158.49,120511,,,A*67
$GPGGA,163441.998,3948.1825,S,07036.6607,W,1,08,1.1,941.4,M,22.8,M,,0000*5B
$GPGSA,M,3,21,30,16,29,18,31,06,25,,,,,2.2,1.1,1.9*30
$GPRMC,163441.998,A,3948.1825,S,07036.6607,W,0.23,133.26,120511,,,A*63
$GPGGA,163443.003,3948.1825,S,07036.6605,W,1,08,1.1,941.6,M,22.8,M,,0000*52
$GPGSA,M,3,21,30,16,29,18,31,06,25,,,,,2.2,1.1,1.9*30
$GPRMC,163443.003,A,3948.1825,S,07036.6605,W,0.23,141.63,120511,,,A*6C
$GPGGA,163443.996,3948.1826,S,07036.6607,W,1,08,1.1,942.6,M,22.8,M,,0000*55
$GPGSA,M,3,21,30,16,29,18,31,06,25,,,,,2.2,1.1,1.9*30
$GPRMC,163443.996,A,3948.1826,S,07036.6607,W,0.22,359.36,120511,,,A*62
$GPGGA,163444.998,3948.1825,S,07036.6609,W,1,08,1.1,942.8,M,22.8,M,,0000*5F
$GPGSA,M,3,21,30,16,29,18,31,06,25,,,,,2.2,1.1,1.9*30
$GPGSV,3,1,11,21,85,120,39,30,60,240,41,16,36,226,41,29,35,102,38*7E
$GPGSV,3,2,11,18,27,022,35,31,23,315,36,06,22,251,38,25,21,034,38*70
$GPGSV,3,3,11,03,11,251,35,05,06,145,,22,05,357,37*49
$GPRMC,163444.998,A,3948.1825,S,07036.6609,W,0.43,148.89,120511,,,A*67
$GPGGA,163446.001,3948.1824,S,07036.6609,W,1,08,1.1,943.6,M,22.8,M,,0000*5A
$GPGSA,M,3,21,30,16,29,18,31,06,25,,,,,2.2,1.1,1.9*30
$GPRMC,163446.001,A,3948.1824,S,07036.6609,W,0.36,118.76,120511,,,A*6A
$GPGGA,163447.004,3948.1824,S,07036.6610,W,1,08,1.1,943.7,M,22.8,M,,0000*57
$GPGSA,M,3,21,30,16,29,18,31,06,25,,,,,2.2,1.1,1.9*30
$GPRMC,163447.004,A,3948.1824,S,07036.6610,W,0.42,164.87,120511,,,A*60
$GPGGA,163448.001,3948.1822,S,07036.6609,W,1,08,1.1,943.9,M,22.8,M,,0000*5D
$GPGSA,M,3,21,30,16,29,18,31,06,25,,,,,2.2,1.1,1.9*30
$GPRMC,163448.001,A,3948.1822,S,07036.6609,W,0.20,145.13,120511,,,A*6E
$GPGGA,163448.996,3948.1821,S,07036.6612,W,1,08,1.1,944.1,M,22.8,M,,0000*5C
$GPGSA,M,3,21,30,16,29,18,31,06,25,,,,,2.2,1.1,1.9*30
$GPRMC,163448.996,A,3948.1821,S,07036.6612,W,0.40,132.05,120511,,,A*61
$GPGGA,163450.001,3948.1825,S,07036.6613,W,1,08,1.1,944.4,M,22.8,M,,0000*52
$GPGSA,M,3,21,30,16,29,18,31,06,25,,,,,2.2,1.1,1.9*30
$GPGSV,3,1,11,21,85,120,39,30,60,240,41,16,36,226,40,29,35,102,39*7E
$GPGSV,3,2,11,18,27,022,33,31,23,315,36,06,22,251,37,25,21,034,37*76
$GPGSV,3,3,11,03,11,251,33,05,06,145,,22,05,357,36*4E
$GPRMC,163450.001,A,3948.1825,S,07036.6613,W,0.34,228.82,120511,,,A*6E
$GPGGA,163451.001,3948.1826,S,07036.6612,W,1,08,1.1,945.0,M,22.8,M,,0000*54
$GPGSA,M,3,21,30,16,29,18,31,06,25,,,,,2.2,1.1,1.9*30
$GPRMC,163451.001,A,3948.1826,S,07036.6612,W,0.26,95.10,120511,,,A*51
$GPGGA,163452.007,3948.1825,S,07036.6611,W,1,08,1.1,945.4,M,22.8,M,,0000*55
$GPGSA,M,3,21,30,16,29,18,31,06,25,,,,,2.2,1.1,1.9*30
$GPRMC,163452.007,A,3948.1825,S,07036.6611,W,0.21,26.25,120511,,,A*5D
$GPGGA,163452.993,3948.1824,S,07036.6612,W,1,08,1.1,944.8,M,22.8,M,,0000*5E
$GPGSA,M,3,21,30,16,29,18,31,06,25,,,,,2.2,1.1,1.9*30
$GPRMC,163452.993,A,3948.1824,S,07036.6612,W,0.22,75.42,120511,,,A*5F
$GPGGA,163454.002,3948.1824,S,07036.6612,W,1,08,1.1,945.2,M,22.8,M,,0000*52
$GPGSA,M,3,21,30,16,29,18,31,06,25,,,,,2.2,1.1,1.9*30
$GPRMC,163454.002,A,3948.1824,S,07036.6612,W,0.22,347.33,120511,,,A*6C
$GPGGA,163454.997,3948.1823,S,07036.6612,W,1,08,1.1,946.1,M,22.8,M,,0000*50
$GPGSA,M,3,21,30,16,29,18,31,06,25,,,,,2.2,1.1,1.9*30
$GPGSV,3,1,11,21,85,120,37,30,60,240,39,16,36,226,39,29,35,102,39*71
$GPGSV,3,2,11,18,27,022,35,31,23,315,32,06,22,251,37,25,21,034,40*74
$GPGSV,3,3,11,03,11,251,36,05,06,145,,22,05,357,37*4A
$GPRMC,163454.997,A,3948.1823,S,07036.6612,W,0.13,236.69,120511,,,A*64
$GPGGA,163456.001,3948.1823,S,07036.6611,W,1,08,1.1,946.0,M,22.8,M,,0000*56
$GPGSA,M,3,21,30,16,29,18,31,06,25,,,,,2.2,1.1,1.9*30
$GPRMC,163456.001,A,3948.1823,S,07036.6611,W,0.27,73.55,120511,,,A*58
$GPGGA,163457.001,3948.1819,S,07036.6613,W,1,08,1.1,945.7,M,22.8,M,,0000*58
$GPGSA,M,3,21,30,16,29,18,31,06,25,,,,,2.2,1.1,1.9*30
$GPRMC,163457.001,A,3948.1819,S,07036.6613,W,0.12,178.32,120511,,,A*6F
$GPGGA,163458.000,3948.1819,S,07036.6613,W,1,08,1.1,946.1,M,22.8,M,,0000*53
$GPGSA,M,3,21,30,16,29,18,31,06,25,,,,,2.2,1.1,1.9*30
$GPRMC,163458.000,A,3948.1819,S,07036.6613,W,0.22,74.36,120511,,,A*5B
$GPGGA,163459.000,3948.1816,S,07036.6614,W,1,08,1.1,946.9,M,22.8,M,,0000*52
$GPGSA,M,3,21,30,16,29,18,31,06,25,,,,,2.2,1.1,1.9*30
$GPRMC,163459.000,A,3948.1816,S,07036.6614,W,0.31,111.82,120511,,,A*6D
$GPGGA,163500.003,3948.1817,S,07036.6613,W,1,08,1.1,946.6,M,22.8,M,,0000*55
$GPGSA,M,3,21,30,16,29,18,06,31,25,,,,,2.2,1.1,1.9*30
$GPGSV,3,1,11,21,84,127,37,30,61,242,38,16,37,227,39,29,35,101,38*77
$GPGSV,3,2,11,18,28,022,37,06,23,250,37,31,22,316,35,25,20,033,37*7A
$GPGSV,3,3,11,03,12,251,31,22,07,358,38,05,05,146,*4C
$GPRMC,163500.003,A,3948.1817,S,07036.6613,W,0.32,145.55,120511,,,A*6D
$GPGGA,163500.996,3948.1818,S,07036.6610,W,1,08,1.1,946.7,M,22.8,M,,0000*5D
$GPGSA,M,3,21,30,16,29,18,06,31,25,,,,,2.2,1.1,1.9*30
$GPRMC,163500.996,A,3948.1818,S,07036.6610,W,0.53,141.40,120511,,,A*63
$GPGGA,163501.999,3948.1818,S,07036.6608,W,1,08,1.1,946.8,M,22.8,M,,0000*55
$GPGSA,M,3,21,30,16,29,18,06,31,25,,,,,2.2,1.1,1.9*30
$GPRMC,163501.999,A,3948.1818,S,07036.6608,W,0.32,47.11,120511,,,A*50
$GPGGA,163503.008,3948.1817,S,07036.6608,W,1,08,1.1,946.3,M,22.8,M,,0000*52
$GPGSA,M,3,21,30,16,29,18,06,31,25,,,,,2.2,1.1,1.9*30
$GPRMC,163503.008,A,3948.1817,S,07036.6608,W,0.19,83.32,120511,,,A*5C
$GPGGA,163503.991,3948.1817,S,07036.6611,W,1,08,1.1,946.5,M,22.8,M,,0000*55
$GPGSA,M,3,21,30,16,29,18,06,31,25,,,,,2.2,1.1,1.9*30
$GPRMC,163503.991,A,3948.1817,S,07036.6611,W,0.26,211.01,120511,,,A*68
$GPGGA,163505.002,3948.1817,S,07036.6613,W,1,08,1.1,946.0,M,22.8,M,,0000*57
$GPGSA,M,3,21,30,16,29,18,06,31,25,,,,,2.2,1.1,1.9*30
$GPGSV,3,1,11,21,84,127,36,30,61,242,37,16,37,227,38,29,35,101,37*77
$GPGSV,3,2,11,18,28,022,31,06,23,250,36,31,22,316,36,25,20,033,38*71
$GPGSV,3,3,11,03,12,251,31,22,07,358,36,05,05,146,*42
$GPRMC,163505.002,A,3948.1817,S,07036.6613,W,0.48,139.92,120511,,,A*64
$GPGGA,163506.004,3948.1817,S,07036.6614,W,1,08,1.1,944.8,M,22.8,M,,0000*5F
$GPGSA,M,3,21,30,16,29,18,06,31,25,,,,,2.2,1.1,1.9*30
$GPRMC,163506.004,A,3948.1817,S,07036.6614,W,0.50,81.99,120511,,,A*56
$GPGGA,163507.003,3948.1816,S,07036.6612,W,1,08,1.1,944.9,M,22.8,M,,0000*5F
$GPGSA,M,3,21,30,16,29,18,06,31,25,,,,,2.2,1.1,1.9*30
$GPRMC,163507.003,A,3948.1816,S,07036.6612,W,0.50,64.96,120511,,,A*53
$GPGGA,163507.994,3948.1816,S,07036.6610,W,1,08,1.1,944.9,M,22.8,M,,0000*5A
$GPGSA,M,3,21,30,16,29,18,06,31,25,,,,,2.2,1.1,1.9*30
$GPRMC,163507.994,A,3948.1816,S,07036.6610,W,0.32,89.78,120511,,,A*51
$GPGGA,163509.001,3948.1816,S,07036.6611,W,1,08,1.1,944.5,M,22.8,M,,0000*5C
$GPGSA,M,3,21,30,16,29,18,06,31,25,,,,,2.2,1.1,1.9*30
$GPRMC,163509.001,A,3948.1816,S,07036.6611,W,0.38,107.34,120511,,,A*6E
$GPGGA,163510.001,3948.1817,S,07036.6608,W,1,08,1.1,944.6,M,22.8,M,,0000*5E
$GPGSA,M,3,21,30,16,29,18,06,31,25,,,,,2.2,1.1,1.9*30
$GPGSV,3,1,11,21,84,127,37,30,61,242,37,16,37,227,38,29,35,101,39*78
$GPGSV,3,2,11,18,28,022,31,06,23,250,36,31,22,316,37,25,20,033,37*7F
$GPGSV,3,3,11,03,12,251,34,22,07,358,38,05,05,146,*49
$GPRMC,163510.001,A,3948.1817,S,07036.6608,W,0.23,101.47,120511,,,A*67
$GPGGA,163511.003,3948.1816,S,07036.6605,W,1,08,1.1,944.5,M,22.8,M,,0000*52
$GPGSA,M,3,21,30,16,29,18,06,31,25,,,,,2.2,1.1,1.9*30
$GPRMC,163511.003,A,3948.1816,S,07036.6605,W,0.26,1.95,120511,,,A*63
$GPGGA,163512.000,3948.1815,S,07036.6607,W,1,08,1.1,944.8,M,22.8,M,,0000*5E
$GPGSA,M,3,21,30,16,29,18,06,31,25,,,,,2.2,1.1,1.9*30
$GPRMC,163512.000,A,3948.1815,S,07036.6607,W,0.20,201.00,120511,,,A*6A
$GPGGA,163513.008,3948.1816,S,07036.6608,W,1,07,1.2,944.2,M,22.8,M,,0000*5D
$GPGSA,M,3,21,16,29,18,06,31,25,,,,,,2.5,1.2,2.2*3F
$GPRMC,163513.008,A,3948.1816,S,07036.6608,W,0.45,87.49,120511,,,A*5D
$GPGGA,163513.991,3948.1817,S,07036.6608,W,1,07,1.2,944.2,M,22.8,M,,0000*55
$GPGSA,M,3,21,30,29,18,06,31,25,,,,,,2.3,1.2,1.9*35
$GPRMC,163513.991,A,3948.1817,S,07036.6608,W,0.48,32.09,120511,,,A*52
$GPGGA,163515.000,3948.1817,S,07036.6608,W,1,08,1.1,943.6,M,22.8,M,,0000*5D
$GPGSA,M,3,21,30,16,29,18,06,31,25,,,,,2.2,1.1,1.9*30
$GPGSV,3,1,11,21,84,127,38,30,61,242,34,16,37,227,28,29,35,101,38*74
$GPGSV,3,2,11,18,28,022,31,06,23,250,32,31,22,316,37,25,20,033,37*7B
$GPGSV,3,3,11,03,12,251,29,22,07,358,38,05,05,146,*45
$GPRMC,163515.000,A,3948.1817,S,07036.6608,W,0.42,99.44,120511,,,A*57
$GPGGA,163516.001,3948.1814,S,07036.6611,W,1,08,1.1,944.2,M,22.8,M,,0000*57
$GPGSA,M,3,21,30,16,29,18,06,31,25,,,,,2.2,1.1,1.9*30
$GPRMC,163516.001,A,3948.1814,S,07036.6611,W,0.27,57.08,120511,,,A*57
$GPGGA,163517.002,3948.1813,S,07036.6612,W,1,08,1.1,943.9,M,22.8,M,,0000*5D
$GPGSA,M,3,21,30,16,29,18,06,31,25,,,,,2.2,1.1,1.9*30
$GPRMC,163517.002,A,3948.1813,S,07036.6612,W,0.45,139.53,120511,,,A*62
$GPGGA,163517.998,3948.1812,S,07036.6614,W,1,07,1.2,943.9,M,22.8,M,,0000*5C
$GPGSA,M,3,21,30,29,18,06,31,25,,,,,,2.3,1.2,1.9*35
$GPRMC,163517.998,A,3948.1812,S,07036.6614,W,0.25,116.19,120511,,,A*6A
$GPGGA,163518.999,3948.1811,S,07036.6614,W,1,08,1.1,943.8,M,22.8,M,,0000*5C
$GPGSA,M,3,21,30,16,29,18,06,31,25,,,,,2.2,1.1,1.9*30
$GPRMC,163518.999,A,3948.1811,S,07036.6614,W,0.31,111.36,120511,,,A*68
$GPGGA,163520.009,3948.1810,S,07036.6612,W,1,08,1.1,944.5,M,22.8,M,,0000*5A
$GPGSA,M,3,21,30,16,29,18,06,31,25,,,,,2.2,1.1,1.9*30
$GPGSV,3,1,11,21,84,127,39,30,61,242,30,16,37,227,26,29,35,101,40*70
$GPGSV,3,2,11,18,28,022,30,06,23,250,37,31,22,316,38,25,20,033,39*7E
$GPGSV,3,3,11,03,12,251,30,22,07,358,38,05,05,146,*4D
$GPRMC,163520.009,A,3948.1810,S,07036.6612,W,0.35,35.97,120511,,,A*5C
$GPGGA,163520.992,3948.1810,S,07036.6613,W,1,07,1.2,944.1,M,22.8,M,,0000*58
$GPGSA,M,3,21,30,29,18,06,31,25,,,,,,2.3,1.2,1.9*35
$GPRMC,163520.992,A,3948.1810,S,07036.6613,W,0.25,292.18,120511,,,A*6F
$GPGGA,163521.999,3948.1810,S,07036.6613,W,1,08,1.1,943.2,M,22.8,M,,0000*5A
$GPGSA,M,3,21,30,16,29,18,06,31,25,,,,,2.2,1.1,1.9*30
$GPRMC,163521.999,A,3948.1810,S,07036.6613,W,0.38,44.92,120511,,,A*52
$GPGGA,163522.999,3948.1809,S,07036.6613,W,1,08,1.1,943.1,M,22.8,M,,0000*52
$GPGSA,M,3,21,30,16,29,18,06,31,25,,,,,2.2,1.1,1.9*30
$GPRMC,163522.999,A,3948.1809,S,07036.6613,W,0.16,13.99,120511,,,A*5C
$GPGGA,163524.000,3948.1810,S,07036.6613,W,1,07,1.2,943.4,M,22.8,M,,0000*5C
$GPGSA,M,3,21,30,29,18,06,31,25,,,,,,2.3,1.2,1.9*35
$GPRMC,163524.000,A,3948.1810,S,07036.6613,W,0.49,118.45,120511,,,A*6A
$GPGGA,163525.001,3948.1811,S,07036.6611,W,1,08,1.1,942.8,M,22.8,M,,0000*5E
$GPGSA,M,3,21,30,16,29,18,06,31,25,,,,,2.2,1.1,1.9*30
$GPGSV,3,1,11,21,84,127,40,30,61,242,37,16,37,227,29,29,35,101,40*76
$GPGSV,3,2,11,18,28,022,30,06,23,250,37,31,22,316,37,25,20,033,39*71
$GPGSV,3,3,11,03,12,251,31,22,07,358,38,05,05,146,*4C
$GPRMC,163525.001,A,3948.1811,S,07036.6611,W,0.17,3.22,120511,,,A*68
$GPGGA,163526.000,3948.1810,S,07036.6613,W,1,07,1.2,942.7,M,22.8,M,,0000*5C
$GPGSA,M,3,21,30,16,29,18,06,31,,,,,,2.3,1.2,2.0*3F
$GPRMC,163526.000,A,3948.1810,S,07036.6613,W,0.19,163.91,120511,,,A*68
$GPGGA,163527.000,3948.1810,S,07036.6615,W,1,07,1.2,942.7,M,22.8,M,,0000*5B
$GPGSA,M,3,21,30,29,18,06,31,25,,,,,,2.3,1.2,1.9*35
$GPRMC,163527.000,A,3948.1810,S,07036.6615,W,0.31,151.11,120511,,,A*6C
$GPGGA,163528.001,3948.1811,S,07036.6615,W,1,07,1.2,942.6,M,22.8,M,,0000*55
$GPGSA,M,3,21,30,29,18,06,31,25,,,,,,2.3,1.2,1.9*35
$GPRMC,163528.001,A,3948.1811,S,07036.6615,W,0.40,142.73,120511,,,A*63
$GPGGA,163529.001,3948.1811,S,07036.6616,W,1,07,1.2,943.8,M,22.8,M,,0000*58
$GPGSA,M,3,21,30,29,18,06,31,25,,,,,,2.3,1.2,1.9*35
$GPRMC,163529.001,A,3948.1811,S,07036.6616,W,0.51,38.31,120511,,,A*5B
$GPGGA,163529.999,3948.1812,S,07036.6614,W,1,08,1.1,943.2,M,22.8,M,,0000*57
$GPGSA,M,3,21,30,16,29,18,06,31,25,,,,,2.2,1.1,1.9*30
$GPGSV,3,1,11,21,84,127,39,30,61,242,37,16,37,227,32,29,35,101,38*7D
$GPGSV,3,2,11,18,28,022,31,06,23,250,29,31,22,316,38,25,20,033,36*7F
$GPGSV,3,3,11,03,12,251,31,22,07,358,37,05,05,146,*43
$GPRMC,163529.999,A,3948.1812,S,07036.6614,W,0.06,223.76,120511,,,A*6B
$GPGGA,163531.000,3948.1811,S,07036.6615,W,1,08,1.1,943.3,M,22.8,M,,0000*54
$GPGSA,M,3,21,30,16,29,18,06,31,25,,,,,2.2,1.1,1.9*30
$GPRMC,163531.000,A,3948.1811,S,07036.6615,W,0.77,306.37,120511,,,A*6C
$GPGGA,163532.003,3948.1809,S,07036.6616,W,1,08,1.1,943.3,M,22.8,M,,0000*5E
$GPGSA,M,3,21,30,16,29,18,06,31,25,,,,,2.2,1.1,1.9*30
$GPRMC,163532.003,A,3948.1809,S,07036.6616,W,0.11,134.19,120511,,,A*69
$GPGGA,163532.999,3948.1813,S,07036.6617,W,1,08,1.1,942.7,M,22.8,M,,0000*5B
$GPGSA,M,3,21,30,16,29,18,06,31,25,,,,,2.2,1.1,1.9*30
$GPRMC,163532.999,A,3948.1813,S,07036.6617,W,1.25,256.56,120511,,,A*63
$GPGGA,163534.000,3948.1815,S,07036.6619,W,1,08,1.1,942.1,M,22.8,M,,0000*5A
$GPGSA,M,3,21,30,16,29,18,06,31,25,,,,,2.2,1.1,1.9*30
$GPRMC,163534.000,A,3948.1815,S,07036.6619,W,0.35,236.35,120511,,,A*67
$GPGGA,163534.999,3948.1817,S,07036.6623,W,1,08,1.1,942.1,M,22.8,M,,0000*58
$GPGSA,M,3,21,30,16,29,18,06,31,25,,,,,2.2,1.1,1.9*30
$GPGSV,3,1,11,21,84,127,41,30,61,242,41,16,37,227,39,29,35,101,40*77
$GPGSV,3,2,11,18,28,022,31,06,23,250,28,31,22,316,38,25,20,033,38*70
$GPGSV,3,3,11,03,12,251,30,22,07,358,37,05,05,146,*42
$GPRMC,163534.999,A,3948.1817,S,07036.6623,W,1.06,250.99,120511,,,A*62
$GPGGA,163535.999,3948.1816,S,07036.6628,W,1,08,1.1,941.8,M,22.8,M,,0000*59
$GPGSA,M,3,21,30,16,29,18,06,31,25,,,,,2.2,1.1,1.9*30
$GPRMC,163535.999,A,3948.1816,S,07036.6628,W,0.73,296.41,120511,,,A*65
$GPGGA,163537.003,3948.1815,S,07036.6629,W,1,08,1.1,941.4,M,22.8,M,,0000*5F
$GPGSA,M,3,21,30,16,29,18,06,31,25,,,,,2.2,1.1,1.9*30
$GPRMC,163537.003,A,3948.1815,S,07036.6629,W,0.76,271.57,120511,,,A*64
$GPGGA,163538.003,3948.1816,S,07036.6631,W,1,08,1.1,940.5,M,22.8,M,,0000*5A
$GPGSA,M,3,21,30,16,29,18,06,31,25,,,,,2.2,1.1,1.9*30
$GPRMC,163538.003,A,3948.1816,S,07036.6631,W,0.41,162.74,120511,,,A*65
$GPGGA,163539.000,3948.1819,S,07036.6629,W,1,08,1.1,940.7,M,22.8,M,,0000*5C
$GPGSA,M,3,21,30,16,29,18,06,31,25,,,,,2.2,1.1,1.9*30
$GPRMC,163539.000,A,3948.1819,S,07036.6629,W,0.21,30.31,120511,,,A*50
$GPGGA,163539.994,3948.1818,S,07036.6631,W,1,08,1.1,941.0,M,22.8,M,,0000*56
$GPGSA,M,3,21,30,16,29,18,06,31,25,,,,,2.2,1.1,1.9*30
$GPGSV,3,1,11,21,84,127,40,30,61,242,41,16,37,227,39,29,35,101,39*78
$GPGSV,3,2,11,18,28,022,33,06,23,250,28,31,22,316,38,25,20,033,38*72
$GPGSV,3,3,11,03,12,251,29,22,07,358,38,05,05,146,*45
$GPRMC,163539.994,A,3948.1818,S,07036.6631,W,0.01,173.86,120511,,,A*64
$GPGGA,163541.003,3948.1817,S,07036.6631,W,1,08,1.1,940.8,M,22.8,M,,0000*58
$GPGSA,M,3,21,30,16,29,18,06,31,25,,,,,2.2,1.1,1.9*30
$GPRMC,163541.003,A,3948.1817,S,07036.6631,W,0.37,301.82,120511,,,A*65
$GPGGA,163541.998,3948.1819,S,07036.6629,W,1,07,1.2,940.7,M,22.8,M,,0000*57
$GPGSA,M,3,21,30,16,29,18,31,25,,,,,,2.5,1.2,2.2*3A
$GPRMC,163541.998,A,3948.1819,S,07036.6629,W,0.37,109.05,120511,,,A*6C
$GPGGA,163543.003,3948.1820,S,07036.6628,W,1,07,1.2,940.5,M,22.8,M,,0000*57
$GPGSA,M,3,21,30,16,29,18,31,25,,,,,,2.5,1.2,2.2*3A
$GPRMC,163543.003,A,3948.1820,S,07036.6628,W,0.19,114.96,120511,,,A*64
$GPGGA,163543.996,3948.1820,S,07036.6630,W,1,08,1.1,940.9,M,22.8,M,,0000*5B
$GPGSA,M,3,21,30,16,29,18,06,31,25,,,,,2.2,1.1,1.9*30
$GPRMC,163543.996,A,3948.1820,S,07036.6630,W,0.32,215.74,120511,,,A*6F
$GPGGA,163545.001,3948.1824,S,07036.6629,W,1,07,1.2,940.3,M,22.8,M,,0000*50
$GPGSA,M,3,21,30,16,29,18,31,25,,,,,,2.5,1.2,2.2*3A
$GPGSV,3,1,11,21,84,127,38,30,61,242,39,16,37,227,37,29,35,101,38*77
$GPGSV,3,2,11,18,28,022,30,06,23,250,,31,22,316,37,25,20,033,37*7B
$GPGSV,3,3,11,03,12,251,28,22,07,358,36,05,05,146,*4A
$GPRMC,163545.001,A,3948.1824,S,07036.6629,W,0.25,96.30,120511,,,A*5D
$GPGGA,163546.010,3948.1822,S,07036.6629,W,1,07,1.2,939.6,M,22.8,M,,0000*5E
$GPGSA,M,3,21,30,16,29,18,31,25,,,,,,2.5,1.2,2.2*3A
$GPRMC,163546.010,A,3948.1822,S,07036.6629,W,0.14,183.79,120511,,,A*62
$GPGGA,163546.996,3948.1822,S,07036.6630,W,1,07,1.2,940.6,M,22.8,M,,0000*5F
$GPGSA,M,3,21,30,16,29,18,31,25,,,,,,2.5,1.2,2.2*3A
$GPRMC,163546.996,A,3948.1822,S,07036.6630,W,0.35,347.91,120511,,,A*62
$GPGGA,163547.994,3948.1820,S,07036.6630,W,1,07,1.2,940.4,M,22.8,M,,0000*5C
$GPGSA,M,3,21,30,16,29,18,31,25,,,,,,2.5,1.2,2.2*3A
$GPRMC,163547.994,A,3948.1820,S,07036.6630,W,0.43,154.81,120511,,,A*63
$GPGGA,163548.999,3948.1820,S,07036.6630,W,1,07,1.2,941.7,M,22.8,M,,0000*5C
$GPGSA,M,3,21,30,16,29,18,31,25,,,,,,2.5,1.2,2.2*3A
$GPRMC,163548.999,A,3948.1820,S,07036.6630,W,0.43,147.86,120511,,,A*64
$GPGGA,163550.000,3948.1822,S,07036.6629,W,1,07,1.2,941.4,M,22.8,M,,0000*55
$GPGSA,M,3,21,30,16,29,18,31,25,,,,,,2.5,1.2,2.2*3A
$GPGSV,3,1,11,21,84,127,41,30,61,242,40,16,37,227,38,29,35,101,40*77
$GPGSV,3,2,11,18,28,022,31,06,23,250,,31,22,316,38,25,20,033,38*7A
$GPGSV,3,3,11,03,12,251,30,22,07,358,37,05,05,146,*42
$GPRMC,163550.000,A,3948.1822,S,07036.6629,W,0.06,196.04,120511,,,A*69
$GPGGA,163551.002,3948.1821,S,07036.6633,W,1,07,1.2,941.5,M,22.8,M,,0000*5F
$GPGSA,M,3,21,30,16,29,18,31,25,,,,,,2.5,1.2,2.2*3A
$GPRMC,163551.002,A,3948.1821,S,07036.6633,W,1.10,250.68,120511,,,A*67
$GPGGA,163552.002,3948.1824,S,07036.6636,W,1,08,1.1,940.0,M,22.8,M,,0000*54
$GPGSA,M,3,21,30,16,29,18,06,31,25,,,,,2.2,1.1,1.9*30
$GPRMC,163552.002,A,3948.1824,S,07036.6636,W,0.31,62.86,120511,,,A*55
$GPGGA,163552.999,3948.1825,S,07036.6633,W,1,07,1.2,939.7,M,22.8,M,,0000*5E
$GPGSA,M,3,21,30,16,29,18,31,25,,,,,,2.5,1.2,2.2*3A
$GPRMC,163552.999,A,3948.1825,S,07036.6633,W,0.23,297.66,120511,,,A*6F
$GPGGA,163554.001,3948.1826,S,07036.6633,W,1,08,1.1,940.3,M,22.8,M,,0000*55
$GPGSA,M,3,21,30,16,29,18,06,31,25,,,,,2.2,1.1,1.9*30
$GPRMC,163554.001,A,3948.1826,S,07036.6633,W,0.14,29.70,120511,,,A*56
$GPGGA,163554.994,3948.1827,S,07036.6633,W,1,08,1.1,940.3,M,22.8,M,,0000*51
$GPGSA,M,3,21,30,16,29,18,06,31,25,,,,,2.2,1.1,1.9*30
$GPGSV,3,1,11,21,84,127,40,30,61,242,40,16,37,227,39,29,35,101,39*79
$GPGSV,3,2,11,18,28,022,33,06,23,250,26,31,22,316,39,25,20,033,38*7D
$GPGSV,3,3,11,03,12,251,29,22,07,358,37,05,05,146,*4A
$GPRMC,163554.994,A,3948.1827,S,07036.6633,W,0.28,141.99,120511,,,A*65
$GPGGA,163556.006,3948.1830,S,07036.6629,W,1,08,1.1,940.5,M,22.8,M,,0000*5A
$GPGSA,M,3,21,30,16,29,18,06,31,25,,,,,2.2,1.1,1.9*30
$GPRMC,163556.006,A,3948.1830,S,07036.6629,W,0.24,91.48,120511,,,A*54
$GPGGA,163556.998,3948.1832,S,07036.6631,W,1,07,1.2,940.0,M,22.8,M,,0000*56
$GPGSA,M,3,21,30,16,29,18,31,25,,,,,,2.5,1.2,2.2*3A
$GPRMC,163556.998,A,3948.1832,S,07036.6631,W,0.24,221.63,120511,,,A*61
$GPGGA,163558.006,3948.1831,S,07036.6634,W,1,08,1.1,939.6,M,22.8,M,,0000*54
$GPGSA,M,3,21,30,16,29,18,06,31,25,,,,,2.2,1.1,1.9*30
$GPRMC,163558.006,A,3948.1831,S,07036.6634,W,1.00,49.38,120511,,,A*52
$GPGGA,163558.990,3948.1831,S,07036.6634,W,1,08,1.1,940.6,M,22.8,M,,0000*5C
$GPGSA,M,3,21,30,16,29,18,06,31,25,,,,,2.2,1.1,1.9*30
$GPRMC,163558.990,A,3948.1831,S,07036.6634,W,0.35,331.98,120511,,,A*65
$GPGGA,163600.004,3948.1829,S,07036.6634,W,1,08,1.1,942.6,M,22.8,M,,0000*5D
$GPGSA,M,3,21,30,16,29,18,06,31,25,,,,,2.2,1.1,1.9*30
$GPGSV,3,1,11,21,84,127,38,30,61,242,39,16,37,227,39,29,35,101,39*78
$GPGSV,3,2,11,18,28,022,31,06,23,250,30,31,22,316,38,25,20,033,37*76
$GPGSV,3,3,11,03,12,251,28,22,07,358,37,05,05,146,*4B
$GPRMC,163600.004,A,3948.1829,S,07036.6634,W,0.24,22.89,120511,,,A*57
$GPGGA,163601.001,3948.1829,S,07036.6634,W,1,08,1.1,942.3,M,22.8,M,,0000*5C
$GPGSA,M,3,21,30,16,29,18,06,31,25,,,,,2.2,1.1,1.9*30
$GPRMC,163601.001,A,3948.1829,S,07036.6634,W,0.29,276.22,120511,,,A*6C
$GPGGA,163602.002,3948.1830,S,07036.6633,W,1,08,1.1,942.2,M,22.8,M,,0000*52
$GPGSA,M,3,21,30,16,29,18,06,31,25,,,,,2.2,1.1,1.9*30
$GPRMC,163602.002,A,3948.1830,S,07036.6633,W,0.62,52.07,120511,,,A*5F
$GPGGA,163602.994,3948.1826,S,07036.6634,W,1,08,1.1,943.1,M,22.8,M,,0000*56
$GPGSA,M,3,21,30,16,29,18,06,31,25,,,,,2.2,1.1,1.9*30
$GPRMC,163602.994,A,3948.1826,S,07036.6634,W,0.17,111.54,120511,,,A*6B
$GPGGA,163604.027,3948.1826,S,07036.6633,W,0,00,,943.1,M,22.8,M,,0000*71
$GPGSA,M,1,,,,,,,,,,,,,,,*12
$GPRMC,163604.027,V,3948.1826,S,07036.6633,W,,,120511,,,N*75
$GPGGA,163604.733,3948.1827,S,07036.6633,W,0,00,,943.0,M,22.8,M,,0000*73
$GPGSA,M,1,,,,,,,,,,,,,,,*12
$GPGSV,3,1,11,21,83,129,,30,62,243,,16,38,227,,29,34,100,*7D
$GPGSV,3,2,11,18,28,023,,06,23,250,,31,21,317,,25,20,033,*7B
$GPGSV,3,3,11,03,12,250,,22,07,358,,05,05,146,*44
$GPRMC,163604.733,V,3948.1827,S,07036.6633,W,,,120511,,,N*76
$GPGGA,163605.000,3948.1827,S,07036.6633,W,0,00,,943.0,M,22.8,M,,0000*75
$GPGSA,M,1,,,,,,,,,,,,,,,*12
$GPRMC,163605.000,V,3948.1827,S,07036.6633,W,,,120511,,,N*70
$GPGGA,163606.000,3948.1827,S,07036.6632,W,0,00,,943.0,M,22.8,M,,0000*77
$GPGSA,M,1,,,,,,,,,,,,,,,*12
$GPRMC,163606.000,V,3948.1827,S,07036.6632,W,,,120511,,,N*72
$GPGGA,163607.000,3948.1820,S,07036.6631,W,1,06,1.3,943.7,M,22.8,M,,0000*5E
$GPGSA,M,3,31,18,25,21,16,29,,,,,,,2.7,1.3,2.4*3C
$GPRMC,163607.000,A,3948.1820,S,07036.6631,W,0.23,2.75,120511,,,A*6E
$GPGGA,163608.000,3948.1815,S,07036.6636,W,1,06,1.3,945.3,M,22.8,M,,0000*52
$GPGSA,M,3,31,18,25,21,16,29,,,,,,,2.7,1.3,2.4*3C
$GPRMC,163608.000,A,3948.1815,S,07036.6636,W,0.10,355.49,120511,,,A*6E
$GPGGA,163609.000,3948.1815,S,07036.6639,W,1,06,1.3,946.5,M,22.8,M,,0000*59
$GPGSA,M,3,31,18,25,21,16,29,,,,,,,2.7,1.3,2.4*3C
$GPRMC,163609.000,A,3948.1815,S,07036.6639,W,0.09,13.59,120511,,,A*58
$GPGGA,163610.000,3948.1815,S,07036.6640,W,1,07,1.3,946.8,M,22.8,M,,0000*53
$GPGSA,M,3,31,18,25,21,16,30,29,,,,,,2.5,1.3,2.2*3B
$GPGSV,3,1,11,21,83,129,42,30,62,243,43,16,38,227,40,29,34,100,42*7E
$GPGSV,3,2,11,18,28,023,31,06,23,250,,31,21,317,40,25,20,033,39*77
$GPGSV,3,3,11,03,12,250,19,22,07,358,38,05,05,146,*47
$GPRMC,163610.000,A,3948.1815,S,07036.6640,W,0.26,332.42,120511,,,A*69
$GPGGA,163611.000,3948.1815,S,07036.6641,W,1,08,1.1,948.5,M,22.8,M,,0000*5D
$GPGSA,M,3,31,18,25,21,16,30,29,06,,,,,2.2,1.1,1.9*30
$GPRMC,163611.000,A,3948.1815,S,07036.6641,W,0.10,317.74,120511,,,A*6E
$GPGGA,163612.000,3948.1816,S,07036.6641,W,1,08,1.1,949.3,M,22.8,M,,0000*5A
$GPGSA,M,3,31,18,25,21,16,30,29,06,,,,,2.2,1.1,1.9*30
$GPRMC,163612.000,A,3948.1816,S,07036.6641,W,0.08,5.98,120511,,,A*65
$GPGGA,163613.000,3948.1815,S,07036.6642,W,1,08,1.1,950.2,M,22.8,M,,0000*52
$GPGSA,M,3,31,18,25,21,16,30,29,06,,,,,2.2,1.1,1.9*30
$GPRMC,163613.000,A,3948.1815,S,07036.6642,W,0.10,14.76,120511,,,A*5D
$GPGGA,163614.000,3948.1815,S,07036.6641,W,1,08,1.1,951.1,M,22.8,M,,0000*54
$GPGSA,M,3,31,18,25,21,16,30,29,06,,,,,2.2,1.1,1.9*30
$GPRMC,163614.000,A,3948.1815,S,07036.6641,W,0.11,15.20,120511,,,A*5A
$GPGGA,163615.000,3948.1815,S,07036.6640,W,1,08,1.1,952.1,M,22.8,M,,0000*57
$GPGSA,M,3,31,18,25,21,16,30,29,06,,,,,2.2,1.1,1.9*30
$GPGSV,3,1,11,21,83,129,44,30,62,243,45,16,38,227,43,29,34,100,43*7C
$GPGSV,3,2,11,18,28,023,34,06,23,250,32,31,21,317,42,25,20,033,41*7E
$GPGSV,3,3,11,03,12,250,23,22,07,358,40,05,05,146,*41
$GPRMC,163615.000,A,3948.1815,S,07036.6640,W,0.10,14.84,120511,,,A*54
$GPGGA,163616.000,3948.1815,S,07036.6639,W,1,08,1.1,952.8,M,22.8,M,,0000*53
$GPGSA,M,3,31,18,25,21,16,30,29,06,,,,,2.2,1.1,1.9*30
$GPRMC,163616.000,A,3948.1815,S,07036.6639,W,0.12,12.22,120511,,,A*51
$GPGGA,163617.000,3948.1815,S,07036.6639,W,1,08,1.1,953.5,M,22.8,M,,0000*5E
$GPGSA,M,3,31,18,25,21,16,30,29,06,,,,,2.2,1.1,1.9*30
$GPRMC,163617.000,A,3948.1815,S,07036.6639,W,0.10,33.52,120511,,,A*56
$GPGGA,163618.012,3948.1815,S,07036.6639,W,1,08,1.1,953.5,M,22.8,M,,0000*52
$GPGSA,M,3,21,30,16,29,18,06,31,25,,,,,2.2,1.1,1.9*30
$GPRMC,163618.012,A,3948.1815,S,07036.6639,W,0.20,355.49,120511,,,A*60
$GPGGA,163618.995,3948.1815,S,07036.6640,W,1,08,1.1,953.4,M,22.8,M,,0000*5B
$GPGSA,M,3,21,30,16,29,18,06,31,25,,,,,2.2,1.1,1.9*30
$GPRMC,163618.995,A,3948.1815,S,07036.6640,W,0.36,130.70,120511,,,A*64
$GPGGA,163619.997,3948.1816,S,07036.6638,W,1,08,1.1,953.5,M,22.8,M,,0000*55
$GPGSA,M,3,21,30,16,29,18,06,31,25,,,,,2.2,1.1,1.9*30
$GPGSV,3,1,11,21,83,129,40,30,62,243,40,16,38,227,38,29,34,100,39*7C
$GPGSV,3,2,11,18,28,023,31,06,23,250,29,31,21,317,38,25,20,033,37*7D
$GPGSV,3,3,11,03,12,250,25,22,07,358,37,05,05,146,*47
$GPRMC,163619.997,A,3948.1816,S,07036.6638,W,0.11,66.60,120511,,,A*5D
$GPGGA,163621.001,3948.1816,S,07036.6638,W,1,08,1.1,953.6,M,22.8,M,,0000*5B
$GPGSA,M,3,21,30,16,29,18,06,31,25,,,,,2.2,1.1,1.9*30
$GPRMC,163621.001,A,3948.1816,S,07036.6638,W,0.43,194.17,120511,,,A*6B
$GPGGA,163622.001,3948.1818,S,07036.6638,W,1,08,1.1,953.3,M,22.8,M,,0000*53
$GPGSA,M,3,21,30,16,29,18,06,31,25,,,,,2.2,1.1,1.9*30
$GPRMC,163622.001,A,3948.1818,S,07036.6638,W,0.28,357.70,120511,,,A*67
$GPGGA,163623.001,3948.1817,S,07036.6636,W,1,08,1.1,953.4,M,22.8,M,,0000*54
$GPGSA,M,3,21,30,16,29,18,06,31,25,,,,,2.2,1.1,1.9*30
$GPRMC,163623.001,A,3948.1817,S,07036.6636,W,0.21,123.01,120511,,,A*69
$GPGGA,163624.001,3948.1818,S,07036.6635,W,1,08,1.1,953.7,M,22.8,M,,0000*5C
