$GPGGA,190842.000,2346.9451,S,07019.0105,W,1,07,2.0,396.1,M,34.0,M,,0000*5B
$GPGSA,M,3,22,16,18,06,03,21,19,,,,,,3.1,2.0,2.3*3F
$GPRMC,190842.000,A,2346.9451,S,07019.0105,W,0.70,346.03,020511,,,A*64
$GPGGA,190842.999,2346.9446,S,07019.0105,W,1,07,2.0,394.7,M,34.0,M,,0000*50
$GPGSA,M,3,22,16,18,06,03,21,19,,,,,,3.1,2.0,2.3*3F
$GPRMC,190842.999,A,2346.9446,S,07019.0105,W,0.94,359.35,020511,,,A*6A
$GPGGA,190843.999,2346.9444,S,07019.0105,W,1,07,2.0,395.1,M,34.0,M,,0000*54
$GPGSA,M,3,22,16,18,06,03,21,19,,,,,,3.1,2.0,2.3*3F
$GPGSV,3,1,12,22,76,033,36,16,63,266,29,30,61,322,,18,54,125,28*74
$GPGSV,3,2,12,06,49,202,36,03,38,214,30,21,23,131,36,14,12,028,*71
$GPGSV,3,3,12,19,12,229,39,29,05,067,,31,02,346,,15,01,128,*72
$GPRMC,190843.999,A,2346.9444,S,07019.0105,W,0.82,31.68,020511,,,A*5B
$GPGGA,190845.000,2346.9449,S,07019.0107,W,1,07,2.0,396.1,M,34.0,M,,0000*57
$GPGSA,M,3,22,16,18,06,03,21,19,,,,,,3.1,2.0,2.3*3F
$GPRMC,190845.000,A,2346.9449,S,07019.0107,W,0.87,355.93,020511,,,A*6B
$GPGGA,190845.997,2346.9451,S,07019.0109,W,1,07,2.0,396.9,M,34.0,M,,0000*5F
$GPGSA,M,3,22,16,18,06,03,21,19,,,,,,3.1,2.0,2.3*3F
$GPRMC,190845.997,A,2346.9451,S,07019.0109,W,1.25,353.89,020511,,,A*6F
$GPGGA,190847.000,2346.9451,S,07019.0107,W,1,07,2.0,396.4,M,34.0,M,,0000*59
$GPGSA,M,3,22,16,18,06,03,21,19,,,,,,3.1,2.0,2.3*3F
$GPRMC,190847.000,A,2346.9451,S,07019.0107,W,1.05,24.08,020511,,,A*5C
$GPGGA,190848.004,2346.9446,S,07019.0109,W,1,07,2.0,395.8,M,34.0,M,,0000*55
$GPGSA,M,3,22,16,18,06,03,21,19,,,,,,3.1,2.0,2.3*3F
$GPRMC,190848.004,A,2346.9446,S,07019.0109,W,1.08,315.97,020511,,,A*65
$GPGGA,190848.996,2346.9439,S,07019.0110,W,1,07,2.0,394.2,M,34.0,M,,0000*5C
$GPGSA,M,3,22,16,18,06,03,21,19,,,,,,3.1,2.0,2.3*3F
$GPGSV,3,1,12,22,76,033,35,16,63,266,31,30,61,322,,18,54,125,27*71
$GPGSV,3,2,12,06,49,202,34,03,38,214,32,21,23,131,35,14,12,028,29*79
$GPGSV,3,3,12,19,12,229,39,29,05,067,,31,02,346,,15,01,128,*72
$GPRMC,190848.996,A,2346.9439,S,07019.0110,W,0.36,6.96,020511,,,A*6B
$GPGGA,190850.004,2346.9430,S,07019.0109,W,1,07,2.0,392.4,M,34.0,M,,0000*56
$GPGSA,M,3,22,16,18,06,03,21,19,,,,,,3.1,2.0,2.3*3F
$GPRMC,190850.004,A,2346.9430,S,07019.0109,W,0.68,339.67,020511,,,A*6B
$GPGGA,190850.999,2346.9426,S,07019.0108,W,1,07,2.0,391.7,M,34.0,M,,0000*5D
$GPGSA,M,3,22,16,18,06,03,21,19,,,,,,3.1,2.0,2.3*3F
$GPRMC,190850.999,A,2346.9426,S,07019.0108,W,0.34,344.06,020511,,,A*64
$GPGGA,190852.001,2346.9417,S,07019.0105,W,1,07,2.0,389.4,M,34.0,M,,0000*52
$GPGSA,M,3,22,16,18,06,03,21,19,,,,,,3.1,2.0,2.3*3F
$GPRMC,190852.001,A,2346.9417,S,07019.0105,W,0.64,8.28,020511,,,A*63
$GPGGA,190853.000,2346.9417,S,07019.0103,W,1,07,2.0,388.3,M,34.0,M,,0000*52
$GPGSA,M,3,22,16,18,06,03,21,19,,,,,,3.1,2.0,2.3*3F
$GPRMC,190853.000,A,2346.9417,S,07019.0103,W,0.56,9.03,020511,,,A*6C
$GPGGA,190853.999,2346.9415,S,07019.0102,W,1,07,2.0,387.7,M,34.0,M,,0000*53
$GPGSA,M,3,22,16,18,06,03,21,19,,,,,,3.1,2.0,2.3*3F
$GPGSV,3,1,12,22,76,033,36,16,63,266,34,30,61,322,,18,54,125,27*77
$GPGSV,3,2,12,06,49,202,36,03,38,214,32,21,23,131,36,14,12,028,*73
$GPGSV,3,3,12,19,12,229,39,29,05,067,,31,02,346,,15,01,128,*72
$GPRMC,190853.999,A,2346.9415,S,07019.0102,W,0.58,349.00,020511,,,A*6C
$GPGGA,190855.000,2346.9416,S,07019.0101,W,1,07,2.0,387.5,M,34.0,M,,0000*5E
$GPGSA,M,3,22,16,18,06,03,21,19,,,,,,3.1,2.0,2.3*3F
$GPRMC,190855.000,A,2346.9416,S,07019.0101,W,0.67,13.52,020511,,,A*54
$GPGGA,190855.997,2346.9420,S,07019.0103,W,1,07,2.0,388.2,M,34.0,M,,0000*56
$GPGSA,M,3,22,16,18,06,03,21,19,,,,,,3.1,2.0,2.3*3F
$GPRMC,190855.997,A,2346.9420,S,07019.0103,W,0.22,239.52,020511,,,A*6F
$GPGGA,190857.002,2346.9415,S,07019.0100,W,1,07,2.0,386.7,M,34.0,M,,0000*5F
$GPGSA,M,3,22,16,18,06,03,21,19,,,,,,3.1,2.0,2.3*3F
$GPRMC,190857.002,A,2346.9415,S,07019.0100,W,0.30,295.05,020511,,,A*6A
$GPGGA,190857.998,2346.9411,S,07019.0102,W,1,07,2.0,386.7,M,34.0,M,,0000*53
$GPGSA,M,3,22,16,18,06,03,21,19,,,,,,3.1,2.0,2.3*3F
$GPRMC,190857.998,A,2346.9411,S,07019.0102,W,0.62,353.65,020511,,,A*6C
$GPGGA,190859.005,2346.9407,S,07019.0099,W,1,07,2.0,386.0,M,34.0,M,,0000*53
$GPGSA,M,3,22,16,18,06,03,21,19,,,,,,3.1,2.0,2.3*3F
$GPGSV,3,1,12,22,76,033,36,16,63,266,30,30,61,322,,18,54,125,31*74
$GPGSV,3,2,12,06,49,202,36,03,38,214,32,21,23,131,36,14,12,028,30*70
$GPGSV,3,3,12,19,12,229,39,29,05,067,,31,02,346,,15,01,128,*72
$GPRMC,190859.005,A,2346.9407,S,07019.0099,W,1.42,348.89,020511,,,A*60
$GPGGA,190859.996,2346.9413,S,07019.0097,W,1,07,2.0,386.2,M,34.0,M,,0000*59
$GPGSA,M,3,22,16,18,06,03,21,19,,,,,,3.1,2.0,2.3*3F
$GPRMC,190859.996,A,2346.9413,S,07019.0097,W,0.15,51.07,020511,,,A*56
$GPGGA,190900.999,2346.9418,S,07019.0095,W,1,07,2.0,386.7,M,34.0,M,,0000*57
$GPGSA,M,3,22,16,18,06,03,21,19,,,,,,3.1,2.0,2.3*3F
$GPRMC,190900.999,A,2346.9418,S,07019.0095,W,0.99,71.94,020511,,,A*51
$GPGGA,190901.999,2346.9416,S,07019.0091,W,1,07,2.0,385.9,M,34.0,M,,0000*51
$GPGSA,M,3,22,16,18,06,03,21,19,,,,,,3.1,2.0,2.3*3F
$GPRMC,190901.999,A,2346.9416,S,07019.0091,W,0.77,38.48,020511,,,A*56
$GPGGA,190903.003,2346.9420,S,07019.0091,W,1,06,2.1,387.2,M,34.0,M,,0000*55
$GPGSA,M,3,22,16,06,03,21,19,,,,,,,3.2,2.1,2.4*33
$GPRMC,190903.003,A,2346.9420,S,07019.0091,W,0.41,346.19,020511,,,A*60
$GPGGA,190903.997,2346.9416,S,07019.0090,W,1,08,1.6,386.1,M,34.0,M,,0000*5D
$GPGSA,M,3,22,16,30,18,06,03,21,19,,,,,2.7,1.6,2.2*3F
$GPGSV,3,1,12,22,76,033,35,16,63,266,28,30,61,322,26,18,54,125,28*72
$GPGSV,3,2,12,06,49,202,35,03,38,214,31,21,23,131,35,14,12,028,34*77
$GPGSV,3,3,12,19,12,229,39,29,05,067,,31,02,346,,15,01,128,*72
$GPRMC,190903.997,A,2346.9416,S,07019.0090,W,0.48,17.93,020511,,,A*5C
$GPGGA,190904.998,2346.9419,S,07019.0090,W,1,07,2.0,387.0,M,34.0,M,,0000*50
$GPGSA,M,3,22,16,18,06,03,21,19,,,,,,3.1,2.0,2.3*3F
$GPRMC,190904.998,A,2346.9419,S,07019.0090,W,0.44,320.04,020511,,,A*6E
$GPGGA,190906.001,2346.9412,S,07019.0083,W,1,07,2.0,385.0,M,34.0,M,,0000*50
$GPGSA,M,3,22,16,18,06,03,21,19,,,,,,3.1,2.0,2.3*3F
$GPRMC,190906.001,A,2346.9412,S,07019.0083,W,0.44,17.48,020511,,,A*53
$GPGGA,190907.002,2346.9415,S,07019.0081,W,1,06,2.3,385.0,M,34.0,M,,0000*55
$GPGSA,M,3,22,16,18,06,21,19,,,,,,,3.4,2.3,2.5*3C
$GPRMC,190907.002,A,2346.9415,S,07019.0081,W,0.51,234.09,020511,,,A*66
$GPGGA,190907.998,2346.9416,S,07019.0078,W,1,07,1.9,384.8,M,34.0,M,,0000*5B
$GPGSA,M,3,22,16,30,18,06,03,19,,,,,,3.5,1.9,2.9*3B
$GPRMC,190907.998,A,2346.9416,S,07019.0078,W,0.73,184.14,020511,,,A*6D
$GPGGA,190909.001,2346.9407,S,07019.0082,W,1,06,2.0,384.4,M,34.0,M,,0000*5E
$GPGSA,M,3,22,30,18,03,21,19,,,,,,,3.4,2.0,2.8*33
$GPGSV,3,1,12,22,76,033,32,16,63,266,,30,61,322,25,18,54,125,31*74
$GPGSV,3,2,12,06,49,202,,03,38,214,37,21,23,131,35,14,12,028,35*76
$GPGSV,3,3,12,19,12,229,39,29,05,067,,31,02,346,,15,01,128,*72
$GPRMC,190909.001,A,2346.9407,S,07019.0082,W,0.33,225.59,020511,,,A*6A
$GPGGA,190909.998,2346.9425,S,07019.0080,W,1,06,2.3,386.0,M,34.0,M,,0000*50
$GPGSA,M,3,22,16,30,18,03,19,,,,,,,4.1,2.3,3.4*3B
$GPRMC,190909.998,A,2346.9425,S,07019.0080,W,1.65,189.58,020511,,,A*67
$GPGGA,190911.001,2346.9430,S,07019.0078,W,1,06,1.7,385.9,M,34.0,M,,0000*5E
$GPGSA,M,3,30,18,06,03,21,19,,,,,,,2.8,1.7,2.3*37
$GPRMC,190911.001,A,2346.9430,S,07019.0078,W,1.77,181.79,020511,,,A*6C
$GPGGA,190912.000,2346.9440,S,07019.0073,W,1,07,1.6,386.2,M,34.0,M,,0000*58
$GPGSA,M,3,16,30,18,06,03,21,19,,,,,,2.7,1.6,2.2*3F
$GPRMC,190912.000,A,2346.9440,S,07019.0073,W,3.47,159.06,020511,,,A*6E
$GPGGA,190912.999,2346.9451,S,07019.0069,W,1,08,1.6,386.8,M,34.0,M,,0000*5F
$GPGSA,M,3,22,16,30,18,06,03,21,19,,,,,2.7,1.6,2.2*3F
$GPRMC,190912.999,A,2346.9451,S,07019.0069,W,2.77,174.24,020511,,,A*61
$GPGGA,190914.002,2346.9461,S,07019.0068,W,1,05,1.7,387.1,M,34.0,M,,0000*54
$GPGSA,M,3,30,06,03,21,19,,,,,,,,3.0,1.7,2.4*30
$GPGSV,3,1,12,22,76,033,,16,63,266,,30,61,322,34,18,54,125,*77
$GPGSV,3,2,12,06,49,202,32,03,38,214,29,21,23,131,28,14,12,028,24*74
$GPGSV,3,3,12,19,12,229,36,29,05,067,22,31,02,346,,15,01,128,*7D
$GPRMC,190914.002,A,2346.9461,S,07019.0068,W,2.10,181.88,020511,,,A*63
$GPGGA,190914.997,2346.9459,S,07019.0065,W,1,07,1.9,385.9,M,34.0,M,,0000*51
$GPGSA,M,3,22,16,30,18,06,03,19,,,,,,3.5,1.9,2.9*3B
$GPRMC,190914.997,A,2346.9459,S,07019.0065,W,1.41,177.56,020511,,,A*6D
$GPGGA,190916.001,2346.9457,S,07019.0062,W,1,06,1.7,384.5,M,34.0,M,,0000*5E
$GPGSA,M,3,16,30,06,03,21,19,,,,,,,2.8,1.7,2.3*39
$GPRMC,190916.001,A,2346.9457,S,07019.0062,W,0.23,155.20,020511,,,A*64
$GPGGA,190917.004,2346.9452,S,07019.0064,W,1,07,1.9,384.1,M,34.0,M,,0000*52
$GPGSA,M,3,22,16,30,18,06,03,19,,,,,,3.5,1.9,2.9*3B
$GPRMC,190917.004,A,2346.9452,S,07019.0064,W,0.72,316.85,020511,,,A*6D
$GPGGA,190917.998,2346.9447,S,07019.0063,W,1,08,1.6,383.9,M,34.0,M,,0000*52
$GPGSA,M,3,22,16,30,18,06,03,21,19,,,,,2.7,1.6,2.1*3C
$GPRMC,190917.998,A,2346.9447,S,07019.0063,W,0.97,1.34,020511,,,A*66
$GPGGA,190918.998,2346.9450,S,07019.0065,W,1,07,1.9,384.1,M,34.0,M,,0000*52
$GPGSA,M,3,22,16,30,18,06,03,19,,,,,,3.5,1.9,2.9*3B
$GPGSV,3,1,12,22,76,033,27,16,63,266,37,30,61,322,32,18,54,125,29*7B
$GPGSV,3,2,12,06,49,202,34,03,38,214,30,21,23,131,,14,12,028,33*76
$GPGSV,3,3,12,19,12,229,37,29,05,067,,31,02,346,,15,01,128,*7C
$GPRMC,190918.998,A,2346.9450,S,07019.0065,W,0.60,6.77,020511,,,A*61
$GPGGA,190920.004,2346.9450,S,07019.0064,W,1,07,1.9,384.9,M,34.0,M,,0000*5C
$GPGSA,M,3,22,16,30,18,06,03,19,,,,,,3.5,1.9,2.9*3B
$GPRMC,190920.004,A,2346.9450,S,07019.0064,W,0.07,71.76,020511,,,A*57
$GPGGA,190920.998,2346.9461,S,07019.0065,W,1,06,2.0,386.6,M,34.0,M,,0000*55
$GPGSA,M,3,16,30,18,06,03,19,,,,,,,3.5,2.0,2.9*31
$GPRMC,190920.998,A,2346.9461,S,07019.0065,W,0.77,311.87,020511,,,A*64
$GPGGA,190922.000,2346.9466,S,07019.0065,W,1,07,1.9,388.1,M,34.0,M,,0000*5A
$GPGSA,M,3,22,16,30,18,06,03,19,,,,,,3.5,1.9,2.9*3B
$GPRMC,190922.000,A,2346.9466,S,07019.0065,W,0.52,296.56,020511,,,A*6C
$GPGGA,190923.001,2346.9458,S,07019.0060,W,1,08,1.6,386.0,M,34.0,M,,0000*5D
$GPGSA,M,3,22,16,30,18,06,03,21,19,,,,,2.7,1.6,2.1*3C
$GPRMC,190923.001,A,2346.9458,S,07019.0060,W,0.71,49.26,020511,,,A*52
$GPGGA,190924.003,2346.9444,S,07019.0061,W,1,07,1.7,384.4,M,34.0,M,,0000*5C
$GPGSA,M,3,22,16,30,06,03,21,19,,,,,,2.8,1.7,2.2*38
$GPGSV,3,1,12,22,76,033,28,16,63,266,38,30,61,322,31,18,54,125,*73
$GPGSV,3,2,12,06,49,202,36,03,38,214,33,21,23,131,26,14,12,028,33*73
$GPGSV,3,3,12,19,12,229,38,29,05,067,25,31,02,346,,15,01,128,*74
$GPRMC,190924.003,A,2346.9444,S,07019.0061,W,0.88,348.16,020511,,,A*6C
$GPGGA,190924.996,2346.9437,S,07019.0060,W,1,08,1.6,382.9,M,34.0,M,,0000*59
$GPGSA,M,3,22,16,30,18,06,03,21,19,,,,,2.7,1.6,2.1*3C
$GPRMC,190924.996,A,2346.9437,S,07019.0060,W,0.31,13.93,020511,,,A*5E
$GPGGA,190926.000,2346.9439,S,07019.0064,W,1,08,1.6,383.4,M,34.0,M,,0000*5B
$GPGSA,M,3,22,16,30,18,06,03,21,19,,,,,2.7,1.6,2.1*3C
$GPRMC,190926.000,A,2346.9439,S,07019.0064,W,1.19,293.90,020511,,,A*62
$GPGGA,190927.000,2346.9442,S,07019.0067,W,1,07,1.9,384.0,M,34.0,M,,0000*56
$GPGSA,M,3,22,16,30,18,06,03,19,,,,,,3.5,1.9,2.9*3B
$GPRMC,190927.000,A,2346.9442,S,07019.0067,W,0.44,262.51,020511,,,A*66
$GPGGA,190928.000,2346.9439,S,07019.0073,W,1,08,1.6,384.5,M,34.0,M,,0000*55
$GPGSA,M,3,22,16,30,18,06,03,21,19,,,,,2.7,1.6,2.1*3C
$GPRMC,190928.000,A,2346.9439,S,07019.0073,W,0.79,301.46,020511,,,A*6C
$GPGGA,190929.000,2346.9433,S,07019.0076,W,1,08,1.6,383.9,M,34.0,M,,0000*50
$GPGSA,M,3,22,16,30,18,06,03,21,19,,,,,2.7,1.6,2.1*3C
$GPGSV,3,1,12,22,76,033,26,16,63,266,33,30,61,322,30,18,54,125,27*72
$GPGSV,3,2,12,06,49,202,36,03,38,214,33,21,23,131,29,14,12,028,33*7C
$GPGSV,3,3,12,19,12,229,32,29,05,067,,31,02,346,,15,01,128,*79
$GPRMC,190929.000,A,2346.9433,S,07019.0076,W,0.79,315.27,020511,,,A*60
$GPGGA,190930.000,2346.9424,S,07019.0082,W,1,07,1.6,383.5,M,34.0,M,,0000*56
$GPGSA,M,3,16,30,18,06,03,21,19,,,,,,2.7,1.6,2.2*3F
$GPRMC,190930.000,A,2346.9424,S,07019.0082,W,1.06,318.57,020511,,,A*66
$GPGGA,190931.000,2346.9425,S,07019.0082,W,1,07,1.6,384.3,M,34.0,M,,0000*57
$GPGSA,M,3,16,30,18,06,03,21,19,,,,,,2.7,1.6,2.2*3F
$GPRMC,190931.000,A,2346.9425,S,07019.0082,W,0.30,348.43,020511,,,A*62
$GPGGA,190931.997,2346.9420,S,07019.0091,W,1,08,1.6,385.7,M,34.0,M,,0000*5D
$GPGSA,M,3,22,16,30,18,06,03,21,19,,,,,2.7,1.6,2.1*3C
$GPRMC,190931.997,A,2346.9420,S,07019.0091,W,0.32,2.33,020511,,,A*6A
$GPGGA,190933.000,2346.9418,S,07019.0096,W,1,08,1.6,385.7,M,34.0,M,,0000*54
$GPGSA,M,3,22,16,30,18,06,03,21,19,,,,,2.7,1.6,2.1*3C
$GPRMC,190933.000,A,2346.9418,S,07019.0096,W,0.52,133.60,020511,,,A*60
$GPGGA,190934.026,2346.9419,S,07019.0095,W,0,00,,385.9,M,34.0,M,,0000*7B
$GPGSA,M,1,,,,,,,,,,,,,,,*12
$GPGSV,3,1,12,22,77,035,,16,63,268,,30,60,323,,18,53,126,*7D
$GPGSV,3,2,12,06,50,202,,03,38,214,,21,23,131,,19,12,229,*74
$GPGSV,3,3,12,29,05,067,,31,02,347,,14,12,028,,15,01,128,*77
$GPRMC,190934.026,V,2346.9419,S,07019.0095,W,,,020511,,,N*79
$GPGGA,190934.725,2346.9420,S,07019.0094,W,0,00,,386.1,M,34.0,M,,0000*7F
$GPGSA,M,1,,,,,,,,,,,,,,,*12
$GPGSV,3,1,12,22,77,035,,16,63,268,,30,60,323,,18,53,126,*7D
$GPGSV,3,2,12,06,50,202,,03,38,214,,21,23,131,,19,12,229,*74
$GPGSV,3,3,12,29,05,067,,31,02,347,,14,12,028,,15,01,128,*77
$GPRMC,190934.725,V,2346.9420,S,07019.0094,W,,,020511,,,N*76
$GPGGA,190935.000,2346.9420,S,07019.0094,W,0,00,,386.1,M,34.0,M,,0000*7E
$GPGSA,M,1,,,,,,,,,,,,,,,*12
$GPRMC,190935.000,V,2346.9420,S,07019.0094,W,,,020511,,,N*77
$GPGGA,190936.000,2346.9421,S,07019.0093,W,0,00,,386.3,M,34.0,M,,0000*79
$GPGSA,M,1,,,,,,,,,,,,,,,*12
$GPRMC,190936.000,V,2346.9421,S,07019.0093,W,,,020511,,,N*72
$GPGGA,190937.000,,,,,0,00,,,M,0.0,M,,0000*53
$GPGSA,M,1,,,,,,,,,,,,,,,*12
$GPRMC,190937.000,V,,,,,,,020511,,,N*4F
$GPGGA,190938.000,2346.9440,S,07019.0092,W,1,06,2.0,387.2,M,34.0,M,,0000*5A
$GPGSA,M,3,03,18,19,30,06,16,,,,,,,3.5,2.0,2.9*31
$GPRMC,190938.000,A,2346.9440,S,07019.0092,W,0.31,124.42,020511,,,A*61
$GPGGA,190939.000,2346.9453,S,07019.0097,W,1,06,2.0,386.0,M,34.0,M,,0000*5F
$GPGSA,M,3,03,18,19,30,06,16,,,,,,,3.5,2.0,2.9*31
$GPGSV,3,1,12,22,77,035,,16,63,268,33,30,60,323,35,18,53,126,29*70
$GPGSV,3,2,12,06,50,202,37,03,38,214,32,21,23,131,,19,12,229,34*76
$GPGSV,3,3,12,29,05,067,32,31,02,347,,14,12,028,36,15,01,128,*73
$GPRMC,190939.000,A,2346.9453,S,07019.0097,W,0.11,119.31,020511,,,A*6F
$GPGGA,190940.000,2346.9452,S,07019.0091,W,1,08,1.6,384.6,M,34.0,M,,0000*59
$GPGSA,M,3,03,18,19,30,06,16,21,22,,,,,2.7,1.6,2.1*3C
$GPRMC,190940.000,A,2346.9452,S,07019.0091,W,0.87,336.42,020511,,,A*62
$GPGGA,190941.000,2346.9457,S,07019.0076,W,1,08,1.6,384.3,M,34.0,M,,0000*51
$GPGSA,M,3,03,18,19,30,06,16,21,22,,,,,2.7,1.6,2.1*3C
$GPRMC,190941.000,A,2346.9457,S,07019.0076,W,0.29,63.39,020511,,,A*54
$GPGGA,190942.000,2346.9469,S,07019.0061,W,1,08,1.6,384.7,M,34.0,M,,0000*5D
$GPGSA,M,3,03,18,19,30,06,16,21,22,,,,,2.7,1.6,2.1*3C
$GPRMC,190942.000,A,2346.9469,S,07019.0061,W,0.17,76.54,020511,,,A*5E
$GPGGA,190943.000,2346.9477,S,07019.0047,W,1,08,1.6,383.1,M,34.0,M,,0000*56
$GPGSA,M,3,03,18,19,30,06,16,21,22,,,,,2.7,1.6,2.1*3C
$GPRMC,190943.000,A,2346.9477,S,07019.0047,W,0.18,69.78,020511,,,A*5B
$GPGGA,190944.000,2346.9485,S,07019.0037,W,1,08,1.6,381.7,M,34.0,M,,0000*5F
$GPGSA,M,3,03,18,19,30,06,16,21,22,,,,,2.7,1.6,2.1*3C
$GPGSV,3,1,12,22,77,035,28,16,63,268,33,30,60,323,35,18,53,126,31*73
$GPGSV,3,2,12,06,50,202,38,03,38,214,34,21,23,131,27,19,12,229,34*7A
$GPGSV,3,3,12,29,05,067,32,31,02,347,,14,12,028,36,15,01,128,*73
$GPRMC,190944.000,A,2346.9485,S,07019.0037,W,0.25,49.91,020511,,,A*5D
$GPGGA,190945.000,2346.9486,S,07019.0030,W,1,08,1.6,379.3,M,34.0,M,,0000*59
$GPGSA,M,3,03,18,19,30,06,16,21,22,,,,,2.7,1.6,2.1*3C
$GPRMC,190945.000,A,2346.9486,S,07019.0030,W,0.31,39.13,020511,,,A*50
$GPGGA,190946.000,2346.9488,S,07019.0032,W,1,08,1.6,378.5,M,34.0,M,,0000*51
$GPGSA,M,3,03,18,19,30,06,16,21,22,,,,,2.7,1.6,2.1*3C
$GPRMC,190946.000,A,2346.9488,S,07019.0032,W,0.27,23.52,020511,,,A*56
$GPGGA,190947.000,2346.9486,S,07019.0032,W,1,08,1.6,378.2,M,34.0,M,,0000*59
$GPGSA,M,3,03,18,19,30,06,16,21,22,,,,,2.7,1.6,2.1*3C
$GPRMC,190947.000,A,2346.9486,S,07019.0032,W,0.32,29.15,020511,,,A*54
$GPGGA,190948.000,2346.9486,S,07019.0035,W,1,08,1.6,378.7,M,34.0,M,,0000*54
$GPGSA,M,3,03,18,19,30,06,16,21,22,,,,,2.7,1.6,2.1*3C
$GPRMC,190948.000,A,2346.9486,S,07019.0035,W,0.42,56.68,020511,,,A*59
$GPGGA,190949.000,2346.9489,S,07019.0041,W,1,08,1.6,380.4,M,34.0,M,,0000*5D
$GPGSA,M,3,03,18,19,30,06,16,21,22,,,,,2.7,1.6,2.1*3C
$GPGSV,3,1,12,22,77,035,28,16,63,268,33,30,60,323,35,18,53,126,32*70
$GPGSV,3,2,12,06,50,202,38,03,38,214,34,21,23,131,28,19,12,229,34*75
$GPGSV,3,3,12,29,05,067,33,31,02,347,,14,12,028,36,15,01,128,*72
$GPRMC,190949.000,A,2346.9489,S,07019.0041,W,0.26,35.08,020511,,,A*55
$GPGGA,190950.000,2346.9496,S,07019.0049,W,1,08,1.6,383.7,M,34.0,M,,0000*53
$GPGSA,M,3,03,18,19,30,06,16,21,22,,,,,2.7,1.6,2.1*3C
$GPRMC,190950.000,A,2346.9496,S,07019.0049,W,0.17,17.21,020511,,,A*52
$GPGGA,190951.000,2346.9502,S,07019.0055,W,1,08,1.6,386.3,M,34.0,M,,0000*52
$GPGSA,M,3,03,18,19,30,06,16,21,22,,,,,2.7,1.6,2.1*3C
$GPRMC,190951.000,A,2346.9502,S,07019.0055,W,0.12,22.72,020511,,,A*57
$GPGGA,190952.000,2346.9507,S,07019.0061,W,1,08,1.6,388.5,M,34.0,M,,0000*5B
$GPGSA,M,3,03,18,19,30,06,16,21,22,,,,,2.7,1.6,2.1*3C
$GPRMC,190952.000,A,2346.9507,S,07019.0061,W,0.03,350.80,020511,,,A*6D
$GPGGA,190953.000,2346.9511,S,07019.0066,W,1,07,1.6,390.1,M,34.0,M,,0000*58
$GPGSA,M,3,03,18,19,30,06,16,21,,,,,,2.7,1.6,2.2*3F
$GPRMC,190953.000,A,2346.9511,S,07019.0066,W,0.13,251.99,020511,,,A*65
$GPGGA,190954.000,2346.9514,S,07019.0069,W,1,07,1.6,391.4,M,34.0,M,,0000*51
$GPGSA,M,3,03,18,19,30,06,16,21,,,,,,2.7,1.6,2.2*3F
$GPGSV,3,1,12,22,77,035,,16,63,268,34,30,60,323,35,18,53,126,33*7C
$GPGSV,3,2,12,06,50,202,37,03,38,214,34,21,23,131,28,19,12,229,42*7B
$GPGSV,3,3,12,29,05,067,29,31,02,347,,14,12,028,35,15,01,128,*7A
$GPRMC,190954.000,A,2346.9514,S,07019.0069,W,0.12,237.64,020511,,,A*6B
$GPGGA,190955.000,2346.9516,S,07019.0072,W,1,08,1.6,392.6,M,34.0,M,,0000*56
$GPGSA,M,3,03,18,19,30,06,16,21,22,,,,,2.7,1.6,2.1*3C
$GPRMC,190955.000,A,2346.9516,S,07019.0072,W,0.05,248.41,020511,,,A*6B
$GPGGA,190956.000,2346.9518,S,07019.0074,W,1,08,1.6,393.8,M,34.0,M,,0000*52
$GPGSA,M,3,03,18,19,30,06,16,21,22,,,,,2.7,1.6,2.1*3C
$GPRMC,190956.000,A,2346.9518,S,07019.0074,W,0.06,25.95,020511,,,A*53
$GPGGA,190957.000,2346.9519,S,07019.0076,W,1,08,1.6,394.8,M,34.0,M,,0000*57
$GPGSA,M,3,03,18,19,30,06,16,21,22,,,,,2.7,1.6,2.1*3C
$GPRMC,190957.000,A,2346.9519,S,07019.0076,W,0.10,204.87,020511,,,A*64
$GPGGA,190958.000,2346.9522,S,07019.0078,W,1,08,1.6,395.7,M,34.0,M,,0000*50
$GPGSA,M,3,03,18,19,30,06,16,21,22,,,,,2.7,1.6,2.1*3C
$GPRMC,190958.000,A,2346.9522,S,07019.0078,W,0.11,198.29,020511,,,A*6E
$GPGGA,190959.000,2346.9524,S,07019.0080,W,1,08,1.6,396.5,M,34.0,M,,0000*51
$GPGSA,M,3,03,18,19,30,06,16,21,22,,,,,2.7,1.6,2.1*3C
$GPGSV,3,1,12,22,77,035,24,16,63,268,34,30,60,323,35,18,53,126,34*7D
$GPGSV,3,2,12,06,50,202,37,03,38,214,33,21,23,131,29,19,12,229,39*71
$GPGSV,3,3,12,29,05,067,29,31,02,347,,14,12,028,35,15,01,128,*7A
$GPRMC,190959.000,A,2346.9524,S,07019.0080,W,0.10,181.58,020511,,,A*61
$GPGGA,191000.000,2346.9526,S,07019.0082,W,1,08,1.6,397.3,M,34.0,M,,0000*52
$GPGSA,M,3,03,18,19,30,06,16,21,22,,,,,2.7,1.6,2.1*3C
$GPRMC,191000.000,A,2346.9526,S,07019.0082,W,0.02,34.48,020511,,,A*58
$GPGGA,191001.000,2346.9528,S,07019.0083,W,1,08,1.6,398.0,M,34.0,M,,0000*50
$GPGSA,M,3,03,18,19,30,06,16,21,22,,,,,2.7,1.6,2.1*3C
$GPRMC,191001.000,A,2346.9528,S,07019.0083,W,0.08,192.22,020511,,,A*6D
$GPGGA,191002.000,2346.9529,S,07019.0084,W,1,08,1.6,398.4,M,34.0,M,,0000*51
$GPGSA,M,3,03,18,19,30,06,16,21,22,,,,,2.7,1.6,2.1*3C
$GPRMC,191002.000,A,2346.9529,S,07019.0084,W,0.04,137.61,020511,,,A*6C
$GPGGA,191003.000,2346.9528,S,07019.0084,W,1,09,1.0,397.8,M,34.0,M,,0000*55
$GPGSA,M,3,03,18,19,30,06,16,14,21,22,,,,1.6,1.0,1.2*3D
$GPRMC,191003.000,A,2346.9528,S,07019.0084,W,0.09,74.02,020511,,,A*52
$GPGGA,191004.000,2346.9528,S,07019.0085,W,1,09,1.0,397.4,M,34.0,M,,0000*5F
$GPGSA,M,3,03,18,19,30,06,16,14,21,22,,,,1.6,1.0,1.2*3D
$GPGSV,3,1,12,22,77,036,31,16,63,268,34,30,60,323,35,18,53,126,34*7A
$GPGSV,3,2,12,06,50,201,36,03,38,214,33,21,22,130,28,14,13,028,34*70
$GPGSV,3,3,12,19,12,228,33,29,04,067,29,31,02,347,,15,01,128,*72
$GPRMC,191004.000,A,2346.9528,S,07019.0085,W,0.09,58.50,020511,,,A*5D
$GPGGA,191005.017,2346.9527,S,07019.0085,W,1,09,1.0,397.4,M,34.0,M,,0000*57
$GPGSA,M,3,22,16,30,18,06,03,21,14,19,,,,1.6,1.0,1.2*3D
$GPRMC,191005.017,A,2346.9527,S,07019.0085,W,0.76,355.84,020511,,,A*6A
$GPGGA,191005.982,2346.9526,S,07019.0087,W,1,09,1.0,397.2,M,34.0,M,,0000*57
$GPGSA,M,3,22,16,30,18,06,03,21,14,19,,,,1.6,1.0,1.2*3D
$GPRMC,191005.982,A,2346.9526,S,07019.0087,W,0.73,260.89,020511,,,A*63
$GPGGA,191007.004,2346.9526,S,07019.0087,W,1,09,1.0,396.9,M,34.0,M,,0000*58
$GPGSA,M,3,22,16,30,18,06,03,21,14,19,,,,1.6,1.0,1.2*3D
$GPRMC,191007.004,A,2346.9526,S,07019.0087,W,0.64,189.59,020511,,,A*69
$GPGGA,191008.000,2346.9528,S,07019.0087,W,1,09,1.0,397.0,M,34.0,M,,0000*55
$GPGSA,M,3,22,16,30,18,06,03,21,14,19,,,,1.6,1.0,1.2*3D
$GPRMC,191008.000,A,2346.9528,S,07019.0087,W,0.47,240.26,020511,,,A*63
$GPGGA,191009.000,2346.9527,S,07019.0086,W,1,09,1.0,396.3,M,34.0,M,,0000*58
$GPGSA,M,3,22,16,30,18,06,03,21,14,19,,,,1.6,1.0,1.2*3D
$GPGSV,3,1,12,22,77,036,28,16,63,268,31,30,60,323,34,18,53,126,32*70
$GPGSV,3,2,12,06,50,201,31,03,38,214,31,21,22,130,29,14,13,028,32*72
$GPGSV,3,3,12,19,12,228,30,29,04,067,26,31,02,347,,15,01,128,*7E
$GPRMC,191009.000,A,2346.9527,S,07019.0086,W,0.25,24.81,020511,,,A*55
$GPGGA,191009.998,2346.9525,S,07019.0086,W,1,09,1.0,396.0,M,34.0,M,,0000*51
$GPGSA,M,3,22,16,30,18,06,03,21,14,19,,,,1.6,1.0,1.2*3D
$GPRMC,191009.998,A,2346.9525,S,07019.0086,W,0.19,260.97,020511,,,A*65
$GPGGA,191011.000,2346.9525,S,07019.0086,W,1,08,1.2,395.6,M,34.0,M,,0000*56
$GPGSA,M,3,22,16,30,18,06,03,21,14,,,,,2.1,1.2,1.7*36
$GPRMC,191011.000,A,2346.9525,S,07019.0086,W,0.51,60.99,020511,,,A*54
$GPGGA,191012.002,2346.9524,S,07019.0085,W,1,09,1.0,395.9,M,34.0,M,,0000*59
$GPGSA,M,3,22,16,30,18,06,03,21,14,19,,,,1.6,1.0,1.2*3D
$GPRMC,191012.002,A,2346.9524,S,07019.0085,W,0.10,100.76,020511,,,A*64
$GPGGA,191013.000,2346.9525,S,07019.0084,W,1,09,1.0,395.8,M,34.0,M,,0000*5B
$GPGSA,M,3,22,16,30,18,06,03,21,14,19,,,,1.6,1.0,1.2*3D
$GPRMC,191013.000,A,2346.9525,S,07019.0084,W,0.46,262.91,020511,,,A*6A
$GPGGA,191013.996,2346.9526,S,07019.0087,W,1,09,1.0,395.6,M,34.0,M,,0000*53
$GPGSA,M,3,22,16,30,18,06,03,21,14,19,,,,1.6,1.0,1.2*3D
$GPGSV,3,1,12,22,77,036,25,16,63,268,31,30,60,323,30,18,53,126,32*79
$GPGSV,3,2,12,06,50,201,31,03,38,214,31,21,22,130,28,14,13,028,33*72
$GPGSV,3,3,12,19,12,228,29,29,04,067,28,31,02,347,,15,01,128,*78
$GPRMC,191013.996,A,2346.9526,S,07019.0087,W,0.48,231.71,020511,,,A*6A
$GPGGA,191015.000,2346.9528,S,07019.0085,W,1,09,1.0,395.9,M,34.0,M,,0000*50
$GPGSA,M,3,22,16,30,18,06,03,21,14,19,,,,1.6,1.0,1.2*3D
$GPRMC,191015.000,A,2346.9528,S,07019.0085,W,0.55,153.70,020511,,,A*6C
$GPGGA,191016.000,2346.9531,S,07019.0084,W,1,09,1.0,395.6,M,34.0,M,,0000*55
$GPGSA,M,3,22,16,30,18,06,03,21,14,19,,,,1.6,1.0,1.2*3D
$GPRMC,191016.000,A,2346.9531,S,07019.0084,W,0.99,136.04,020511,,,A*66
$GPGGA,191017.000,2346.9530,S,07019.0082,W,1,09,1.0,395.6,M,34.0,M,,0000*53
$GPGSA,M,3,22,16,30,18,06,03,21,14,19,,,,1.6,1.0,1.2*3D
$GPRMC,191017.000,A,2346.9530,S,07019.0082,W,0.66,42.18,020511,,,A*5F
$GPGGA,191018.000,2346.9528,S,07019.0080,W,1,09,1.0,395.8,M,34.0,M,,0000*59
$GPGSA,M,3,22,16,30,18,06,03,21,14,19,,,,1.6,1.0,1.2*3D
$GPRMC,191018.000,A,2346.9528,S,07019.0080,W,0.46,304.73,020511,,,A*65
$GPGGA,191019.002,2346.9526,S,07019.0081,W,1,09,1.0,395.8,M,34.0,M,,0000*55
$GPGSA,M,3,22,16,30,18,06,03,21,14,19,,,,1.6,1.0,1.2*3D
$GPGSV,3,1,12,22,77,036,26,16,63,268,29,30,60,323,30,18,53,126,32*73
$GPGSV,3,2,12,06,50,201,30,03,38,214,32,21,22,130,26,14,13,028,31*7C
$GPGSV,3,3,12,19,12,228,26,29,04,067,,31,02,347,,15,01,128,*7D
$GPRMC,191019.002,A,2346.9526,S,07019.0081,W,1.15,306.22,020511,,,A*68
$GPGGA,191020.000,2346.9526,S,07019.0080,W,1,08,1.3,396.4,M,34.0,M,,0000*51
$GPGSA,M,3,22,16,30,18,06,03,14,19,,,,,1.8,1.3,1.3*32
$GPRMC,191020.000,A,2346.9526,S,07019.0080,W,0.35,330.59,020511,,,A*6B
$GPGGA,191021.000,2346.9528,S,07019.0077,W,1,07,1.3,396.7,M,34.0,M,,0000*5A
$GPGSA,M,3,16,30,18,06,03,14,19,,,,,,1.9,1.3,1.4*34
$GPRMC,191021.000,A,2346.9528,S,07019.0077,W,1.14,141.59,020511,,,A*6A
$GPGGA,191021.999,2346.9530,S,07019.0074,W,1,07,1.3,396.9,M,34.0,M,,0000*57
$GPGSA,M,3,16,30,18,06,03,14,19,,,,,,1.9,1.3,1.4*34
$GPRMC,191021.999,A,2346.9530,S,07019.0074,W,0.71,137.46,020511,,,A*64
$GPGGA,191023.000,2346.9531,S,07019.0072,W,1,07,1.3,397.3,M,34.0,M,,0000*50
$GPGSA,M,3,16,30,18,06,03,14,19,,,,,,1.9,1.3,1.4*34
$GPRMC,191023.000,A,2346.9531,S,07019.0072,W,0.31,84.10,020511,,,A*56
$GPGGA,191024.001,2346.9532,S,07019.0070,W,1,08,1.3,397.9,M,34.0,M,,0000*52
$GPGSA,M,3,22,16,30,18,06,03,14,19,,,,,1.8,1.3,1.3*32
$GPGSV,3,1,12,22,77,036,27,16,63,268,30,30,60,323,27,18,53,126,34*7A
$GPGSV,3,2,12,06,50,201,32,03,38,214,30,21,22,130,,14,13,028,35*7C
$GPGSV,3,3,12,19,12,228,33,29,04,067,30,31,02,347,,15,01,128,*7A
$GPRMC,191024.001,A,2346.9532,S,07019.0070,W,0.56,180.97,020511,,,A*6A
$GPGGA,191025.000,2346.9535,S,07019.0065,W,1,08,1.3,397.9,M,34.0,M,,0000*51
$GPGSA,M,3,22,16,30,18,06,03,14,19,,,,,1.8,1.3,1.3*32
$GPRMC,191025.000,A,2346.9535,S,07019.0065,W,0.46,177.28,020511,,,A*64
$GPGGA,191026.001,2346.9536,S,07019.0062,W,1,07,1.5,397.9,M,34.0,M,,0000*5E
$GPGSA,M,3,22,16,18,06,03,14,19,,,,,,2.1,1.5,1.4*3A
$GPRMC,191026.001,A,2346.9536,S,07019.0062,W,0.33,7.20,020511,,,A*6E
$GPGGA,191026.999,2346.9538,S,07019.0059,W,1,08,1.3,398.3,M,34.0,M,,0000*5C
$GPGSA,M,3,22,16,30,18,06,03,14,19,,,,,1.8,1.3,1.3*32
$GPRMC,191026.999,A,2346.9538,S,07019.0059,W,1.39,121.84,020511,,,A*60
$GPGGA,191028.000,2346.9538,S,07019.0055,W,1,09,1.0,398.4,M,34.0,M,,0000*52
$GPGSA,M,3,22,16,30,18,06,03,21,14,19,,,,1.6,1.0,1.2*3D
$GPRMC,191028.000,A,2346.9538,S,07019.0055,W,0.71,135.69,020511,,,A*60
$GPGGA,191029.000,2346.9535,S,07019.0058,W,1,08,1.3,398.2,M,34.0,M,,0000*57
$GPGSA,M,3,22,16,30,18,06,03,14,19,,,,,1.8,1.3,1.3*32
$GPGSV,3,1,12,22,77,036,27,16,63,268,28,30,60,323,29,18,53,126,29*71
$GPGSV,3,2,12,06,50,201,28,03,38,214,30,21,22,130,25,14,13,028,35*70
$GPGSV,3,3,12,19,12,228,35,29,04,067,30,31,02,347,,15,01,128,*7C
$GPRMC,191029.000,A,2346.9535,S,07019.0058,W,0.28,8.68,020511,,,A*63
$GPGGA,191029.999,2346.9533,S,07019.0056,W,1,08,1.3,398.3,M,34.0,M,,0000*57
$GPGSA,M,3,22,16,30,18,06,03,14,19,,,,,1.8,1.3,1.3*32
$GPRMC,191029.999,A,2346.9533,S,07019.0056,W,0.62,79.33,020511,,,A*54
$GPGGA,191030.999,2346.9534,S,07019.0051,W,1,08,1.3,398.3,M,34.0,M,,0000*5F
$GPGSA,M,3,22,16,30,18,06,03,14,19,,,,,1.8,1.3,1.3*32
$GPRMC,191030.999,A,2346.9534,S,07019.0051,W,0.76,125.98,020511,,,A*60
$GPGGA,191031.999,2346.9532,S,07019.0050,W,1,08,1.0,398.6,M,34.0,M,,0000*5F
$GPGSA,M,3,22,16,30,18,03,21,14,19,,,,,1.6,1.0,1.2*3B
$GPRMC,191031.999,A,2346.9532,S,07019.0050,W,0.16,165.51,020511,,,A*61
$GPGGA,191032.997,2346.9531,S,07019.0050,W,1,07,1.3,398.8,M,34.0,M,,0000*53
$GPGSA,M,3,22,16,30,18,03,14,19,,,,,,1.9,1.3,1.3*35
$GPRMC,191032.997,A,2346.9531,S,07019.0050,W,0.44,329.28,020511,,,A*6C
$GPGGA,191034.003,2346.9530,S,07019.0049,W,1,08,1.0,398.8,M,34.0,M,,0000*54
$GPGSA,M,3,16,30,18,06,03,21,14,19,,,,,1.7,1.0,1.4*3A
$GPGSV,3,1,12,22,77,036,,16,63,268,28,30,60,323,30,18,53,126,31*75
$GPGSV,3,2,12,06,50,201,27,03,38,214,31,21,22,130,26,14,13,028,32*7A
$GPGSV,3,3,12,19,12,228,35,29,04,067,29,31,02,347,,15,01,128,*74
$GPRMC,191034.003,A,2346.9530,S,07019.0049,W,0.20,2.65,020511,,,A*66
$GPGGA,191034.999,2346.9530,S,07019.0048,W,1,08,1.0,399.4,M,34.0,M,,0000*52
$GPGSA,M,3,22,16,30,18,03,21,14,19,,,,,1.6,1.0,1.2*3B
$GPRMC,191034.999,A,2346.9530,S,07019.0048,W,0.64,120.89,020511,,,A*6E
$GPGGA,191035.998,2346.9534,S,07019.0046,W,1,07,1.1,400.1,M,34.0,M,,0000*54
$GPGSA,M,3,16,18,06,03,21,14,19,,,,,,1.9,1.1,1.5*37
$GPRMC,191035.998,A,2346.9534,S,07019.0046,W,2.38,170.38,020511,,,A*60
$GPGGA,191037.001,2346.9539,S,07019.0042,W,1,09,1.0,399.8,M,34.0,M,,0000*57
$GPGSA,M,3,22,16,30,18,06,03,21,14,19,,,,1.6,1.0,1.2*3D
$GPRMC,191037.001,A,2346.9539,S,07019.0042,W,1.60,155.48,020511,,,A*6C
$GPGGA,191037.998,2346.9540,S,07019.0037,W,1,06,1.1,398.8,M,34.0,M,,0000*5D
$GPGSA,M,3,30,18,06,21,14,19,,,,,,,1.8,1.1,1.5*31
$GPRMC,191037.998,A,2346.9540,S,07019.0037,W,0.70,131.32,020511,,,A*66
$GPGGA,191039.002,2346.9541,S,07019.0035,W,1,07,1.2,399.1,M,34.0,M,,0000*50
$GPGSA,M,3,22,18,06,03,21,14,19,,,,,,1.8,1.2,1.4*33
$GPGSV,3,1,12,22,77,036,26,16,63,268,,30,60,323,,18,53,126,31*78
$GPGSV,3,2,12,06,50,201,19,03,38,214,33,21,22,130,29,14,13,028,32*7A
$GPGSV,3,3,12,19,12,228,29,29,04,067,,31,02,347,,15,01,128,*72
$GPRMC,191039.002,A,2346.9541,S,07019.0035,W,0.25,170.77,020511,,,A*65
$GPGGA,191039.998,2346.9540,S,07019.0039,W,1,07,1.0,399.6,M,34.0,M,,0000*52
$GPGSA,M,3,16,30,18,03,21,14,19,,,,,,1.7,1.0,1.4*3C
$GPRMC,191039.998,A,2346.9540,S,07019.0039,W,0.47,281.90,020511,,,A*62
$GPGGA,191041.000,2346.9539,S,07019.0039,W,1,07,1.1,400.2,M,34.0,M,,0000*59
$GPGSA,M,3,30,18,06,03,21,14,19,,,,,,1.8,1.1,1.5*32
$GPRMC,191041.000,A,2346.9539,S,07019.0039,W,0.41,12.34,020511,,,A*5B
$GPGGA,191042.001,2346.9539,S,07019.0039,W,1,08,1.3,400.8,M,34.0,M,,0000*5C
$GPGSA,M,3,22,16,30,18,06,03,14,19,,,,,1.8,1.3,1.3*32
$GPRMC,191042.001,A,2346.9539,S,07019.0039,W,0.77,142.88,020511,,,A*6F
$GPGGA,191043.002,2346.9541,S,07019.0041,W,1,09,1.0,400.5,M,34.0,M,,0000*51
$GPGSA,M,3,22,16,30,18,06,03,21,14,19,,,,1.6,1.0,1.2*3D
$GPRMC,191043.002,A,2346.9541,S,07019.0041,W,0.47,200.26,020511,,,A*6F
$GPGGA,191043.998,2346.9542,S,07019.0039,W,1,08,1.1,401.4,M,34.0,M,,0000*57
$GPGSA,M,3,22,16,18,06,03,21,14,19,,,,,1.7,1.1,1.3*3F
$GPGSV,3,1,12,22,77,036,26,16,63,268,28,30,60,323,,18,53,126,31*72
$GPGSV,3,2,12,06,50,201,26,03,38,214,35,21,22,130,28,14,13,028,32*71
$GPGSV,3,3,12,19,12,228,36,29,04,067,31,31,02,347,,15,01,128,*7E
$GPRMC,191043.998,A,2346.9542,S,07019.0039,W,0.71,154.38,020511,,,A*61
$GPGGA,191045.001,2346.9545,S,07019.0037,W,1,08,1.0,401.3,M,34.0,M,,0000*57
$GPGSA,M,3,16,30,18,06,03,21,14,19,,,,,1.7,1.0,1.4*3A
$GPRMC,191045.001,A,2346.9545,S,07019.0037,W,0.58,175.39,020511,,,A*6E
$GPGGA,191046.002,2346.9543,S,07019.0039,W,1,09,1.0,402.5,M,34.0,M,,0000*5B
$GPGSA,M,3,22,16,30,18,06,03,21,14,19,,,,1.6,1.0,1.2*3D
$GPRMC,191046.002,A,2346.9543,S,07019.0039,W,0.15,207.03,020511,,,A*60
$GPGGA,191046.999,2346.9544,S,07019.0038,W,1,08,1.0,403.4,M,34.0,M,,0000*57
$GPGSA,M,3,16,30,18,06,03,21,14,19,,,,,1.7,1.0,1.4*3A
$GPRMC,191046.999,A,2346.9544,S,07019.0038,W,0.61,164.67,020511,,,A*6A
$GPGGA,191047.997,2346.9545,S,07019.0037,W,1,09,1.0,403.2,M,34.0,M,,0000*51
$GPGSA,M,3,22,16,30,18,06,03,21,14,19,,,,1.6,1.0,1.2*3D
$GPRMC,191047.997,A,2346.9545,S,07019.0037,W,0.22,221.81,020511,,,A*66
$GPGGA,191049.002,2346.9546,S,07019.0036,W,1,08,1.0,404.4,M,34.0,M,,0000*58
$GPGSA,M,3,22,16,30,18,03,21,14,19,,,,,1.6,1.0,1.2*3B
$GPGSV,3,1,12,22,77,036,26,16,63,268,30,30,60,323,26,18,53,126,31*7F
$GPGSV,3,2,12,06,50,201,,03,38,214,34,21,22,130,31,14,13,028,29*76
$GPGSV,3,3,12,19,12,228,36,29,04,067,29,31,02,347,,15,01,128,*77
$GPRMC,191049.002,A,2346.9546,S,07019.0036,W,0.32,207.08,020511,,,A*6B
$GPGGA,191050.001,2346.9549,S,07019.0032,W,1,07,1.1,405.0,M,34.0,M,,0000*53
$GPGSA,M,3,22,16,18,03,21,14,19,,,,,,1.7,1.1,1.3*39
$GPRMC,191050.001,A,2346.9549,S,07019.0032,W,0.80,120.30,020511,,,A*6F
$GPGGA,191051.000,2346.9550,S,07019.0030,W,1,06,1.1,405.0,M,34.0,M,,0000*58
$GPGSA,M,3,16,18,03,21,14,19,,,,,,,1.9,1.1,1.5*31
$GPRMC,191051.000,A,2346.9550,S,07019.0030,W,0.54,230.97,020511,,,A*63
$GPGGA,191051.997,2346.9551,S,07019.0029,W,1,07,1.1,404.7,M,34.0,M,,0000*51
$GPGSA,M,3,22,16,18,03,21,14,19,,,,,,1.7,1.1,1.3*39
$GPRMC,191051.997,A,2346.9551,S,07019.0029,W,0.04,343.09,020511,,,A*6A
$GPGGA,191053.004,2346.9552,S,07019.0027,W,1,07,1.3,403.8,M,34.0,M,,0000*57
$GPGSA,M,3,22,16,30,18,03,14,19,,,,,,1.9,1.3,1.3*35
$GPRMC,191053.004,A,2346.9552,S,07019.0027,W,0.42,19.22,020511,,,A*51
$GPGGA,191053.996,2346.9549,S,07019.0027,W,1,07,1.1,404.1,M,34.0,M,,0000*53
$GPGSA,M,3,22,16,18,03,21,14,19,,,,,,1.7,1.1,1.3*39
$GPGSV,3,1,12,22,77,036,29,16,63,268,30,30,60,323,,18,53,126,30*75
$GPGSV,3,2,12,06,50,201,,03,38,214,32,21,22,130,30,14,13,028,31*78
$GPGSV,3,3,12,19,12,228,35,29,04,067,28,31,02,347,,15,01,128,*75
$GPRMC,191053.996,A,2346.9549,S,07019.0027,W,0.42,94.71,020511,,,A*5A
$GPGGA,191055.002,2346.9549,S,07019.0023,W,1,08,1.1,403.3,M,34.0,M,,0000*5F
$GPGSA,M,3,22,16,18,06,03,21,14,19,,,,,1.7,1.1,1.3*3F
$GPRMC,191055.002,A,2346.9549,S,07019.0023,W,0.14,66.23,020511,,,A*55
$GPGGA,191056.000,2346.9547,S,07019.0018,W,1,08,1.1,403.3,M,34.0,M,,0000*58
$GPGSA,M,3,22,16,18,06,03,21,14,19,,,,,1.7,1.1,1.3*3F
$GPRMC,191056.000,A,2346.9547,S,07019.0018,W,0.58,110.18,020511,,,A*62
$GPGGA,191056.998,2346.9548,S,07019.0016,W,1,08,1.1,403.5,M,34.0,M,,0000*57
$GPGSA,M,3,22,16,18,06,03,21,14,19,,,,,1.7,1.1,1.3*3F
$GPRMC,191056.998,A,2346.9548,S,07019.0016,W,0.42,224.13,020511,,,A*6F
$GPGGA,191058.002,2346.9548,S,07019.0014,W,1,08,1.1,404.0,M,34.0,M,,0000*53
$GPGSA,M,3,22,16,18,06,03,21,14,19,,,,,1.7,1.1,1.3*3F
$GPRMC,191058.002,A,2346.9548,S,07019.0014,W,0.30,218.60,020511,,,A*67
$GPGGA,191058.998,2346.9551,S,07019.0009,W,1,08,1.1,404.2,M,34.0,M,,0000*5F
$GPGSA,M,3,22,16,18,06,03,21,14,19,,,,,1.7,1.1,1.3*3F
$GPGSV,3,1,12,22,77,036,27,16,63,268,29,30,60,323,,18,53,126,30*73
$GPGSV,3,2,12,06,50,201,31,03,38,214,32,21,22,130,29,14,13,028,30*73
$GPGSV,3,3,12,19,12,228,33,29,04,067,,31,02,347,,15,01,128,*79
$GPRMC,191058.998,A,2346.9551,S,07019.0009,W,0.62,222.24,020511,,,A*67
$GPGGA,191100.000,2346.9549,S,07019.0009,W,1,08,1.1,404.1,M,34.0,M,,0000*51
$GPGSA,M,3,22,16,18,06,03,21,14,19,,,,,1.7,1.1,1.3*3F
$GPRMC,191100.000,A,2346.9549,S,07019.0009,W,0.57,327.87,020511,,,A*61
$GPGGA,191101.003,2346.9551,S,07019.0003,W,1,07,1.1,403.2,M,34.0,M,,0000*5B
$GPGSA,M,3,16,18,06,03,21,14,19,,,,,,1.9,1.1,1.5*37
$GPRMC,191101.003,A,2346.9551,S,07019.0003,W,0.65,82.32,020511,,,A*53
$GPGGA,191101.999,2346.9549,S,07019.0000,W,1,08,1.1,403.5,M,34.0,M,,0000*53
$GPGSA,M,3,22,16,18,06,03,21,14,19,,,,,1.7,1.1,1.3*3F
$GPRMC,191101.999,A,2346.9549,S,07019.0000,W,0.28,31.97,020511,,,A*5D
$GPGGA,191102.999,2346.9552,S,07018.9991,W,1,08,1.1,403.1,M,34.0,M,,0000*57
$GPGSA,M,3,22,16,18,06,03,21,14,19,,,,,1.7,1.1,1.3*3F
$GPRMC,191102.999,A,2346.9552,S,07018.9991,W,0.52,110.96,020511,,,A*63
$GPGGA,191104.000,2346.9550,S,07018.9989,W,1,07,1.1,403.9,M,34.0,M,,0000*54
$GPGSA,M,3,16,18,06,03,21,14,19,,,,,,1.9,1.1,1.5*37
$GPGSV,3,1,12,22,77,036,,16,63,268,28,30,60,323,,18,53,126,30*77
$GPGSV,3,2,12,06,50,201,31,03,38,214,35,21,22,130,32,14,13,028,28*77
$GPGSV,3,3,12,19,12,228,29,29,04,067,,31,02,347,,15,01,128,*72
$GPRMC,191104.000,A,2346.9550,S,07018.9989,W,0.16,102.11,020511,,,A*6B
$GPGGA,191104.997,2346.9550,S,07018.9987,W,1,07,1.1,404.1,M,34.0,M,,0000*52
$GPGSA,M,3,16,18,06,03,21,14,19,,,,,,1.9,1.1,1.5*37
$GPRMC,191104.997,A,2346.9550,S,07018.9987,W,0.36,63.59,020511,,,A*5A
$GPGGA,191106.003,2346.9550,S,07018.9986,W,1,07,1.1,404.9,M,34.0,M,,0000*5D
$GPGSA,M,3,16,18,06,03,21,14,19,,,,,,1.9,1.1,1.5*37
$GPRMC,191106.003,A,2346.9550,S,07018.9986,W,0.39,194.45,020511,,,A*66
$GPGGA,191106.997,2346.9551,S,07018.9986,W,1,06,1.3,405.7,M,34.0,M,,0000*54
$GPGSA,M,3,18,06,03,21,14,19,,,,,,,2.3,1.3,1.9*37
$GPRMC,191106.997,A,2346.9551,S,07018.9986,W,0.32,220.68,020511,,,A*6B
$GPGGA,191108.001,2346.9558,S,07018.9975,W,1,06,1.6,405.5,M,34.0,M,,0000*5E
$GPGSA,M,3,16,18,06,03,14,19,,,,,,,2.3,1.6,1.7*38
$GPRMC,191108.001,A,2346.9558,S,07018.9975,W,0.74,142.02,020511,,,A*6F
$GPGGA,191109.000,2346.9560,S,07018.9968,W,1,05,3.7,406.5,M,34.0,M,,0000*5A
$GPGSA,M,3,18,06,03,14,19,,,,,,,,5.5,3.7,4.1*3E
$GPGSV,3,1,12,22,77,036,,16,63,268,,30,60,323,,18,53,126,29*75
$GPGSV,3,2,12,06,50,201,28,03,38,214,34,21,22,130,,14,13,028,30*76
$GPGSV,3,3,12,19,12,228,28,29,04,067,28,31,02,347,,15,01,128,*79
$GPRMC,191109.000,A,2346.9560,S,07018.9968,W,0.73,137.29,020511,,,A*64
$GPGGA,191110.002,2346.9559,S,07018.9964,W,1,04,4.6,406.9,M,34.0,M,,0000*5D
$GPGSA,M,3,18,03,14,19,,,,,,,,,7.3,4.6,5.7*3D
$GPRMC,191110.002,A,2346.9559,S,07018.9964,W,0.41,353.37,020511,,,A*66
$GPGGA,191111.000,2346.9565,S,07018.9956,W,1,05,1.4,406.9,M,34.0,M,,0000*56
$GPGSA,M,3,18,03,21,14,19,,,,,,,,2.6,1.4,2.3*3A
$GPRMC,191111.000,A,2346.9565,S,07018.9956,W,0.83,183.59,020511,,,A*62
$GPGGA,191112.000,2346.9571,S,07018.9949,W,1,05,1.4,407.5,M,34.0,M,,0000*53
$GPGSA,M,3,30,18,03,14,19,,,,,,,,2.2,1.4,1.7*39
$GPRMC,191112.000,A,2346.9571,S,07018.9949,W,0.32,165.90,020511,,,A*6D
$GPGGA,191112.998,2346.9573,S,07018.9941,W,1,06,1.4,407.8,M,34.0,M,,0000*5F
$GPGSA,M,3,16,30,18,03,14,19,,,,,,,2.0,1.4,1.4*3F
$GPRMC,191112.998,A,2346.9573,S,07018.9941,W,0.16,134.21,020511,,,A*67
$GPGGA,191114.002,2346.9570,S,07018.9941,W,1,07,1.3,408.8,M,34.0,M,,0000*59
$GPGSA,M,3,22,16,30,18,03,21,14,,,,,,2.2,1.3,1.7*32
$GPGSV,3,1,12,22,77,036,25,16,63,268,29,30,60,323,27,18,53,126,29*7C
$GPGSV,3,2,12,06,50,201,,03,38,214,36,21,22,130,26,14,13,028,30*7A
$GPGSV,3,3,12,19,12,228,,29,04,067,,31,02,347,,15,01,128,*79
$GPRMC,191114.002,A,2346.9570,S,07018.9941,W,0.30,211.34,020511,,,A*6C
$GPGGA,191114.998,2346.9567,S,07018.9944,W,1,08,1.0,409.2,M,34.0,M,,0000*57
$GPGSA,M,3,22,16,30,18,03,21,14,19,,,,,1.6,1.0,1.2*3B
$GPRMC,191114.998,A,2346.9567,S,07018.9944,W,1.00,324.49,020511,,,A*6A
$GPGGA,191116.002,2346.9566,S,07018.9951,W,1,07,1.1,407.8,M,34.0,M,,0000*50
$GPGSA,M,3,22,16,18,03,21,14,19,,,,,,1.7,1.1,1.3*39
$GPRMC,191116.002,A,2346.9566,S,07018.9951,W,0.95,293.76,020511,,,A*6B
$GPGGA,191116.999,2346.9566,S,07018.9958,W,1,08,1.0,407.8,M,34.0,M,,0000*5C
$GPGSA,M,3,22,16,30,18,03,21,14,19,,,,,1.6,1.0,1.2*3B
$GPRMC,191116.999,A,2346.9566,S,07018.9958,W,0.32,337.92,020511,,,A*61
$GPGGA,191117.999,2346.9561,S,07018.9955,W,1,09,1.0,409.1,M,34.0,M,,0000*51
$GPGSA,M,3,22,16,30,18,06,03,21,14,19,,,,1.6,1.0,1.2*3D
$GPRMC,191117.999,A,2346.9561,S,07018.9955,W,1.21,353.33,020511,,,A*60
$GPGGA,191119.001,2346.9563,S,07018.9957,W,1,08,1.1,407.5,M,34.0,M,,0000*5D
$GPGSA,M,3,22,16,18,06,03,21,14,19,,,,,1.7,1.1,1.3*3F
$GPGSV,3,1,12,22,77,036,29,16,63,268,29,30,60,323,,18,53,126,28*74
$GPGSV,3,2,12,06,50,201,27,03,38,214,36,21,22,130,31,14,13,028,30*79
$GPGSV,3,3,12,19,12,228,35,29,04,067,,31,02,347,,15,01,128,*7F
$GPRMC,191119.001,A,2346.9563,S,07018.9957,W,0.22,257.84,020511,,,A*6D
$GPGGA,191119.998,2346.9559,S,07018.9969,W,1,09,1.0,408.5,M,34.0,M,,0000*5F
$GPGSA,M,3,22,16,30,18,06,03,21,14,19,,,,1.6,1.0,1.2*3D
$GPRMC,191119.998,A,2346.9559,S,07018.9969,W,0.23,276.08,020511,,,A*66
$GPGGA,191121.000,2346.9558,S,07018.9974,W,1,08,1.1,407.5,M,34.0,M,,0000*5E
$GPGSA,M,3,22,16,18,06,03,21,14,19,,,,,1.7,1.1,1.3*3F
$GPRMC,191121.000,A,2346.9558,S,07018.9974,W,0.46,215.79,020511,,,A*68
$GPGGA,191121.998,2346.9553,S,07018.9982,W,1,07,1.1,408.3,M,34.0,M,,0000*52
$GPGSA,M,3,22,16,30,03,21,14,19,,,,,,1.8,1.1,1.3*3C
$GPRMC,191121.998,A,2346.9553,S,07018.9982,W,0.12,343.60,020511,,,A*69
$GPGGA,191123.002,2346.9545,S,07018.9989,W,1,08,1.0,409.8,M,34.0,M,,0000*52
$GPGSA,M,3,22,16,30,18,03,21,14,19,,,,,1.6,1.0,1.2*3B
$GPRMC,191123.002,A,2346.9545,S,07018.9989,W,0.30,240.46,020511,,,A*6B
$GPGGA,191124.001,2346.9538,S,07018.9995,W,1,07,1.0,411.2,M,34.0,M,,0000*5D
$GPGSA,M,3,16,30,18,03,21,14,19,,,,,,1.7,1.0,1.4*3C
$GPGSV,3,1,12,22,77,036,,16,63,268,28,30,60,323,29,18,53,126,26*7B
$GPGSV,3,2,12,06,50,201,,03,38,214,37,21,22,130,30,14,13,028,29*74
$GPGSV,3,3,12,19,12,228,35,29,04,067,,31,02,347,,15,01,128,*7F
$GPRMC,191124.001,A,2346.9538,S,07018.9995,W,0.63,201.98,020511,,,A*68
$GPGGA,191125.000,2346.9537,S,07018.9998,W,1,08,1.0,411.7,M,34.0,M,,0000*55
$GPGSA,M,3,22,16,30,18,03,21,14,19,,,,,1.6,1.0,1.2*3B
$GPRMC,191125.000,A,2346.9537,S,07018.9998,W,0.65,208.23,020511,,,A*65
$GPGGA,191125.999,2346.9536,S,07019.0003,W,1,07,1.0,412.3,M,34.0,M,,0000*56
$GPGSA,M,3,16,30,18,03,21,14,19,,,,,,1.7,1.0,1.4*3C
$GPRMC,191125.999,A,2346.9536,S,07019.0003,W,0.14,269.49,020511,,,A*63
$GPGGA,191127.002,2346.9533,S,07019.0003,W,1,07,1.0,412.6,M,34.0,M,,0000*5F
$GPGSA,M,3,16,30,18,03,21,14,19,,,,,,1.7,1.0,1.4*3C
$GPRMC,191127.002,A,2346.9533,S,07019.0003,W,0.84,170.41,020511,,,A*65
$GPGGA,191128.001,2346.9533,S,07019.0003,W,1,08,1.0,413.0,M,34.0,M,,0000*5B
$GPGSA,M,3,22,16,30,18,03,21,14,19,,,,,1.6,1.0,1.2*3B
$GPRMC,191128.001,A,2346.9533,S,07019.0003,W,0.71,229.01,020511,,,A*68
$GPGGA,191128.997,2346.9535,S,07018.9999,W,1,07,1.0,412.5,M,34.0,M,,0000*52
$GPGSA,M,3,16,30,18,03,21,14,19,,,,,,1.7,1.0,1.4*3C
$GPGSV,3,1,12,22,77,036,,16,63,268,30,30,60,323,30,18,53,126,27*7B
$GPGSV,3,2,12,06,50,201,,03,38,214,36,21,22,130,27,14,13,028,29*73
$GPGSV,3,3,12,19,12,228,36,29,04,067,25,31,02,347,,15,01,128,*7B
$GPRMC,191128.997,A,2346.9535,S,07018.9999,W,0.48,203.37,020511,,,A*6D
$GPGGA,191130.000,2346.9533,S,07018.9996,W,1,07,1.0,411.9,M,34.0,M,,0000*5A
$GPGSA,M,3,16,30,18,03,21,14,19,,,,,,1.7,1.0,1.4*3C
$GPRMC,191130.000,A,2346.9533,S,07018.9996,W,0.65,52.80,020511,,,A*5F
$GPGGA,191131.001,2346.9530,S,07018.9988,W,1,08,1.0,412.2,M,34.0,M,,0000*51
$GPGSA,M,3,22,16,30,18,03,21,14,19,,,,,1.6,1.0,1.2*3B
$GPRMC,191131.001,A,2346.9530,S,07018.9988,W,1.07,90.01,020511,,,A*51
$GPGGA,191132.001,2346.9531,S,07018.9982,W,1,06,1.2,411.7,M,34.0,M,,0000*53
$GPGSA,M,3,16,30,03,21,14,19,,,,,,,2.0,1.2,1.6*31
$GPRMC,191132.001,A,2346.9531,S,07018.9982,W,0.58,117.73,020511,,,A*69
$GPGGA,191133.001,2346.9527,S,07018.9983,W,1,06,1.2,411.2,M,34.0,M,,0000*51
$GPGSA,M,3,16,30,03,21,14,19,,,,,,,2.0,1.2,1.6*31
$GPRMC,191133.001,A,2346.9527,S,07018.9983,W,0.66,183.13,020511,,,A*68
$GPGGA,191133.999,2346.9527,S,07018.9982,W,1,07,1.0,411.0,M,34.0,M,,0000*59
$GPGSA,M,3,16,30,18,03,21,14,19,,,,,,1.7,1.0,1.4*3C
$GPGSV,3,1,12,22,77,036,,16,63,268,27,30,60,323,28,18,53,126,27*74
$GPGSV,3,2,12,06,50,201,,03,38,214,37,21,22,130,28,14,13,028,28*7C
$GPGSV,3,3,12,19,12,228,35,29,04,067,27,31,02,347,,15,01,128,*7A
$GPRMC,191133.999,A,2346.9527,S,07018.9982,W,0.31,116.43,020511,,,A*6A
$GPGGA,191134.999,2346.9526,S,07018.9981,W,1,07,1.0,412.1,M,34.0,M,,0000*5E
$GPGSA,M,3,16,30,18,03,21,14,19,,,,,,1.7,1.0,1.4*3C
$GPRMC,191134.999,A,2346.9526,S,07018.9981,W,1.03,129.00,020511,,,A*64
$GPGGA,191136.003,2346.9522,S,07018.9982,W,1,06,1.2,411.7,M,34.0,M,,0000*57
$GPGSA,M,3,16,30,03,21,14,19,,,,,,,2.0,1.2,1.6*31
$GPRMC,191136.003,A,2346.9522,S,07018.9982,W,0.73,114.09,020511,,,A*6A
$GPGGA,191137.000,2346.9521,S,07018.9988,W,1,07,1.1,412.5,M,34.0,M,,0000*5F
$GPGSA,M,3,30,18,06,03,21,14,19,,,,,,1.8,1.1,1.5*32
$GPRMC,191137.000,A,2346.9521,S,07018.9988,W,0.65,217.66,020511,,,A*6F
$GPGGA,191138.000,2346.9516,S,07018.9995,W,1,04,2.1,413.9,M,34.0,M,,0000*55
$GPGSA,M,3,30,03,21,19,,,,,,,,,4.0,2.1,3.4*35
$GPRMC,191138.000,A,2346.9516,S,07018.9995,W,0.86,177.09,020511,,,A*69
$GPGGA,191138.997,2346.9512,S,07018.9994,W,1,07,1.1,415.3,M,34.0,M,,0000*5B
$GPGSA,M,3,22,30,18,03,21,14,19,,,,,,1.7,1.1,1.3*3D
$GPGSV,3,1,12,22,77,036,25,16,63,268,,30,60,323,27,18,53,126,26*78
$GPGSV,3,2,12,06,50,201,,03,38,214,36,21,22,130,32,14,13,028,28*76
$GPGSV,3,3,12,19,12,228,36,29,04,067,28,31,02,347,,15,01,128,*76
$GPRMC,191138.997,A,2346.9512,S,07018.9994,W,0.38,309.47,020511,,,A*6F
$GPGGA,191140.000,2346.9514,S,07018.9996,W,1,07,1.1,414.6,M,34.0,M,,0000*53
$GPGSA,M,3,22,30,06,03,21,14,19,,,,,,1.8,1.1,1.4*3A
$GPRMC,191140.000,A,2346.9514,S,07018.9996,W,0.63,266.85,020511,,,A*6B
$GPGGA,191141.001,2346.9510,S,07019.0001,W,1,07,1.1,414.4,M,34.0,M,,0000*5A
$GPGSA,M,3,30,18,06,03,21,14,19,,,,,,1.8,1.1,1.5*32
$GPRMC,191141.001,A,2346.9510,S,07019.0001,W,0.46,154.07,020511,,,A*6F
$GPGGA,191141.999,2346.9507,S,07019.0003,W,1,07,1.1,414.8,M,34.0,M,,0000*5A
$GPGSA,M,3,22,30,06,03,21,14,19,,,,,,1.8,1.1,1.4*3A
$GPRMC,191141.999,A,2346.9507,S,07019.0003,W,0.76,84.63,020511,,,A*5E
$GPGGA,191143.001,2346.9504,S,07019.0009,W,1,06,1.2,414.8,M,34.0,M,,0000*5B
$GPGSA,M,3,30,06,03,21,14,19,,,,,,,2.0,1.2,1.7*31
$GPRMC,191143.001,A,2346.9504,S,07019.0009,W,0.40,253.49,020511,,,A*68
$GPGGA,191144.000,2346.9505,S,07019.0006,W,1,06,1.1,417.1,M,34.0,M,,0000*5A
$GPGSA,M,3,30,18,03,21,14,19,,,,,,,1.9,1.1,1.6*36
$GPGSV,3,1,12,22,77,036,,16,63,268,,30,60,323,29,18,53,126,26*71
$GPGSV,3,2,12,06,50,201,,03,38,214,37,21,22,130,31,14,13,028,32*7F
$GPGSV,3,3,12,19,12,228,35,29,04,067,30,31,02,347,,15,01,128,*7C
$GPRMC,191144.000,A,2346.9505,S,07019.0006,W,0.39,354.86,020511,,,A*6B
$GPGGA,191145.000,2346.9501,S,07019.0009,W,1,08,1.0,419.0,M,34.0,M,,0000*50
$GPGSA,M,3,16,30,18,06,03,21,14,19,,,,,1.7,1.0,1.4*3A
$GPRMC,191145.000,A,2346.9501,S,07019.0009,W,0.34,149.01,020511,,,A*6D
$GPGGA,191145.999,2346.9500,S,07019.0012,W,1,06,1.2,419.8,M,34.0,M,,0000*56
$GPGSA,M,3,30,06,03,21,14,19,,,,,,,2.0,1.2,1.7*31
$GPRMC,191145.999,A,2346.9500,S,07019.0012,W,0.80,125.89,020511,,,A*6A
$GPGGA,191146.998,2346.9502,S,07019.0007,W,1,07,1.1,419.8,M,34.0,M,,0000*50
$GPGSA,M,3,16,30,06,03,21,14,19,,,,,,1.9,1.1,1.5*3D
$GPRMC,191146.998,A,2346.9502,S,07019.0007,W,0.91,94.95,020511,,,A*58
$GPGGA,191148.000,2346.9503,S,07019.0002,W,1,07,1.1,420.1,M,34.0,M,,0000*51
$GPGSA,M,3,30,18,06,03,21,14,19,,,,,,1.8,1.1,1.5*32
$GPRMC,191148.000,A,2346.9503,S,07019.0002,W,0.53,112.57,020511,,,A*65
$GPGGA,191149.000,2346.9507,S,07018.9997,W,1,07,1.3,420.3,M,34.0,M,,0000*59
$GPGSA,M,3,16,30,18,06,03,14,19,,,,,,1.9,1.3,1.4*34
$GPGSV,3,1,12,22,77,036,,16,63,268,25,30,60,323,26,18,53,126,26*79
$GPGSV,3,2,12,06,50,201,25,03,38,214,37,21,22,130,,14,13,028,30*78
$GPGSV,3,3,12,19,12,228,36,29,04,067,30,31,02,347,,15,01,128,*7F
$GPRMC,191149.000,A,2346.9507,S,07018.9997,W,0.28,152.95,020511,,,A*6B
$GPGGA,191150.000,2346.9518,S,07018.9989,W,1,07,1.0,419.5,M,34.0,M,,0000*5F
$GPGSA,M,3,16,30,18,03,21,14,19,,,,,,1.7,1.0,1.4*3C
$GPRMC,191150.000,A,2346.9518,S,07018.9989,W,0.11,335.16,020511,,,A*60
$GPGGA,191151.002,2346.9516,S,07018.9991,W,1,06,2.2,420.1,M,34.0,M,,0000*55
$GPGSA,M,3,16,30,06,03,14,19,,,,,,,2.7,2.2,1.5*33
$GPRMC,191151.002,A,2346.9516,S,07018.9991,W,0.97,302.12,020511,,,A*6A
$GPGGA,191152.000,2346.9513,S,07018.9994,W,1,06,2.2,419.6,M,34.0,M,,0000*59
$GPGSA,M,3,16,30,06,03,14,19,,,,,,,2.7,2.2,1.5*33
$GPRMC,191152.000,A,2346.9513,S,07018.9994,W,1.33,283.38,020511,,,A*64
$GPGGA,191153.001,2346.9511,S,07018.9992,W,1,06,1.6,419.5,M,34.0,M,,0000*59
$GPGSA,M,3,16,18,06,03,14,19,,,,,,,2.3,1.6,1.7*38
$GPRMC,191153.001,A,2346.9511,S,07018.9992,W,0.50,355.97,020511,,,A*6B
$GPGGA,191154.000,2346.9507,S,07018.9990,W,1,07,2.0,421.1,M,34.0,M,,0000*51
$GPGSA,M,3,22,16,30,06,03,14,19,,,,,,2.4,2.0,1.3*34
$GPGSV,3,1,12,22,77,036,24,16,63,268,24,30,60,323,27,18,53,126,*7B
$GPGSV,3,2,12,06,50,201,26,03,38,214,36,21,22,130,,14,13,028,31*7B
$GPGSV,3,3,12,19,12,228,36,29,04,067,30,31,02,347,,15,01,128,*7F
$GPRMC,191154.000,A,2346.9507,S,07018.9990,W,0.52,298.70,020511,,,A*63
$GPGGA,191154.999,2346.9509,S,07018.9987,W,1,06,1.6,420.4,M,34.0,M,,0000*50
$GPGSA,M,3,22,16,18,03,14,19,,,,,,,2.1,1.6,1.4*3F
$GPRMC,191154.999,A,2346.9509,S,07018.9987,W,0.88,128.01,020511,,,A*6B
$GPGGA,191155.999,2346.9510,S,07018.9990,W,1,08,1.0,418.3,M,34.0,M,,0000*5B
$GPGSA,M,3,22,16,30,18,03,21,14,19,,,,,1.6,1.0,1.3*3A
$GPRMC,191155.999,A,2346.9510,S,07018.9990,W,1.71,113.95,020511,,,A*66
$GPGGA,191156.998,2346.9508,S,07018.9992,W,1,05,3.2,417.7,M,34.0,M,,0000*54
$GPGSA,M,3,22,16,03,14,19,,,,,,,,3.5,3.2,1.4*35
$GPRMC,191156.998,A,2346.9508,S,07018.9992,W,0.72,131.90,020511,,,A*68
$GPGGA,191158.001,2346.9507,S,07018.9996,W,1,06,2.4,417.6,M,34.0,M,,0000*5D
$GPGSA,M,3,22,16,30,03,14,19,,,,,,,2.7,2.4,1.3*35
$GPRMC,191158.001,A,2346.9507,S,07018.9996,W,0.31,288.92,020511,,,A*60
$GPGGA,191159.001,2346.9501,S,07018.9999,W,1,06,1.2,418.2,M,34.0,M,,0000*5B
$GPGSA,M,3,22,16,03,21,14,19,,,,,,,1.8,1.2,1.4*3B
$GPGSV,3,1,12,22,77,036,29,16,63,268,28,30,60,323,,18,53,126,*7F
$GPGSV,3,2,12,06,50,201,,03,38,214,35,21,22,130,26,14,13,028,33*7A
$GPGSV,3,3,12,19,12,228,35,29,04,067,29,31,02,347,,15,01,128,*74
$GPRMC,191159.001,A,2346.9501,S,07018.9999,W,0.60,325.37,020511,,,A*65
$GPGGA,191159.999,2346.9497,S,07019.0004,W,1,06,2.4,418.6,M,34.0,M,,0000*59
$GPGSA,M,3,22,16,30,03,14,19,,,,,,,2.7,2.4,1.3*35
$GPRMC,191159.999,A,2346.9497,S,07019.0004,W,0.18,126.90,020511,,,A*65
$GPGGA,191201.000,2346.9497,S,07019.0005,W,1,07,2.0,417.4,M,34.0,M,,0000*57
$GPGSA,M,3,22,16,30,06,03,14,19,,,,,,2.4,2.0,1.3*34
$GPRMC,191201.000,A,2346.9497,S,07019.0005,W,0.13,105.84,020511,,,A*6C
$GPGGA,191201.999,2346.9491,S,07019.0015,W,1,08,1.1,416.6,M,34.0,M,,0000*57
$GPGSA,M,3,22,16,30,06,03,21,14,19,,,,,1.7,1.1,1.3*35
$GPRMC,191201.999,A,2346.9491,S,07019.0015,W,1.79,305.21,020511,,,A*62
$GPGGA,191203.000,2346.9491,S,07019.0017,W,1,07,1.1,416.0,M,34.0,M,,0000*57
$GPGSA,M,3,22,16,30,03,21,14,19,,,,,,1.8,1.1,1.3*3C
$GPRMC,191203.000,A,2346.9491,S,07019.0017,W,1.05,294.13,020511,,,A*68
$GPGGA,191203.999,2346.9486,S,07019.0021,W,1,08,1.1,416.0,M,34.0,M,,0000*52
$GPGSA,M,3,22,16,30,06,03,21,14,19,,,,,1.7,1.1,1.3*35
$GPGSV,3,1,12,22,77,036,28,16,63,268,29,30,60,323,27,18,53,126,*7A
$GPGSV,3,2,12,06,50,201,26,03,38,214,36,21,22,130,28,14,13,028,30*70
$GPGSV,3,3,12,19,12,228,37,29,04,067,29,31,02,347,,15,01,128,*76
$GPRMC,191203.999,A,2346.9486,S,07019.0021,W,0.05,27.45,020511,,,A*5A
$GPGGA,191204.999,2346.9488,S,07019.0021,W,1,08,1.1,415.9,M,34.0,M,,0000*51
$GPGSA,M,3,22,16,30,06,03,21,14,19,,,,,1.7,1.1,1.3*35
$GPRMC,191204.999,A,2346.9488,S,07019.0021,W,0.72,146.81,020511,,,A*6D
$GPGGA,191205.997,2346.9486,S,07019.0028,W,1,07,1.2,414.5,M,34.0,M,,0000*58
$GPGSA,M,3,22,16,06,03,21,14,19,,,,,,1.8,1.2,1.3*3A
$GPRMC,191205.997,A,2346.9486,S,07019.0028,W,1.23,275.60,020511,,,A*6C
$GPGGA,191207.002,2346.9483,S,07019.0036,W,1,08,1.1,414.2,M,34.0,M,,0000*5E
$GPGSA,M,3,22,16,30,06,03,21,14,19,,,,,1.7,1.1,1.3*35
$GPRMC,191207.002,A,2346.9483,S,07019.0036,W,1.42,296.55,020511,,,A*6D
$GPGGA,191208.000,2346.9480,S,07019.0041,W,1,08,1.1,413.8,M,34.0,M,,0000*5D
$GPGSA,M,3,22,16,30,06,03,21,14,19,,,,,1.7,1.1,1.3*35
$GPRMC,191208.000,A,2346.9480,S,07019.0041,W,0.97,300.70,020511,,,A*63
$GPGGA,191209.000,2346.9478,S,07019.0048,W,1,08,1.1,413.0,M,34.0,M,,0000*5A
$GPGSA,M,3,22,16,30,06,03,21,14,19,,,,,1.7,1.1,1.3*35
$GPGSV,3,1,12,22,77,036,27,16,63,268,29,30,60,323,27,18,53,126,*75
$GPGSV,3,2,12,06,50,201,27,03,38,214,33,21,22,130,29,14,13,028,30*75
$GPGSV,3,3,12,19,12,228,37,29,04,067,27,31,02,347,,15,01,128,*78
$GPRMC,191209.000,A,2346.9478,S,07019.0048,W,0.35,208.61,020511,,,A*6D
$GPGGA,191209.998,2346.9476,S,07019.0055,W,1,07,1.2,412.5,M,34.0,M,,0000*58
$GPGSA,M,3,22,16,06,03,21,14,19,,,,,,1.8,1.2,1.3*3A
$GPRMC,191209.998,A,2346.9476,S,07019.0055,W,0.69,160.67,020511,,,A*65
$GPGGA,191211.000,2346.9475,S,07019.0060,W,1,07,1.2,412.5,M,34.0,M,,0000*5C
$GPGSA,M,3,22,16,06,03,21,14,19,,,,,,1.8,1.2,1.3*3A
$GPRMC,191211.000,A,2346.9475,S,07019.0060,W,1.00,181.56,020511,,,A*62
$GPGGA,191212.000,2346.9476,S,07019.0063,W,1,07,1.2,412.9,M,34.0,M,,0000*53
$GPGSA,M,3,22,16,06,03,21,14,19,,,,,,1.8,1.2,1.3*3A
$GPRMC,191212.000,A,2346.9476,S,07019.0063,W,0.38,191.42,020511,,,A*6F
$GPGGA,191213.002,2346.9476,S,07019.0061,W,1,06,1.2,413.2,M,34.0,M,,0000*59
$GPGSA,M,3,22,16,03,21,14,19,,,,,,,1.8,1.2,1.4*3B
$GPRMC,191213.002,A,2346.9476,S,07019.0061,W,0.55,187.32,020511,,,A*65
$GPGGA,191214.001,2346.9477,S,07019.0064,W,0,04,,413.4,M,34.0,M,,0000*71
$GPGSA,M,1,06,03,21,19,,,,,,,,,,,*1C
$GPGSV,3,1,12,22,77,036,,16,63,268,,30,60,323,,18,53,126,*7E
$GPGSV,3,2,12,06,50,201,30,03,38,214,34,21,22,130,30,14,13,028,*7F
$GPGSV,3,3,12,19,12,228,36,29,04,067,29,31,02,347,,15,01,128,*77
$GPRMC,191214.001,V,2346.9477,S,07019.0064,W,,,020511,,,N*72
$GPGGA,191214.999,2346.9476,S,07019.0064,W,1,07,1.1,413.9,M,34.0,M,,0000*59
$GPGSA,M,3,16,18,06,03,21,14,19,,,,,,1.9,1.1,1.5*37
$GPRMC,191214.999,A,2346.9476,S,07019.0064,W,0.16,150.74,020511,,,A*63
$GPGGA,191216.001,2346.9480,S,07019.0057,W,1,08,1.0,414.5,M,34.0,M,,0000*5F
$GPGSA,M,3,16,30,18,06,03,21,14,19,,,,,1.7,1.0,1.4*3A
$GPRMC,191216.001,A,2346.9480,S,07019.0057,W,0.69,124.68,020511,,,A*66
$GPGGA,191217.000,2346.9483,S,07019.0054,W,1,06,1.2,414.8,M,34.0,M,,0000*5E
$GPGSA,M,3,16,06,03,21,14,19,,,,,,,2.1,1.2,1.7*34
$GPRMC,191217.000,A,2346.9483,S,07019.0054,W,0.17,333.62,020511,,,A*61
$GPGGA,191218.001,2346.9486,S,07019.0047,W,1,06,1.3,414.5,M,34.0,M,,0000*5B
$GPGSA,M,3,16,30,18,03,14,19,,,,,,,2.0,1.3,1.5*39
$GPRMC,191218.001,A,2346.9486,S,07019.0047,W,0.31,47.03,020511,,,A*5B
$GPGGA,191219.001,2346.9486,S,07019.0045,W,1,08,1.0,414.4,M,34.0,M,,0000*54
$GPGSA,M,3,16,30,18,06,03,21,14,19,,,,,1.7,1.0,1.4*3A
$GPGSV,3,1,12,22,77,036,,16,63,268,36,30,60,323,25,18,53,126,31*7E
$GPGSV,3,2,12,06,50,201,26,03,38,214,35,21,22,130,29,14,13,028,29*7A
$GPGSV,3,3,12,19,12,228,37,29,04,067,28,31,02,347,,15,01,128,*77
$GPRMC,191219.001,A,2346.9486,S,07019.0045,W,1.30,351.72,020511,,,A*6A
$GPGGA,191220.001,2346.9483,S,07019.0046,W,1,06,1.2,413.2,M,34.0,M,,0000*55
$GPGSA,M,3,16,30,03,21,14,19,,,,,,,2.0,1.2,1.6*31
$GPRMC,191220.001,A,2346.9483,S,07019.0046,W,1.04,345.26,020511,,,A*65
$GPGGA,191221.001,2346.9478,S,07019.0054,W,1,06,1.2,413.4,M,34.0,M,,0000*55
$GPGSA,M,3,16,06,03,21,14,19,,,,,,,2.1,1.2,1.7*34
$GPRMC,191221.001,A,2346.9478,S,07019.0054,W,1.08,260.54,020511,,,A*6C
$GPGGA,191221.999,2346.9482,S,07019.0053,W,1,07,1.1,412.6,M,34.0,M,,0000*5E
$GPGSA,M,3,16,30,06,03,21,14,19,,,,,,1.9,1.1,1.5*3D
$GPRMC,191221.999,A,2346.9482,S,07019.0053,W,0.23,257.09,020511,,,A*62
$GPGGA,191223.000,2346.9483,S,07019.0052,W,1,07,1.1,412.9,M,34.0,M,,0000*5A
$GPGSA,M,3,16,30,06,03,21,14,19,,,,,,1.9,1.1,1.5*3D
$GPRMC,191223.000,A,2346.9483,S,07019.0052,W,0.15,72.77,020511,,,A*50
$GPGGA,191224.000,2346.9482,S,07019.0052,W,1,07,1.1,412.6,M,34.0,M,,0000*53
$GPGSA,M,3,16,30,06,03,21,14,19,,,,,,1.9,1.1,1.5*3D
$GPGSV,3,1,12,22,77,036,,16,63,268,31,30,60,323,26,18,53,126,*78
$GPGSV,3,2,12,06,50,201,29,03,38,214,36,21,22,130,31,14,13,028,34*73
$GPGSV,3,3,12,19,12,228,37,29,04,067,30,31,02,347,,15,01,128,*7E
$GPRMC,191224.000,A,2346.9482,S,07019.0052,W,0.30,20.85,020511,,,A*5B
$GPGGA,191225.000,2346.9480,S,07019.0054,W,1,07,1.1,412.9,M,34.0,M,,0000*59
$GPGSA,M,3,16,30,06,03,21,14,19,,,,,,1.9,1.1,1.5*3D
$GPRMC,191225.000,A,2346.9480,S,07019.0054,W,0.15,152.00,020511,,,A*60
$GPGGA,191225.999,2346.9479,S,07019.0052,W,1,07,1.2,413.1,M,34.0,M,,0000*5A
$GPGSA,M,3,22,16,06,03,21,14,19,,,,,,1.8,1.2,1.3*3A
$GPRMC,191225.999,A,2346.9479,S,07019.0052,W,0.35,53.26,020511,,,A*5F
$GPGGA,191227.001,2346.9477,S,07019.0053,W,1,06,2.5,413.4,M,34.0,M,,0000*5F
$GPGSA,M,3,22,16,06,03,14,19,,,,,,,2.9,2.5,1.4*38
$GPRMC,191227.001,A,2346.9477,S,07019.0053,W,1.17,310.04,020511,,,A*6F
$GPGGA,191227.998,2346.9479,S,07019.0053,W,1,07,1.2,413.9,M,34.0,M,,0000*50
$GPGSA,M,3,22,16,06,03,21,14,19,,,,,,1.8,1.2,1.3*3A
$GPRMC,191227.998,A,2346.9479,S,07019.0053,W,0.69,295.94,020511,,,A*65
$GPGGA,191229.003,2346.9478,S,07019.0056,W,1,06,2.5,412.4,M,34.0,M,,0000*58
$GPGSA,M,3,22,16,06,03,14,19,,,,,,,2.9,2.5,1.4*38
$GPGSV,3,1,12,22,77,036,26,16,63,268,32,30,60,323,,18,53,126,*7B
$GPGSV,3,2,12,06,50,201,33,03,38,214,31,21,22,130,,14,13,028,30*79
$GPGSV,3,3,12,19,12,228,39,29,04,067,29,31,02,347,,15,01,128,*78
$GPRMC,191229.003,A,2346.9478,S,07019.0056,W,0.49,321.93,020511,,,A*6F
$GPGGA,191229.998,2346.9484,S,07019.0048,W,1,07,1.0,412.4,M,34.0,M,,0000*58
$GPGSA,M,3,16,30,18,06,21,14,19,,,,,,1.7,1.0,1.4*39
$GPRMC,191229.998,A,2346.9484,S,07019.0048,W,0.65,149.79,020511,,,A*6E
$GPGGA,191231.001,2346.9490,S,07019.0038,W,1,06,1.1,412.8,M,34.0,M,,0000*56
$GPGSA,M,3,30,18,03,21,14,19,,,,,,,1.9,1.1,1.6*36
$GPRMC,191231.001,A,2346.9490,S,07019.0038,W,1.05,141.05,020511,,,A*68
$GPGGA,191232.001,2346.9492,S,07019.0034,W,1,08,1.0,413.0,M,34.0,M,,0000*5D
$GPGSA,M,3,22,30,18,06,03,21,14,19,,,,,1.7,1.0,1.3*3A
$GPRMC,191232.001,A,2346.9492,S,07019.0034,W,1.01,102.96,020511,,,A*6C
$GPGGA,191232.999,2346.9493,S,07019.0033,W,1,08,1.1,412.9,M,34.0,M,,0000*5A
$GPGSA,M,3,22,16,30,06,03,21,14,19,,,,,1.7,1.1,1.3*35
$GPRMC,191232.999,A,2346.9493,S,07019.0033,W,0.47,307.77,020511,,,A*69
$GPGGA,191233.997,2346.9494,S,07019.0025,W,1,07,1.2,412.7,M,34.0,M,,0000*57
$GPGSA,M,3,22,16,06,03,21,14,19,,,,,,1.8,1.2,1.3*3A
$GPGSV,3,1,12,22,77,036,28,16,63,268,32,30,60,323,,18,53,126,*75
$GPGSV,3,2,12,06,50,201,29,03,38,214,34,21,22,130,30,14,13,028,28*7D
$GPGSV,3,3,12,19,12,228,39,29,04,067,29,31,02,347,,15,01,128,*78
$GPRMC,191233.997,A,2346.9494,S,07019.0025,W,0.33,303.85,020511,,,A*6C
$GPGGA,191235.003,2346.9497,S,07019.0023,W,1,09,1.0,412.9,M,34.0,M,,0000*52
$GPGSA,M,3,22,16,30,18,06,03,21,14,19,,,,1.6,1.0,1.2*3D
$GPRMC,191235.003,A,2346.9497,S,07019.0023,W,0.23,209.62,020511,,,A*68
$GPGGA,191235.997,2346.9501,S,07019.0023,W,1,07,1.2,412.1,M,34.0,M,,0000*5C
$GPGSA,M,3,22,16,06,03,21,14,19,,,,,,1.8,1.2,1.3*3A
$GPRMC,191235.997,A,2346.9501,S,07019.0023,W,0.63,235.93,020511,,,A*67
$GPGGA,191237.000,2346.9506,S,07019.0018,W,1,07,1.2,411.2,M,34.0,M,,0000*56
$GPGSA,M,3,22,16,06,03,21,14,19,,,,,,1.8,1.2,1.3*3A
$GPRMC,191237.000,A,2346.9506,S,07019.0018,W,0.20,21.01,020511,,,A*56
$GPGGA,191238.000,2346.9507,S,07019.0022,W,1,07,1.2,410.6,M,34.0,M,,0000*54
$GPGSA,M,3,22,16,06,03,21,14,19,,,,,,1.8,1.2,1.3*3A
$GPRMC,191238.000,A,2346.9507,S,07019.0022,W,0.39,257.98,020511,,,A*6A
$GPGGA,191239.002,2346.9510,S,07019.0024,W,1,08,1.1,409.9,M,34.0,M,,0000*5C
$GPGSA,M,3,22,16,18,06,03,21,14,19,,,,,1.7,1.1,1.3*3F
$GPGSV,3,1,12,22,77,036,28,16,63,268,34,30,60,323,,18,53,126,24*75
$GPGSV,3,2,12,06,50,201,27,03,38,214,34,21,22,130,35,14,13,028,29*77
$GPGSV,3,3,12,19,12,228,39,29,04,067,27,31,02,347,,15,01,128,*76
$GPRMC,191239.002,A,2346.9510,S,07019.0024,W,0.27,107.24,020511,,,A*67
$GPGGA,191239.998,2346.9510,S,07019.0030,W,1,07,1.2,410.6,M,34.0,M,,0000*58
$GPGSA,M,3,22,16,06,03,21,14,19,,,,,,1.8,1.2,1.3*3A
$GPRMC,191239.998,A,2346.9510,S,07019.0030,W,0.66,168.85,020511,,,A*6F
$GPGGA,191241.000,2346.9512,S,07019.0032,W,1,07,1.2,411.0,M,34.0,M,,0000*58
$GPGSA,M,3,22,16,06,03,21,14,19,,,,,,1.8,1.2,1.3*3A
$GPRMC,191241.000,A,2346.9512,S,07019.0032,W,0.54,176.96,020511,,,A*64
$GPGGA,191242.001,2346.9513,S,07019.0038,W,1,08,1.1,410.5,M,34.0,M,,0000*59
$GPGSA,M,3,22,16,18,06,03,21,14,19,,,,,1.7,1.1,1.3*3F
$GPRMC,191242.001,A,2346.9513,S,07019.0038,W,0.40,226.22,020511,,,A*61
$GPGGA,191243.001,2346.9514,S,07019.0041,W,1,08,1.1,410.8,M,34.0,M,,0000*5C
$GPGSA,M,3,22,16,18,06,03,21,14,19,,,,,1.7,1.1,1.3*3F
$GPRMC,191243.001,A,2346.9514,S,07019.0041,W,0.45,300.33,020511,,,A*69
$GPGGA,191243.999,2346.9510,S,07019.0042,W,1,08,1.1,411.2,M,34.0,M,,0000*58
$GPGSA,M,3,22,16,18,06,03,21,14,19,,,,,1.7,1.1,1.3*3F
$GPGSV,3,1,12,22,77,036,28,16,63,268,33,30,60,323,,18,53,126,25*73
$GPGSV,3,2,12,06,50,201,25,03,38,214,31,21,22,130,35,14,13,028,27*7E
$GPGSV,3,3,12,19,12,228,39,29,04,067,28,31,02,347,,15,01,128,*79
$GPRMC,191243.999,A,2346.9510,S,07019.0042,W,0.77,282.06,020511,,,A*6A
$GPGGA,191244.999,2346.9511,S,07019.0045,W,1,08,1.1,410.8,M,34.0,M,,0000*52
$GPGSA,M,3,22,16,18,06,03,21,14,19,,,,,1.7,1.1,1.3*3F
$GPRMC,191244.999,A,2346.9511,S,07019.0045,W,0.49,283.75,020511,,,A*63
$GPGGA,191245.998,2346.9513,S,07019.0046,W,1,07,2.1,411.3,M,34.0,M,,0000*55
$GPGSA,M,3,22,16,18,06,03,21,19,,,,,,3.1,2.1,2.3*3E
$GPRMC,191245.998,A,2346.9513,S,07019.0046,W,0.23,285.70,020511,,,A*6D
$GPGGA,191247.000,2346.9511,S,07019.0049,W,1,07,2.1,412.5,M,34.0,M,,0000*57
$GPGSA,M,3,22,16,18,06,03,21,19,,,,,,3.1,2.1,2.3*3E
$GPRMC,191247.000,A,2346.9511,S,07019.0049,W,0.71,186.80,020511,,,A*62
$GPGGA,191248.000,2346.9514,S,07019.0051,W,1,07,2.1,412.6,M,34.0,M,,0000*57
$GPGSA,M,3,22,16,18,06,03,21,19,,,,,,3.1,2.1,2.3*3E
$GPRMC,191248.000,A,2346.9514,S,07019.0051,W,0.55,133.69,020511,,,A*6E
$GPGGA,191249.001,2346.9510,S,07019.0051,W,1,08,1.5,413.3,M,34.0,M,,0000*5F
$GPGSA,M,3,22,16,30,18,06,03,21,19,,,,,2.6,1.5,2.1*3E
$GPGSV,3,1,12,22,77,036,29,16,63,268,33,30,60,323,21,18,53,126,30*75
$GPGSV,3,2,12,06,50,201,30,03,38,214,26,21,22,130,33,14,13,028,*7F
$GPGSV,3,3,12,19,12,228,37,29,04,067,28,31,02,347,,15,01,128,*77
$GPRMC,191249.001,A,2346.9510,S,07019.0051,W,0.99,337.47,020511,,,A*60
$GPGGA,191250.001,2346.9508,S,07019.0052,W,1,06,2.3,413.9,M,34.0,M,,0000*5C
$GPGSA,M,3,22,16,18,06,21,19,,,,,,,3.4,2.3,2.5*3C
$GPRMC,191250.001,A,2346.9508,S,07019.0052,W,0.63,335.84,020511,,,A*6A
$GPGGA,191250.997,2346.9503,S,07019.0057,W,1,07,1.1,413.5,M,34.0,M,,0000*58
$GPGSA,M,3,22,16,18,06,21,14,19,,,,,,1.7,1.1,1.3*3C
$GPRMC,191250.997,A,2346.9503,S,07019.0057,W,0.77,27.66,020511,,,A*5B
$GPGGA,191252.001,2346.9507,S,07019.0057,W,1,07,1.1,413.4,M,34.0,M,,0000*59
