$GPGGA,211304.999,1331.0132,S,07158.9083,W,1,07,1.5,3429.1,M,29.8,M,,0000*6B
$GPGSA,M,3,06,03,16,22,30,19,18,,,,,,2.4,1.5,1.8*35
$GPGSV,3,1,12,06,67,155,40,03,60,191,40,16,52,325,30,22,44,153,40*76
$GPGSV,3,2,12,14,39,071,,30,38,350,31,19,30,205,36,18,12,143,32*7A
$GPGSV,3,3,12,31,04,015,,32,26,314,,11,07,244,,24,06,260,*7A
$GPRMC,211304.999,A,1331.0132,S,07158.9083,W,0.58,130.21,210411,,,A*6F
$GPGGA,211305.994,1331.0133,S,07158.9083,W,1,07,1.5,3428.5,M,29.8,M,,0000*63
$GPGSA,M,3,06,03,16,22,30,19,18,,,,,,2.4,1.5,1.8*35
$GPRMC,211305.994,A,1331.0133,S,07158.9083,W,0.82,148.25,210411,,,A*6E
$GPGGA,211307.002,1331.0133,S,07158.9084,W,1,07,1.5,3428.2,M,29.8,M,,0000*67
$GPGSA,M,3,06,03,16,22,30,19,18,,,,,,2.4,1.5,1.8*35
$GPRMC,211307.002,A,1331.0133,S,07158.9084,W,0.95,219.47,210411,,,A*68
$GPGGA,211308.000,1331.0133,S,07158.9086,W,1,08,1.2,3427.6,M,29.8,M,,0000*6B
$GPGSA,M,3,06,03,16,22,14,30,19,18,,,,,2.2,1.2,1.8*31
$GPRMC,211308.000,A,1331.0133,S,07158.9086,W,0.67,136.57,210411,,,A*65
$GPGGA,211309.000,1331.0132,S,07158.9087,W,1,08,1.2,3426.3,M,29.8,M,,0000*6E
$GPGSA,M,3,06,03,16,22,14,30,19,18,,,,,2.2,1.2,1.8*31
$GPRMC,211309.000,A,1331.0132,S,07158.9087,W,0.62,210.86,210411,,,A*6A
$GPGGA,211309.998,1331.0130,S,07158.9089,W,1,07,1.5,3425.4,M,29.8,M,,0000*66
$GPGSA,M,3,06,03,16,22,14,30,18,,,,,,2.6,1.5,2.1*30
$GPGSV,3,1,12,06,67,155,39,03,60,191,42,16,52,325,37,22,44,153,41*7C
$GPGSV,3,2,12,14,39,071,28,30,38,350,26,19,30,205,,32,26,314,27*78
$GPGSV,3,3,12,18,12,143,32,11,07,244,,24,06,260,,31,04,015,*74
$GPRMC,211309.998,A,1331.0130,S,07158.9089,W,0.14,163.00,210411,,,A*66
$GPGGA,211311.002,1331.0130,S,07158.9089,W,1,06,1.8,3425.5,M,29.8,M,,0000*68
$GPGSA,M,3,06,03,16,22,19,18,,,,,,,2.7,1.8,2.0*33
$GPRMC,211311.002,A,1331.0130,S,07158.9089,W,0.59,21.16,210411,,,A*5C
$GPGGA,211312.000,1331.0130,S,07158.9089,W,1,08,1.2,3425.3,M,29.8,M,,0000*6B
$GPGSA,M,3,06,03,16,22,14,30,19,18,,,,,2.2,1.2,1.8*31
$GPRMC,211312.000,A,1331.0130,S,07158.9089,W,0.95,189.58,210411,,,A*64
$GPGGA,211313.001,1331.0131,S,07158.9091,W,1,08,1.2,3425.0,M,29.8,M,,0000*60
$GPGSA,M,3,06,03,16,22,14,30,19,18,,,,,2.2,1.2,1.8*31
$GPRMC,211313.001,A,1331.0131,S,07158.9091,W,0.69,280.93,210411,,,A*62
$GPGGA,211313.998,1331.0126,S,07158.9093,W,1,07,1.5,3424.5,M,29.8,M,,0000*61
$GPGSA,M,3,06,03,16,22,30,19,18,,,,,,2.4,1.5,1.8*35
$GPRMC,211313.998,A,1331.0126,S,07158.9093,W,1.97,327.65,210411,,,A*6A
$GPGGA,211314.999,1331.0118,S,07158.9096,W,1,07,1.5,3424.0,M,29.8,M,,0000*6A
$GPGSA,M,3,06,03,16,22,30,19,18,,,,,,2.4,1.5,1.8*35
$GPGSV,3,1,12,06,67,155,38,03,60,191,39,16,52,325,37,22,44,153,40*70
$GPGSV,3,2,12,14,39,071,,30,38,350,32,19,30,205,34,32,26,314,37*71
$GPGSV,3,3,12,18,12,143,29,11,07,244,,24,06,260,,31,04,015,*7E
$GPRMC,211314.999,A,1331.0118,S,07158.9096,W,2.46,354.68,210411,,,A*62
$GPGGA,211316.001,1331.0113,S,07158.9099,W,1,08,1.2,3424.1,M,29.8,M,,0000*6D
$GPGSA,M,3,06,03,16,22,14,30,19,18,,,,,2.2,1.2,1.8*31
$GPRMC,211316.001,A,1331.0113,S,07158.9099,W,1.28,306.51,210411,,,A*6A
$GPGGA,211317.001,1331.0110,S,07158.9102,W,1,08,1.2,3424.3,M,29.8,M,,0000*6E
$GPGSA,M,3,06,03,16,22,14,30,19,18,,,,,2.2,1.2,1.8*31
$GPRMC,211317.001,A,1331.0110,S,07158.9102,W,0.43,310.01,210411,,,A*65
$GPGGA,211317.998,1331.0115,S,07158.9104,W,1,07,1.5,3424.2,M,29.8,M,,0000*6D
$GPGSA,M,3,06,03,16,22,14,30,18,,,,,,2.6,1.5,2.1*30
$GPRMC,211317.998,A,1331.0115,S,07158.9104,W,1.41,186.61,210411,,,A*67
$GPGGA,211319.000,1331.0123,S,07158.9105,W,1,07,1.5,3423.9,M,29.8,M,,0000*63
$GPGSA,M,3,06,03,16,22,14,30,18,,,,,,2.6,1.5,2.1*30
$GPRMC,211319.000,A,1331.0123,S,07158.9105,W,2.82,167.37,210411,,,A*65
$GPGGA,211320.000,1331.0136,S,07158.9094,W,1,07,1.5,3423.1,M,29.8,M,,0000*6C
$GPGSA,M,3,06,03,16,22,14,30,18,,,,,,2.6,1.5,2.1*30
$GPGSV,3,1,12,06,67,155,36,03,60,191,37,16,52,325,40,22,44,153,35*72
$GPGSV,3,2,12,14,39,071,31,30,38,350,41,19,30,205,,32,26,314,33*74
$GPGSV,3,3,12,18,12,143,29,11,07,244,,24,06,260,,31,04,015,*7E
$GPRMC,211320.000,A,1331.0136,S,07158.9094,W,4.89,147.36,210411,,,A*6C
$GPGGA,211320.999,1331.0156,S,07158.9084,W,1,07,1.5,3424.3,M,29.8,M,,0000*67
$GPGSA,M,3,06,03,16,22,14,30,18,,,,,,2.6,1.5,2.1*30
$GPRMC,211320.999,A,1331.0156,S,07158.9084,W,5.44,148.64,210411,,,A*6A
$GPGGA,211321.999,1331.0167,S,07158.9080,W,1,07,1.5,3424.3,M,29.8,M,,0000*60
$GPGSA,M,3,06,03,16,22,14,30,18,,,,,,2.6,1.5,2.1*30
$GPRMC,211321.999,A,1331.0167,S,07158.9080,W,4.81,155.58,210411,,,A*66
$GPGGA,211323.001,1331.0177,S,07158.9077,W,1,06,1.6,3424.2,M,29.8,M,,0000*60
$GPGSA,M,3,06,03,16,14,30,18,,,,,,,2.7,1.6,2.1*32
$GPRMC,211323.001,A,1331.0177,S,07158.9077,W,4.62,148.76,210411,,,A*68
$GPGGA,211323.998,1331.0185,S,07158.9077,W,1,07,1.2,3423.6,M,29.8,M,,0000*62
$GPGSA,M,3,06,03,16,22,14,30,19,,,,,,3.0,1.2,2.7*37
$GPRMC,211323.998,A,1331.0185,S,07158.9077,W,4.00,161.45,210411,,,A*63
$GPGGA,211325.000,1331.0192,S,07158.9075,W,1,07,1.2,3424.5,M,29.8,M,,0000*6C
$GPGSA,M,3,06,03,16,22,14,30,19,,,,,,3.0,1.2,2.7*37
$GPGSV,3,1,12,06,67,155,37,03,60,191,38,16,52,325,40,22,44,153,35*7C
$GPGSV,3,2,12,14,39,071,33,30,38,350,41,19,30,205,37,32,26,314,24*74
$GPGSV,3,3,12,18,12,143,,11,07,244,,24,06,260,,31,04,015,*75
$GPRMC,211325.000,A,1331.0192,S,07158.9075,W,3.22,163.69,210411,,,A*62
$GPGGA,211326.000,1331.0199,S,07158.9072,W,1,07,1.2,3424.6,M,29.8,M,,0000*60
$GPGSA,M,3,06,03,16,22,14,30,19,,,,,,3.0,1.2,2.7*37
$GPRMC,211326.000,A,1331.0199,S,07158.9072,W,1.42,180.53,210411,,,A*6D
$GPGGA,211327.000,1331.0196,S,07158.9075,W,1,08,1.2,3424.2,M,29.8,M,,0000*62
$GPGSA,M,3,06,03,16,22,14,30,19,18,,,,,2.2,1.2,1.8*31
$GPRMC,211327.000,A,1331.0196,S,07158.9075,W,0.51,289.64,210411,,,A*69
$GPGGA,211328.002,1331.0197,S,07158.9077,W,1,07,1.2,3424.4,M,29.8,M,,0000*65
$GPGSA,M,3,06,03,16,22,14,30,19,,,,,,3.0,1.2,2.7*37
$GPRMC,211328.002,A,1331.0197,S,07158.9077,W,0.79,266.95,210411,,,A*62
$GPGGA,211329.000,1331.0195,S,07158.9082,W,1,07,1.2,3424.2,M,29.8,M,,0000*68
$GPGSA,M,3,06,03,16,22,14,30,19,,,,,,3.0,1.2,2.7*37
$GPRMC,211329.000,A,1331.0195,S,07158.9082,W,0.35,18.26,210411,,,A*52
$GPGGA,211329.997,1331.0193,S,07158.9081,W,1,07,1.2,3424.5,M,29.8,M,,0000*6D
$GPGSA,M,3,06,03,16,22,14,30,19,,,,,,3.0,1.2,2.7*37
$GPGSV,3,1,12,06,67,155,37,03,60,191,38,16,52,325,41,22,44,153,31*79
$GPGSV,3,2,12,14,39,071,36,30,38,350,40,19,30,205,37,32,26,314,*76
$GPGSV,3,3,12,18,12,143,,11,07,244,,24,06,260,,31,04,015,*75
$GPRMC,211329.997,A,1331.0193,S,07158.9081,W,0.43,249.54,210411,,,A*62
$GPGGA,211331.001,1331.0195,S,07158.9086,W,1,06,1.3,3424.5,M,29.8,M,,0000*63
$GPGSA,M,3,06,03,16,14,30,19,,,,,,,3.0,1.3,2.7*36
$GPRMC,211331.001,A,1331.0195,S,07158.9086,W,0.16,39.82,210411,,,A*52
$GPGGA,211332.001,1331.0195,S,07158.9085,W,1,06,1.3,3424.0,M,29.8,M,,0000*66
$GPGSA,M,3,06,03,16,14,30,19,,,,,,,3.0,1.3,2.7*36
$GPRMC,211332.001,A,1331.0195,S,07158.9085,W,0.33,272.22,210411,,,A*62
$GPGGA,211332.998,1331.0192,S,07158.9083,W,1,07,1.2,3423.7,M,29.8,M,,0000*6E
$GPGSA,M,3,06,03,16,22,14,30,19,,,,,,3.0,1.2,2.7*37
$GPRMC,211332.998,A,1331.0192,S,07158.9083,W,0.53,283.88,210411,,,A*62
$GPGGA,211334.001,1331.0194,S,07158.9088,W,1,07,1.2,3423.6,M,29.8,M,,0000*6D
$GPGSA,M,3,06,03,16,22,14,30,19,,,,,,3.0,1.2,2.7*37
$GPRMC,211334.001,A,1331.0194,S,07158.9088,W,0.38,268.86,210411,,,A*66
$GPGGA,211335.002,1331.0193,S,07158.9092,W,1,07,1.2,3423.4,M,29.8,M,,0000*61
$GPGSA,M,3,06,03,16,22,14,30,19,,,,,,3.0,1.2,2.7*37
$GPGSV,3,1,12,06,67,155,37,03,60,191,37,16,52,325,40,22,44,153,30*76
$GPGSV,3,2,12,14,39,071,36,30,38,350,40,19,30,205,37,32,26,314,*76
$GPGSV,3,3,12,18,12,143,,11,07,244,,24,06,260,,31,04,015,*75
$GPRMC,211335.002,A,1331.0193,S,07158.9092,W,0.24,281.20,210411,,,A*6E
$GPGGA,211335.999,1331.0190,S,07158.9097,W,1,06,1.3,3422.2,M,29.8,M,,0000*6B
$GPGSA,M,3,06,03,16,14,30,19,,,,,,,3.0,1.3,2.7*36
$GPRMC,211335.999,A,1331.0190,S,07158.9097,W,0.68,296.73,210411,,,A*6B
$GPGGA,211337.000,1331.0193,S,07158.9102,W,1,07,1.2,3423.0,M,29.8,M,,0000*6D
$GPGSA,M,3,06,03,16,22,14,30,19,,,,,,3.0,1.2,2.7*37
$GPRMC,211337.000,A,1331.0193,S,07158.9102,W,0.50,290.14,210411,,,A*62
$GPGGA,211337.998,1331.0197,S,07158.9106,W,1,07,1.2,3423.8,M,29.8,M,,0000*6D
$GPGSA,M,3,06,03,16,22,14,30,19,,,,,,3.0,1.2,2.7*37
$GPRMC,211337.998,A,1331.0197,S,07158.9106,W,0.27,315.34,210411,,,A*64
$GPGGA,211339.004,1331.0195,S,07158.9106,W,1,07,1.2,3423.3,M,29.8,M,,0000*66
$GPGSA,M,3,06,03,16,22,14,30,19,,,,,,3.0,1.2,2.7*37
$GPRMC,211339.004,A,1331.0195,S,07158.9106,W,0.59,286.04,210411,,,A*65
$GPGGA,211339.998,1331.0201,S,07158.9108,W,1,07,1.2,3421.7,M,29.8,M,,0000*6C
$GPGSA,M,3,06,03,16,22,14,30,19,,,,,,3.0,1.2,2.7*37
$GPGSV,3,1,12,06,67,155,37,03,60,191,38,16,52,325,41,22,44,153,33*7B
$GPGSV,3,2,12,14,39,071,33,30,38,350,41,19,30,205,36,32,26,314,*73
$GPGSV,3,3,12,18,12,143,,11,07,244,,24,06,260,,31,04,015,*75
$GPRMC,211339.998,A,1331.0201,S,07158.9108,W,0.17,224.14,210411,,,A*6A
$GPGGA,211340.997,1331.0199,S,07158.9105,W,1,07,1.2,3421.0,M,29.8,M,,0000*65
$GPGSA,M,3,06,03,16,22,14,30,19,,,,,,3.0,1.2,2.7*37
$GPRMC,211340.997,A,1331.0199,S,07158.9105,W,0.44,85.97,210411,,,A*50
$GPGGA,211342.001,1331.0200,S,07158.9099,W,1,07,1.2,3421.4,M,29.8,M,,0000*62
$GPGSA,M,3,06,03,16,22,14,30,19,,,,,,3.0,1.2,2.7*37
$GPRMC,211342.001,A,1331.0200,S,07158.9099,W,0.67,72.63,210411,,,A*51
$GPGGA,211342.999,1331.0199,S,07158.9095,W,1,07,1.2,3421.4,M,29.8,M,,0000*65
$GPGSA,M,3,06,03,16,22,14,30,19,,,,,,3.0,1.2,2.7*37
$GPRMC,211342.999,A,1331.0199,S,07158.9095,W,0.08,338.75,210411,,,A*65
$GPGGA,211344.002,1331.0198,S,07158.9096,W,1,07,1.2,3421.5,M,29.8,M,,0000*6B
$GPGSA,M,3,06,03,16,22,14,30,19,,,,,,3.0,1.2,2.7*37
$GPRMC,211344.002,A,1331.0198,S,07158.9096,W,0.42,259.89,210411,,,A*61
$GPGGA,211344.999,1331.0196,S,07158.9094,W,1,07,1.2,3421.5,M,29.8,M,,0000*6C
$GPGSA,M,3,06,03,16,22,14,30,19,,,,,,3.0,1.2,2.7*37
$GPGSV,3,1,12,06,67,155,36,03,60,191,38,16,52,325,40,22,44,153,31*79
$GPGSV,3,2,12,14,39,071,36,30,38,350,41,19,30,205,36,32,26,314,30*75
$GPGSV,3,3,12,18,12,143,,11,07,244,,24,06,260,,31,04,015,*75
$GPRMC,211344.999,A,1331.0196,S,07158.9094,W,0.68,282.45,210411,,,A*68
$GPGGA,211345.997,1331.0193,S,07158.9095,W,1,07,1.2,3422.7,M,29.8,M,,0000*66
$GPGSA,M,3,06,03,16,22,14,30,19,,,,,,3.0,1.2,2.7*37
$GPRMC,211345.997,A,1331.0193,S,07158.9095,W,0.18,121.66,210411,,,A*6F
$GPGGA,211347.002,1331.0195,S,07158.9091,W,1,07,1.2,3422.5,M,29.8,M,,0000*61
$GPGSA,M,3,06,03,16,22,14,30,19,,,,,,3.0,1.2,2.7*37
$GPRMC,211347.002,A,1331.0195,S,07158.9091,W,1.71,146.43,210411,,,A*62
$GPGGA,211348.001,1331.0205,S,07158.9090,W,1,06,1.9,3422.6,M,29.8,M,,0000*6F
$GPGSA,M,3,06,03,16,22,14,30,,,,,,,5.8,1.9,5.5*3F
$GPRMC,211348.001,A,1331.0205,S,07158.9090,W,4.26,170.81,210411,,,A*69
$GPGGA,211349.000,1331.0220,S,07158.9087,W,1,07,1.2,3422.6,M,29.8,M,,0000*64
$GPGSA,M,3,06,03,16,22,14,30,19,,,,,,3.0,1.2,2.7*37
$GPRMC,211349.000,A,1331.0220,S,07158.9087,W,4.15,186.92,210411,,,A*63
$GPGGA,211349.998,1331.0234,S,07158.9092,W,1,08,1.2,3423.1,M,29.8,M,,0000*64
$GPGSA,M,3,06,03,16,22,14,30,19,18,,,,,2.2,1.2,1.8*31
$GPGSV,3,1,12,06,67,155,38,03,60,191,37,16,52,325,29,22,44,153,37*71
$GPGSV,3,2,12,14,39,071,41,30,38,350,41,19,30,205,33,32,26,314,*73
$GPGSV,3,3,12,18,12,143,34,11,07,244,,24,06,260,,31,04,015,*72
$GPRMC,211349.998,A,1331.0234,S,07158.9092,W,4.85,205.83,210411,,,A*6B
$GPGGA,211351.001,1331.0244,S,07158.9108,W,1,07,1.2,3422.2,M,29.8,M,,0000*6C
$GPGSA,M,3,06,03,16,22,14,30,19,,,,,,3.0,1.2,2.7*37
$GPRMC,211351.001,A,1331.0244,S,07158.9108,W,5.34,223.81,210411,,,A*63
$GPGGA,211351.999,1331.0255,S,07158.9122,W,1,07,1.2,3422.4,M,29.8,M,,0000*6A
$GPGSA,M,3,06,03,16,22,14,30,19,,,,,,3.0,1.2,2.7*37
$GPRMC,211351.999,A,1331.0255,S,07158.9122,W,5.49,236.14,210411,,,A*61
$GPGGA,211353.000,1331.0265,S,07158.9140,W,1,08,1.2,3422.3,M,29.8,M,,0000*6E
$GPGSA,M,3,06,03,16,22,14,30,19,18,,,,,2.2,1.2,1.8*31
$GPRMC,211353.000,A,1331.0265,S,07158.9140,W,6.22,240.77,210411,,,A*67
$GPGGA,211354.001,1331.0272,S,07158.9157,W,1,06,1.4,3423.2,M,29.8,M,,0000*60
$GPGSA,M,3,06,03,16,22,14,19,,,,,,,3.2,1.4,2.9*3E
$GPRMC,211354.001,A,1331.0272,S,07158.9157,W,6.46,240.06,210411,,,A*65
$GPGGA,211355.000,1331.0283,S,07158.9173,W,1,06,1.4,3424.2,M,29.8,M,,0000*6F
$GPGSA,M,3,06,03,16,22,14,19,,,,,,,3.2,1.4,2.9*3E
$GPGSV,3,1,12,06,67,155,38,03,60,191,36,16,52,325,32,22,44,153,36*7B
$GPGSV,3,2,12,14,39,071,41,30,38,350,,19,30,205,30,32,26,314,24*73
$GPGSV,3,3,12,18,12,143,,11,07,244,,24,06,260,,31,04,015,*75
$GPRMC,211355.000,A,1331.0283,S,07158.9173,W,6.51,234.90,210411,,,A*67
$GPGGA,211355.998,1331.0293,S,07158.9195,W,1,06,1.4,3423.3,M,29.8,M,,0000*68
$GPGSA,M,3,06,03,16,22,14,19,,,,,,,3.2,1.4,2.9*3E
$GPRMC,211355.998,A,1331.0293,S,07158.9195,W,7.49,247.37,210411,,,A*67
$GPGGA,211357.002,1331.0302,S,07158.9217,W,1,07,1.2,3422.9,M,29.8,M,,0000*6C
$GPGSA,M,3,06,03,16,22,14,30,19,,,,,,3.0,1.2,2.7*37
$GPRMC,211357.002,A,1331.0302,S,07158.9217,W,7.71,244.50,210411,,,A*66
$GPGGA,211358.000,1331.0308,S,07158.9239,W,1,07,1.2,3423.5,M,29.8,M,,0000*6A
$GPGSA,M,3,06,03,16,22,14,30,19,,,,,,3.0,1.2,2.7*37
$GPRMC,211358.000,A,1331.0308,S,07158.9239,W,8.29,249.07,210411,,,A*60
$GPGGA,211358.998,1331.0315,S,07158.9265,W,1,06,1.4,3425.4,M,29.8,M,,0000*67
$GPGSA,M,3,06,03,16,22,14,19,,,,,,,3.2,1.4,2.9*3E
$GPRMC,211358.998,A,1331.0315,S,07158.9265,W,8.36,248.83,210411,,,A*6E
$GPGGA,211400.001,1331.0324,S,07158.9289,W,1,04,3.5,3425.2,M,29.8,M,,0000*63
$GPGSA,M,3,06,03,22,14,,,,,,,,,3.7,3.5,1.0*3D
$GPGSV,3,1,12,06,67,155,38,03,60,191,37,16,52,325,,22,44,153,38*75
$GPGSV,3,2,12,14,39,071,40,30,38,350,,19,30,205,,32,26,314,*77
$GPGSV,3,3,12,18,12,143,,11,07,244,,24,06,260,,31,04,015,*75
$GPRMC,211400.001,A,1331.0324,S,07158.9289,W,7.85,251.04,210411,,,A*6D
$GPGGA,211400.999,1331.0335,S,07158.9316,W,1,04,3.5,3425.6,M,29.8,M,,0000*68
$GPGSA,M,3,06,03,22,14,,,,,,,,,3.7,3.5,1.0*3D
$GPRMC,211400.999,A,1331.0335,S,07158.9316,W,9.56,251.71,210411,,,A*60
$GPGGA,211401.999,1331.0339,S,07158.9346,W,1,06,1.4,3424.7,M,29.8,M,,0000*61
$GPGSA,M,3,06,03,22,14,30,19,,,,,,,3.2,1.4,2.9*3A
$GPRMC,211401.999,A,1331.0339,S,07158.9346,W,9.32,252.12,210411,,,A*6C
$GPGGA,211402.999,1331.0350,S,07158.9373,W,1,06,1.4,3425.3,M,29.8,M,,0000*6E
$GPGSA,M,3,06,03,16,22,14,19,,,,,,,3.2,1.4,2.9*3E
$GPRMC,211402.999,A,1331.0350,S,07158.9373,W,8.36,243.27,210411,,,A*65
$GPGGA,211404.001,1331.0361,S,07158.9397,W,1,05,2.1,3425.8,M,29.8,M,,0000*66
$GPGSA,M,3,06,03,16,22,14,,,,,,,,6.7,2.1,6.4*39
$GPRMC,211404.001,A,1331.0361,S,07158.9397,W,8.59,249.12,210411,,,A*66
$GPGGA,211404.999,1331.0372,S,07158.9421,W,1,05,3.2,3425.6,M,29.8,M,,0000*6A
$GPGSA,M,3,06,03,22,14,19,,,,,,,,4.3,3.2,2.9*3B
$GPGSV,3,1,12,06,67,155,38,03,60,191,37,16,52,325,,22,44,153,40*7A
$GPGSV,3,2,12,14,39,071,41,30,38,350,,19,30,205,27,32,26,314,*73
$GPGSV,3,3,12,18,12,143,,11,07,244,,24,06,260,,31,04,015,*75
$GPRMC,211404.999,A,1331.0372,S,07158.9421,W,8.25,242.46,210411,,,A*67
$GPGGA,211405.998,1331.0383,S,07158.9446,W,1,07,1.2,3426.0,M,29.8,M,,0000*60
$GPGSA,M,3,06,03,16,22,14,30,19,,,,,,3.0,1.2,2.7*37
$GPRMC,211405.998,A,1331.0383,S,07158.9446,W,6.95,237.24,210411,,,A*6B
$GPGGA,211406.999,1331.0392,S,07158.9467,W,1,06,1.4,3426.1,M,29.8,M,,0000*67
$GPGSA,M,3,06,03,16,22,14,19,,,,,,,3.2,1.4,2.9*3E
$GPRMC,211406.999,A,1331.0392,S,07158.9467,W,6.59,236.06,210411,,,A*6B
$GPGGA,211408.001,1331.0406,S,07158.9488,W,1,05,3.2,3426.7,M,29.8,M,,0000*6B
$GPGSA,M,3,06,03,22,14,19,,,,,,,,4.3,3.2,2.9*3B
$GPRMC,211408.001,A,1331.0406,S,07158.9488,W,6.06,238.36,210411,,,A*61
$GPGGA,211408.999,1331.0414,S,07158.9512,W,1,06,1.4,3424.0,M,29.8,M,,0000*60
$GPGSA,M,3,06,03,16,22,14,19,,,,,,,3.2,1.4,2.9*3E
$GPRMC,211408.999,A,1331.0414,S,07158.9512,W,6.42,239.33,210411,,,A*6C
$GPGGA,211410.000,1331.0427,S,07158.9530,W,1,06,1.7,3424.7,M,29.8,M,,0000*64
$GPGSA,M,3,06,03,16,22,14,18,,,,,,,2.9,1.7,2.3*3C
$GPGSV,3,1,12,06,67,155,38,03,60,191,37,16,52,325,39,22,44,153,37*70
$GPGSV,3,2,12,14,39,071,41,30,38,350,,19,30,205,,32,26,314,34*71
$GPGSV,3,3,12,18,12,143,30,11,07,244,,24,06,260,,31,04,015,*76
$GPRMC,211410.000,A,1331.0427,S,07158.9530,W,7.61,235.97,210411,,,A*6E
$GPGGA,211411.000,1331.0440,S,07158.9549,W,1,07,1.2,3424.5,M,29.8,M,,0000*6C
$GPGSA,M,3,06,03,16,14,30,19,18,,,,,,2.2,1.2,1.9*30
$GPRMC,211411.000,A,1331.0440,S,07158.9549,W,6.96,231.73,210411,,,A*67
$GPGGA,211412.000,1331.0454,S,07158.9565,W,1,06,1.9,3424.6,M,29.8,M,,0000*6D
$GPGSA,M,3,06,03,16,22,14,30,,,,,,,5.7,1.9,5.4*31
$GPRMC,211412.000,A,1331.0454,S,07158.9565,W,8.44,241.45,210411,,,A*6C
$GPGGA,211412.999,1331.0466,S,07158.9586,W,1,06,1.4,3425.4,M,29.8,M,,0000*66
$GPGSA,M,3,06,03,22,14,30,19,,,,,,,3.2,1.4,2.9*3A
$GPRMC,211412.999,A,1331.0466,S,07158.9586,W,9.11,242.66,210411,,,A*6A
$GPGGA,211414.000,1331.0481,S,07158.9610,W,1,07,1.2,3422.9,M,29.8,M,,0000*61
$GPGSA,M,3,06,03,16,22,14,30,19,,,,,,3.0,1.2,2.7*37
$GPRMC,211414.000,A,1331.0481,S,07158.9610,W,8.62,234.62,210411,,,A*60
$GPGGA,211414.999,1331.0497,S,07158.9634,W,1,06,1.4,3420.3,M,29.8,M,,0000*66
$GPGSA,M,3,06,03,16,22,14,19,,,,,,,3.2,1.4,2.9*3E
$GPGSV,3,1,12,06,67,155,38,03,60,191,38,16,52,325,29,22,44,153,31*78
$GPGSV,3,2,12,14,39,071,40,30,38,350,,19,30,205,26,32,26,314,*73
$GPGSV,3,3,12,18,12,143,,11,07,244,,24,06,260,,31,04,015,*75
$GPRMC,211414.999,A,1331.0497,S,07158.9634,W,8.22,232.73,210411,,,A*6A
$GPGGA,211416.000,1331.0511,S,07158.9651,W,1,05,2.1,3419.5,M,29.8,M,,0000*68
$GPGSA,M,3,06,03,16,22,14,,,,,,,,6.7,2.1,6.3*3E
$GPRMC,211416.000,A,1331.0511,S,07158.9651,W,7.76,231.59,210411,,,A*68
$GPGGA,211417.000,1331.0527,S,07158.9669,W,1,07,1.2,3418.9,M,29.8,M,,0000*68
$GPGSA,M,3,06,03,16,22,14,30,19,,,,,,3.0,1.2,2.7*37
$GPRMC,211417.000,A,1331.0527,S,07158.9669,W,7.07,233.19,210411,,,A*67
$GPGGA,211417.999,1331.0532,S,07158.9686,W,1,06,1.4,3421.4,M,29.8,M,,0000*64
$GPGSA,M,3,06,03,16,22,14,19,,,,,,,3.2,1.4,2.9*3E
$GPRMC,211417.999,A,1331.0532,S,07158.9686,W,7.12,238.82,210411,,,A*66
$GPGGA,211419.001,1331.0544,S,07158.9706,W,1,05,2.0,3421.0,M,29.8,M,,0000*6A
$GPGSA,M,3,06,03,22,14,30,,,,,,,,5.9,2.0,5.5*33
$GPRMC,211419.001,A,1331.0544,S,07158.9706,W,7.62,236.82,210411,,,A*61
$GPGGA,211419.996,1331.0552,S,07158.9722,W,1,06,1.4,3422.3,M,29.8,M,,0000*68
$GPGSA,M,3,06,03,22,14,30,19,,,,,,,3.2,1.4,2.9*3A
$GPGSV,3,1,12,06,67,155,38,03,60,191,37,16,52,325,,22,44,153,34*79
$GPGSV,3,2,12,14,39,071,41,30,38,350,25,19,30,205,32,32,26,314,*70
$GPGSV,3,3,12,18,12,143,,11,07,244,,24,06,260,,31,04,015,*75
$GPRMC,211419.996,A,1331.0552,S,07158.9722,W,7.90,235.14,210411,,,A*66
$GPGGA,211421.001,1331.0563,S,07158.9743,W,1,06,1.4,3422.3,M,29.8,M,,0000*61
$GPGSA,M,3,06,03,22,14,30,19,,,,,,,3.2,1.4,2.9*3A
$GPRMC,211421.001,A,1331.0563,S,07158.9743,W,7.88,230.42,210411,,,A*60
$GPGGA,211422.003,1331.0578,S,07158.9760,W,1,05,3.2,3422.8,M,29.8,M,,0000*67
$GPGSA,M,3,06,03,22,14,19,,,,,,,,4.3,3.2,2.9*3B
$GPRMC,211422.003,A,1331.0578,S,07158.9760,W,8.23,233.12,210411,,,A*62
$GPGGA,211423.000,1331.0591,S,07158.9778,W,1,05,2.1,3422.6,M,29.8,M,,0000*67
$GPGSA,M,3,06,03,16,22,14,,,,,,,,6.6,2.1,6.3*3F
$GPRMC,211423.000,A,1331.0591,S,07158.9778,W,8.30,236.01,210411,,,A*6B
$GPGGA,211423.996,1331.0605,S,07158.9794,W,1,06,1.4,3421.8,M,29.8,M,,0000*65
$GPGSA,M,3,06,03,16,22,14,19,,,,,,,3.2,1.4,2.9*3E
$GPRMC,211423.996,A,1331.0605,S,07158.9794,W,8.17,229.67,210411,,,A*6A
$GPGGA,211425.002,1331.0622,S,07158.9814,W,1,05,3.2,3421.2,M,29.8,M,,0000*68
$GPGSA,M,3,06,03,22,14,19,,,,,,,,4.3,3.2,2.9*3B
$GPGSV,3,1,12,06,67,155,38,03,60,191,37,16,52,325,,22,44,153,37*7A
$GPGSV,3,2,12,14,39,071,41,30,38,350,,19,30,205,34,32,26,314,*71
$GPGSV,3,3,12,18,12,143,,11,07,244,,24,06,260,,31,04,015,*75
$GPRMC,211425.002,A,1331.0622,S,07158.9814,W,8.05,230.33,210411,,,A*60
$GPGGA,211425.999,1331.0633,S,07158.9832,W,1,08,1.2,3422.4,M,29.8,M,,0000*6D
$GPGSA,M,3,06,03,16,22,14,30,19,18,,,,,2.2,1.2,1.8*31
$GPRMC,211425.999,A,1331.0633,S,07158.9832,W,7.98,233.03,210411,,,A*64
$GPGGA,211426.999,1331.0645,S,07158.9858,W,1,08,1.2,3422.3,M,29.8,M,,0000*64
$GPGSA,M,3,06,03,16,22,14,30,19,18,,,,,2.2,1.2,1.8*31
$GPRMC,211426.999,A,1331.0645,S,07158.9858,W,8.61,238.41,210411,,,A*6E
$GPGGA,211428.002,1331.0662,S,07158.9880,W,1,05,3.2,3421.2,M,29.8,M,,0000*6C
$GPGSA,M,3,06,03,22,14,19,,,,,,,,4.3,3.2,2.9*3B
$GPRMC,211428.002,A,1331.0662,S,07158.9880,W,8.94,228.73,210411,,,A*61
$GPGGA,211428.999,1331.0678,S,07158.9888,W,1,07,1.3,3425.0,M,29.8,M,,0000*63
$GPGSA,M,3,06,03,22,14,30,19,18,,,,,,2.2,1.3,1.8*37
$GPRMC,211428.999,A,1331.0678,S,07158.9888,W,8.82,231.90,210411,,,A*6B
$GPGGA,211429.997,1331.0694,S,07158.9910,W,1,08,1.2,3423.8,M,29.8,M,,0000*6E
$GPGSA,M,3,06,03,16,22,14,30,19,18,,,,,2.2,1.2,1.8*31
$GPGSV,3,1,12,06,67,155,37,03,60,191,37,16,52,325,28,22,44,153,34*7C
$GPGSV,3,2,12,14,39,071,40,30,38,350,28,19,30,205,32,32,26,314,*7C
$GPGSV,3,3,12,18,12,143,29,11,07,244,,24,06,260,,31,04,015,*7E
$GPRMC,211429.997,A,1331.0694,S,07158.9910,W,8.20,235.32,210411,,,A*62
$GPGGA,211431.000,1331.0705,S,07158.9933,W,1,08,1.2,3423.8,M,29.8,M,,0000*68
$GPGSA,M,3,06,03,16,22,14,30,19,18,,,,,2.2,1.2,1.8*31
$GPRMC,211431.000,A,1331.0705,S,07158.9933,W,8.20,235.11,210411,,,A*65
$GPGGA,211432.002,1331.0719,S,07158.9955,W,1,07,1.2,3422.7,M,29.8,M,,0000*65
$GPGSA,M,3,06,03,16,22,14,30,19,,,,,,3.0,1.2,2.7*37
$GPRMC,211432.002,A,1331.0719,S,07158.9955,W,8.36,229.60,210411,,,A*65
$GPGGA,211432.998,1331.0735,S,07158.9973,W,1,08,1.2,3424.1,M,29.8,M,,0000*6A
$GPGSA,M,3,06,03,16,22,14,30,19,18,,,,,2.2,1.2,1.8*31
$GPRMC,211432.998,A,1331.0735,S,07158.9973,W,8.22,234.46,210411,,,A*68
$GPGGA,211434.000,1331.0749,S,07158.9991,W,1,08,1.2,3425.3,M,29.8,M,,0000*60
$GPGSA,M,3,06,03,16,22,14,30,19,18,,,,,2.2,1.2,1.8*31
$GPRMC,211434.000,A,1331.0749,S,07158.9991,W,7.81,231.84,210411,,,A*6C
$GPGGA,211435.000,1331.0759,S,07159.0011,W,1,06,1.4,3425.5,M,29.8,M,,0000*67
$GPGSA,M,3,06,03,16,22,14,19,,,,,,,3.3,1.4,2.9*3F
$GPGSV,3,1,12,06,67,155,38,03,60,191,37,16,52,325,29,22,44,153,37*71
$GPGSV,3,2,12,14,39,071,41,30,38,350,,19,30,205,31,32,26,314,*74
$GPGSV,3,3,12,18,12,143,,11,07,244,,24,06,260,,31,04,015,*75
$GPRMC,211435.000,A,1331.0759,S,07159.0011,W,7.85,237.11,210411,,,A*6B
$GPGGA,211436.001,1331.0765,S,07159.0034,W,1,07,1.2,3424.2,M,29.8,M,,0000*6C
$GPGSA,M,3,06,03,16,22,14,30,19,,,,,,3.0,1.2,2.7*37
$GPRMC,211436.001,A,1331.0765,S,07159.0034,W,6.55,232.20,210411,,,A*6A
$GPGGA,211437.001,1331.0781,S,07159.0048,W,1,07,1.5,3424.4,M,29.8,M,,0000*6D
$GPGSA,M,3,06,03,16,22,14,30,18,,,,,,2.6,1.5,2.1*30
$GPRMC,211437.001,A,1331.0781,S,07159.0048,W,7.58,228.65,210411,,,A*6C
$GPGGA,211437.999,1331.0796,S,07159.0065,W,1,07,1.5,3423.7,M,29.8,M,,0000*68
$GPGSA,M,3,06,03,16,22,14,30,18,,,,,,2.6,1.5,2.1*30
$GPRMC,211437.999,A,1331.0796,S,07159.0065,W,7.08,230.11,210411,,,A*62
$GPGGA,211438.999,1331.0806,S,07159.0085,W,1,07,1.2,3423.4,M,29.8,M,,0000*6B
$GPGSA,M,3,06,03,16,22,14,30,19,,,,,,3.0,1.2,2.7*37
$GPRMC,211438.999,A,1331.0806,S,07159.0085,W,6.42,235.93,210411,,,A*65
$GPGGA,211439.999,1331.0816,S,07159.0104,W,1,05,2.1,3423.1,M,29.8,M,,0000*64
$GPGSA,M,3,06,03,16,22,14,,,,,,,,6.6,2.1,6.2*3E
$GPGSV,3,1,12,06,67,155,37,03,60,191,35,16,52,325,36,22,44,153,26*72
$GPGSV,3,2,12,14,39,071,40,30,38,350,,19,30,205,,32,26,314,*77
$GPGSV,3,3,12,18,12,143,,11,07,244,,24,06,260,,31,04,015,*75
$GPRMC,211439.999,A,1331.0816,S,07159.0104,W,7.13,241.30,210411,,,A*62
$GPGGA,211440.998,1331.0827,S,07159.0128,W,1,07,1.2,3422.3,M,29.8,M,,0000*66
$GPGSA,M,3,06,03,16,22,14,30,19,,,,,,3.0,1.2,2.7*37
$GPRMC,211440.998,A,1331.0827,S,07159.0128,W,7.46,241.20,210411,,,A*60
$GPGGA,211441.999,1331.0837,S,07159.0146,W,1,06,1.9,3423.4,M,29.8,M,,0000*63
$GPGSA,M,3,06,03,16,22,14,30,,,,,,,5.6,1.9,5.3*37
$GPRMC,211441.999,A,1331.0837,S,07159.0146,W,7.51,240.60,210411,,,A*6A
$GPGGA,211443.000,1331.0852,S,07159.0163,W,1,07,1.2,3423.9,M,29.8,M,,0000*6B
$GPGSA,M,3,06,03,16,22,14,30,19,,,,,,3.0,1.2,2.7*37
$GPRMC,211443.000,A,1331.0852,S,07159.0163,W,8.06,230.10,210411,,,A*68
$GPGGA,211444.000,1331.0866,S,07159.0183,W,1,06,1.9,3423.2,M,29.8,M,,0000*64
$GPGSA,M,3,06,03,16,22,14,30,,,,,,,5.6,1.9,5.3*37
$GPRMC,211444.000,A,1331.0866,S,07159.0183,W,8.21,236.08,210411,,,A*6C
$GPGGA,211445.002,1331.0877,S,07159.0203,W,1,07,1.2,3424.8,M,29.8,M,,0000*6B
$GPGSA,M,3,06,03,16,22,14,30,19,,,,,,3.0,1.2,2.7*37
$GPGSV,3,1,12,06,67,155,37,03,60,191,36,16,52,325,29,22,44,153,29*70
$GPGSV,3,2,12,14,39,071,39,30,38,350,34,19,30,205,25,32,26,314,25*7E
$GPGSV,3,3,12,18,12,143,,11,07,244,,24,06,260,,31,04,015,*75
$GPRMC,211445.002,A,1331.0877,S,07159.0203,W,6.64,237.79,210411,,,A*6C
$GPGGA,211445.998,1331.0880,S,07159.0218,W,1,07,1.2,3427.4,M,29.8,M,,0000*6C
$GPGSA,M,3,06,03,16,22,14,30,19,,,,,,3.0,1.2,2.7*37
$GPRMC,211445.998,A,1331.0880,S,07159.0218,W,5.25,243.85,210411,,,A*62
$GPGGA,211447.000,1331.0886,S,07159.0233,W,1,06,1.9,3426.3,M,29.8,M,,0000*65
$GPGSA,M,3,06,03,16,22,14,30,,,,,,,5.6,1.9,5.2*36
$GPRMC,211447.000,A,1331.0886,S,07159.0233,W,4.34,239.82,210411,,,A*6C
$GPGGA,211448.002,1331.0892,S,07159.0245,W,1,05,1.6,3426.1,M,29.8,M,,0000*62
$GPGSA,M,3,06,03,14,30,19,,,,,,,,3.4,1.6,3.0*36
$GPRMC,211448.002,A,1331.0892,S,07159.0245,W,3.80,232.49,210411,,,A*61
$GPGGA,211448.998,1331.0897,S,07159.0254,W,1,06,1.9,3426.3,M,29.8,M,,0000*63
$GPGSA,M,3,06,03,16,22,14,30,,,,,,,5.6,1.9,5.2*36
$GPRMC,211448.998,A,1331.0897,S,07159.0254,W,1.89,240.88,210411,,,A*6D
$GPGGA,211449.999,1331.0901,S,07159.0270,W,1,06,1.4,3424.4,M,29.8,M,,0000*63
$GPGSA,M,3,06,03,16,22,14,19,,,,,,,3.3,1.4,2.9*3F
$GPGSV,3,1,12,06,67,155,37,03,60,191,36,16,52,325,32,22,44,153,27*74
$GPGSV,3,2,12,14,39,071,40,30,38,350,,19,30,205,28,32,26,314,*7D
$GPGSV,3,3,12,18,12,143,,11,07,244,,24,06,260,,31,04,015,*75
$GPRMC,211449.999,A,1331.0901,S,07159.0270,W,2.83,240.51,210411,,,A*68
$GPGGA,211451.001,1331.0905,S,07159.0278,W,1,06,1.9,3423.6,M,29.8,M,,0000*66
$GPGSA,M,3,06,03,16,22,14,30,,,,,,,5.6,1.9,5.2*36
$GPRMC,211451.001,A,1331.0905,S,07159.0278,W,2.25,233.70,210411,,,A*6E
$GPGGA,211452.000,1331.0913,S,07159.0287,W,1,07,1.2,3422.5,M,29.8,M,,0000*6B
$GPGSA,M,3,06,03,16,22,14,30,19,,,,,,3.0,1.2,2.7*37
$GPRMC,211452.000,A,1331.0913,S,07159.0287,W,3.49,235.72,210411,,,A*64
$GPGGA,211453.001,1331.0920,S,07159.0295,W,1,05,1.5,3422.2,M,29.8,M,,0000*6A
$GPGSA,M,3,06,03,16,14,19,,,,,,,,3.3,1.5,2.9*3E
$GPRMC,211453.001,A,1331.0920,S,07159.0295,W,4.22,228.91,210411,,,A*6C
$GPGGA,211453.998,1331.0925,S,07159.0310,W,1,07,1.2,3420.3,M,29.8,M,,0000*6C
$GPGSA,M,3,06,03,16,22,14,30,19,,,,,,3.0,1.2,2.7*37
$GPRMC,211453.998,A,1331.0925,S,07159.0310,W,4.93,241.96,210411,,,A*6E
$GPGGA,211454.998,1331.0936,S,07159.0319,W,1,07,1.2,3420.2,M,29.8,M,,0000*61
$GPGSA,M,3,06,03,16,22,14,30,19,,,,,,3.0,1.2,2.7*37
$GPGSV,3,1,12,06,67,155,38,03,60,191,36,16,52,325,39,22,44,153,37*71
$GPGSV,3,2,12,14,39,071,41,30,38,350,37,19,30,205,29,32,26,314,33*79
$GPGSV,3,3,12,18,12,143,,11,07,244,,24,06,260,,31,04,015,*75
$GPRMC,211454.998,A,1331.0936,S,07159.0319,W,5.27,234.82,210411,,,A*6B
$GPGGA,211456.001,1331.0946,S,07159.0333,W,1,07,1.2,3419.3,M,29.8,M,,0000*6E
$GPGSA,M,3,06,03,16,14,30,19,18,,,,,,2.2,1.2,1.9*30
$GPRMC,211456.001,A,1331.0946,S,07159.0333,W,6.36,230.68,210411,,,A*6C
$GPGGA,211456.999,1331.0957,S,07159.0338,W,1,08,1.2,3422.9,M,29.8,M,,0000*60
$GPGSA,M,3,06,03,16,22,14,30,19,18,,,,,2.2,1.2,1.8*31
$GPRMC,211456.999,A,1331.0957,S,07159.0338,W,5.31,232.63,210411,,,A*62
$GPGGA,211458.001,1331.0968,S,07159.0351,W,1,07,1.2,3422.2,M,29.8,M,,0000*61
$GPGSA,M,3,06,03,16,22,14,30,19,,,,,,3.0,1.2,2.7*37
$GPRMC,211458.001,A,1331.0968,S,07159.0351,W,6.73,231.16,210411,,,A*63
$GPGGA,211459.001,1331.0981,S,07159.0367,W,1,07,1.5,3422.6,M,29.8,M,,0000*61
$GPGSA,M,3,06,03,16,22,14,30,18,,,,,,2.6,1.5,2.0*31
$GPRMC,211459.001,A,1331.0981,S,07159.0367,W,7.61,231.98,210411,,,A*64
$GPGGA,211459.999,1331.0996,S,07159.0383,W,1,07,1.2,3424.3,M,29.8,M,,0000*61
$GPGSA,M,3,06,03,16,22,14,30,19,,,,,,3.0,1.2,2.7*37
$GPGSV,3,1,12,06,67,155,37,03,60,191,36,16,52,325,29,22,44,153,38*70
$GPGSV,3,2,12,14,39,071,41,30,38,350,28,19,30,205,30,32,26,314,*7F
$GPGSV,3,3,12,18,12,143,,11,07,244,,24,06,260,,31,04,015,*75
$GPRMC,211459.999,A,1331.0996,S,07159.0383,W,7.77,236.90,210411,,,A*68
$GPGGA,211500.997,1331.1009,S,07159.0402,W,1,08,1.2,3423.3,M,29.8,M,,0000*6A
$GPGSA,M,3,06,03,16,22,14,30,19,18,,,,,2.2,1.2,1.8*31
$GPRMC,211500.997,A,1331.1009,S,07159.0402,W,7.86,233.63,210411,,,A*6C
$GPGGA,211502.004,1331.1026,S,07159.0425,W,1,07,1.2,3420.0,M,29.8,M,,0000*6C
$GPGSA,M,3,06,03,16,22,14,30,19,,,,,,3.0,1.2,2.7*37
$GPRMC,211502.004,A,1331.1026,S,07159.0425,W,8.74,235.79,210411,,,A*6A
$GPGGA,211502.998,1331.1040,S,07159.0450,W,1,07,1.5,3419.7,M,29.8,M,,0000*68
$GPGSA,M,3,06,03,16,22,14,30,18,,,,,,2.6,1.5,2.0*31
$GPRMC,211502.998,A,1331.1040,S,07159.0450,W,9.35,242.31,210411,,,A*6C
$GPGGA,211504.000,1331.1057,S,07159.0475,W,1,06,1.4,3417.6,M,29.8,M,,0000*68
$GPGSA,M,3,06,03,16,22,14,19,,,,,,,3.3,1.4,2.9*3F
$GPRMC,211504.000,A,1331.1057,S,07159.0475,W,10.07,232.40,210411,,,A*5B
$GPGGA,211505.004,1331.1077,S,07159.0499,W,1,06,1.9,3417.3,M,29.8,M,,0000*65
$GPGSA,M,3,06,03,16,22,14,30,,,,,,,5.5,1.9,5.2*35
$GPGSV,3,1,12,06,67,155,39,03,60,191,37,16,52,325,32,22,44,153,25*79
$GPGSV,3,2,12,14,39,071,40,30,38,350,33,19,30,205,,32,26,314,*77
$GPGSV,3,3,12,18,12,143,,11,07,244,,24,06,260,,31,04,015,*75
$GPRMC,211505.004,A,1331.1077,S,07159.0499,W,9.78,232.04,210411,,,A*6E
$GPGGA,211505.996,1331.1094,S,07159.0517,W,1,07,1.2,3418.1,M,29.8,M,,0000*6A
$GPGSA,M,3,06,03,16,22,14,30,19,,,,,,3.0,1.2,2.7*37
$GPRMC,211505.996,A,1331.1094,S,07159.0517,W,8.40,233.83,210411,,,A*62
$GPGGA,211507.001,1331.1099,S,07159.0544,W,1,07,1.2,3417.5,M,29.8,M,,0000*6F
$GPGSA,M,3,06,03,16,22,14,30,19,,,,,,3.0,1.2,2.7*37
$GPRMC,211507.001,A,1331.1099,S,07159.0544,W,8.04,240.82,210411,,,A*69
$GPGGA,211507.998,1331.1109,S,07159.0566,W,1,06,1.9,3417.4,M,29.8,M,,0000*65
$GPGSA,M,3,06,03,16,22,14,30,,,,,,,5.5,1.9,5.2*35
$GPRMC,211507.998,A,1331.1109,S,07159.0566,W,7.55,233.33,210411,,,A*6D
$GPGGA,211509.001,1331.1123,S,07159.0581,W,1,07,1.2,3417.4,M,29.8,M,,0000*69
$GPGSA,M,3,06,03,16,22,14,30,19,,,,,,3.0,1.2,2.7*37
$GPRMC,211509.001,A,1331.1123,S,07159.0581,W,6.16,219.86,210411,,,A*6B
$GPGGA,211509.999,1331.1139,S,07159.0585,W,1,06,1.9,3416.7,M,29.8,M,,0000*66
$GPGSA,M,3,06,03,16,22,14,30,,,,,,,5.5,1.9,5.2*35
$GPGSV,3,1,12,06,67,155,36,03,60,191,37,16,52,325,41,22,44,153,30*76
$GPGSV,3,2,12,14,39,071,35,30,38,350,31,19,30,205,,32,26,314,*77
$GPGSV,3,3,12,18,12,143,,11,07,244,,24,06,260,,31,04,015,*75
$GPRMC,211509.999,A,1331.1139,S,07159.0585,W,5.38,199.25,210411,,,A*61
$GPGGA,211510.998,1331.1156,S,07159.0586,W,1,06,3.7,3417.9,M,29.8,M,,0000*66
$GPGSA,M,3,06,03,16,22,30,18,,,,,,,4.6,3.7,2.7*35
$GPRMC,211510.998,A,1331.1156,S,07159.0586,W,5.84,183.98,210411,,,A*68
$GPGGA,211512.001,1331.1178,S,07159.0581,W,1,06,3.7,3418.6,M,29.8,M,,0000*66
$GPGSA,M,3,06,03,16,22,30,18,,,,,,,4.6,3.7,2.7*35
$GPRMC,211512.001,A,1331.1178,S,07159.0581,W,6.44,171.92,210411,,,A*60
$GPGGA,211513.000,1331.1195,S,07159.0571,W,1,06,3.7,3419.0,M,29.8,M,,0000*6D
$GPGSA,M,3,06,03,16,22,30,18,,,,,,,4.6,3.7,2.7*35
$GPRMC,211513.000,A,1331.1195,S,07159.0571,W,7.80,150.28,210411,,,A*67
$GPGGA,211514.001,1331.1219,S,07159.0561,W,1,06,1.9,3419.3,M,29.8,M,,0000*62
$GPGSA,M,3,06,03,16,22,14,30,,,,,,,5.5,1.9,5.2*35
$GPRMC,211514.001,A,1331.1219,S,07159.0561,W,8.16,157.64,210411,,,A*68
$GPGGA,211514.998,1331.1242,S,07159.0552,W,1,05,3.9,3418.9,M,29.8,M,,0000*6F
$GPGSA,M,3,06,03,16,22,30,,,,,,,,6.8,3.9,5.6*38
$GPGSV,3,1,12,06,67,155,37,03,60,191,31,16,52,325,41,22,44,153,33*72
$GPGSV,3,2,12,14,39,071,,30,38,350,28,19,30,205,,32,26,314,31*7B
$GPGSV,3,3,12,18,12,143,,11,07,244,,24,06,260,,31,04,015,*75
$GPRMC,211514.998,A,1331.1242,S,07159.0552,W,9.23,156.53,210411,,,A*6D
$GPGGA,211516.002,1331.1268,S,07159.0539,W,1,06,3.7,3418.8,M,29.8,M,,0000*6E
$GPGSA,M,3,06,03,16,22,30,18,,,,,,,4.6,3.7,2.7*35
$GPRMC,211516.002,A,1331.1268,S,07159.0539,W,9.35,152.40,210411,,,A*61
$GPGGA,211516.998,1331.1293,S,07159.0525,W,1,07,1.2,3419.0,M,29.8,M,,0000*62
$GPGSA,M,3,06,03,16,22,14,30,19,,,,,,3.0,1.2,2.7*37
$GPRMC,211516.998,A,1331.1293,S,07159.0525,W,9.24,154.90,210411,,,A*69
$GPGGA,211518.002,1331.1317,S,07159.0510,W,1,06,1.9,3418.8,M,29.8,M,,0000*6E
$GPGSA,M,3,06,03,16,22,14,30,,,,,,,5.5,1.9,5.1*36
$GPRMC,211518.002,A,1331.1317,S,07159.0510,W,10.29,148.47,210411,,,A*54
$GPGGA,211518.999,1331.1340,S,07159.0495,W,1,06,3.7,3418.5,M,29.8,M,,0000*6A
$GPGSA,M,3,06,03,16,22,30,18,,,,,,,4.6,3.7,2.7*35
$GPRMC,211518.999,A,1331.1340,S,07159.0495,W,10.40,150.75,210411,,,A*56
$GPGGA,211519.999,1331.1367,S,07159.0492,W,1,06,1.9,3415.5,M,29.8,M,,0000*68
$GPGSA,M,3,06,03,16,22,14,30,,,,,,,5.5,1.9,5.1*36
$GPGSV,3,1,12,06,67,155,36,03,60,191,36,16,52,325,41,22,44,153,33*74
$GPGSV,3,2,12,14,39,071,26,30,38,350,34,19,30,205,,32,26,314,34*77
$GPGSV,3,3,12,18,12,143,,11,07,244,,24,06,260,,31,04,015,*75
$GPRMC,211519.999,A,1331.1367,S,07159.0492,W,10.66,158.20,210411,,,A*59
$GPGGA,211520.998,1331.1395,S,07159.0478,W,1,05,3.9,3415.1,M,29.8,M,,0000*6F
$GPGSA,M,3,06,03,16,22,30,,,,,,,,6.8,3.9,5.5*3B
$GPRMC,211520.998,A,1331.1395,S,07159.0478,W,10.21,154.02,210411,,,A*54
$GPGGA,211521.999,1331.1421,S,07159.0461,W,1,05,3.9,3414.7,M,29.8,M,,0000*68
$GPGSA,M,3,06,03,16,22,30,,,,,,,,6.7,3.9,5.5*34
$GPRMC,211521.999,A,1331.1421,S,07159.0461,W,11.07,150.06,210411,,,A*51
$GPGGA,211522.999,1331.1448,S,07159.0447,W,1,07,1.5,3415.0,M,29.8,M,,0000*6A
$GPGSA,M,3,06,03,16,22,14,30,18,,,,,,2.6,1.5,2.0*31
$GPRMC,211522.999,A,1331.1448,S,07159.0447,W,9.93,144.94,210411,,,A*63
$GPGGA,211523.999,1331.1472,S,07159.0425,W,1,06,1.9,3414.0,M,29.8,M,,0000*6A
$GPGSA,M,3,06,03,16,22,14,30,,,,,,,5.5,1.9,5.1*36
$GPRMC,211523.999,A,1331.1472,S,07159.0425,W,10.65,145.57,210411,,,A*50
$GPGGA,211525.000,1331.1500,S,07159.0407,W,1,05,3.9,3415.4,M,29.8,M,,0000*65
$GPGSA,M,3,06,03,16,22,30,,,,,,,,6.7,3.9,5.5*34
$GPGSV,3,1,12,06,67,155,37,03,60,191,29,16,52,325,41,22,44,153,31*79
$GPGSV,3,2,12,14,39,071,,30,38,350,38,19,30,205,,32,26,314,29*73
$GPGSV,3,3,12,18,12,143,,11,07,244,,24,06,260,,31,04,015,*75
$GPRMC,211525.000,A,1331.1500,S,07159.0407,W,10.81,148.29,210411,,,A*55
$GPGGA,211526.001,1331.1526,S,07159.0392,W,1,07,1.5,3415.0,M,29.8,M,,0000*60
$GPGSA,M,3,06,03,16,22,14,30,18,,,,,,2.5,1.5,2.0*32
$GPRMC,211526.001,A,1331.1526,S,07159.0392,W,10.29,151.98,210411,,,A*58
$GPGGA,211526.998,1331.1556,S,07159.0376,W,1,05,3.9,3413.5,M,29.8,M,,0000*6B
$GPGSA,M,3,06,03,16,22,30,,,,,,,,6.7,3.9,5.5*34
$GPRMC,211526.998,A,1331.1556,S,07159.0376,W,11.13,146.95,210411,,,A*5F
$GPGGA,211528.002,1331.1587,S,07159.0359,W,1,06,1.9,3412.6,M,29.8,M,,0000*6D
$GPGSA,M,3,06,03,16,22,14,30,,,,,,,5.4,1.9,5.1*37
$GPRMC,211528.002,A,1331.1587,S,07159.0359,W,10.80,150.48,210411,,,A*56
$GPGGA,211528.999,1331.1613,S,07159.0340,W,1,05,3.9,3411.7,M,29.8,M,,0000*63
$GPGSA,M,3,06,03,16,22,30,,,,,,,,6.7,3.9,5.5*34
$GPRMC,211528.999,A,1331.1613,S,07159.0340,W,10.55,142.65,210411,,,A*5F
$GPGGA,211529.998,1331.1640,S,07159.0323,W,1,07,1.5,3410.9,M,29.8,M,,0000*63
$GPGSA,M,3,06,03,16,22,14,30,18,,,,,,2.5,1.5,2.0*32
$GPGSV,3,1,12,06,67,155,36,03,60,191,37,16,52,325,40,22,44,153,30*77
$GPGSV,3,2,12,14,39,071,25,30,38,350,33,19,30,205,,32,26,314,36*71
$GPGSV,3,3,12,18,12,143,21,11,07,244,,24,06,260,,31,04,015,*76
$GPRMC,211529.998,A,1331.1640,S,07159.0323,W,10.83,154.85,210411,,,A*5E
$GPGGA,211531.002,1331.1667,S,07159.0302,W,1,04,4.4,3411.0,M,29.8,M,,0000*69
$GPGSA,M,3,06,03,16,22,,,,,,,,,7.4,4.4,6.0*39
$GPRMC,211531.002,A,1331.1667,S,07159.0302,W,11.20,149.45,210411,,,A*53
$GPGGA,211531.998,1331.1697,S,07159.0281,W,1,05,3.9,3410.1,M,29.8,M,,0000*6D
$GPGSA,M,3,06,03,16,22,30,,,,,,,,6.7,3.9,5.5*34
$GPRMC,211531.998,A,1331.1697,S,07159.0281,W,11.57,142.93,210411,,,A*5C
$GPGGA,211533.002,1331.1720,S,07159.0263,W,1,06,1.9,3409.5,M,29.8,M,,0000*69
$GPGSA,M,3,06,03,16,22,14,30,,,,,,,5.4,1.9,5.1*37
$GPRMC,211533.002,A,1331.1720,S,07159.0263,W,11.05,143.86,210411,,,A*57
$GPGGA,211534.000,1331.1747,S,07159.0242,W,1,06,3.7,3406.9,M,29.8,M,,0000*61
$GPGSA,M,3,06,03,16,22,30,18,,,,,,,4.6,3.7,2.7*35
$GPRMC,211534.000,A,1331.1747,S,07159.0242,W,12.01,140.04,210411,,,A*5E
$GPGGA,211534.998,1331.1785,S,07159.0236,W,1,07,1.5,3403.1,M,29.8,M,,0000*68
$GPGSA,M,3,06,03,16,22,14,30,18,,,,,,2.5,1.5,2.0*32
$GPGSV,3,1,12,06,67,155,38,03,60,191,34,16,52,325,41,22,44,153,26*7C
$GPGSV,3,2,12,14,39,071,37,30,38,350,33,19,30,205,,32,26,314,34*70
$GPGSV,3,3,12,18,12,143,23,11,07,244,,24,06,260,,31,04,015,*74
$GPRMC,211534.998,A,1331.1785,S,07159.0236,W,12.17,152.43,210411,,,A*5C
$GPGGA,211536.002,1331.1814,S,07159.0222,W,1,06,1.9,3400.2,M,29.8,M,,0000*6F
$GPGSA,M,3,06,03,16,22,14,30,,,,,,,5.4,1.9,5.1*37
$GPRMC,211536.002,A,1331.1814,S,07159.0222,W,11.29,152.47,210411,,,A*5C
$GPGGA,211536.998,1331.1846,S,07159.0206,W,1,05,3.9,3397.9,M,29.8,M,,0000*67
$GPGSA,M,3,06,03,16,22,30,,,,,,,,6.7,3.9,5.5*34
$GPRMC,211536.998,A,1331.1846,S,07159.0206,W,11.59,151.55,210411,,,A*50
$GPGGA,211538.002,1331.1876,S,07159.0194,W,1,05,3.9,3396.7,M,29.8,M,,0000*67
$GPGSA,M,3,06,03,16,22,30,,,,,,,,6.7,3.9,5.5*34
$GPRMC,211538.002,A,1331.1876,S,07159.0194,W,11.81,151.20,210411,,,A*58
$GPGGA,211538.998,1331.1908,S,07159.0181,W,1,05,3.9,3393.2,M,29.8,M,,0000*61
$GPGSA,M,3,06,03,16,22,30,,,,,,,,6.7,3.9,5.5*34
$GPRMC,211538.998,A,1331.1908,S,07159.0181,W,11.32,152.42,210411,,,A*51
$GPGGA,211540.000,1331.1943,S,07159.0172,W,1,05,2.0,3390.3,M,29.8,M,,0000*6F
$GPGSA,M,3,06,16,22,14,30,,,,,,,,5.5,2.0,5.1*3F
$GPGSV,3,1,12,06,67,155,37,03,60,191,,16,52,325,41,22,44,153,33*70
$GPGSV,3,2,12,14,39,071,27,30,38,350,34,19,30,205,,32,26,314,31*73
$GPGSV,3,3,12,18,12,143,,11,07,244,,24,06,260,,31,04,015,*75
$GPRMC,211540.000,A,1331.1943,S,07159.0172,W,11.21,160.02,210411,,,A*52
$GPGGA,211541.001,1331.1969,S,07159.0154,W,1,06,1.9,3388.6,M,29.8,M,,0000*66
$GPGSA,M,3,06,03,16,22,14,30,,,,,,,5.4,1.9,5.1*37
$GPRMC,211541.001,A,1331.1969,S,07159.0154,W,9.92,159.65,210411,,,A*64
$GPGGA,211542.000,1331.1995,S,07159.0138,W,1,06,1.7,3389.4,M,29.8,M,,0000*60
$GPGSA,M,3,06,16,22,14,30,18,,,,,,,2.7,1.7,2.1*30
$GPRMC,211542.000,A,1331.1995,S,07159.0138,W,10.62,152.98,210411,,,A*51
$GPGGA,211543.001,1331.2021,S,07159.0121,W,1,06,1.9,3390.2,M,29.8,M,,0000*6D
$GPGSA,M,3,06,03,16,22,14,30,,,,,,,5.4,1.9,5.1*37
$GPRMC,211543.001,A,1331.2021,S,07159.0121,W,10.32,149.75,210411,,,A*50
$GPGGA,211544.000,1331.2047,S,07159.0110,W,1,04,6.0,3387.6,M,29.8,M,,0000*67
$GPGSA,M,3,06,16,22,30,,,,,,,,,8.3,6.0,5.8*3C
$GPRMC,211544.000,A,1331.2047,S,07159.0110,W,9.95,157.89,210411,,,A*6D
$GPGGA,211545.000,1331.2072,S,07159.0092,W,1,04,6.0,3388.3,M,29.8,M,,0000*61
$GPGSA,M,3,06,16,22,30,,,,,,,,,8.3,6.0,5.8*3C
$GPGSV,3,1,12,06,67,155,37,03,60,191,,16,52,325,40,22,44,153,36*74
$GPGSV,3,2,12,14,39,071,,30,38,350,39,19,30,205,,32,26,314,*79
$GPGSV,3,3,12,18,12,143,,11,07,244,,24,06,260,,31,04,015,*75
$GPRMC,211545.000,A,1331.2072,S,07159.0092,W,9.95,144.85,210411,,,A*6F
$GPGGA,211545.999,1331.2093,S,07159.0073,W,1,05,5.6,3390.5,M,29.8,M,,0000*63
$GPGSA,M,3,06,16,22,30,18,,,,,,,,6.4,5.6,3.0*37
$GPRMC,211545.999,A,1331.2093,S,07159.0073,W,9.47,147.67,210411,,,A*66
$GPGGA,211546.997,1331.2118,S,07159.0061,W,1,07,1.5,3386.6,M,29.8,M,,0000*6E
$GPGSA,M,3,06,03,16,22,14,30,18,,,,,,2.5,1.5,2.0*32
$GPRMC,211546.997,A,1331.2118,S,07159.0061,W,8.93,148.62,210411,,,A*68
$GPGGA,211548.002,1331.2144,S,07159.0050,W,1,06,3.7,3384.9,M,29.8,M,,0000*62
$GPGSA,M,3,06,03,16,22,30,18,,,,,,,4.6,3.7,2.7*35
$GPRMC,211548.002,A,1331.2144,S,07159.0050,W,8.68,147.90,210411,,,A*6E
$GPGGA,211549.002,1331.2164,S,07159.0037,W,1,04,5.7,3383.6,M,29.8,M,,0000*6C
$GPGSA,M,3,06,16,30,18,,,,,,,,,6.4,5.7,3.0*36
$GPRMC,211549.002,A,1331.2164,S,07159.0037,W,8.48,146.67,210411,,,A*67
$GPGGA,211549.999,1331.2185,S,07159.0026,W,1,08,1.2,3380.8,M,29.8,M,,0000*68
$GPGSA,M,3,06,03,16,22,14,30,19,18,,,,,2.1,1.2,1.8*32
$GPGSV,3,1,12,06,67,155,38,03,60,191,26,16,52,325,41,22,44,153,32*7A
$GPGSV,3,2,12,14,39,071,29,30,38,350,38,19,30,205,26,32,26,314,30*74
$GPGSV,3,3,12,18,12,143,32,11,07,244,,24,06,260,,31,04,015,*74
$GPRMC,211549.999,A,1331.2185,S,07159.0026,W,7.63,154.30,210411,,,A*64
$GPGGA,211550.996,1331.2208,S,07159.0025,W,1,05,3.9,3377.3,M,29.8,M,,0000*6D
$GPGSA,M,3,06,03,16,22,30,,,,,,,,6.7,3.9,5.4*35
$GPRMC,211550.996,A,1331.2208,S,07159.0025,W,6.09,155.85,210411,,,A*64
$GPGGA,211552.002,1331.2208,S,07158.9993,W,1,08,1.2,3384.7,M,29.8,M,,0000*6B
$GPGSA,M,3,06,03,16,22,14,30,19,18,,,,,2.1,1.2,1.8*32
$GPRMC,211552.002,A,1331.2208,S,07158.9993,W,4.12,150.92,210411,,,A*65
$GPGGA,211552.998,1331.2208,S,07158.9974,W,1,07,1.2,3389.0,M,29.8,M,,0000*6D
$GPGSA,M,3,06,03,16,22,14,30,19,,,,,,3.0,1.2,2.7*37
$GPRMC,211552.998,A,1331.2208,S,07158.9974,W,2.64,180.64,210411,,,A*65
$GPGGA,211554.002,1331.2213,S,07158.9971,W,1,08,1.2,3389.2,M,29.8,M,,0000*63
$GPGSA,M,3,06,03,16,22,14,30,19,18,,,,,2.1,1.2,1.8*32
$GPRMC,211554.002,A,1331.2213,S,07158.9971,W,1.47,155.88,210411,,,A*6E
$GPGGA,211555.000,1331.2202,S,07158.9947,W,1,08,1.2,3397.0,M,29.8,M,,0000*68
$GPGSA,M,3,06,03,16,22,14,30,19,18,,,,,2.1,1.2,1.8*32
$GPGSV,3,1,12,06,67,155,38,03,60,191,39,16,52,325,38,22,44,153,37*7F
$GPGSV,3,2,12,14,39,071,38,30,38,350,36,19,30,205,39,32,26,314,36*72
$GPGSV,3,3,12,18,12,143,35,11,07,244,,24,06,260,,31,04,015,*73
$GPRMC,211555.000,A,1331.2202,S,07158.9947,W,0.82,128.81,210411,,,A*63
$GPGGA,211556.000,1331.2204,S,07158.9942,W,1,08,1.2,3394.2,M,29.8,M,,0000*69
$GPGSA,M,3,06,03,16,22,14,30,19,18,,,,,2.1,1.2,1.8*32
$GPRMC,211556.000,A,1331.2204,S,07158.9942,W,1.07,107.16,210411,,,A*6C
$GPGGA,211557.001,1331.2199,S,07158.9929,W,1,08,1.2,3397.3,M,29.8,M,,0000*61
$GPGSA,M,3,06,03,16,22,14,30,19,18,,,,,2.1,1.2,1.8*32
$GPRMC,211557.001,A,1331.2199,S,07158.9929,W,0.84,100.95,210411,,,A*60
$GPGGA,211557.999,1331.2200,S,07158.9934,W,1,08,1.2,3399.2,M,29.8,M,,0000*69
$GPGSA,M,3,06,03,16,22,14,30,19,18,,,,,2.1,1.2,1.8*32
$GPRMC,211557.999,A,1331.2200,S,07158.9934,W,0.07,29.31,210411,,,A*58
$GPGGA,211558.999,1331.2190,S,07158.9913,W,1,08,1.2,3403.2,M,29.8,M,,0000*6D
$GPGSA,M,3,06,03,16,22,14,30,19,18,,,,,2.1,1.2,1.8*32
$GPRMC,211558.999,A,1331.2190,S,07158.9913,W,0.75,129.59,210411,,,A*62
$GPGGA,211559.999,1331.2189,S,07158.9902,W,1,08,1.2,3405.8,M,29.8,M,,0000*68
$GPGSA,M,3,06,03,16,22,14,30,19,18,,,,,2.1,1.2,1.8*32
$GPGSV,3,1,12,06,67,155,38,03,60,191,39,16,52,325,38,22,44,153,37*7F
$GPGSV,3,2,12,14,39,071,37,30,38,350,35,19,30,205,38,32,26,314,31*78
$GPGSV,3,3,12,18,12,143,31,11,07,244,,24,06,260,,31,04,015,*77
$GPRMC,211559.999,A,1331.2189,S,07158.9902,W,1.03,117.30,210411,,,A*69
$GPGGA,211600.997,1331.2189,S,07158.9895,W,1,08,1.2,3405.4,M,29.8,M,,0000*6A
$GPGSA,M,3,06,03,16,22,14,30,19,18,,,,,2.1,1.2,1.8*32
$GPRMC,211600.997,A,1331.2189,S,07158.9895,W,2.21,116.47,210411,,,A*65
$GPGGA,211602.000,1331.2191,S,07158.9889,W,1,07,1.4,3406.1,M,29.8,M,,0000*64
$GPGSA,M,3,06,03,16,22,14,19,18,,,,,,2.4,1.4,2.0*39
$GPRMC,211602.000,A,1331.2191,S,07158.9889,W,3.59,109.61,210411,,,A*60
$GPGGA,211603.001,1331.2194,S,07158.9875,W,1,07,1.4,3407.3,M,29.8,M,,0000*61
$GPGSA,M,3,06,03,16,22,14,19,18,,,,,,2.4,1.4,2.0*39
$GPRMC,211603.001,A,1331.2194,S,07158.9875,W,5.39,98.96,210411,,,A*57
$GPGGA,211604.004,1331.2195,S,07158.9859,W,1,07,1.4,3408.4,M,29.8,M,,0000*64
$GPGSA,M,3,06,03,16,22,14,19,18,,,,,,2.4,1.4,2.0*39
$GPRMC,211604.004,A,1331.2195,S,07158.9859,W,4.64,95.04,210411,,,A*55
$GPGGA,211605.001,1331.2197,S,07158.9843,W,1,07,1.4,3409.6,M,29.8,M,,0000*6A
$GPGSA,M,3,06,03,16,22,14,19,18,,,,,,2.4,1.4,2.0*39
$GPGSV,3,1,12,06,69,152,39,03,61,190,41,16,51,326,29,22,43,152,39*70
$GPGSV,3,2,12,14,40,073,29,30,36,351,,19,31,205,41,18,11,143,38*78
$GPGSV,3,3,12,31,04,017,,32,27,313,,11,07,243,,24,06,258,*72
$GPRMC,211605.001,A,1331.2197,S,07158.9843,W,4.46,95.21,210411,,,A*5F
$GPGGA,211605.997,1331.2191,S,07158.9828,W,1,06,1.8,3411.3,M,29.8,M,,0000*66
$GPGSA,M,3,06,03,16,22,19,18,,,,,,,2.7,1.8,2.0*33
$GPRMC,211605.997,A,1331.2191,S,07158.9828,W,5.79,76.36,210411,,,A*54
$GPGGA,211607.000,1331.2185,S,07158.9810,W,1,06,1.8,3412.0,M,29.8,M,,0000*6D
$GPGSA,M,3,06,03,16,22,19,18,,,,,,,2.7,1.8,2.0*33
$GPRMC,211607.000,A,1331.2185,S,07158.9810,W,7.16,72.39,210411,,,A*5F
$GPGGA,211608.000,1331.2175,S,07158.9789,W,1,07,1.4,3413.2,M,29.8,M,,0000*6C
$GPGSA,M,3,06,03,16,22,14,19,18,,,,,,2.4,1.4,2.0*39
$GPRMC,211608.000,A,1331.2175,S,07158.9789,W,6.54,60.19,210411,,,A*56
$GPGGA,211608.997,1331.2166,S,07158.9769,W,1,07,1.4,3415.8,M,29.8,M,,0000*6B
$GPGSA,M,3,06,03,16,22,14,19,18,,,,,,2.4,1.4,2.0*39
$GPRMC,211608.997,A,1331.2166,S,07158.9769,W,5.75,63.50,210411,,,A*53
$GPGGA,211610.003,1331.2158,S,07158.9752,W,1,07,1.4,3418.1,M,29.8,M,,0000*67
$GPGSA,M,3,06,03,16,22,14,19,18,,,,,,2.4,1.4,2.0*39
$GPGSV,3,1,12,06,69,152,39,03,61,190,39,16,51,326,30,22,43,152,40*79
$GPGSV,3,2,12,14,40,073,34,30,36,351,,19,31,205,39,32,27,313,*7A
$GPGSV,3,3,12,18,11,143,36,11,07,243,,24,06,258,,31,04,017,*7D
$GPRMC,211610.003,A,1331.2158,S,07158.9752,W,5.51,60.97,210411,,,A*55
$GPGGA,211611.000,1331.2151,S,07158.9738,W,1,07,1.4,3422.2,M,29.8,M,,0000*6A
$GPGSA,M,3,06,03,16,22,14,19,18,,,,,,2.4,1.4,2.0*39
$GPRMC,211611.000,A,1331.2151,S,07158.9738,W,5.54,63.40,210411,,,A*5E
$GPGGA,211611.997,1331.2142,S,07158.9725,W,1,07,1.4,3423.3,M,29.8,M,,0000*63
$GPGSA,M,3,06,03,16,22,14,19,18,,,,,,2.4,1.4,2.0*39
$GPRMC,211611.997,A,1331.2142,S,07158.9725,W,4.86,62.05,210411,,,A*59
$GPGGA,211613.001,1331.2133,S,07158.9718,W,1,07,1.4,3422.4,M,29.8,M,,0000*69
$GPGSA,M,3,06,03,16,22,14,19,18,,,,,,2.4,1.4,2.0*39
$GPRMC,211613.001,A,1331.2133,S,07158.9718,W,3.55,69.20,210411,,,A*50
$GPGGA,211613.998,1331.2134,S,07158.9715,W,1,08,1.2,3420.5,M,29.8,M,,0000*60
$GPGSA,M,3,06,03,16,22,14,30,19,18,,,,,2.1,1.2,1.8*32
$GPRMC,211613.998,A,1331.2134,S,07158.9715,W,2.26,71.98,210411,,,A*5C
$GPGGA,211615.002,1331.2129,S,07158.9710,W,1,08,1.2,3421.0,M,29.8,M,,0000*61
$GPGSA,M,3,06,03,16,22,14,30,19,18,,,,,2.1,1.2,1.8*32
$GPGSV,3,1,12,06,69,152,38,03,61,190,38,16,51,326,36,22,43,152,41*7E
$GPGSV,3,2,12,14,40,073,32,30,36,351,31,19,31,205,40,32,27,313,*70
$GPGSV,3,3,12,18,11,143,37,11,07,243,,24,06,258,,31,04,017,*7C
$GPRMC,211615.002,A,1331.2129,S,07158.9710,W,0.72,53.87,210411,,,A*54
$GPGGA,211615.999,1331.2131,S,07158.9709,W,1,08,1.2,3420.8,M,29.8,M,,0000*62
$GPGSA,M,3,06,03,16,22,14,30,19,18,,,,,2.1,1.2,1.8*32
$GPRMC,211615.999,A,1331.2131,S,07158.9709,W,0.42,331.69,210411,,,A*6A
$GPGGA,211616.998,1331.2128,S,07158.9707,W,1,08,1.2,3420.1,M,29.8,M,,0000*6F
$GPGSA,M,3,06,03,16,22,14,30,19,18,,,,,2.1,1.2,1.8*32
$GPRMC,211616.998,A,1331.2128,S,07158.9707,W,0.25,274.37,210411,,,A*64
$GPGGA,211618.004,1331.2123,S,07158.9706,W,1,07,1.6,3418.9,M,29.8,M,,0000*6F
$GPGSA,M,3,06,03,16,22,30,19,18,,,,,,2.4,1.6,1.8*36
$GPRMC,211618.004,A,1331.2123,S,07158.9706,W,0.18,29.23,210411,,,A*5D
$GPGGA,211618.998,1331.2122,S,07158.9704,W,1,07,1.4,3418.4,M,29.8,M,,0000*6F
$GPGSA,M,3,06,03,16,22,14,19,18,,,,,,2.4,1.4,2.0*39
$GPRMC,211618.998,A,1331.2122,S,07158.9704,W,0.35,174.81,210411,,,A*6C
$GPGGA,211619.999,1331.2123,S,07158.9698,W,1,08,1.2,3419.5,M,29.8,M,,0000*63
$GPGSA,M,3,06,03,16,22,14,30,19,18,,,,,2.1,1.2,1.8*32
$GPGSV,3,1,12,06,69,152,38,03,61,190,40,16,51,326,37,22,43,152,41*70
$GPGSV,3,2,12,14,40,073,31,30,36,351,33,19,31,205,39,32,27,313,*7F
$GPGSV,3,3,12,18,11,143,36,11,07,243,,24,06,258,,31,04,017,*7D
$GPRMC,211619.999,A,1331.2123,S,07158.9698,W,0.22,161.91,210411,,,A*6A
$GPGGA,211621.002,1331.2122,S,07158.9698,W,1,08,1.2,3419.3,M,29.8,M,,0000*64
$GPGSA,M,3,06,03,16,22,14,30,19,18,,,,,2.1,1.2,1.8*32
$GPRMC,211621.002,A,1331.2122,S,07158.9698,W,0.25,231.70,210411,,,A*65
$GPGGA,211621.996,1331.2123,S,07158.9702,W,1,08,1.2,3418.2,M,29.8,M,,0000*63
$GPGSA,M,3,06,03,16,22,14,30,19,18,,,,,2.1,1.2,1.8*32
$GPRMC,211621.996,A,1331.2123,S,07158.9702,W,0.33,104.74,210411,,,A*64
$GPGGA,211623.003,1331.2123,S,07158.9701,W,1,07,1.6,3418.1,M,29.8,M,,0000*6F
$GPGSA,M,3,06,03,16,22,30,19,18,,,,,,2.4,1.6,1.8*36
$GPRMC,211623.003,A,1331.2123,S,07158.9701,W,0.38,110.70,210411,,,A*6A
$GPGGA,211623.997,1331.2125,S,07158.9698,W,1,08,1.2,3416.2,M,29.8,M,,0000*6A
$GPGSA,M,3,06,03,16,22,14,30,19,18,,,,,2.1,1.2,1.8*32
$GPRMC,211623.997,A,1331.2125,S,07158.9698,W,0.85,107.10,210411,,,A*6F
$GPGGA,211625.000,1331.2123,S,07158.9700,W,1,08,1.2,3414.3,M,29.8,M,,0000*6E
$GPGSA,M,3,06,03,16,22,14,30,19,18,,,,,2.1,1.2,1.8*32
$GPGSV,3,1,12,06,69,152,37,03,61,190,39,16,51,326,37,22,43,152,40*70
$GPGSV,3,2,12,14,40,073,32,30,36,351,33,19,31,205,39,32,27,313,*7C
$GPGSV,3,3,12,18,11,143,35,11,07,243,,24,06,258,,31,04,017,*7E
$GPRMC,211625.000,A,1331.2123,S,07158.9700,W,0.16,82.03,210411,,,A*5C
$GPGGA,211626.000,1331.2123,S,07158.9695,W,1,08,1.2,3416.5,M,29.8,M,,0000*64
$GPGSA,M,3,06,03,16,22,14,30,19,18,,,,,2.1,1.2,1.8*32
$GPRMC,211626.000,A,1331.2123,S,07158.9695,W,0.21,177.27,210411,,,A*6B
$GPGGA,211627.000,1331.2122,S,07158.9693,W,1,08,1.2,3415.1,M,29.8,M,,0000*65
$GPGSA,M,3,06,03,16,22,14,30,19,18,,,,,2.1,1.2,1.8*32
$GPRMC,211627.000,A,1331.2122,S,07158.9693,W,0.16,48.01,210411,,,A*50
$GPGGA,211628.001,1331.2122,S,07158.9692,W,1,08,1.2,3414.8,M,29.8,M,,0000*62
$GPGSA,M,3,06,03,16,22,14,30,19,18,,,,,2.1,1.2,1.8*32
$GPRMC,211628.001,A,1331.2122,S,07158.9692,W,0.36,200.99,210411,,,A*62
$GPGGA,211628.999,1331.2123,S,07158.9688,W,1,08,1.2,3416.5,M,29.8,M,,0000*6F
$GPGSA,M,3,06,03,16,22,14,30,19,18,,,,,2.1,1.2,1.8*32
$GPRMC,211628.999,A,1331.2123,S,07158.9688,W,0.62,202.36,210411,,,A*66
$GPGGA,211629.999,1331.2121,S,07158.9687,W,1,08,1.2,3416.0,M,29.8,M,,0000*66
$GPGSA,M,3,06,03,16,22,14,30,19,18,,,,,2.1,1.2,1.8*32
$GPGSV,3,1,12,06,69,152,37,03,61,190,40,16,51,326,37,22,43,152,40*7E
$GPGSV,3,2,12,14,40,073,33,30,36,351,34,19,31,205,40,32,27,313,*74
$GPGSV,3,3,12,18,11,143,35,11,07,243,,24,06,258,,31,04,017,*7E
$GPRMC,211629.999,A,1331.2121,S,07158.9687,W,0.64,111.03,210411,,,A*6B
$GPGGA,211631.000,1331.2124,S,07158.9682,W,1,08,1.2,3417.7,M,29.8,M,,0000*60
$GPGSA,M,3,06,03,16,22,14,30,19,18,,,,,2.1,1.2,1.8*32
$GPRMC,211631.000,A,1331.2124,S,07158.9682,W,0.40,147.41,210411,,,A*68
$GPGGA,211632.000,1331.2124,S,07158.9682,W,1,08,1.2,3417.7,M,29.8,M,,0000*63
$GPGSA,M,3,06,03,16,22,14,30,19,18,,,,,2.1,1.2,1.8*32
$GPRMC,211632.000,A,1331.2124,S,07158.9682,W,0.38,66.72,210411,,,A*56
$GPGGA,211633.000,1331.2123,S,07158.9683,W,1,08,1.2,3417.3,M,29.8,M,,0000*60
$GPGSA,M,3,06,03,16,22,14,30,19,18,,,,,2.1,1.2,1.8*32
$GPRMC,211633.000,A,1331.2123,S,07158.9683,W,0.22,171.55,210411,,,A*68
$GPGGA,211634.000,1331.2123,S,07158.9683,W,1,08,1.2,3418.7,M,29.8,M,,0000*6C
$GPGSA,M,3,06,03,16,22,14,30,19,18,,,,,2.1,1.2,1.8*32
$GPRMC,211634.000,A,1331.2123,S,07158.9683,W,0.49,177.02,210411,,,A*66
$GPGGA,211635.000,1331.2122,S,07158.9679,W,1,08,1.2,3419.3,M,29.8,M,,0000*6C
$GPGSA,M,3,06,03,16,22,14,30,19,18,,,,,2.1,1.2,1.8*32
$GPGSV,3,1,12,06,69,152,37,03,61,190,40,16,51,326,37,22,43,152,41*7F
$GPGSV,3,2,12,14,40,073,35,30,36,351,33,19,31,205,40,32,27,313,*75
$GPGSV,3,3,12,18,11,143,34,11,07,243,,24,06,258,,31,04,017,*7F
$GPRMC,211635.000,A,1331.2122,S,07158.9679,W,0.92,138.73,210411,,,A*68
$GPGGA,211636.000,1331.2120,S,07158.9679,W,1,08,1.2,3418.5,M,29.8,M,,0000*6A
$GPGSA,M,3,06,03,16,22,14,30,19,18,,,,,2.1,1.2,1.8*32
$GPRMC,211636.000,A,1331.2120,S,07158.9679,W,0.20,118.28,210411,,,A*6C
$GPGGA,211636.999,1331.2117,S,07158.9682,W,1,08,1.2,3418.1,M,29.8,M,,0000*67
$GPGSA,M,3,06,03,16,22,14,30,19,18,,,,,2.1,1.2,1.8*32
$GPRMC,211636.999,A,1331.2117,S,07158.9682,W,0.50,166.63,210411,,,A*64
$GPGGA,211637.999,1331.2115,S,07158.9684,W,1,08,1.2,3418.5,M,29.8,M,,0000*66
$GPGSA,M,3,06,03,16,22,14,30,19,18,,,,,2.1,1.2,1.8*32
$GPRMC,211637.999,A,1331.2115,S,07158.9684,W,0.14,212.95,210411,,,A*68
$GPGGA,211638.999,1331.2112,S,07158.9685,W,1,08,1.2,3418.7,M,29.8,M,,0000*6D
$GPGSA,M,3,06,03,16,22,14,30,19,18,,,,,2.1,1.2,1.8*32
$GPRMC,211638.999,A,1331.2112,S,07158.9685,W,0.39,49.99,210411,,,A*5E
$GPGGA,211639.999,1331.2113,S,07158.9687,W,1,08,1.2,3419.0,M,29.8,M,,0000*69
$GPGSA,M,3,06,03,16,22,14,30,19,18,,,,,2.1,1.2,1.8*32
$GPGSV,3,1,12,06,69,152,37,03,61,190,40,16,51,326,37,22,43,152,39*70
$GPGSV,3,2,12,14,40,073,36,30,36,351,34,19,31,205,38,32,27,313,*7E
$GPGSV,3,3,12,18,11,143,32,11,07,243,,24,06,258,,31,04,017,*79
$GPRMC,211639.999,A,1331.2113,S,07158.9687,W,0.39,148.10,210411,,,A*6D
$GPGGA,211640.998,1331.2114,S,07158.9690,W,1,08,1.2,3420.1,M,29.8,M,,0000*6C
$GPGSA,M,3,06,03,16,22,14,30,19,18,,,,,2.1,1.2,1.8*32
$GPRMC,211640.998,A,1331.2114,S,07158.9690,W,0.82,96.49,210411,,,A*5D
$GPGGA,211642.000,1331.2113,S,07158.9693,W,1,08,1.2,3420.8,M,29.8,M,,0000*6B
$GPGSA,M,3,06,03,16,22,14,30,19,18,,,,,2.1,1.2,1.8*32
$GPRMC,211642.000,A,1331.2113,S,07158.9693,W,0.31,91.65,210411,,,A*52
$GPGGA,211643.000,1331.2111,S,07158.9694,W,1,08,1.2,3419.1,M,29.8,M,,0000*6C
$GPGSA,M,3,06,03,16,22,14,30,19,18,,,,,2.1,1.2,1.8*32
$GPRMC,211643.000,A,1331.2111,S,07158.9694,W,0.63,228.01,210411,,,A*63
$GPGGA,211644.000,1331.2112,S,07158.9695,W,1,08,1.2,3418.6,M,29.8,M,,0000*6F
$GPGSA,M,3,06,03,16,22,14,30,19,18,,,,,2.1,1.2,1.8*32
$GPRMC,211644.000,A,1331.2112,S,07158.9695,W,0.11,40.46,210411,,,A*5C
$GPGGA,211645.000,1331.2111,S,07158.9700,W,1,08,1.2,3417.7,M,29.8,M,,0000*6E
$GPGSA,M,3,06,03,16,22,14,30,19,18,,,,,2.1,1.2,1.8*32
$GPGSV,3,1,12,06,69,152,39,03,61,190,40,16,51,326,38,22,43,152,39*71
$GPGSV,3,2,12,14,40,073,36,30,36,351,35,19,31,205,38,32,27,313,*7F
$GPGSV,3,3,12,18,11,143,39,11,07,243,,24,06,258,,31,04,017,*72
$GPRMC,211645.000,A,1331.2111,S,07158.9700,W,0.10,229.54,210411,,,A*6C
$GPGGA,211646.003,1331.2110,S,07158.9702,W,1,07,1.4,3418.6,M,29.8,M,,0000*6A
$GPGSA,M,3,06,03,16,22,14,19,18,,,,,,2.4,1.4,2.0*39
$GPRMC,211646.003,A,1331.2110,S,07158.9702,W,0.63,25.79,210411,,,A*5A
$GPGGA,211646.998,1331.2105,S,07158.9699,W,1,08,1.2,3419.6,M,29.8,M,,0000*6E
$GPGSA,M,3,06,03,16,22,14,30,19,18,,,,,2.1,1.2,1.8*32
$GPRMC,211646.998,A,1331.2105,S,07158.9699,W,2.41,48.13,210411,,,A*53
$GPGGA,211648.003,1331.2098,S,07158.9691,W,1,07,1.4,3419.6,M,29.8,M,,0000*6F
$GPGSA,M,3,06,03,16,22,14,19,18,,,,,,2.4,1.4,2.0*39
$GPRMC,211648.003,A,1331.2098,S,07158.9691,W,4.65,45.05,210411,,,A*51
$GPGGA,211649.000,1331.2090,S,07158.9686,W,1,07,1.4,3419.3,M,29.8,M,,0000*66
$GPGSA,M,3,06,03,16,22,14,19,18,,,,,,2.4,1.4,2.0*39
$GPRMC,211649.000,A,1331.2090,S,07158.9686,W,5.32,42.10,210411,,,A*5D
$GPGGA,211649.999,1331.2079,S,07158.9675,W,1,07,1.4,3418.7,M,29.8,M,,0000*61
$GPGSA,M,3,06,03,16,22,14,19,18,,,,,,2.4,1.4,2.0*39
$GPGSV,3,1,12,06,69,152,39,03,61,190,40,16,51,326,36,22,43,152,41*70
$GPGSV,3,2,12,14,40,073,34,30,36,351,,19,31,205,41,32,27,313,*75
$GPGSV,3,3,12,18,11,143,38,11,07,243,,24,06,258,,31,04,017,*73
$GPRMC,211649.999,A,1331.2079,S,07158.9675,W,6.27,48.61,210411,,,A*54
$GPGGA,211650.999,1331.2070,S,07158.9666,W,1,07,1.4,3418.2,M,29.8,M,,0000*67
$GPGSA,M,3,06,03,16,22,14,19,18,,,,,,2.4,1.4,2.0*39
$GPRMC,211650.999,A,1331.2070,S,07158.9666,W,7.07,55.93,210411,,,A*55
$GPGGA,211652.000,1331.2057,S,07158.9648,W,1,07,1.4,3418.4,M,29.8,M,,0000*63
$GPGSA,M,3,06,03,16,22,14,19,18,,,,,,2.4,1.4,2.0*39
$GPRMC,211652.000,A,1331.2057,S,07158.9648,W,7.82,59.57,210411,,,A*5E
$GPGGA,211652.997,1331.2043,S,07158.9628,W,1,06,1.4,3418.0,M,29.8,M,,0000*62
$GPGSA,M,3,06,03,16,22,14,19,,,,,,,3.3,1.4,3.0*37
$GPRMC,211652.997,A,1331.2043,S,07158.9628,W,8.15,59.99,210411,,,A*59
$GPGGA,211654.002,1331.2035,S,07158.9607,W,1,07,1.2,3417.2,M,29.8,M,,0000*67
$GPGSA,M,3,06,03,16,22,14,30,19,,,,,,3.0,1.2,2.7*37
$GPRMC,211654.002,A,1331.2035,S,07158.9607,W,8.82,64.93,210411,,,A*5C
$GPGGA,211654.997,1331.2021,S,07158.9584,W,1,07,1.2,3416.1,M,29.8,M,,0000*6D
$GPGSA,M,3,06,03,16,22,14,30,19,,,,,,3.0,1.2,2.7*37
$GPGSV,3,1,12,06,69,152,37,03,61,190,40,16,51,326,40,22,43,152,40*7E
$GPGSV,3,2,12,14,40,073,30,30,36,351,26,19,31,205,41,32,27,313,27*70
$GPGSV,3,3,12,18,11,143,,11,07,243,,24,06,258,,31,04,017,*78
$GPRMC,211654.997,A,1331.2021,S,07158.9584,W,8.50,56.96,210411,,,A*5F
$GPGGA,211656.001,1331.2005,S,07158.9561,W,1,07,1.2,3416.6,M,29.8,M,,0000*63
$GPGSA,M,3,06,03,16,22,14,30,19,,,,,,3.0,1.2,2.7*37
$GPRMC,211656.001,A,1331.2005,S,07158.9561,W,9.67,59.29,210411,,,A*58
$GPGGA,211657.002,1331.1993,S,07158.9538,W,1,05,3.1,3415.7,M,29.8,M,,0000*69
$GPGSA,M,3,06,03,22,14,19,,,,,,,,4.3,3.1,3.0*30
$GPRMC,211657.002,A,1331.1993,S,07158.9538,W,10.27,64.76,210411,,,A*6B
$GPGGA,211657.999,1331.1981,S,07158.9510,W,1,07,1.2,3414.8,M,29.8,M,,0000*66
$GPGSA,M,3,06,03,16,22,14,30,19,,,,,,3.0,1.2,2.7*37
$GPRMC,211657.999,A,1331.1981,S,07158.9510,W,10.90,69.00,210411,,,A*69
$GPGGA,211658.999,1331.1970,S,07158.9484,W,1,06,1.4,3413.5,M,29.8,M,,0000*66
$GPGSA,M,3,06,03,16,22,14,19,,,,,,,3.3,1.4,3.0*37
$GPRMC,211658.999,A,1331.1970,S,07158.9484,W,10.67,65.51,210411,,,A*64
$GPGGA,211659.997,1331.1955,S,07158.9456,W,1,06,1.4,3412.6,M,29.8,M,,0000*63
$GPGSA,M,3,06,03,16,22,14,19,,,,,,,3.3,1.4,3.0*37
$GPGSV,3,1,12,06,69,152,37,03,61,190,39,16,51,326,30,22,43,152,40*77
$GPGSV,3,2,12,14,40,073,35,30,36,351,,19,31,205,39,32,27,313,*7B
$GPGSV,3,3,12,18,11,143,,11,07,243,,24,06,258,,31,04,017,*78
$GPRMC,211659.997,A,1331.1955,S,07158.9456,W,10.95,62.35,210411,,,A*6B
$GPGGA,211701.001,1331.1935,S,07158.9430,W,1,06,1.4,3413.5,M,29.8,M,,0000*6D
$GPGSA,M,3,06,03,16,22,14,19,,,,,,,3.3,1.4,3.0*37
$GPRMC,211701.001,A,1331.1935,S,07158.9430,W,10.27,56.33,210411,,,A*6F
$GPGGA,211702.000,1331.1918,S,07158.9404,W,1,06,1.4,3413.8,M,29.8,M,,0000*6A
$GPGSA,M,3,06,03,16,22,14,19,,,,,,,3.3,1.4,3.0*37
$GPRMC,211702.000,A,1331.1918,S,07158.9404,W,11.46,60.74,210411,,,A*65
$GPGGA,211703.001,1331.1900,S,07158.9376,W,1,07,1.2,3414.2,M,29.8,M,,0000*6B
$GPGSA,M,3,06,03,16,22,14,30,19,,,,,,3.0,1.2,2.7*37
$GPRMC,211703.001,A,1331.1900,S,07158.9376,W,10.94,61.18,210411,,,A*6B
$GPGGA,211703.999,1331.1884,S,07158.9347,W,1,06,1.4,3414.0,M,29.8,M,,0000*69
$GPGSA,M,3,06,03,16,22,14,19,,,,,,,3.3,1.4,3.0*37
$GPRMC,211703.999,A,1331.1884,S,07158.9347,W,11.27,63.11,210411,,,A*6E
$GPGGA,211705.001,1331.1864,S,07158.9320,W,1,06,1.4,3414.8,M,29.8,M,,0000*60
$GPGSA,M,3,06,03,16,22,14,19,,,,,,,3.3,1.4,3.0*37
$GPGSV,3,1,12,06,69,152,38,03,61,190,38,16,51,326,28,22,43,152,40*70
$GPGSV,3,2,12,14,40,073,36,30,36,351,,19,31,205,39,32,27,313,25*7F
$GPGSV,3,3,12,18,11,143,,11,07,243,,24,06,258,,31,04,017,*78
$GPRMC,211705.001,A,1331.1864,S,07158.9320,W,10.92,58.06,210411,,,A*6E
$GPGGA,211705.998,1331.1850,S,07158.9294,W,1,06,1.4,3415.5,M,29.8,M,,0000*6C
$GPGSA,M,3,06,03,16,22,14,19,,,,,,,3.3,1.4,3.0*37
$GPRMC,211705.998,A,1331.1850,S,07158.9294,W,9.36,64.59,210411,,,A*5D
$GPGGA,211707.000,1331.1838,S,07158.9271,W,1,07,1.2,3416.0,M,29.8,M,,0000*62
$GPGSA,M,3,06,03,16,22,14,30,19,,,,,,3.0,1.2,2.7*37
$GPRMC,211707.000,A,1331.1838,S,07158.9271,W,9.42,61.64,210411,,,A*5A
$GPGGA,211708.000,1331.1826,S,07158.9246,W,1,07,1.2,3415.5,M,29.8,M,,0000*60
$GPGSA,M,3,06,03,16,22,14,30,19,,,,,,3.0,1.2,2.7*37
$GPRMC,211708.000,A,1331.1826,S,07158.9246,W,9.33,65.33,210411,,,A*5E
$GPGGA,211709.002,1331.1814,S,07158.9223,W,1,06,1.4,3415.4,M,29.8,M,,0000*67
$GPGSA,M,3,06,03,16,22,14,19,,,,,,,3.3,1.4,3.0*37
$GPRMC,211709.002,A,1331.1814,S,07158.9223,W,8.26,67.74,210411,,,A*5B
$GPGGA,211709.999,1331.1808,S,07158.9202,W,1,06,1.4,3416.5,M,29.8,M,,0000*60
$GPGSA,M,3,06,03,16,22,14,19,,,,,,,3.3,1.4,3.0*37
$GPGSV,3,1,12,06,69,152,37,03,61,190,39,16,51,326,29,22,43,152,38*70
$GPGSV,3,2,12,14,40,073,35,30,36,351,,19,31,205,41,32,27,313,*74
$GPGSV,3,3,12,18,11,143,,11,07,243,29,24,06,258,,31,04,017,*73
$GPRMC,211709.999,A,1331.1808,S,07158.9202,W,5.71,69.25,210411,,,A*5B
$GPGGA,211710.998,1331.1800,S,07158.9188,W,1,07,1.4,3416.3,M,29.8,M,,0000*67
$GPGSA,M,3,06,03,16,22,14,19,18,,,,,,2.4,1.4,2.0*39
$GPRMC,211710.998,A,1331.1800,S,07158.9188,W,4.16,65.16,210411,,,A*57
$GPGGA,211712.001,1331.1797,S,07158.9178,W,1,06,1.4,3417.4,M,29.8,M,,0000*65
$GPGSA,M,3,06,03,16,22,14,19,,,,,,,3.3,1.4,3.0*37
$GPRMC,211712.001,A,1331.1797,S,07158.9178,W,2.71,70.41,210411,,,A*53
$GPGGA,211712.999,1331.1792,S,07158.9172,W,1,06,1.4,3418.1,M,29.8,M,,0000*68
$GPGSA,M,3,06,03,16,22,14,19,,,,,,,3.3,1.4,3.0*37
$GPRMC,211712.999,A,1331.1792,S,07158.9172,W,2.22,70.83,210411,,,A*5C
$GPGGA,211713.999,1331.1786,S,07158.9169,W,1,06,1.4,3417.4,M,29.8,M,,0000*6C
$GPGSA,M,3,06,03,16,22,14,19,,,,,,,3.3,1.4,3.0*37
$GPRMC,211713.999,A,1331.1786,S,07158.9169,W,2.07,57.46,210411,,,A*59
$GPGGA,211714.998,1331.1785,S,07158.9162,W,1,06,1.4,3420.2,M,29.8,M,,0000*60
$GPGSA,M,3,06,03,16,22,14,19,,,,,,,3.3,1.4,3.0*37
$GPGSV,3,1,12,06,69,152,36,03,61,190,40,16,51,326,27,22,43,152,40*7E
$GPGSV,3,2,12,14,40,073,35,30,36,351,,19,31,205,40,32,27,313,24*73
