$GPGGA,120939.270,,,,,0,00,,,M,0.0,M,,0000*53
$GPGSA,M,1,,,,,,,,,,,,,,,*12
$GPRMC,120939.270,V,,,,,,,020511,,,N*4F
$GPGGA,120940.270,,,,,0,00,,,M,0.0,M,,0000*5D
$GPGSA,M,1,,,,,,,,,,,,,,,*12
$GPRMC,120940.270,V,,,,,,,020511,,,N*41
$GPGGA,120941.270,,,,,0,00,,,M,0.0,M,,0000*5C
$GPGSA,M,1,,,,,,,,,,,,,,,*12
$GPGSV,3,1,10,09,69,156,45,27,65,094,45,12,45,204,43,15,37,347,46*74
$GPGSV,3,2,10,02,36,072,41,29,32,317,46,25,24,246,41,04,20,112,*73
$GPGSV,3,3,10,14,11,221,,26,11,014,35*7B
$GPRMC,120941.270,V,,,,,,,020511,,,N*40
$GPGGA,120942.270,,,,,0,00,,,M,0.0,M,,0000*5F
$GPGSA,M,1,,,,,,,,,,,,,,,*12
$GPRMC,120942.270,V,,,,,,,020511,,,N*43
$GPGGA,120943.270,,,,,0,00,,,M,0.0,M,,0000*5E
$GPGSA,M,1,,,,,,,,,,,,,,,*12
$GPRMC,120943.270,V,,,,,,,020511,,,N*42
$GPGGA,120944.270,,,,,0,00,,,M,0.0,M,,0000*59
$GPGSA,M,1,,,,,,,,,,,,,,,*12
$GPRMC,120944.270,V,,,,,,,020511,,,N*45
$GPGGA,120945.270,,,,,0,00,,,M,0.0,M,,0000*58
$GPGSA,M,1,,,,,,,,,,,,,,,*12
$GPRMC,120945.270,V,,,,,,,020511,,,N*44
$GPGGA,120946.270,,,,,0,00,,,M,0.0,M,,0000*5B
$GPGSA,M,1,,,,,,,,,,,,,,,*12
$GPGSV,3,1,10,09,69,156,45,27,65,094,45,12,45,204,44,15,37,347,47*72
$GPGSV,3,2,10,02,36,072,40,29,32,317,47,25,24,246,41,04,20,112,*73
$GPGSV,3,3,10,14,11,221,,26,11,014,35*7B
$GPRMC,120946.270,V,,,,,,,020511,,,N*47
$GPGGA,120947.270,,,,,0,00,,,M,0.0,M,,0000*5A
$GPGSA,M,1,,,,,,,,,,,,,,,*12
$GPRMC,120947.270,V,,,,,,,020511,,,N*46
$GPGGA,120948.270,,,,,0,00,,,M,0.0,M,,0000*55
$GPGSA,M,1,,,,,,,,,,,,,,,*12
$GPRMC,120948.270,V,,,,,,,020511,,,N*49
$GPGGA,120949.270,,,,,0,00,,,M,0.0,M,,0000*54
$GPGSA,M,1,,,,,,,,,,,,,,,*12
$GPRMC,120949.270,V,,,,,,,020511,,,N*48
$GPGGA,120950.270,,,,,0,00,,,M,0.0,M,,0000*5C
$GPGSA,M,1,,,,,,,,,,,,,,,*12
$GPRMC,120950.270,V,,,,,,,020511,,,N*40
$GPGGA,120951.270,,,,,0,00,,,M,0.0,M,,0000*5D
$GPGSA,M,1,,,,,,,,,,,,,,,*12
$GPGSV,3,1,10,09,69,155,42,27,65,094,39,12,45,203,44,15,37,347,47*7A
$GPGSV,3,2,10,02,36,072,40,29,32,317,48,25,24,246,41,04,20,112,*7C
$GPGSV,3,3,10,14,11,222,,26,11,014,35*78
$GPRMC,120951.270,V,,,,,,,020511,,,N*41
$GPGGA,120952.270,,,,,0,00,,,M,0.0,M,,0000*5E
$GPGSA,M,1,,,,,,,,,,,,,,,*12
$GPRMC,120952.270,V,,,,,,,020511,,,N*42
$GPGGA,120953.270,,,,,0,00,,,M,0.0,M,,0000*5F
$GPGSA,M,1,,,,,,,,,,,,,,,*12
$GPRMC,120953.270,V,,,,,,,020511,,,N*43
$GPGGA,120954.270,,,,,0,00,,,M,0.0,M,,0000*58
$GPGSA,M,1,,,,,,,,,,,,,,,*12
$GPRMC,120954.270,V,,,,,,,020511,,,N*44
$GPGGA,120955.270,,,,,0,00,,,M,0.0,M,,0000*59
$GPGSA,M,1,,,,,,,,,,,,,,,*12
$GPRMC,120955.270,V,,,,,,,020511,,,N*45
$GPGGA,120956.270,,,,,0,00,,,M,0.0,M,,0000*5A
$GPGSA,M,1,,,,,,,,,,,,,,,*12
$GPGSV,3,1,10,09,69,155,35,27,65,094,39,12,45,203,44,15,37,347,47*7A
$GPGSV,3,2,10,02,36,072,41,29,32,317,46,25,24,246,41,04,20,112,*73
$GPGSV,3,3,10,14,11,222,,26,11,014,35*78
$GPRMC,120956.270,V,,,,,,,020511,,,N*46
$GPGGA,120957.270,,,,,0,00,,,M,0.0,M,,0000*5B
$GPGSA,M,1,,,,,,,,,,,,,,,*12
$GPRMC,120957.270,V,,,,,,,020511,,,N*47
$GPGGA,120958.270,,,,,0,00,,,M,0.0,M,,0000*54
$GPGSA,M,1,,,,,,,,,,,,,,,*12
$GPRMC,120958.270,V,,,,,,,020511,,,N*48
$GPGGA,120959.270,,,,,0,00,,,M,0.0,M,,0000*55
$GPGSA,M,1,,,,,,,,,,,,,,,*12
$GPRMC,120959.270,V,,,,,,,020511,,,N*49
$GPGGA,121000.270,,,,,0,00,,,M,0.0,M,,0000*51
$GPGSA,M,1,,,,,,,,,,,,,,,*12
$GPRMC,121000.270,V,,,,,,,020511,,,N*4D
$GPGGA,121001.270,,,,,0,00,,,M,0.0,M,,0000*50
$GPGSA,M,1,,,,,,,,,,,,,,,*12
$GPGSV,3,1,10,12,45,203,44,15,37,347,47,25,24,246,40,09,69,155,45*79
$GPGSV,3,2,10,27,65,093,45,02,36,072,41,29,32,317,47,04,20,112,*7B
$GPGSV,3,3,10,14,11,222,,26,11,014,35*78
$GPRMC,121001.270,V,,,,,,,020511,,,N*4C
$GPGGA,121002.270,,,,,0,00,,,M,0.0,M,,0000*53
$GPGSA,M,1,,,,,,,,,,,,,,,*12
$GPRMC,121002.270,V,,,,,,,020511,,,N*4F
$GPGGA,121003.270,,,,,0,00,,,M,0.0,M,,0000*52
$GPGSA,M,1,,,,,,,,,,,,,,,*12
$GPRMC,121003.270,V,,,,,,,020511,,,N*4E
$GPGGA,121004.270,2128.7332,S,07004.4571,W,1,04,2.3,-5.4,M,34.8,M,,0000*7E
$GPGSA,M,3,25,15,12,29,,,,,,,,,2.5,2.3,1.0*32
$GPRMC,121004.270,A,2128.7332,S,07004.4571,W,0.13,70.36,020511,,,A*5D
$GPGGA,121005.270,2128.7332,S,07004.4570,W,1,04,2.3,-5.8,M,34.8,M,,0000*72
$GPGSA,M,3,25,15,12,29,,,,,,,,,2.5,2.3,1.0*32
$GPRMC,121005.270,A,2128.7332,S,07004.4570,W,0.25,81.15,020511,,,A*57
$GPGGA,121006.000,2128.7332,S,07004.4569,W,1,04,2.3,-6.2,M,34.8,M,,0000*75
$GPGSA,M,3,25,15,12,29,,,,,,,,,2.5,2.3,1.0*32
$GPGSV,3,1,10,12,45,203,45,15,37,347,47,29,32,317,48,25,25,246,40*7C
$GPGSV,3,2,10,09,69,155,45,27,65,093,45,02,36,072,41,04,20,113,*70
$GPGSV,3,3,10,14,11,222,,26,11,014,35*78
$GPRMC,121006.000,A,2128.7332,S,07004.4569,W,0.20,81.34,020511,,,A*5F
$GPGGA,121007.000,2128.7332,S,07004.4569,W,1,04,2.3,-6.3,M,34.8,M,,0000*75
$GPGSA,M,3,25,15,12,29,,,,,,,,,2.5,2.3,1.0*32
$GPRMC,121007.000,A,2128.7332,S,07004.4569,W,0.19,73.52,020511,,,A*59
$GPGGA,121008.000,2128.7332,S,07004.4568,W,1,04,2.3,-6.4,M,34.8,M,,0000*7C
$GPGSA,M,3,25,15,12,29,,,,,,,,,2.5,2.3,1.0*32
$GPRMC,121008.000,A,2128.7332,S,07004.4568,W,0.24,80.97,020511,,,A*5C
$GPGGA,121009.000,2128.7332,S,07004.4568,W,1,04,2.3,-6.5,M,34.8,M,,0000*7C
$GPGSA,M,3,25,15,12,29,,,,,,,,,2.5,2.3,1.0*32
$GPRMC,121009.000,A,2128.7332,S,07004.4568,W,0.21,81.65,020511,,,A*54
$GPGGA,121010.000,2128.7332,S,07004.4567,W,1,04,2.3,-6.6,M,34.8,M,,0000*78
$GPGSA,M,3,25,15,12,29,,,,,,,,,2.5,2.3,1.0*32
$GPRMC,121010.000,A,2128.7332,S,07004.4567,W,0.22,77.30,020511,,,A*59
$GPGGA,121011.000,2128.7332,S,07004.4567,W,1,04,2.3,-6.7,M,34.8,M,,0000*78
$GPGSA,M,3,25,15,12,29,,,,,,,,,2.5,2.3,1.0*32
$GPGSV,3,1,10,12,45,203,45,15,37,347,47,29,32,317,48,25,25,246,40*7C
$GPGSV,3,2,10,09,69,155,45,27,65,093,45,02,36,072,34,04,20,113,*72
$GPGSV,3,3,10,14,11,222,,26,11,014,35*78
$GPRMC,121011.000,A,2128.7332,S,07004.4567,W,0.24,81.97,020511,,,A*5A
$GPGGA,121012.000,2128.7332,S,07004.4566,W,1,04,2.3,-6.7,M,34.8,M,,0000*7A
$GPGSA,M,3,25,15,12,29,,,,,,,,,2.5,2.3,1.0*32
$GPRMC,121012.000,A,2128.7332,S,07004.4566,W,0.22,79.13,020511,,,A*55
$GPGGA,121013.000,2128.7332,S,07004.4566,W,1,04,2.3,-6.8,M,34.8,M,,0000*74
$GPGSA,M,3,25,15,12,29,,,,,,,,,2.5,2.3,1.0*32
$GPRMC,121013.000,A,2128.7332,S,07004.4566,W,0.25,82.99,020511,,,A*55
$GPGGA,121014.000,2128.7332,S,07004.4566,W,1,04,2.3,-6.9,M,34.8,M,,0000*72
$GPGSA,M,3,25,15,12,29,,,,,,,,,2.5,2.3,1.0*32
$GPRMC,121014.000,A,2128.7332,S,07004.4566,W,0.22,79.48,020511,,,A*5D
$GPGGA,121015.000,2128.7332,S,07004.4565,W,1,04,2.3,-6.9,M,34.8,M,,0000*70
$GPGSA,M,3,25,15,12,29,,,,,,,,,2.5,2.3,1.0*32
$GPRMC,121015.000,A,2128.7332,S,07004.4565,W,0.22,74.23,020511,,,A*5F
$GPGGA,121016.000,2128.7332,S,07004.4565,W,1,04,2.3,-7.0,M,34.8,M,,0000*7B
$GPGSA,M,3,25,15,12,29,,,,,,,,,2.5,2.3,1.0*32
$GPGSV,3,1,10,12,45,203,42,15,37,347,47,29,32,317,48,25,25,246,40*7B
$GPGSV,3,2,10,09,69,155,34,27,65,093,36,02,36,072,36,04,20,113,*72
$GPGSV,3,3,10,14,11,222,31,26,11,014,35*7A
$GPRMC,121016.000,A,2128.7332,S,07004.4565,W,0.31,85.92,020511,,,A*5A
$GPGGA,121017.000,2128.7332,S,07004.4564,W,1,04,2.3,-7.1,M,34.8,M,,0000*7A
$GPGSA,M,3,25,15,12,29,,,,,,,,,2.5,2.3,1.0*32
$GPRMC,121017.000,A,2128.7332,S,07004.4564,W,0.24,84.41,020511,,,A*51
$GPGGA,121018.000,2128.7332,S,07004.4564,W,1,04,2.3,-7.1,M,34.8,M,,0000*75
$GPGSA,M,3,25,15,12,29,,,,,,,,,2.5,2.3,1.0*32
$GPRMC,121018.000,A,2128.7332,S,07004.4564,W,0.21,79.80,020511,,,A*54
$GPGGA,121019.000,2128.7332,S,07004.4563,W,1,04,2.3,-7.1,M,34.8,M,,0000*73
$GPGSA,M,3,25,15,12,29,,,,,,,,,2.5,2.3,1.0*32
$GPRMC,121019.000,A,2128.7332,S,07004.4563,W,0.25,79.12,020511,,,A*5D
$GPGGA,121020.000,2128.7332,S,07004.4563,W,1,04,2.3,-7.2,M,34.8,M,,0000*7A
$GPGSA,M,3,25,15,12,29,,,,,,,,,2.5,2.3,1.0*32
$GPRMC,121020.000,A,2128.7332,S,07004.4563,W,0.23,79.44,020511,,,A*52
$GPGGA,121021.000,2128.7332,S,07004.4563,W,1,04,2.3,-7.2,M,34.8,M,,0000*7B
$GPGSA,M,3,25,15,12,29,,,,,,,,,2.5,2.3,1.0*32
$GPGSV,3,1,10,09,69,155,37,27,65,093,29,12,45,203,43,15,37,347,46*78
$GPGSV,3,2,10,02,36,072,34,29,32,317,47,25,25,246,40,04,20,113,*71
$GPGSV,3,3,10,14,11,222,29,26,11,014,36*70
$GPRMC,121021.000,A,2128.7332,S,07004.4563,W,0.18,82.52,020511,,,A*58
$GPGGA,121022.000,2128.7325,S,07004.4611,W,1,06,1.3,11.4,M,34.8,M,,0000*65
$GPGSA,M,3,25,27,02,15,12,29,,,,,,,3.7,1.3,3.4*33
$GPRMC,121022.000,A,2128.7325,S,07004.4611,W,0.13,63.80,020511,,,A*50
$GPGGA,121023.000,2128.7323,S,07004.4617,W,1,06,1.3,14.1,M,34.8,M,,0000*64
$GPGSA,M,3,25,27,02,15,12,29,,,,,,,3.7,1.3,3.4*33
$GPRMC,121023.000,A,2128.7323,S,07004.4617,W,0.06,52.16,020511,,,A*58
$GPGGA,121024.000,2128.7323,S,07004.4620,W,1,06,1.3,15.1,M,34.8,M,,0000*66
$GPGSA,M,3,25,27,02,15,12,29,,,,,,,3.7,1.3,3.4*33
$GPRMC,121024.000,A,2128.7323,S,07004.4620,W,0.08,333.95,020511,,,A*6A
$GPGGA,121025.000,2128.7323,S,07004.4620,W,1,05,1.3,15.3,M,34.8,M,,0000*66
$GPGSA,M,3,25,02,15,12,29,,,,,,,,5.5,1.3,5.4*34
$GPRMC,121025.000,A,2128.7323,S,07004.4620,W,0.17,70.60,020511,,,A*5B
$GPGGA,121026.000,2128.7324,S,07004.4613,W,1,06,1.3,13.3,M,34.8,M,,0000*67
$GPGSA,M,3,25,02,15,12,29,27,,,,,,,3.7,1.3,3.4*33
$GPGSV,3,1,10,09,69,155,37,27,65,093,35,12,45,203,40,15,37,347,38*7F
$GPGSV,3,2,10,02,36,072,33,29,32,317,38,25,25,246,43,04,20,113,*7D
$GPGSV,3,3,10,14,11,222,24,26,10,014,36*7C
$GPRMC,121026.000,A,2128.7324,S,07004.4613,W,0.02,41.14,020511,,,A*5A
$GPGGA,121027.000,2128.7325,S,07004.4609,W,1,06,1.3,12.6,M,34.8,M,,0000*68
$GPGSA,M,3,25,02,15,12,29,27,,,,,,,3.7,1.3,3.4*33
$GPRMC,121027.000,A,2128.7325,S,07004.4609,W,0.18,86.84,020511,,,A*58
$GPGGA,121028.000,2128.7325,S,07004.4605,W,1,06,1.3,11.4,M,34.8,M,,0000*6A
$GPGSA,M,3,25,02,15,12,29,27,,,,,,,3.7,1.3,3.4*33
$GPRMC,121028.000,A,2128.7325,S,07004.4605,W,0.16,76.64,020511,,,A*54
$GPGGA,121029.000,2128.7326,S,07004.4599,W,1,06,1.3,8.9,M,34.8,M,,0000*5B
$GPGSA,M,3,25,02,15,12,29,27,,,,,,,3.7,1.3,3.4*33
$GPRMC,121029.000,A,2128.7326,S,07004.4599,W,0.16,73.24,020511,,,A*51
$GPGGA,121030.000,2128.7327,S,07004.4595,W,1,06,1.3,7.0,M,34.8,M,,0000*58
$GPGSA,M,3,25,02,15,12,29,27,,,,,,,3.7,1.3,3.4*33
$GPRMC,121030.000,A,2128.7327,S,07004.4595,W,0.08,63.06,020511,,,A*5A
$GPGGA,121031.000,2128.7327,S,07004.4593,W,1,06,1.3,6.3,M,34.8,M,,0000*5D
$GPGSA,M,3,25,02,15,12,29,27,,,,,,,3.7,1.3,3.4*33
$GPGSV,3,1,10,09,69,155,32,27,65,093,43,12,45,203,43,15,37,347,41*76
$GPGSV,3,2,10,02,36,072,41,29,32,317,46,25,25,246,42,04,20,113,*70
$GPGSV,3,3,10,14,11,222,25,26,10,014,34*7F
$GPRMC,121031.000,A,2128.7327,S,07004.4593,W,0.12,75.44,020511,,,A*57
$GPGGA,121032.000,2128.7327,S,07004.4592,W,1,06,1.3,5.5,M,34.8,M,,0000*5A
$GPGSA,M,3,25,02,15,12,29,27,,,,,,,3.7,1.3,3.4*33
$GPRMC,121032.000,A,2128.7327,S,07004.4592,W,0.08,71.03,020511,,,A*59
$GPGGA,121033.000,2128.7328,S,07004.4592,W,1,06,1.3,5.3,M,34.8,M,,0000*52
$GPGSA,M,3,25,02,15,12,29,27,,,,,,,3.7,1.3,3.4*33
$GPRMC,121033.000,A,2128.7328,S,07004.4592,W,0.08,60.33,020511,,,A*54
$GPGGA,121034.000,2128.7328,S,07004.4591,W,1,06,1.3,5.0,M,34.8,M,,0000*55
$GPGSA,M,3,25,02,15,12,29,27,,,,,,,3.7,1.3,3.4*33
$GPRMC,121034.000,A,2128.7328,S,07004.4591,W,0.07,38.61,020511,,,A*55
$GPGGA,121035.000,2128.7328,S,07004.4591,W,1,06,1.3,5.0,M,34.8,M,,0000*54
$GPGSA,M,3,25,02,15,12,29,27,,,,,,,3.7,1.3,3.4*33
$GPRMC,121035.000,A,2128.7328,S,07004.4591,W,0.06,56.73,020511,,,A*5E
$GPGGA,121036.130,2128.7327,S,07004.4590,W,1,06,1.3,5.2,M,34.8,M,,0000*59
$GPGSA,M,3,27,12,15,02,29,25,,,,,,,3.7,1.3,3.4*33
$GPGSV,3,1,10,09,69,155,32,27,65,093,37,12,45,203,38,15,37,347,40*78
$GPGSV,3,2,10,02,36,072,37,29,32,317,40,25,25,246,38,04,20,113,*7A
$GPGSV,3,3,10,14,11,222,26,26,10,014,33*7B
$GPRMC,121036.130,A,2128.7327,S,07004.4590,W,1.01,79.30,020511,,,A*5D
$GPGGA,121037.000,2128.7326,S,07004.4589,W,1,06,1.3,5.3,M,34.8,M,,0000*52
$GPGSA,M,3,27,12,15,02,29,25,,,,,,,3.7,1.3,3.4*33
$GPRMC,121037.000,A,2128.7326,S,07004.4589,W,0.19,99.12,020511,,,A*51
$GPGGA,121038.023,2128.7326,S,07004.4589,W,1,06,1.3,5.3,M,34.8,M,,0000*5C
$GPGSA,M,3,27,12,15,02,29,25,,,,,,,3.7,1.3,3.4*33
$GPRMC,121038.023,A,2128.7326,S,07004.4589,W,0.20,16.50,020511,,,A*54
$GPGGA,121038.979,2128.7326,S,07004.4589,W,1,06,1.3,5.4,M,34.8,M,,0000*5D
$GPGSA,M,3,27,12,15,02,29,25,,,,,,,3.7,1.3,3.4*33
$GPRMC,121038.979,A,2128.7326,S,07004.4589,W,0.32,105.33,020511,,,A*67
$GPGGA,121040.000,2128.7325,S,07004.4590,W,1,06,1.3,5.9,M,34.8,M,,0000*53
$GPGSA,M,3,27,12,15,02,29,25,,,,,,,3.7,1.3,3.4*33
$GPRMC,121040.000,A,2128.7325,S,07004.4590,W,0.26,301.68,020511,,,A*69
$GPGGA,121040.999,2128.7325,S,07004.4588,W,1,06,1.3,5.0,M,34.8,M,,0000*5A
$GPGSA,M,3,27,12,15,02,29,25,,,,,,,3.7,1.3,3.4*33
$GPGSV,3,1,10,09,69,155,34,27,65,093,37,12,45,203,41,15,37,347,41*71
$GPGSV,3,2,10,02,36,072,38,29,32,317,40,25,25,246,37,04,20,113,*7A
$GPGSV,3,3,10,14,11,222,30,26,10,014,37*78
$GPRMC,121040.999,A,2128.7325,S,07004.4588,W,0.11,353.33,020511,,,A*64
$GPGGA,121042.000,2128.7325,S,07004.4588,W,1,06,1.3,5.1,M,34.8,M,,0000*50
$GPGSA,M,3,27,12,15,02,29,25,,,,,,,3.7,1.3,3.4*33
$GPRMC,121042.000,A,2128.7325,S,07004.4588,W,0.21,177.78,020511,,,A*67
$GPGGA,121043.000,2128.7325,S,07004.4590,W,1,05,1.3,5.9,M,34.8,M,,0000*53
$GPGSA,M,3,12,15,02,29,25,,,,,,,,5.5,1.3,5.4*34
$GPRMC,121043.000,A,2128.7325,S,07004.4590,W,0.27,335.66,020511,,,A*62
$GPGGA,121043.997,2128.7326,S,07004.4590,W,1,05,1.5,5.8,M,34.8,M,,0000*50
$GPGSA,M,3,27,12,15,02,29,,,,,,,,4.6,1.5,4.3*34
$GPRMC,121043.997,A,2128.7326,S,07004.4590,W,1.02,200.68,020511,,,A*69
$GPGGA,121045.002,2128.7327,S,07004.4590,W,1,06,1.3,5.9,M,34.8,M,,0000*56
$GPGSA,M,3,27,12,15,02,29,25,,,,,,,3.7,1.3,3.4*33
$GPRMC,121045.002,A,2128.7327,S,07004.4590,W,0.26,114.65,020511,,,A*67
$GPGGA,121046.001,2128.7327,S,07004.4591,W,1,06,1.3,5.3,M,34.8,M,,0000*5D
$GPGSA,M,3,27,12,15,02,29,25,,,,,,,3.7,1.3,3.4*33
$GPGSV,3,1,10,09,69,155,32,27,65,093,36,12,45,203,33,15,37,347,32*77
$GPGSV,3,2,10,02,36,072,35,29,32,317,37,25,25,246,31,04,20,113,*71
$GPGSV,3,3,10,14,11,222,31,26,10,014,30*7E
$GPRMC,121046.001,A,2128.7327,S,07004.4591,W,0.24,348.20,020511,,,A*6E
$GPGGA,121047.000,2128.7326,S,07004.4591,W,1,05,1.5,5.2,M,34.8,M,,0000*58
$GPGSA,M,3,27,12,15,02,29,,,,,,,,4.6,1.5,4.3*34
$GPRMC,121047.000,A,2128.7326,S,07004.4591,W,0.50,106.10,020511,,,A*67
$GPGGA,121048.000,2128.7326,S,07004.4590,W,1,05,1.5,5.7,M,34.8,M,,0000*53
$GPGSA,M,3,27,12,15,02,29,,,,,,,,4.6,1.5,4.3*34
$GPRMC,121048.000,A,2128.7326,S,07004.4590,W,1.19,110.48,020511,,,A*6F
$GPGGA,121048.998,2128.7326,S,07004.4589,W,1,06,1.3,5.5,M,34.8,M,,0000*54
$GPGSA,M,3,27,12,15,02,29,25,,,,,,,3.7,1.3,3.4*33
$GPRMC,121048.998,A,2128.7326,S,07004.4589,W,0.43,330.01,020511,,,A*6C
$GPGGA,121050.000,2128.7325,S,07004.4588,W,1,06,1.3,4.9,M,34.8,M,,0000*5A
$GPGSA,M,3,27,12,15,02,29,25,,,,,,,3.7,1.3,3.4*33
$GPRMC,121050.000,A,2128.7325,S,07004.4588,W,0.10,181.96,020511,,,A*6F
$GPGGA,121051.000,2128.7325,S,07004.4588,W,1,06,1.3,5.2,M,34.8,M,,0000*51
$GPGSA,M,3,27,12,15,02,29,25,,,,,,,3.7,1.3,3.4*33
$GPGSV,3,1,10,09,69,155,37,27,65,093,34,12,45,203,38,15,37,347,31*78
$GPGSV,3,2,10,02,36,072,29,29,32,317,28,25,25,246,26,04,20,113,*74
$GPGSV,3,3,10,14,11,222,30,26,10,014,31*7E
$GPRMC,121051.000,A,2128.7325,S,07004.4588,W,0.61,107.19,020511,,,A*61
$GPGGA,121052.002,2128.7325,S,07004.4586,W,1,05,1.5,3.9,M,34.8,M,,0000*56
$GPGSA,M,3,27,12,15,02,29,,,,,,,,4.6,1.5,4.3*34
$GPRMC,121052.002,A,2128.7325,S,07004.4586,W,0.19,14.46,020511,,,A*58
$GPGGA,121053.001,2128.7324,S,07004.4588,W,1,05,1.5,4.9,M,34.8,M,,0000*5C
$GPGSA,M,3,27,12,15,02,29,,,,,,,,4.6,1.5,4.3*34
$GPRMC,121053.001,A,2128.7324,S,07004.4588,W,0.12,55.22,020511,,,A*59
$GPGGA,121054.001,2128.7323,S,07004.4587,W,1,04,1.6,4.8,M,34.8,M,,0000*50
$GPGSA,M,3,27,12,15,02,,,,,,,,,4.7,1.6,4.4*3A
$GPRMC,121054.001,A,2128.7323,S,07004.4587,W,0.78,52.89,020511,,,A*5C
$GPGGA,121054.995,2128.7322,S,07004.4585,W,0,00,,4.8,M,34.8,M,,0000*7B
$GPGSA,M,1,,,,,,,,,,,,,,,*12
$GPRMC,121054.995,V,2128.7322,S,07004.4585,W,,,020511,,,N*7A
$GPGGA,121056.000,2128.7321,S,07004.4583,W,0,00,,4.7,M,34.8,M,,0000*76
$GPGSA,M,1,,,,,,,,,,,,,,,*12
$GPGSV,3,1,10,27,65,092,37,12,45,203,40,15,36,347,41,02,36,072,*72
$GPGSV,3,2,10,29,32,317,,25,25,245,,09,69,154,40,04,20,113,*72
$GPGSV,3,3,10,14,12,222,38,26,10,014,28*7D
$GPRMC,121056.000,V,2128.7321,S,07004.4583,W,,,020511,,,N*78
$GPGGA,121057.000,2128.7319,S,07004.4581,W,0,00,,4.7,M,34.8,M,,0000*7E
$GPGSA,M,1,,,,,,,,,,,,,,,*12
$GPRMC,121057.000,V,2128.7319,S,07004.4581,W,,,020511,,,N*70
$GPGGA,121058.000,2128.7327,S,07004.4581,W,1,06,1.3,4.2,M,34.8,M,,0000*52
$GPGSA,M,3,27,12,15,02,29,25,,,,,,,3.7,1.3,3.4*33
$GPRMC,121058.000,A,2128.7327,S,07004.4581,W,0.36,107.22,020511,,,A*69
$GPGGA,121059.000,2128.7331,S,07004.4575,W,1,06,1.3,3.6,M,34.8,M,,0000*5C
$GPGSA,M,3,27,12,15,02,29,25,,,,,,,3.7,1.3,3.4*33
$GPRMC,121059.000,A,2128.7331,S,07004.4575,W,0.52,190.86,020511,,,A*66
$GPGGA,121100.000,2128.7334,S,07004.4571,W,1,06,1.3,3.0,M,34.8,M,,0000*56
$GPGSA,M,3,27,12,15,02,29,25,,,,,,,3.7,1.3,3.4*33
$GPRMC,121100.000,A,2128.7334,S,07004.4571,W,0.34,156.00,020511,,,A*6E
$GPGGA,121101.000,2128.7332,S,07004.4573,W,1,05,1.4,1.7,M,34.8,M,,0000*52
$GPGSA,M,3,27,12,15,29,25,,,,,,,,1.7,1.4,1.0*32
$GPGSV,3,1,10,27,65,092,31,12,45,203,28,15,36,347,24,02,36,072,*79
$GPGSV,3,2,10,29,32,317,34,25,25,245,35,09,69,154,33,04,20,113,*77
$GPGSV,3,3,10,14,12,222,31,26,10,014,25*79
$GPRMC,121101.000,A,2128.7332,S,07004.4573,W,0.43,143.43,020511,,,A*68
$GPGGA,121102.000,2128.7334,S,07004.4572,W,1,05,1.4,1.2,M,34.8,M,,0000*53
$GPGSA,M,3,27,12,15,29,25,,,,,,,,1.7,1.4,1.0*32
$GPRMC,121102.000,A,2128.7334,S,07004.4572,W,0.45,110.46,020511,,,A*69
$GPGGA,121103.000,2128.7334,S,07004.4579,W,1,06,1.3,3.4,M,34.8,M,,0000*59
$GPGSA,M,3,27,12,15,02,29,25,,,,,,,3.7,1.3,3.4*33
$GPRMC,121103.000,A,2128.7334,S,07004.4579,W,0.60,319.97,020511,,,A*63
$GPGGA,121104.000,2128.7332,S,07004.4591,W,1,06,1.3,7.1,M,34.8,M,,0000*5F
$GPGSA,M,3,27,12,15,02,29,25,,,,,,,3.7,1.3,3.4*33
$GPRMC,121104.000,A,2128.7332,S,07004.4591,W,0.77,0.48,020511,,,A*6B
$GPGGA,121105.000,2128.7331,S,07004.4596,W,1,06,1.3,8.7,M,34.8,M,,0000*53
$GPGSA,M,3,27,12,15,02,29,25,,,,,,,3.7,1.3,3.4*33
$GPRMC,121105.000,A,2128.7331,S,07004.4596,W,0.07,291.14,020511,,,A*6A
$GPGGA,121106.000,2128.7332,S,07004.4599,W,1,06,1.3,9.7,M,34.8,M,,0000*5D
$GPGSA,M,3,27,12,15,02,29,25,,,,,,,3.7,1.3,3.4*33
$GPGSV,3,1,10,27,65,092,33,12,45,203,38,15,36,347,35,02,36,072,40*7E
$GPGSV,3,2,10,29,32,317,31,25,25,245,40,09,69,154,38,04,20,113,*7B
$GPGSV,3,3,10,14,12,222,37,26,10,014,33*78
$GPRMC,121106.000,A,2128.7332,S,07004.4599,W,0.29,335.80,020511,,,A*6B
$GPGGA,121107.000,2128.7333,S,07004.4598,W,1,06,1.3,9.8,M,34.8,M,,0000*53
$GPGSA,M,3,27,12,15,02,29,25,,,,,,,3.7,1.3,3.4*33
$GPRMC,121107.000,A,2128.7333,S,07004.4598,W,0.25,276.80,020511,,,A*60
$GPGGA,121108.000,2128.7334,S,07004.4604,W,1,06,1.3,11.8,M,34.8,M,,0000*64
$GPGSA,M,3,27,12,15,02,29,25,,,,,,,3.7,1.3,3.4*33
$GPRMC,121108.000,A,2128.7334,S,07004.4604,W,0.36,229.59,020511,,,A*62
$GPGGA,121109.000,2128.7333,S,07004.4612,W,1,06,1.3,14.8,M,34.8,M,,0000*60
$GPGSA,M,3,27,12,15,02,29,25,,,,,,,3.7,1.3,3.4*33
$GPRMC,121109.000,A,2128.7333,S,07004.4612,W,0.21,303.05,020511,,,A*65
$GPGGA,121110.000,2128.7334,S,07004.4607,W,1,06,1.3,12.8,M,34.8,M,,0000*6D
$GPGSA,M,3,27,12,15,02,29,25,,,,,,,3.7,1.3,3.4*33
$GPRMC,121110.000,A,2128.7334,S,07004.4607,W,0.07,324.21,020511,,,A*69
$GPGGA,121111.000,2128.7335,S,07004.4601,W,1,06,1.3,9.7,M,34.8,M,,0000*5E
$GPGSA,M,3,27,12,15,02,29,25,,,,,,,3.7,1.3,3.4*33
$GPGSV,3,1,10,27,65,092,44,12,45,203,43,15,36,347,36,02,36,072,37*71
$GPGSV,3,2,10,29,32,317,29,25,25,245,35,09,69,154,45,04,20,113,*7A
$GPGSV,3,3,10,14,12,222,35,26,10,014,37*7E
$GPRMC,121111.000,A,2128.7335,S,07004.4601,W,0.33,326.27,020511,,,A*6C
$GPGGA,121112.000,2128.7337,S,07004.4593,W,1,06,1.3,6.7,M,34.8,M,,0000*58
$GPGSA,M,3,27,12,15,02,29,25,,,,,,,3.7,1.3,3.4*33
$GPRMC,121112.000,A,2128.7337,S,07004.4593,W,0.19,359.66,020511,,,A*60
$GPGGA,121113.000,2128.7339,S,07004.4587,W,1,06,1.3,4.4,M,34.8,M,,0000*53
$GPGSA,M,3,27,12,15,02,29,25,,,,,,,3.7,1.3,3.4*33
$GPRMC,121113.000,A,2128.7339,S,07004.4587,W,0.12,70.93,020511,,,A*53
$GPGGA,121114.000,2128.7340,S,07004.4585,W,1,06,1.3,3.1,M,34.8,M,,0000*5A
$GPGSA,M,3,27,12,15,02,29,25,,,,,,,3.7,1.3,3.4*33
$GPRMC,121114.000,A,2128.7340,S,07004.4585,W,0.15,32.25,020511,,,A*54
$GPGGA,121115.000,2128.7340,S,07004.4585,W,1,06,1.3,2.9,M,34.8,M,,0000*52
$GPGSA,M,3,27,12,15,02,29,25,,,,,,,3.7,1.3,3.4*33
$GPRMC,121115.000,A,2128.7340,S,07004.4585,W,0.07,64.55,020511,,,A*52
$GPGGA,121116.000,2128.7340,S,07004.4587,W,1,06,1.3,3.4,M,34.8,M,,0000*5F
$GPGSA,M,3,27,12,15,02,29,25,,,,,,,3.7,1.3,3.4*33
$GPGSV,3,1,10,27,65,092,45,12,45,203,43,15,36,347,37,02,36,072,38*7E
$GPGSV,3,2,10,29,32,317,31,25,25,245,38,09,69,154,43,04,20,113,*78
$GPGSV,3,3,10,14,12,222,36,26,10,014,38*72
$GPRMC,121116.000,A,2128.7340,S,07004.4587,W,0.09,32.97,020511,,,A*50
$GPGGA,121117.000,2128.7340,S,07004.4589,W,1,06,1.3,4.1,M,34.8,M,,0000*52
$GPGSA,M,3,27,12,15,02,29,25,,,,,,,3.7,1.3,3.4*33
$GPRMC,121117.000,A,2128.7340,S,07004.4589,W,0.08,41.03,020511,,,A*57
$GPGGA,121118.000,2128.7340,S,07004.4590,W,1,06,1.3,4.4,M,34.8,M,,0000*50
$GPGSA,M,3,27,12,15,02,29,25,,,,,,,3.7,1.3,3.4*33
$GPRMC,121118.000,A,2128.7340,S,07004.4590,W,0.09,73.87,020511,,,A*5C
$GPGGA,121119.000,2128.7340,S,07004.4591,W,1,06,1.3,4.8,M,34.8,M,,0000*5C
$GPGSA,M,3,27,12,15,02,29,25,,,,,,,3.7,1.3,3.4*33
$GPRMC,121119.000,A,2128.7340,S,07004.4591,W,0.07,13.05,020511,,,A*5E
$GPGGA,121120.000,2128.7340,S,07004.4591,W,1,06,1.3,5.1,M,34.8,M,,0000*5E
$GPGSA,M,3,27,12,15,02,29,25,,,,,,,3.7,1.3,3.4*33
$GPRMC,121120.000,A,2128.7340,S,07004.4591,W,0.09,8.43,020511,,,A*62
$GPGGA,121121.000,2128.7340,S,07004.4592,W,1,06,1.3,5.4,M,34.8,M,,0000*59
$GPGSA,M,3,27,12,15,02,29,25,,,,,,,3.7,1.3,3.4*33
$GPGSV,3,1,10,09,69,154,43,27,65,092,45,12,45,202,43,15,36,347,36*76
$GPGSV,3,2,10,02,36,073,43,29,33,316,30,25,25,245,38,04,20,113,*7C
$GPGSV,3,3,10,14,12,222,36,26,10,014,38*72
$GPRMC,121121.000,A,2128.7340,S,07004.4592,W,0.08,24.66,020511,,,A*58
$GPGGA,121122.000,2128.7340,S,07004.4593,W,1,06,1.3,5.6,M,34.8,M,,0000*59
$GPGSA,M,3,27,12,15,02,29,25,,,,,,,3.7,1.3,3.4*33
$GPRMC,121122.000,A,2128.7340,S,07004.4593,W,0.09,8.46,020511,,,A*67
$GPGGA,121123.000,2128.7339,S,07004.4594,W,1,06,1.3,5.9,M,34.8,M,,0000*5E
$GPGSA,M,3,27,12,15,02,29,25,,,,,,,3.7,1.3,3.4*33
$GPRMC,121123.000,A,2128.7339,S,07004.4594,W,0.09,13.19,020511,,,A*5F
$GPGGA,121124.000,2128.7339,S,07004.4595,W,1,06,1.3,6.2,M,34.8,M,,0000*50
$GPGSA,M,3,27,12,15,02,29,25,,,,,,,3.7,1.3,3.4*33
$GPRMC,121124.000,A,2128.7339,S,07004.4595,W,0.22,340.16,020511,,,A*6A
$GPGGA,121125.000,2128.7339,S,07004.4595,W,1,06,1.3,6.2,M,34.8,M,,0000*51
$GPGSA,M,3,27,12,15,02,29,25,,,,,,,3.7,1.3,3.5*32
$GPRMC,121125.000,A,2128.7339,S,07004.4595,W,0.16,348.09,020511,,,A*6A
$GPGGA,121126.000,2128.7339,S,07004.4597,W,1,06,1.3,6.6,M,34.8,M,,0000*54
$GPGSA,M,3,27,12,15,02,29,25,,,,,,,3.7,1.3,3.5*32
$GPGSV,3,1,10,09,69,154,42,27,65,092,45,12,45,202,43,15,36,347,35*74
$GPGSV,3,2,10,02,36,073,43,29,33,316,24,25,25,245,40,04,20,113,*76
$GPGSV,3,3,10,14,12,222,36,26,10,014,38*72
$GPRMC,121126.000,A,2128.7339,S,07004.4597,W,0.03,100.70,020511,,,A*6F
$GPGGA,121127.000,2128.7339,S,07004.4598,W,1,06,1.3,7.0,M,34.8,M,,0000*5D
$GPGSA,M,3,27,12,15,02,29,25,,,,,,,3.7,1.3,3.5*32
$GPRMC,121127.000,A,2128.7339,S,07004.4598,W,0.09,8.05,020511,,,A*60
$GPGGA,121128.000,2128.7339,S,07004.4598,W,1,06,1.3,7.3,M,34.8,M,,0000*51
$GPGSA,M,3,27,12,15,02,29,25,,,,,,,3.7,1.3,3.5*32
$GPRMC,121128.000,A,2128.7339,S,07004.4598,W,0.21,340.57,020511,,,A*6D
$GPGGA,121129.000,2128.7339,S,07004.4599,W,1,06,1.3,7.5,M,34.8,M,,0000*57
$GPGSA,M,3,27,12,15,02,29,25,,,,,,,3.7,1.3,3.5*32
$GPRMC,121129.000,A,2128.7339,S,07004.4599,W,0.06,60.08,020511,,,A*53
$GPGGA,121130.000,2128.7339,S,07004.4599,W,1,06,1.3,7.7,M,34.8,M,,0000*5D
$GPGSA,M,3,27,12,15,02,29,25,,,,,,,3.7,1.3,3.5*32
$GPRMC,121130.000,A,2128.7339,S,07004.4599,W,0.09,358.83,020511,,,A*6F
$GPGGA,121131.000,2128.7339,S,07004.4599,W,1,06,1.3,7.7,M,34.8,M,,0000*5C
$GPGSA,M,3,27,12,15,02,29,25,,,,,,,3.7,1.3,3.5*32
$GPGSV,3,1,10,09,69,154,43,27,65,092,45,12,45,202,43,15,36,347,37*77
$GPGSV,3,2,10,02,36,073,42,29,33,316,28,25,25,245,40,04,20,113,*7B
$GPGSV,3,3,10,14,12,222,36,26,10,014,37*7D
$GPRMC,121131.000,A,2128.7339,S,07004.4599,W,0.06,23.14,020511,,,A*50
$GPGGA,121132.000,2128.7339,S,07004.4600,W,1,06,1.3,7.8,M,34.8,M,,0000*53
$GPGSA,M,3,27,12,15,02,29,25,,,,,,,3.7,1.3,3.5*32
$GPRMC,121132.000,A,2128.7339,S,07004.4600,W,0.05,39.68,020511,,,A*53
$GPGGA,121133.000,2128.7339,S,07004.4600,W,1,06,1.3,7.9,M,34.8,M,,0000*53
$GPGSA,M,3,27,12,15,02,29,25,,,,,,,3.7,1.3,3.5*32
$GPRMC,121133.000,A,2128.7339,S,07004.4600,W,0.06,53.74,020511,,,A*50
$GPGGA,121134.000,2128.7340,S,07004.4600,W,1,09,1.0,7.9,M,34.8,M,,0000*56
$GPGSA,M,3,09,27,12,15,14,26,02,29,25,,,,1.9,1.0,1.5*37
$GPRMC,121134.000,A,2128.7340,S,07004.4600,W,0.14,346.48,020511,,,A*62
$GPGGA,121134.999,2128.7339,S,07004.4602,W,1,09,1.0,8.5,M,34.8,M,,0000*50
$GPGSA,M,3,09,27,12,02,15,29,25,14,26,,,,1.9,1.0,1.5*37
$GPRMC,121134.999,A,2128.7339,S,07004.4602,W,0.03,289.13,020511,,,A*6D
$GPGGA,121136.000,2128.7340,S,07004.4603,W,1,08,1.3,9.4,M,34.8,M,,0000*56
$GPGSA,M,3,09,27,12,02,15,25,14,26,,,,,2.1,1.3,1.7*36
$GPGSV,3,1,10,09,69,153,38,27,65,091,40,12,45,202,39,02,36,073,38*7A
$GPGSV,3,2,10,15,36,347,31,29,33,316,,25,25,245,36,04,20,113,*76
$GPGSV,3,3,10,14,12,222,33,26,10,014,36*79
$GPRMC,121136.000,A,2128.7340,S,07004.4603,W,0.72,142.28,020511,,,A*63
$GPGGA,121137.000,2128.7341,S,07004.4602,W,1,08,1.3,9.6,M,34.8,M,,0000*55
$GPGSA,M,3,09,27,12,02,15,25,14,26,,,,,2.1,1.3,1.7*36
$GPRMC,121137.000,A,2128.7341,S,07004.4602,W,0.38,136.45,020511,,,A*64
$GPGGA,121138.000,2128.7342,S,07004.4603,W,1,08,1.3,9.9,M,34.8,M,,0000*57
$GPGSA,M,3,09,27,12,02,15,25,14,26,,,,,2.1,1.3,1.7*36
$GPRMC,121138.000,A,2128.7342,S,07004.4603,W,0.13,225.22,020511,,,A*60
$GPGGA,121139.000,2128.7343,S,07004.4602,W,1,08,1.3,9.5,M,34.8,M,,0000*5A
$GPGSA,M,3,09,27,12,02,15,25,14,26,,,,,2.1,1.3,1.7*36
$GPRMC,121139.000,A,2128.7343,S,07004.4602,W,0.55,168.56,020511,,,A*6A
$GPGGA,121139.997,2128.7344,S,07004.4603,W,1,07,1.9,9.5,M,34.8,M,,0000*5E
$GPGSA,M,3,09,27,12,02,25,14,26,,,,,,2.8,1.9,2.1*34
$GPRMC,121139.997,A,2128.7344,S,07004.4603,W,0.39,189.84,020511,,,A*61
$GPGGA,121141.001,2128.7345,S,07004.4603,W,1,07,1.9,9.5,M,34.8,M,,0000*56
$GPGSA,M,3,09,27,12,02,25,14,26,,,,,,2.8,1.9,2.1*34
$GPGSV,3,1,10,09,69,153,38,27,65,091,41,12,45,202,38,02,36,073,38*7A
$GPGSV,3,2,10,15,36,347,,29,33,316,,25,25,245,38,04,20,113,*7A
$GPGSV,3,3,10,14,12,222,33,26,10,014,30*7F
$GPRMC,121141.001,A,2128.7345,S,07004.4603,W,0.09,154.09,020511,,,A*6F
$GPGGA,121141.999,2128.7345,S,07004.4603,W,1,07,1.9,9.6,M,34.8,M,,0000*5D
$GPGSA,M,3,09,27,12,02,25,14,26,,,,,,2.8,1.9,2.1*34
$GPRMC,121141.999,A,2128.7345,S,07004.4603,W,0.53,291.88,020511,,,A*6B
$GPGGA,121143.001,2128.7345,S,07004.4603,W,1,07,1.9,9.7,M,34.8,M,,0000*56
$GPGSA,M,3,09,27,12,02,25,14,26,,,,,,2.8,1.9,2.1*34
$GPRMC,121143.001,A,2128.7345,S,07004.4603,W,0.09,73.35,020511,,,A*56
$GPGGA,121143.998,2128.7345,S,07004.4604,W,1,07,1.9,10.1,M,34.8,M,,0000*66
$GPGSA,M,3,09,27,12,02,25,14,26,,,,,,2.8,1.9,2.1*34
$GPRMC,121143.998,A,2128.7345,S,07004.4604,W,0.32,145.24,020511,,,A*64
$GPGGA,121145.002,2128.7345,S,07004.4603,W,1,07,1.9,10.1,M,34.8,M,,0000*6D
$GPGSA,M,3,09,27,12,02,25,14,26,,,,,,2.8,1.9,2.1*34
$GPRMC,121145.002,A,2128.7345,S,07004.4603,W,0.28,115.57,020511,,,A*65
$GPGGA,121146.002,2128.7345,S,07004.4604,W,1,08,1.2,10.6,M,34.8,M,,0000*6A
$GPGSA,M,3,09,27,12,02,29,25,14,26,,,,,2.0,1.2,1.6*38
$GPGSV,3,1,10,09,69,153,38,27,65,091,41,12,45,202,39,02,36,073,38*7B
$GPGSV,3,2,10,15,36,347,,29,33,316,26,25,25,245,38,04,20,113,*7E
$GPGSV,3,3,10,14,12,222,35,26,10,014,34*7D
$GPRMC,121146.002,A,2128.7345,S,07004.4604,W,0.31,316.64,020511,,,A*68
$GPGGA,121146.999,2128.7345,S,07004.4605,W,1,08,1.2,10.9,M,34.8,M,,0000*6F
$GPGSA,M,3,09,27,12,02,29,25,14,26,,,,,2.0,1.2,1.6*38
$GPRMC,121146.999,A,2128.7345,S,07004.4605,W,0.38,245.53,020511,,,A*68
$GPGGA,121147.995,2128.7344,S,07004.4606,W,1,08,1.3,11.2,M,34.8,M,,0000*6B
$GPGSA,M,3,09,27,12,02,15,25,14,26,,,,,2.1,1.3,1.7*36
$GPRMC,121147.995,A,2128.7344,S,07004.4606,W,0.38,315.41,020511,,,A*60
$GPGGA,121149.004,2128.7343,S,07004.4606,W,1,08,1.2,11.0,M,34.8,M,,0000*60
$GPGSA,M,3,09,27,12,02,29,25,14,26,,,,,2.0,1.2,1.6*38
$GPRMC,121149.004,A,2128.7343,S,07004.4606,W,0.12,103.47,020511,,,A*63
$GPGGA,121149.998,2128.7342,S,07004.4605,W,1,09,1.0,11.1,M,34.8,M,,0000*6C
$GPGSA,M,3,09,27,12,02,15,29,25,14,26,,,,1.9,1.0,1.5*37
$GPRMC,121149.998,A,2128.7342,S,07004.4605,W,0.34,0.79,020511,,,A*66
$GPGGA,121151.000,2128.7342,S,07004.4606,W,1,07,1.4,11.5,M,34.8,M,,0000*60
$GPGSA,M,3,09,27,12,02,15,25,14,,,,,,2.5,1.4,2.1*34
$GPGSV,3,1,10,09,69,153,38,27,65,091,41,12,45,202,38,02,36,073,38*7A
$GPGSV,3,2,10,15,36,347,30,29,33,316,,25,25,245,37,04,20,113,*76
$GPGSV,3,3,10,14,12,222,33,26,10,014,*7C
$GPRMC,121151.000,A,2128.7342,S,07004.4606,W,0.05,28.46,020511,,,A*50
$GPGGA,121152.000,2128.7343,S,07004.4605,W,1,07,1.9,11.6,M,34.8,M,,0000*6F
$GPGSA,M,3,09,27,12,02,25,14,26,,,,,,2.8,1.9,2.1*34
$GPRMC,121152.000,A,2128.7343,S,07004.4605,W,0.69,150.40,020511,,,A*63
$GPGGA,121152.998,2128.7343,S,07004.4607,W,1,08,1.3,12.0,M,34.8,M,,0000*65
$GPGSA,M,3,09,27,12,02,15,25,14,26,,,,,2.1,1.3,1.7*36
$GPRMC,121152.998,A,2128.7343,S,07004.4607,W,0.10,87.12,020511,,,A*5B
$GPGGA,121154.000,2128.7343,S,07004.4607,W,1,08,1.3,12.2,M,34.8,M,,0000*69
$GPGSA,M,3,09,27,12,02,15,25,14,26,,,,,2.1,1.3,1.7*36
$GPRMC,121154.000,A,2128.7343,S,07004.4607,W,0.20,303.33,020511,,,A*6A
$GPGGA,121155.001,2128.7342,S,07004.4608,W,1,07,1.9,12.9,M,34.8,M,,0000*69
$GPGSA,M,3,09,27,12,02,25,14,26,,,,,,2.8,1.9,2.1*34
$GPRMC,121155.001,A,2128.7342,S,07004.4608,W,0.28,17.27,020511,,,A*5F
$GPGGA,121155.999,2128.7340,S,07004.4612,W,1,08,1.3,14.2,M,34.8,M,,0000*60
$GPGSA,M,3,09,27,12,02,15,25,14,26,,,,,2.1,1.3,1.7*36
$GPGSV,3,1,10,09,69,153,38,27,65,091,40,12,45,202,38,02,36,073,40*74
$GPGSV,3,2,10,15,36,347,21,29,33,316,,25,25,245,38,04,20,113,*79
$GPGSV,3,3,10,14,12,222,35,26,10,014,33*7A
$GPRMC,121155.999,A,2128.7340,S,07004.4612,W,0.74,344.58,020511,,,A*6A
$GPGGA,121156.998,2128.7339,S,07004.4614,W,1,08,1.3,15.1,M,34.8,M,,0000*68
$GPGSA,M,3,09,27,12,02,15,25,14,26,,,,,2.1,1.3,1.7*36
$GPRMC,121156.998,A,2128.7339,S,07004.4614,W,0.43,275.31,020511,,,A*68
$GPGGA,121158.003,2128.7339,S,07004.4617,W,1,07,1.9,15.8,M,34.8,M,,0000*62
$GPGSA,M,3,09,27,12,02,25,14,26,,,,,,2.8,1.9,2.1*34
$GPRMC,121158.003,A,2128.7339,S,07004.4617,W,0.40,298.89,020511,,,A*6D
$GPGGA,121158.999,2128.7338,S,07004.4618,W,1,07,1.9,16.1,M,34.8,M,,0000*6C
$GPGSA,M,3,09,27,12,02,25,14,26,,,,,,2.8,1.9,2.1*34
$GPRMC,121158.999,A,2128.7338,S,07004.4618,W,0.27,63.55,020511,,,A*5F
$GPGGA,121159.998,2128.7339,S,07004.4619,W,1,08,1.3,16.9,M,34.8,M,,0000*61
$GPGSA,M,3,09,27,12,02,15,25,14,26,,,,,2.1,1.3,1.7*36
$GPRMC,121159.998,A,2128.7339,S,07004.4619,W,0.53,152.68,020511,,,A*61
$GPGGA,121201.000,2128.7339,S,07004.4622,W,1,08,1.3,17.9,M,34.8,M,,0000*6E
$GPGSA,M,3,09,27,12,02,15,25,14,26,,,,,2.1,1.3,1.7*36
$GPGSV,3,1,10,09,69,153,39,27,65,091,41,12,45,202,38,02,36,073,39*7A
$GPGSV,3,2,10,15,36,347,32,29,33,316,,25,25,245,36,04,20,113,*75
$GPGSV,3,3,10,14,12,222,34,26,10,014,33*7B
$GPRMC,121201.000,A,2128.7339,S,07004.4622,W,0.17,123.85,020511,,,A*6A
$GPGGA,121202.003,2128.7338,S,07004.4626,W,1,07,1.9,19.4,M,34.8,M,,0000*6D
$GPGSA,M,3,09,27,12,02,25,14,26,,,,,,2.8,1.9,2.1*34
$GPRMC,121202.003,A,2128.7338,S,07004.4626,W,0.30,120.72,020511,,,A*61
$GPGGA,121202.998,2128.7340,S,07004.4628,W,1,08,1.2,20.0,M,34.8,M,,0000*6D
$GPGSA,M,3,09,27,12,02,29,25,14,26,,,,,2.0,1.2,1.6*38
$GPRMC,121202.998,A,2128.7340,S,07004.4628,W,0.19,323.74,020511,,,A*67
$GPGGA,121203.999,2128.7338,S,07004.4633,W,1,08,1.3,21.4,M,34.8,M,,0000*6C
$GPGSA,M,3,09,27,12,02,15,25,14,26,,,,,2.1,1.3,1.7*36
$GPRMC,121203.999,A,2128.7338,S,07004.4633,W,0.21,122.95,020511,,,A*65
$GPGGA,121205.000,2128.7335,S,07004.4640,W,1,08,1.3,23.3,M,34.8,M,,0000*6F
$GPGSA,M,3,09,27,12,02,15,25,14,26,,,,,2.1,1.3,1.7*36
$GPRMC,121205.000,A,2128.7335,S,07004.4640,W,0.12,133.52,020511,,,A*68
$GPGGA,121205.998,2128.7335,S,07004.4639,W,1,08,1.3,22.7,M,34.8,M,,0000*6C
$GPGSA,M,3,09,27,12,02,15,25,14,26,,,,,2.1,1.3,1.7*36
$GPGSV,3,1,10,09,69,153,40,27,65,091,41,12,45,202,39,02,36,073,37*7B
$GPGSV,3,2,10,15,36,347,31,29,33,316,,25,25,245,36,04,20,113,*76
$GPGSV,3,3,10,14,12,222,35,26,10,014,32*7B
$GPRMC,121205.998,A,2128.7335,S,07004.4639,W,0.69,108.96,020511,,,A*62
$GPGGA,121207.006,2128.7337,S,07004.4634,W,1,06,2.8,21.9,M,34.8,M,,0000*64
$GPGSA,M,3,09,27,12,02,25,14,,,,,,,3.5,2.8,2.1*3E
$GPRMC,121207.006,A,2128.7337,S,07004.4634,W,1.14,146.42,020511,,,A*69
$GPGGA,121207.995,2128.7338,S,07004.4633,W,1,09,1.0,21.9,M,34.8,M,,0000*6B
$GPGSA,M,3,09,27,12,02,15,29,25,14,26,,,,1.9,1.0,1.5*37
$GPRMC,121207.995,A,2128.7338,S,07004.4633,W,0.61,129.70,020511,,,A*69
$GPGGA,121209.013,2128.7337,S,07004.4632,W,1,08,1.2,22.0,M,34.8,M,,0000*65
$GPGSA,M,3,09,27,12,02,29,25,14,26,,,,,2.0,1.2,1.6*38
$GPRMC,121209.013,A,2128.7337,S,07004.4632,W,0.21,336.37,020511,,,A*65
$GPGGA,121209.988,2128.7338,S,07004.4631,W,1,07,1.9,22.1,M,34.8,M,,0000*67
$GPGSA,M,3,09,27,12,02,25,14,26,,,,,,2.8,1.9,2.1*34
$GPRMC,121209.988,A,2128.7338,S,07004.4631,W,0.43,195.14,020511,,,A*6C
$GPGGA,121211.002,2128.7338,S,07004.4632,W,1,08,1.3,22.4,M,34.8,M,,0000*66
$GPGSA,M,3,09,27,12,02,15,25,14,26,,,,,2.1,1.3,1.7*36
$GPGSV,3,1,10,09,69,153,39,27,65,091,41,12,45,202,38,02,36,073,40*74
$GPGSV,3,2,10,15,36,347,29,29,33,316,,25,25,245,38,04,20,113,*71
$GPGSV,3,3,10,14,12,222,33,26,10,014,31*7E
$GPRMC,121211.002,A,2128.7338,S,07004.4632,W,0.22,345.73,020511,,,A*64
$GPGGA,121211.998,2128.7338,S,07004.4629,W,1,07,1.9,22.0,M,34.8,M,,0000*67
$GPGSA,M,3,09,27,12,02,25,14,26,,,,,,2.8,1.9,2.1*34
$GPRMC,121211.998,A,2128.7338,S,07004.4629,W,0.86,138.46,020511,,,A*64
$GPGGA,121213.001,2128.7338,S,07004.4630,W,1,07,1.9,22.3,M,34.8,M,,0000*67
$GPGSA,M,3,09,27,12,02,25,14,26,,,,,,2.8,1.9,2.1*34
$GPRMC,121213.001,A,2128.7338,S,07004.4630,W,0.24,138.28,020511,,,A*67
$GPGGA,121213.998,2128.7340,S,07004.4625,W,1,07,1.9,20.9,M,34.8,M,,0000*6D
$GPGSA,M,3,09,27,12,02,25,14,26,,,,,,2.8,1.9,2.1*34
$GPRMC,121213.998,A,2128.7340,S,07004.4625,W,0.23,155.19,020511,,,A*6B
$GPGGA,121215.003,2128.7338,S,07004.4624,W,1,09,1.0,21.2,M,34.8,M,,0000*63
$GPGSA,M,3,09,27,12,02,15,29,25,14,26,,,,1.9,1.0,1.5*37
$GPRMC,121215.003,A,2128.7338,S,07004.4624,W,0.57,81.56,020511,,,A*58
$GPGGA,121216.000,2128.7338,S,07004.4624,W,1,09,1.0,21.5,M,34.8,M,,0000*64
$GPGSA,M,3,09,27,12,02,15,29,25,14,26,,,,1.9,1.0,1.5*37
$GPGSV,3,1,10,09,69,153,38,27,65,091,41,12,45,202,38,02,36,073,34*76
$GPGSV,3,2,10,15,36,347,30,29,33,316,31,25,25,245,38,04,20,113,*7B
$GPGSV,3,3,10,14,12,222,36,26,10,014,32*78
$GPRMC,121216.000,A,2128.7338,S,07004.4624,W,0.22,199.93,020511,,,A*6B
$GPGGA,121216.998,2128.7338,S,07004.4628,W,1,09,1.0,22.2,M,34.8,M,,0000*64
$GPGSA,M,3,09,27,12,02,15,29,25,14,26,,,,1.9,1.0,1.5*37
$GPRMC,121216.998,A,2128.7338,S,07004.4628,W,0.70,131.14,020511,,,A*65
$GPGGA,121218.000,2128.7337,S,07004.4633,W,1,09,1.0,24.0,M,34.8,M,,0000*63
$GPGSA,M,3,09,27,12,02,15,29,25,14,26,,,,1.9,1.0,1.5*37
$GPRMC,121218.000,A,2128.7337,S,07004.4633,W,0.50,291.59,020511,,,A*64
$GPGGA,121219.002,2128.7333,S,07004.4636,W,1,08,1.3,24.5,M,34.8,M,,0000*66
$GPGSA,M,3,09,27,12,02,15,25,14,26,,,,,2.1,1.3,1.7*36
$GPRMC,121219.002,A,2128.7333,S,07004.4636,W,0.73,341.99,020511,,,A*67
$GPGGA,121219.998,2128.7333,S,07004.4637,W,1,09,1.0,24.7,M,34.8,M,,0000*6D
$GPGSA,M,3,09,27,12,02,15,29,25,14,26,,,,1.9,1.0,1.5*37
$GPRMC,121219.998,A,2128.7333,S,07004.4637,W,0.07,189.09,020511,,,A*60
$GPGGA,121221.001,2128.7332,S,07004.4638,W,1,08,1.3,25.0,M,34.8,M,,0000*65
$GPGSA,M,3,09,27,12,02,15,25,14,26,,,,,2.1,1.3,1.7*36
$GPGSV,3,1,10,09,69,153,39,27,65,091,39,12,45,202,38,02,36,073,38*74
$GPGSV,3,2,10,15,36,347,27,29,33,316,,25,25,245,38,04,20,113,*7F
$GPGSV,3,3,10,14,12,222,33,26,10,014,33*7C
$GPRMC,121221.001,A,2128.7332,S,07004.4638,W,0.13,214.96,020511,,,A*68
$GPGGA,121222.001,2128.7332,S,07004.4639,W,1,08,1.3,26.1,M,34.8,M,,0000*65
$GPGSA,M,3,09,27,12,02,15,25,14,26,,,,,2.1,1.3,1.7*36
$GPRMC,121222.001,A,2128.7332,S,07004.4639,W,0.25,122.86,020511,,,A*68
$GPGGA,121222.999,2128.7334,S,07004.4637,W,1,08,1.3,25.2,M,34.8,M,,0000*65
$GPGSA,M,3,09,27,12,02,15,25,14,26,,,,,2.1,1.3,1.7*36
$GPRMC,121222.999,A,2128.7334,S,07004.4637,W,0.87,151.33,020511,,,A*6A
$GPGGA,121224.001,2128.7336,S,07004.4634,W,1,08,1.3,25.0,M,34.8,M,,0000*68
$GPGSA,M,3,09,27,12,02,15,25,14,26,,,,,2.1,1.3,1.7*36
$GPRMC,121224.001,A,2128.7336,S,07004.4634,W,0.95,150.33,020511,,,A*67
$GPGGA,121224.998,2128.7338,S,07004.4633,W,1,08,1.3,24.4,M,34.8,M,,0000*6D
$GPGSA,M,3,09,27,12,02,15,25,14,26,,,,,2.1,1.3,1.7*36
$GPRMC,121224.998,A,2128.7338,S,07004.4633,W,0.50,143.36,020511,,,A*69
$GPGGA,121225.999,2128.7339,S,07004.4632,W,1,09,1.0,24.2,M,34.8,M,,0000*69
$GPGSA,M,3,09,27,12,02,15,29,25,14,26,,,,1.9,1.0,1.5*37
$GPGSV,3,1,10,09,69,153,38,27,65,091,41,12,45,202,40,02,36,073,38*75
$GPGSV,3,2,10,15,36,347,29,29,33,316,24,25,25,245,36,04,20,113,*79
$GPGSV,3,3,10,14,12,222,35,26,10,014,32*7B
$GPRMC,121225.999,A,2128.7339,S,07004.4632,W,0.60,140.43,020511,,,A*6B
$GPGGA,121226.998,2128.7340,S,07004.4630,W,1,07,1.9,23.0,M,34.8,M,,0000*65
$GPGSA,M,3,09,27,12,02,25,14,26,,,,,,2.8,1.9,2.1*34
$GPRMC,121226.998,A,2128.7340,S,07004.4630,W,0.29,127.06,020511,,,A*68
$GPGGA,121228.003,2128.7341,S,07004.4630,W,1,08,1.2,23.5,M,34.8,M,,0000*60
$GPGSA,M,3,09,27,12,02,29,25,14,26,,,,,2.0,1.2,1.6*38
$GPRMC,121228.003,A,2128.7341,S,07004.4630,W,0.45,160.19,020511,,,A*6B
$GPGGA,121228.999,2128.7341,S,07004.4628,W,1,08,1.3,22.7,M,34.8,M,,0000*61
$GPGSA,M,3,09,27,12,02,15,25,14,26,,,,,2.1,1.3,1.7*36
$GPRMC,121228.999,A,2128.7341,S,07004.4628,W,0.16,114.85,020511,,,A*68
$GPGGA,121229.998,2128.7340,S,07004.4626,W,1,09,1.0,22.3,M,34.8,M,,0000*68
$GPGSA,M,3,09,27,12,02,15,29,25,14,26,,,,1.9,1.0,1.5*37
$GPRMC,121229.998,A,2128.7340,S,07004.4626,W,1.43,127.02,020511,,,A*69
$GPGGA,121231.002,2128.7342,S,07004.4624,W,1,08,1.3,22.1,M,34.8,M,,0000*6B
$GPGSA,M,3,09,27,12,02,15,25,14,26,,,,,2.1,1.3,1.7*36
$GPGSV,3,1,10,09,69,153,39,27,65,091,41,12,45,202,39,02,36,073,40*75
$GPGSV,3,2,10,15,36,347,26,29,33,316,,25,25,245,38,04,20,113,*7E
$GPGSV,3,3,10,14,12,222,34,26,10,014,31*79
$GPRMC,121231.002,A,2128.7342,S,07004.4624,W,0.64,158.60,020511,,,A*62
$GPGGA,121231.998,2128.7344,S,07004.4624,W,1,07,1.9,22.0,M,34.8,M,,0000*63
$GPGSA,M,3,09,27,12,02,25,14,26,,,,,,2.8,1.9,2.1*34
$GPRMC,121231.998,A,2128.7344,S,07004.4624,W,0.48,106.52,020511,,,A*6A
$GPGGA,121233.001,2128.7346,S,07004.4622,W,1,07,1.4,21.4,M,34.8,M,,0000*66
$GPGSA,M,3,09,27,12,02,15,25,14,,,,,,2.5,1.4,2.1*34
$GPRMC,121233.001,A,2128.7346,S,07004.4622,W,0.27,145.41,020511,,,A*69
$GPGGA,121233.997,2128.7348,S,07004.4620,W,1,08,1.3,21.1,M,34.8,M,,0000*61
$GPGSA,M,3,09,27,12,02,15,25,14,26,,,,,2.1,1.3,1.7*36
$GPRMC,121233.997,A,2128.7348,S,07004.4620,W,0.40,122.61,020511,,,A*61
$GPGGA,121235.000,2128.7348,S,07004.4620,W,1,08,1.3,21.0,M,34.8,M,,0000*61
$GPGSA,M,3,09,27,12,02,15,25,14,26,,,,,2.1,1.3,1.7*36
$GPRMC,121235.000,A,2128.7348,S,07004.4620,W,0.53,129.73,020511,,,A*6A
$GPGGA,121236.002,2128.7348,S,07004.4618,W,1,09,1.0,20.8,M,34.8,M,,0000*60
$GPGSA,M,3,09,27,12,02,15,29,25,14,26,,,,1.9,1.0,1.5*37
$GPGSV,3,1,10,09,69,153,39,27,65,091,41,12,45,202,39,02,36,073,39*7B
$GPGSV,3,2,10,15,36,347,28,29,33,316,27,25,25,245,38,04,20,113,*75
$GPGSV,3,3,10,14,12,222,32,26,10,014,32*7C
$GPRMC,121236.002,A,2128.7348,S,07004.4618,W,0.12,41.96,020511,,,A*51
$GPGGA,121236.999,2128.7347,S,07004.4619,W,1,09,1.0,20.7,M,34.8,M,,0000*6A
$GPGSA,M,3,09,27,12,02,15,29,25,14,26,,,,1.9,1.0,1.5*37
$GPRMC,121236.999,A,2128.7347,S,07004.4619,W,0.23,102.39,020511,,,A*65
$GPGGA,121237.997,2128.7349,S,07004.4618,W,1,08,1.3,20.3,M,34.8,M,,0000*6C
$GPGSA,M,3,09,27,12,02,15,25,14,26,,,,,2.1,1.3,1.7*36
$GPRMC,121237.997,A,2128.7349,S,07004.4618,W,0.13,62.84,020511,,,A*57
$GPGGA,121239.001,2128.7348,S,07004.4618,W,1,08,1.3,20.8,M,34.8,M,,0000*6E
$GPGSA,M,3,09,27,12,02,15,25,14,26,,,,,2.1,1.3,1.7*36
$GPRMC,121239.001,A,2128.7348,S,07004.4618,W,0.44,11.06,020511,,,A*52
$GPGGA,121239.999,2128.7346,S,07004.4621,W,1,08,1.2,21.7,M,34.8,M,,0000*6D
$GPGSA,M,3,09,27,12,02,29,25,14,26,,,,,2.0,1.2,1.6*38
$GPRMC,121239.999,A,2128.7346,S,07004.4621,W,0.09,14.08,020511,,,A*5C
$GPGGA,121241.001,2128.7346,S,07004.4622,W,1,09,1.0,22.2,M,34.8,M,,0000*6C
$GPGSA,M,3,09,27,12,02,15,29,25,14,26,,,,1.9,1.0,1.5*37
$GPGSV,3,1,10,09,69,153,39,27,65,091,40,12,45,202,39,02,36,073,42*76
$GPGSV,3,2,10,15,36,347,23,29,33,316,20,25,25,245,38,04,20,113,*79
$GPGSV,3,3,10,14,12,222,34,26,10,014,30*78
$GPRMC,121241.001,A,2128.7346,S,07004.4622,W,0.29,98.14,020511,,,A*53
$GPGGA,121242.001,2128.7344,S,07004.4624,W,1,09,1.0,22.2,M,34.8,M,,0000*6B
$GPGSA,M,3,09,27,12,02,15,29,25,14,26,,,,1.9,1.0,1.5*37
$GPRMC,121242.001,A,2128.7344,S,07004.4624,W,0.48,282.19,020511,,,A*67
$GPGGA,121243.002,2128.7346,S,07004.4624,W,1,09,1.0,21.9,M,34.8,M,,0000*63
$GPGSA,M,3,09,27,12,02,15,29,25,14,26,,,,1.9,1.0,1.5*37
$GPRMC,121243.002,A,2128.7346,S,07004.4624,W,0.09,245.45,020511,,,A*60
$GPGGA,121243.998,2128.7346,S,07004.4623,W,1,08,1.3,21.4,M,34.8,M,,0000*61
$GPGSA,M,3,09,27,12,02,15,25,14,26,,,,,2.1,1.3,1.7*36
$GPRMC,121243.998,A,2128.7346,S,07004.4623,W,0.57,133.42,020511,,,A*63
$GPGGA,121245.002,2128.7345,S,07004.4625,W,1,08,1.3,21.8,M,34.8,M,,0000*64
$GPGSA,M,3,09,27,12,02,15,25,14,26,,,,,2.1,1.3,1.7*36
$GPRMC,121245.002,A,2128.7345,S,07004.4625,W,0.11,268.08,020511,,,A*6B
$GPGGA,121245.999,2128.7344,S,07004.4628,W,1,08,1.3,22.9,M,34.8,M,,0000*61
$GPGSA,M,3,09,27,12,02,15,25,14,26,,,,,2.1,1.3,1.7*36
$GPGSV,3,1,10,09,69,153,39,27,65,091,41,12,45,202,39,02,36,073,40*75
$GPGSV,3,2,10,15,36,347,27,29,33,316,,25,25,245,38,04,20,113,*7F
$GPGSV,3,3,10,14,12,222,34,26,10,014,29*70
$GPRMC,121245.999,A,2128.7344,S,07004.4628,W,0.88,168.15,020511,,,A*63
$GPGGA,121246.997,2128.7345,S,07004.4629,W,1,09,1.0,22.7,M,34.8,M,,0000*60
$GPGSA,M,3,09,27,12,02,15,29,25,14,26,,,,1.9,1.0,1.5*37
$GPRMC,121246.997,A,2128.7345,S,07004.4629,W,0.33,284.59,020511,,,A*67
$GPGGA,121248.000,2128.7344,S,07004.4632,W,1,08,1.3,23.6,M,34.8,M,,0000*60
$GPGSA,M,3,09,27,12,02,15,25,14,26,,,,,2.1,1.3,1.7*36
$GPRMC,121248.000,A,2128.7344,S,07004.4632,W,0.60,118.00,020511,,,A*69
$GPGGA,121249.002,2128.7346,S,07004.4631,W,1,08,1.3,24.3,M,34.8,M,,0000*60
$GPGSA,M,3,09,27,12,02,15,25,14,26,,,,,2.1,1.3,1.7*36
$GPRMC,121249.002,A,2128.7346,S,07004.4631,W,0.55,149.78,020511,,,A*66
$GPGGA,121250.000,2128.7345,S,07004.4636,W,1,08,1.3,26.0,M,34.8,M,,0000*6F
$GPGSA,M,3,09,27,12,02,15,25,14,26,,,,,2.1,1.3,1.7*36
$GPRMC,121250.000,A,2128.7345,S,07004.4636,W,0.38,124.98,020511,,,A*66
$GPGGA,121251.000,2128.7346,S,07004.4636,W,1,08,1.2,26.3,M,34.8,M,,0000*6F
$GPGSA,M,3,09,27,12,02,29,25,14,26,,,,,2.0,1.2,1.6*38
$GPGSV,3,1,10,09,69,153,39,27,65,091,39,12,45,202,38,02,36,073,38*74
$GPGSV,3,2,10,15,36,347,,29,33,316,21,25,25,245,37,04,20,113,*76
$GPGSV,3,3,10,14,12,222,33,26,10,014,29*77
$GPRMC,121251.000,A,2128.7346,S,07004.4636,W,0.31,176.57,020511,,,A*69
$GPGGA,121252.000,2128.7343,S,07004.4636,W,1,09,1.0,25.9,M,34.8,M,,0000*63
$GPGSA,M,3,09,27,12,02,15,29,25,14,26,,,,1.9,1.0,1.5*37
$GPRMC,121252.000,A,2128.7343,S,07004.4636,W,0.54,9.03,020511,,,A*64
$GPGGA,121253.000,2128.7342,S,07004.4635,W,1,08,1.3,25.9,M,34.8,M,,0000*62
$GPGSA,M,3,09,27,12,02,15,25,14,26,,,,,2.1,1.3,1.7*36
$GPRMC,121253.000,A,2128.7342,S,07004.4635,W,0.45,334.87,020511,,,A*66
$GPGGA,121253.998,2128.7341,S,07004.4640,W,1,07,1.9,26.5,M,34.8,M,,0000*61
$GPGSA,M,3,09,27,12,02,25,14,26,,,,,,2.8,1.9,2.1*34
$GPRMC,121253.998,A,2128.7341,S,07004.4640,W,0.33,250.25,020511,,,A*65
$GPGGA,121255.001,2128.7342,S,07004.4645,W,1,09,1.0,26.9,M,34.8,M,,0000*63
$GPGSA,M,3,09,27,12,02,15,29,25,14,26,,,,1.9,1.0,1.5*37
$GPRMC,121255.001,A,2128.7342,S,07004.4645,W,0.21,221.92,020511,,,A*65
$GPGGA,121255.999,2128.7343,S,07004.4649,W,1,09,1.0,27.6,M,34.8,M,,0000*68
$GPGSA,M,3,09,27,12,02,15,29,25,14,26,,,,1.9,1.0,1.5*37
$GPGSV,3,1,10,09,69,153,39,27,65,091,39,12,45,202,38,02,36,073,40*7B
$GPGSV,3,2,10,15,36,347,31,29,33,316,24,25,25,245,38,04,20,113,*7E
$GPGSV,3,3,10,14,12,222,34,26,10,014,28*71
$GPRMC,121255.999,A,2128.7343,S,07004.4649,W,0.40,127.43,020511,,,A*6E
$GPGGA,121257.000,2128.7340,S,07004.4656,W,1,08,1.3,29.8,M,34.8,M,,0000*6C
$GPGSA,M,3,09,27,12,02,15,25,14,26,,,,,2.1,1.3,1.7*36
$GPRMC,121257.000,A,2128.7340,S,07004.4656,W,0.25,132.39,020511,,,A*62
$GPGGA,121258.000,2128.7342,S,07004.4655,W,1,09,1.0,29.1,M,34.8,M,,0000*69
$GPGSA,M,3,09,27,12,02,15,29,25,14,26,,,,1.9,1.0,1.5*37
$GPRMC,121258.000,A,2128.7342,S,07004.4655,W,0.66,167.82,020511,,,A*6B
$GPGGA,121258.998,2128.7342,S,07004.4657,W,1,09,1.0,29.6,M,34.8,M,,0000*64
$GPGSA,M,3,09,27,12,02,15,29,25,14,26,,,,1.9,1.0,1.5*37
$GPRMC,121258.998,A,2128.7342,S,07004.4657,W,0.49,96.18,020511,,,A*50
$GPGGA,121300.003,2128.7341,S,07004.4662,W,1,09,1.0,31.2,M,34.8,M,,0000*6B
$GPGSA,M,3,09,27,12,02,15,29,25,14,26,,,,1.9,1.0,1.5*37
$GPRMC,121300.003,A,2128.7341,S,07004.4662,W,0.47,233.52,020511,,,A*6F
$GPGGA,121301.001,2128.7345,S,07004.4658,W,1,08,1.3,30.1,M,34.8,M,,0000*65
$GPGSA,M,3,09,27,12,02,15,25,14,26,,,,,2.1,1.3,1.7*36
$GPGSV,3,1,10,09,69,153,39,27,65,091,40,12,45,202,38,02,36,073,39*7B
$GPGSV,3,2,10,15,36,347,27,29,33,316,,25,25,245,38,04,20,113,*7F
$GPGSV,3,3,10,14,12,222,34,26,10,014,29*70
$GPRMC,121301.001,A,2128.7345,S,07004.4658,W,0.53,338.54,020511,,,A*68
$GPGGA,121301.996,2128.7345,S,07004.4656,W,1,07,1.9,29.1,M,34.8,M,,0000*61
$GPGSA,M,3,09,27,12,02,25,14,26,,,,,,2.8,1.9,2.1*34
$GPRMC,121301.996,A,2128.7345,S,07004.4656,W,0.47,322.70,020511,,,A*69
$GPGGA,121303.001,2128.7346,S,07004.4654,W,1,07,1.9,28.3,M,34.8,M,,0000*66
$GPGSA,M,3,09,27,12,02,25,14,26,,,,,,2.8,1.9,2.1*34
$GPRMC,121303.001,A,2128.7346,S,07004.4654,W,0.40,157.91,020511,,,A*65
$GPGGA,121304.002,2128.7335,S,07004.4663,W,1,08,1.3,29.9,M,34.8,M,,0000*6C
$GPGSA,M,3,09,27,12,02,15,25,14,26,,,,,2.1,1.3,1.7*36
$GPRMC,121304.002,A,2128.7335,S,07004.4663,W,0.64,159.84,020511,,,A*6D
$GPGGA,121304.998,2128.7336,S,07004.4664,W,1,09,1.0,30.6,M,34.8,M,,0000*67
$GPGSA,M,3,09,27,12,02,15,29,25,14,26,,,,1.9,1.0,1.5*37
$GPRMC,121304.998,A,2128.7336,S,07004.4664,W,1.06,60.29,020511,,,A*5A
$GPGGA,121305.998,2128.7337,S,07004.4663,W,1,08,1.3,30.3,M,34.8,M,,0000*67
$GPGSA,M,3,09,27,12,02,15,25,14,26,,,,,2.1,1.3,1.7*36
$GPGSV,3,1,10,09,69,153,39,27,65,091,40,12,45,202,38,02,36,073,40*75
$GPGSV,3,2,10,15,36,347,30,29,33,316,,25,25,245,38,04,20,113,*79
$GPGSV,3,3,10,14,12,222,33,26,10,014,29*77
$GPRMC,121305.998,A,2128.7337,S,07004.4663,W,0.23,146.17,020511,,,A*63
$GPGGA,121307.002,2128.7337,S,07004.4662,W,1,09,1.0,29.9,M,34.8,M,,0000*6E
$GPGSA,M,3,09,27,12,02,15,29,25,14,26,,,,1.9,1.0,1.5*37
$GPRMC,121307.002,A,2128.7337,S,07004.4662,W,0.32,142.69,020511,,,A*67
$GPGGA,121307.998,2128.7339,S,07004.4658,W,1,08,1.3,28.7,M,34.8,M,,0000*6E
$GPGSA,M,3,09,27,12,02,15,25,14,26,,,,,2.1,1.3,1.7*36
$GPRMC,121307.998,A,2128.7339,S,07004.4658,W,0.49,117.17,020511,,,A*6F
$GPGGA,121309.004,2128.7338,S,07004.4655,W,1,08,1.3,27.6,M,34.8,M,,0000*6E
$GPGSA,M,3,09,27,12,02,15,25,14,26,,,,,2.1,1.3,1.7*36
$GPRMC,121309.004,A,2128.7338,S,07004.4655,W,0.15,306.43,020511,,,A*6B
$GPGGA,121309.995,2128.7335,S,07004.4657,W,1,08,1.3,26.7,M,34.8,M,,0000*60
$GPGSA,M,3,09,27,12,02,15,25,14,26,,,,,2.1,1.3,1.7*36
$GPRMC,121309.995,A,2128.7335,S,07004.4657,W,0.40,326.58,020511,,,A*6D
$GPGGA,121311.003,2128.7332,S,07004.4657,W,1,07,1.9,25.9,M,34.8,M,,0000*60
$GPGSA,M,3,09,27,12,02,25,14,26,,,,,,2.9,1.9,2.1*35
$GPGSV,3,1,10,09,69,153,39,27,65,091,40,12,45,202,37,02,36,073,38*75
$GPGSV,3,2,10,15,36,347,,29,33,316,,25,25,245,38,04,20,113,*7A
$GPGSV,3,3,10,14,12,222,33,26,10,014,26*78
$GPRMC,121311.003,A,2128.7332,S,07004.4657,W,0.22,179.59,020511,,,A*68
$GPGGA,121311.997,2128.7335,S,07004.4651,W,1,08,1.3,24.1,M,34.8,M,,0000*69
$GPGSA,M,3,09,27,12,02,15,25,14,26,,,,,2.1,1.3,1.7*36
$GPRMC,121311.997,A,2128.7335,S,07004.4651,W,0.61,121.40,020511,,,A*6F
$GPGGA,121313.001,2128.7339,S,07004.4643,W,1,08,1.3,22.7,M,34.8,M,,0000*62
$GPGSA,M,3,09,27,12,02,15,25,14,26,,,,,2.1,1.3,1.7*36
$GPRMC,121313.001,A,2128.7339,S,07004.4643,W,0.98,153.64,020511,,,A*61
$GPGGA,121313.999,2128.7343,S,07004.4633,W,1,08,1.3,20.1,M,34.8,M,,0000*64
$GPGSA,M,3,09,27,12,02,15,25,14,26,,,,,2.1,1.3,1.7*36
$GPRMC,121313.999,A,2128.7343,S,07004.4633,W,0.85,151.80,020511,,,A*67
$GPGGA,121315.003,2128.7340,S,07004.4635,W,1,07,1.4,19.5,M,34.8,M,,0000*6B
$GPGSA,M,3,09,27,12,02,15,25,14,,,,,,2.5,1.4,2.1*34
$GPRMC,121315.003,A,2128.7340,S,07004.4635,W,0.74,141.97,020511,,,A*67
$GPGGA,121316.000,2128.7339,S,07004.4632,W,1,08,1.3,18.9,M,34.8,M,,0000*67
$GPGSA,M,3,09,27,12,02,15,25,14,26,,,,,2.1,1.3,1.7*36
$GPGSV,3,1,10,09,69,153,40,27,65,091,41,12,45,202,39,02,36,073,39*75
$GPGSV,3,2,10,15,36,347,28,29,33,316,,25,25,245,37,04,20,113,*7F
$GPGSV,3,3,10,14,12,222,36,26,10,014,33*79
$GPRMC,121316.000,A,2128.7339,S,07004.4632,W,0.72,123.47,020511,,,A*61
$GPGGA,121316.998,2128.7340,S,07004.4631,W,1,07,1.4,18.3,M,34.8,M,,0000*60
$GPGSA,M,3,09,27,12,02,15,25,14,,,,,,2.5,1.4,2.1*34
$GPRMC,121316.998,A,2128.7340,S,07004.4631,W,0.46,118.95,020511,,,A*64
$GPGGA,121318.002,2128.7340,S,07004.4629,W,1,08,1.3,18.4,M,34.8,M,,0000*62
$GPGSA,M,3,09,27,12,02,15,25,14,26,,,,,2.1,1.3,1.7*36
$GPRMC,121318.002,A,2128.7340,S,07004.4629,W,0.62,80.09,020511,,,A*5A
$GPGGA,121319.000,2128.7335,S,07004.4633,W,1,08,1.3,19.2,M,34.8,M,,0000*6F
$GPGSA,M,3,09,27,12,02,15,25,14,26,,,,,2.1,1.3,1.7*36
$GPRMC,121319.000,A,2128.7335,S,07004.4633,W,0.52,124.75,020511,,,A*67
$GPGGA,121320.001,2128.7337,S,07004.4633,W,1,08,1.3,19.4,M,34.8,M,,0000*60
$GPGSA,M,3,09,27,12,02,15,25,14,26,,,,,2.1,1.3,1.7*36
$GPRMC,121320.001,A,2128.7337,S,07004.4633,W,0.72,142.44,020511,,,A*6E
$GPGGA,121320.999,2128.7339,S,07004.4629,W,1,07,1.9,19.0,M,34.8,M,,0000*6C
$GPGSA,M,3,09,27,12,02,25,14,26,,,,,,2.9,1.9,2.1*35
$GPGSV,3,1,10,09,69,153,38,27,65,091,40,12,45,202,38,02,36,073,38*7B
$GPGSV,3,2,10,15,36,347,,29,33,316,,25,25,245,35,04,20,113,*77
$GPGSV,3,3,10,14,12,222,34,26,10,014,36*7E
$GPRMC,121320.999,A,2128.7339,S,07004.4629,W,0.28,342.68,020511,,,A*60
$GPGGA,121322.000,2128.7336,S,07004.4630,W,1,08,1.3,19.3,M,34.8,M,,0000*66
$GPGSA,M,3,09,27,12,02,15,25,14,26,,,,,2.1,1.3,1.7*36
$GPRMC,121322.000,A,2128.7336,S,07004.4630,W,0.46,175.05,020511,,,A*69
$GPGGA,121322.999,2128.7335,S,07004.4635,W,1,08,1.3,20.3,M,34.8,M,,0000*63
$GPGSA,M,3,09,27,12,02,15,25,14,26,,,,,2.1,1.3,1.7*36
$GPRMC,121322.999,A,2128.7335,S,07004.4635,W,0.61,141.30,020511,,,A*62
$GPGGA,121323.996,2128.7335,S,07004.4636,W,1,08,1.2,20.0,M,34.8,M,,0000*6C
$GPGSA,M,3,09,27,12,02,29,25,14,26,,,,,2.0,1.2,1.6*38
$GPRMC,121323.996,A,2128.7335,S,07004.4636,W,0.25,92.54,020511,,,A*52
$GPGGA,121325.001,2128.7334,S,07004.4636,W,1,07,1.3,19.9,M,34.8,M,,0000*61
$GPGSA,M,3,09,27,12,02,29,25,14,,,,,,2.4,1.3,2.1*3D
$GPRMC,121325.001,A,2128.7334,S,07004.4636,W,0.27,335.34,020511,,,A*68
$GPGGA,121326.000,2128.7333,S,07004.4632,W,1,09,1.0,18.8,M,34.8,M,,0000*6D
$GPGSA,M,3,09,27,12,02,15,29,25,14,26,,,,1.9,1.0,1.5*37
$GPGSV,3,1,10,09,69,153,39,27,65,091,41,12,45,202,38,02,36,073,37*74
$GPGSV,3,2,10,15,36,347,25,29,33,316,24,25,25,245,37,04,20,113,*74
$GPGSV,3,3,10,14,12,222,33,26,10,014,29*77
$GPRMC,121326.000,A,2128.7333,S,07004.4632,W,0.30,358.46,020511,,,A*61
$GPGGA,121327.001,2128.7334,S,07004.4627,W,1,08,1.2,17.3,M,34.8,M,,0000*69
$GPGSA,M,3,09,27,12,02,29,25,14,26,,,,,2.0,1.2,1.6*38
$GPRMC,121327.001,A,2128.7334,S,07004.4627,W,0.39,92.40,020511,,,A*58
$GPGGA,121328.001,2128.7335,S,07004.4623,W,1,09,1.0,17.1,M,34.8,M,,0000*62
$GPGSA,M,3,09,27,12,02,15,29,25,14,26,,,,1.9,1.0,1.5*37
$GPRMC,121328.001,A,2128.7335,S,07004.4623,W,0.25,130.53,020511,,,A*64
$GPGGA,121328.999,2128.7334,S,07004.4623,W,1,08,1.2,16.8,M,34.8,M,,0000*60
$GPGSA,M,3,09,27,12,02,29,25,14,26,,,,,2.0,1.2,1.6*38
$GPRMC,121328.999,A,2128.7334,S,07004.4623,W,0.24,63.39,020511,,,A*57
$GPGGA,121330.000,2128.7333,S,07004.4624,W,1,08,1.3,17.0,M,34.8,M,,0000*68
$GPGSA,M,3,09,27,12,02,15,25,14,26,,,,,2.1,1.3,1.7*36
$GPRMC,121330.000,A,2128.7333,S,07004.4624,W,0.11,342.77,020511,,,A*6B
$GPGGA,121330.998,2128.7332,S,07004.4624,W,1,09,1.0,17.3,M,34.8,M,,0000*60
$GPGSA,M,3,09,27,12,02,15,29,25,14,26,,,,1.9,1.0,1.5*37
$GPGSV,3,1,10,09,69,153,39,27,65,091,41,12,45,202,39,02,36,073,39*7B
$GPGSV,3,2,10,15,36,347,22,29,33,316,29,25,25,245,37,04,20,113,*7E
$GPGSV,3,3,10,14,12,222,34,26,10,014,32*7A
$GPRMC,121330.998,A,2128.7332,S,07004.4624,W,1.23,136.24,020511,,,A*65
$GPGGA,121332.000,2128.7332,S,07004.4626,W,1,09,1.0,17.7,M,34.8,M,,0000*6C
$GPGSA,M,3,09,27,12,02,15,29,25,14,26,,,,1.9,1.0,1.5*37
$GPRMC,121332.000,A,2128.7332,S,07004.4626,W,0.20,165.19,020511,,,A*67
$GPGGA,121333.000,2128.7332,S,07004.4628,W,1,09,1.0,17.8,M,34.8,M,,0000*6C
$GPGSA,M,3,09,27,12,02,15,29,25,14,26,,,,1.9,1.0,1.5*37
$GPRMC,121333.000,A,2128.7332,S,07004.4628,W,0.25,312.83,020511,,,A*6C
$GPGGA,121334.000,2128.7335,S,07004.4623,W,1,07,1.4,17.0,M,34.8,M,,0000*65
$GPGSA,M,3,09,27,12,02,15,25,14,,,,,,2.5,1.4,2.1*34
$GPRMC,121334.000,A,2128.7335,S,07004.4623,W,0.09,166.97,020511,,,A*6D
$GPGGA,121335.002,2128.7336,S,07004.4626,W,1,09,1.0,17.8,M,34.8,M,,0000*62
$GPGSA,M,3,09,27,12,02,15,29,25,14,26,,,,1.9,1.0,1.5*37
$GPRMC,121335.002,A,2128.7336,S,07004.4626,W,0.51,202.31,020511,,,A*68
$GPGGA,121335.998,2128.7337,S,07004.4626,W,1,09,1.0,16.2,M,34.8,M,,0000*62
$GPGSA,M,3,09,27,12,02,15,29,25,14,26,,,,1.9,1.0,1.5*37
$GPGSV,3,1,10,09,69,153,38,27,65,091,41,12,45,202,38,02,36,073,37*75
$GPGSV,3,2,10,15,36,347,28,29,33,316,25,25,25,245,37,04,20,113,*78
$GPGSV,3,3,10,14,12,222,33,26,10,014,32*7D
$GPRMC,121335.998,A,2128.7337,S,07004.4626,W,0.45,338.35,020511,,,A*6A
$GPGGA,121337.001,2128.7335,S,07004.4625,W,1,09,1.0,16.1,M,34.8,M,,0000*6B
$GPGSA,M,3,09,27,12,02,15,29,25,14,26,,,,1.9,1.0,1.5*37
$GPRMC,121337.001,A,2128.7335,S,07004.4625,W,0.16,162.35,020511,,,A*6B
$GPGGA,121338.002,2128.7334,S,07004.4632,W,1,08,1.1,16.9,M,34.8,M,,0000*68
$GPGSA,M,3,09,27,12,02,15,29,25,14,,,,,2.4,1.1,2.1*3B
$GPRMC,121338.002,A,2128.7334,S,07004.4632,W,0.33,328.28,020511,,,A*67
$GPGGA,121338.998,2128.7330,S,07004.4636,W,1,08,1.3,18.0,M,34.8,M,,0000*67
$GPGSA,M,3,09,27,12,02,15,25,14,26,,,,,2.1,1.3,1.7*36
$GPRMC,121338.998,A,2128.7330,S,07004.4636,W,0.54,35.78,020511,,,A*56
$GPGGA,121339.998,2128.7324,S,07004.4643,W,1,08,1.3,19.4,M,34.8,M,,0000*64
$GPGSA,M,3,09,27,12,02,15,25,14,26,,,,,2.1,1.3,1.7*36
$GPRMC,121339.998,A,2128.7324,S,07004.4643,W,0.24,193.33,020511,,,A*65
$GPGGA,121341.003,2128.7323,S,07004.4649,W,1,07,1.4,20.9,M,34.8,M,,0000*62
$GPGSA,M,3,09,27,12,02,15,25,14,,,,,,2.5,1.4,2.1*34
$GPGSV,3,1,10,09,69,153,38,27,65,091,40,12,45,202,40,02,36,073,42*79
$GPGSV,3,2,10,15,36,347,30,29,33,316,,25,25,245,35,04,20,113,*74
$GPGSV,3,3,10,14,12,222,34,26,10,014,32*7A
$GPRMC,121341.003,A,2128.7323,S,07004.4649,W,0.45,163.22,020511,,,A*64
$GPGGA,121341.995,2128.7322,S,07004.4652,W,1,07,1.4,22.5,M,34.8,M,,0000*61
$GPGSA,M,3,09,27,12,02,15,25,14,,,,,,2.5,1.4,2.1*34
$GPRMC,121341.995,A,2128.7322,S,07004.4652,W,0.38,125.87,020511,,,A*6E
$GPGGA,121343.001,2128.7318,S,07004.4650,W,1,07,1.4,21.5,M,34.8,M,,0000*6F
$GPGSA,M,3,09,27,12,02,15,25,14,,,,,,2.5,1.4,2.1*34
$GPRMC,121343.001,A,2128.7318,S,07004.4650,W,0.32,95.81,020511,,,A*55
$GPGGA,121344.003,2128.7321,S,07004.4642,W,1,06,2.9,19.1,M,34.8,M,,0000*63
$GPGSA,M,3,09,27,12,02,25,14,,,,,,,3.6,2.9,2.1*3C
$GPRMC,121344.003,A,2128.7321,S,07004.4642,W,0.17,201.23,020511,,,A*69
$GPGGA,121345.000,2128.7316,S,07004.4644,W,1,07,1.4,19.4,M,34.8,M,,0000*69
$GPGSA,M,3,09,27,12,02,15,25,14,,,,,,2.5,1.4,2.1*34
$GPRMC,121345.000,A,2128.7316,S,07004.4644,W,1.33,147.27,020511,,,A*6B
$GPGGA,121346.000,2128.7319,S,07004.4641,W,1,08,1.1,19.1,M,34.8,M,,0000*6F
$GPGSA,M,3,09,27,12,02,15,29,25,14,,,,,2.4,1.1,2.1*3B
$GPGSV,3,1,10,09,69,153,39,27,65,091,40,12,45,202,39,02,36,073,37*74
$GPGSV,3,2,10,15,36,347,30,29,33,316,23,25,25,245,37,04,20,113,*77
$GPGSV,3,3,10,14,12,222,33,26,10,014,30*7F
$GPRMC,121346.000,A,2128.7319,S,07004.4641,W,0.27,132.50,020511,,,A*64
$GPGGA,121346.997,2128.7321,S,07004.4640,W,1,08,1.1,19.7,M,34.8,M,,0000*64
$GPGSA,M,3,09,27,12,02,15,29,25,14,,,,,2.4,1.1,2.1*3B
$GPRMC,121346.997,A,2128.7321,S,07004.4640,W,0.16,143.81,020511,,,A*61
$GPGGA,121348.003,2128.7320,S,07004.4640,W,1,08,1.1,20.8,M,34.8,M,,0000*6A
$GPGSA,M,3,09,27,12,02,15,29,25,14,,,,,2.4,1.1,2.1*3B
$GPRMC,121348.003,A,2128.7320,S,07004.4640,W,0.44,8.29,020511,,,A*61
$GPGGA,121349.000,2128.7321,S,07004.4633,W,1,08,1.1,18.9,M,34.8,M,,0000*67
$GPGSA,M,3,09,27,12,02,15,29,25,14,,,,,2.4,1.1,2.1*3B
$GPRMC,121349.000,A,2128.7321,S,07004.4633,W,0.36,323.45,020511,,,A*63
$GPGGA,121349.999,2128.7314,S,07004.4635,W,1,07,1.4,18.2,M,34.8,M,,0000*6F
$GPGSA,M,3,09,27,12,02,15,25,14,,,,,,2.5,1.4,2.1*34
$GPRMC,121349.999,A,2128.7314,S,07004.4635,W,0.47,344.39,020511,,,A*66
$GPGGA,121350.997,2128.7312,S,07004.4634,W,1,06,1.5,17.8,M,34.8,M,,0000*6B
$GPGSA,M,3,09,27,12,02,15,14,,,,,,,2.6,1.5,2.1*31
$GPGSV,3,1,10,09,69,153,39,27,65,091,41,12,45,202,39,02,36,073,36*74
$GPGSV,3,2,10,15,36,347,30,29,33,316,,25,25,245,,04,20,113,*72
$GPGSV,3,3,10,14,12,222,33,26,10,014,*7C
$GPRMC,121350.997,A,2128.7312,S,07004.4634,W,0.66,181.70,020511,,,A*62
$GPGGA,121352.000,2128.7310,S,07004.4648,W,1,08,1.1,22.3,M,34.8,M,,0000*60
$GPGSA,M,3,09,27,12,02,15,29,25,14,,,,,2.4,1.1,2.1*3B
$GPRMC,121352.000,A,2128.7310,S,07004.4648,W,0.02,5.40,020511,,,A*62
$GPGGA,121353.003,2128.7313,S,07004.4648,W,1,08,1.1,22.3,M,34.8,M,,0000*61
$GPGSA,M,3,09,27,12,02,15,29,25,14,,,,,2.4,1.1,2.1*3B
$GPRMC,121353.003,A,2128.7313,S,07004.4648,W,0.35,14.61,020511,,,A*54
$GPGGA,121353.998,2128.7306,S,07004.4656,W,1,07,1.4,23.6,M,34.8,M,,0000*6F
$GPGSA,M,3,09,27,12,02,15,25,14,,,,,,2.5,1.4,2.1*34
$GPRMC,121353.998,A,2128.7306,S,07004.4656,W,1.57,340.55,020511,,,A*64
$GPGGA,121354.998,2128.7297,S,07004.4664,W,1,08,1.1,24.9,M,34.8,M,,0000*62
$GPGSA,M,3,09,27,12,02,15,29,25,14,,,,,2.4,1.1,2.1*3B
$GPRMC,121354.998,A,2128.7297,S,07004.4664,W,0.22,166.70,020511,,,A*69
$GPGGA,121356.002,2128.7300,S,07004.4665,W,1,08,1.1,25.4,M,34.8,M,,0000*68
$GPGSA,M,3,09,27,12,02,15,29,25,14,,,,,2.4,1.1,2.1*3B
$GPGSV,3,1,10,09,69,153,38,27,65,091,40,12,45,202,38,02,36,073,38*7B
$GPGSV,3,2,10,15,36,347,26,29,33,316,27,25,25,245,38,04,20,113,*7B
$GPGSV,3,3,10,14,12,222,35,26,10,014,26*7E
$GPRMC,121356.002,A,2128.7300,S,07004.4665,W,0.14,14.14,020511,,,A*5C
$GPGGA,121357.001,2128.7286,S,07004.4677,W,1,08,1.1,27.6,M,34.8,M,,0000*66
$GPGSA,M,3,09,27,12,02,15,29,25,14,,,,,2.4,1.1,2.1*3B
$GPRMC,121357.001,A,2128.7286,S,07004.4677,W,0.85,339.58,020511,,,A*6E
$GPGGA,121357.999,2128.7283,S,07004.4680,W,1,07,1.3,27.6,M,34.8,M,,0000*6E
$GPGSA,M,3,09,27,12,02,29,25,14,,,,,,2.4,1.3,2.1*3D
$GPRMC,121357.999,A,2128.7283,S,07004.4680,W,0.26,328.10,020511,,,A*6E
$GPGGA,121359.000,2128.7284,S,07004.4682,W,1,07,1.4,28.3,M,34.8,M,,0000*61
$GPGSA,M,3,09,27,12,02,15,25,14,,,,,,2.5,1.4,2.1*34
$GPRMC,121359.000,A,2128.7284,S,07004.4682,W,0.08,187.25,020511,,,A*61
$GPGGA,121400.000,2128.7284,S,07004.4685,W,1,08,1.1,28.9,M,34.8,M,,0000*6D
$GPGSA,M,3,09,27,12,02,15,29,25,14,,,,,2.4,1.1,2.1*3B
$GPRMC,121400.000,A,2128.7284,S,07004.4685,W,0.34,332.01,020511,,,A*68
$GPGGA,121401.001,2128.7284,S,07004.4687,W,1,08,1.1,30.0,M,34.8,M,,0000*6F
$GPGSA,M,3,09,27,12,02,15,29,25,14,,,,,2.4,1.1,2.1*3B
$GPGSV,3,1,10,09,69,153,39,27,65,091,41,12,45,202,40,02,36,073,37*7B
$GPGSV,3,2,10,15,36,347,31,29,33,316,27,25,25,245,37,04,20,113,*72
$GPGSV,3,3,10,14,12,222,32,26,10,014,29*76
$GPRMC,121401.001,A,2128.7284,S,07004.4687,W,0.39,29.15,020511,,,A*5B
$GPGGA,121401.998,2128.7282,S,07004.4688,W,1,08,1.1,29.9,M,34.8,M,,0000*6E
$GPGSA,M,3,09,27,12,02,15,29,25,14,,,,,2.4,1.1,2.1*3B
$GPRMC,121401.998,A,2128.7282,S,07004.4688,W,0.19,0.03,020511,,,A*65
$GPGGA,121403.000,2128.7280,S,07004.4707,W,1,08,1.1,35.6,M,34.8,M,,0000*62
$GPGSA,M,3,09,27,12,02,15,29,25,14,,,,,2.4,1.1,2.1*3B
$GPRMC,121403.000,A,2128.7280,S,07004.4707,W,0.45,290.24,020511,,,A*6C
$GPGGA,121404.002,2128.7283,S,07004.4708,W,1,07,1.4,36.4,M,34.8,M,,0000*60
$GPGSA,M,3,09,27,12,02,15,25,14,,,,,,2.5,1.4,2.1*34
$GPRMC,121404.002,A,2128.7283,S,07004.4708,W,0.75,265.46,020511,,,A*68
$GPGGA,121405.000,2128.7283,S,07004.4709,W,1,06,2.9,36.5,M,34.8,M,,0000*6C
$GPGSA,M,3,09,27,12,02,25,14,,,,,,,3.6,2.9,2.1*3C
$GPRMC,121405.000,A,2128.7283,S,07004.4709,W,0.63,334.25,020511,,,A*6D
