$GPGGA,153141.558,,,,,0,00,,,M,0.0,M,,0000*5D
$GPGSA,M,1,,,,,,,,,,,,,,,*12
$GPRMC,153141.558,V,,,,,,,170411,,,N*44
$GPGGA,153142.558,,,,,0,00,,,M,0.0,M,,0000*5E
$GPGSA,M,1,,,,,,,,,,,,,,,*12
$GPRMC,153142.558,V,,,,,,,170411,,,N*47
$GPGGA,153143.562,,,,,0,00,,,M,0.0,M,,0000*56
$GPGSA,M,1,,,,,,,,,,,,,,,*12
$GPRMC,153143.562,V,,,,,,,170411,,,N*4F
$GPGGA,153144.558,,,,,0,00,,,M,0.0,M,,0000*58
$GPGSA,M,1,,,,,,,,,,,,,,,*12
$GPGSV,3,1,11,29,52,197,22,21,42,346,37,25,42,170,27,09,37,031,26*71
$GPGSV,3,2,11,12,33,118,33,14,27,282,,27,17,032,32,31,15,215,27*7D
$GPGSV,3,3,11,18,05,344,,02,05,140,,05,04,093,*4F
$GPRMC,153144.558,V,,,,,,,170411,,,N*41
$GPGGA,153145.558,,,,,0,00,,,M,0.0,M,,0000*59
$GPGSA,M,1,,,,,,,,,,,,,,,*12
$GPRMC,153145.558,V,,,,,,,170411,,,N*40
$GPGGA,153146.558,,,,,0,00,,,M,0.0,M,,0000*5A
$GPGSA,M,1,,,,,,,,,,,,,,,*12
$GPRMC,153146.558,V,,,,,,,170411,,,N*43
$GPGGA,153147.558,,,,,0,00,,,M,0.0,M,,0000*5B
$GPGSA,M,1,,,,,,,,,,,,,,,*12
$GPRMC,153147.558,V,,,,,,,170411,,,N*42
$GPGGA,153148.562,,,,,0,00,,,M,0.0,M,,0000*5D
$GPGSA,M,1,,,,,,,,,,,,,,,*12
$GPRMC,153148.562,V,,,,,,,170411,,,N*44
$GPGGA,153149.558,,,,,0,00,,,M,0.0,M,,0000*55
$GPGSA,M,1,,,,,,,,,,,,,,,*12
$GPGSV,3,1,11,29,52,197,31,21,42,346,24,25,42,170,27,09,37,031,34*72
$GPGSV,3,2,11,12,33,118,33,14,27,282,,27,17,032,32,31,15,215,35*7E
$GPGSV,3,3,11,18,05,344,,02,05,140,,05,04,093,*4F
$GPRMC,153149.558,V,,,,,,,170411,,,N*4C
$GPGGA,153150.558,,,,,0,00,,,M,0.0,M,,0000*5D
$GPGSA,M,1,,,,,,,,,,,,,,,*12
$GPRMC,153150.558,V,,,,,,,170411,,,N*44
$GPGGA,153151.558,,,,,0,00,,,M,0.0,M,,0000*5C
$GPGSA,M,1,,,,,,,,,,,,,,,*12
$GPRMC,153151.558,V,,,,,,,170411,,,N*45
$GPGGA,153152.562,,,,,0,00,,,M,0.0,M,,0000*56
$GPGSA,M,1,,,,,,,,,,,,,,,*12
$GPRMC,153152.562,V,,,,,,,170411,,,N*4F
$GPGGA,153153.558,,,,,0,00,,,M,0.0,M,,0000*5E
$GPGSA,M,1,,,,,,,,,,,,,,,*12
$GPRMC,153153.558,V,,,,,,,170411,,,N*47
$GPGGA,153154.558,,,,,0,00,,,M,0.0,M,,0000*59
$GPGSA,M,1,,,,,,,,,,,,,,,*12
$GPGSV,3,1,11,29,52,197,28,21,42,346,32,25,42,170,27,09,37,031,35*7C
$GPGSV,3,2,11,12,33,118,32,14,27,282,,27,17,032,31,31,15,215,35*7C
$GPGSV,3,3,11,18,05,344,,02,05,140,,05,04,093,*4F
$GPRMC,153154.558,V,,,,,,,170411,,,N*40
$GPGGA,153155.558,,,,,0,00,,,M,0.0,M,,0000*58
$GPGSA,M,1,,,,,,,,,,,,,,,*12
$GPRMC,153155.558,V,,,,,,,170411,,,N*41
$GPGGA,153156.562,,,,,0,00,,,M,0.0,M,,0000*52
$GPGSA,M,1,,,,,,,,,,,,,,,*12
$GPRMC,153156.562,V,,,,,,,170411,,,N*4B
$GPGGA,153157.558,,,,,0,00,,,M,0.0,M,,0000*5A
$GPGSA,M,1,,,,,,,,,,,,,,,*12
$GPRMC,153157.558,V,,,,,,,170411,,,N*43
$GPGGA,153158.558,,,,,0,00,,,M,0.0,M,,0000*55
$GPGSA,M,1,,,,,,,,,,,,,,,*12
$GPRMC,153158.558,V,,,,,,,170411,,,N*4C
$GPGGA,153159.558,,,,,0,00,,,M,0.0,M,,0000*54
$GPGSA,M,1,,,,,,,,,,,,,,,*12
$GPGSV,3,1,11,29,52,197,33,21,42,346,38,25,42,170,23,09,37,031,29*75
$GPGSV,3,2,11,12,33,118,29,14,27,282,,27,17,032,31,31,15,215,37*74
$GPGSV,3,3,11,18,05,344,,02,05,140,,05,04,093,*4F
$GPRMC,153159.558,V,,,,,,,170411,,,N*4D
$GPGGA,153200.562,,,,,0,00,,,M,0.0,M,,0000*52
$GPGSA,M,1,,,,,,,,,,,,,,,*12
$GPRMC,153200.562,V,,,,,,,170411,,,N*4B
$GPGGA,153201.558,,,,,0,00,,,M,0.0,M,,0000*5A
$GPGSA,M,1,,,,,,,,,,,,,,,*12
$GPRMC,153201.558,V,,,,,,,170411,,,N*43
$GPGGA,153202.558,,,,,0,00,,,M,0.0,M,,0000*59
$GPGSA,M,1,,,,,,,,,,,,,,,*12
$GPRMC,153202.558,V,,,,,,,170411,,,N*40
$GPGGA,153203.558,,,,,0,00,,,M,0.0,M,,0000*58
$GPGSA,M,1,,,,,,,,,,,,,,,*12
$GPRMC,153203.558,V,,,,,,,170411,,,N*41
$GPGGA,153204.562,,,,,0,00,,,M,0.0,M,,0000*56
$GPGSA,M,1,,,,,,,,,,,,,,,*12
$GPGSV,3,1,11,29,52,197,30,21,42,346,34,25,42,170,36,09,37,031,25*72
$GPGSV,3,2,11,12,33,118,29,14,27,282,,27,17,032,32,31,15,215,36*76
$GPGSV,3,3,11,18,05,344,,02,05,140,,05,04,093,*4F
$GPRMC,153204.562,V,,,,,,,170411,,,N*4F
$GPGGA,153205.558,,,,,0,00,,,M,0.0,M,,0000*5E
$GPGSA,M,1,,,,,,,,,,,,,,,*12
$GPRMC,153205.558,V,,,,,,,170411,,,N*47
$GPGGA,153206.558,,,,,0,00,,,M,0.0,M,,0000*5D
$GPGSA,M,1,,,,,,,,,,,,,,,*12
$GPRMC,153206.558,V,,,,,,,170411,,,N*44
$GPGGA,153207.558,,,,,0,00,,,M,0.0,M,,0000*5C
$GPGSA,M,1,,,,,,,,,,,,,,,*12
$GPRMC,153207.558,V,,,,,,,170411,,,N*45
$GPGGA,153208.562,,,,,0,00,,,M,0.0,M,,0000*5A
$GPGSA,M,1,,,,,,,,,,,,,,,*12
$GPRMC,153208.562,V,,,,,,,170411,,,N*43
$GPGGA,153209.558,,,,,0,00,,,M,0.0,M,,0000*52
$GPGSA,M,1,,,,,,,,,,,,,,,*12
$GPGSV,3,1,11,29,52,197,42,21,42,346,44,25,42,170,40,09,37,031,32*77
$GPGSV,3,2,11,12,33,118,44,14,27,282,,27,17,032,25,31,15,215,36*7B
$GPGSV,3,3,11,18,05,344,,02,05,140,,05,04,093,*4F
$GPRMC,153209.558,V,,,,,,,170411,,,N*4B
$GPGGA,153210.558,,,,,0,00,,,M,0.0,M,,0000*5A
$GPGSA,M,1,,,,,,,,,,,,,,,*12
$GPRMC,153210.558,V,,,,,,,170411,,,N*43
$GPGGA,153211.558,,,,,0,00,,,M,0.0,M,,0000*5B
$GPGSA,M,1,,,,,,,,,,,,,,,*12
$GPRMC,153211.558,V,,,,,,,170411,,,N*42
$GPGGA,153212.558,,,,,0,00,,,M,0.0,M,,0000*58
$GPGSA,M,1,,,,,,,,,,,,,,,*12
$GPRMC,153212.558,V,,,,,,,170411,,,N*41
$GPGGA,153213.558,,,,,0,00,,,M,0.0,M,,0000*59
$GPGSA,M,1,,,,,,,,,,,,,,,*12
$GPRMC,153213.558,V,,,,,,,170411,,,N*40
$GPGGA,153214.558,,,,,0,00,,,M,0.0,M,,0000*5E
$GPGSA,M,1,,,,,,,,,,,,,,,*12
$GPGSV,3,1,11,29,52,197,35,21,42,346,35,25,42,170,35,09,37,031,25*75
$GPGSV,3,2,11,12,33,118,29,14,27,282,,27,17,032,27,31,15,215,34*70
$GPGSV,3,3,11,18,05,344,,02,05,140,,05,04,093,*4F
$GPRMC,153214.558,V,,,,,,,170411,,,N*47
$GPGGA,153215.558,,,,,0,00,,,M,0.0,M,,0000*5F
$GPGSA,M,1,,,,,,,,,,,,,,,*12
$GPRMC,153215.558,V,,,,,,,170411,,,N*46
$GPGGA,153216.558,,,,,0,00,,,M,0.0,M,,0000*5C
$GPGSA,M,1,,,,,,,,,,,,,,,*12
$GPRMC,153216.558,V,,,,,,,170411,,,N*45
$GPGGA,153217.558,,,,,0,00,,,M,0.0,M,,0000*5D
$GPGSA,M,1,,,,,,,,,,,,,,,*12
$GPRMC,153217.558,V,,,,,,,170411,,,N*44
$GPGGA,153218.558,,,,,0,00,,,M,0.0,M,,0000*52
$GPGSA,M,1,,,,,,,,,,,,,,,*12
$GPRMC,153218.558,V,,,,,,,170411,,,N*4B
$GPGGA,153219.558,,,,,0,00,,,M,0.0,M,,0000*53
$GPGSA,M,1,,,,,,,,,,,,,,,*12
$GPGSV,3,1,11,29,52,197,34,21,42,346,32,25,42,170,32,09,37,031,33*73
$GPGSV,3,2,11,12,33,118,18,14,27,282,,27,17,032,32,31,15,215,29*7A
$GPGSV,3,3,11,18,05,344,,02,05,140,,05,04,093,*4F
$GPRMC,153219.558,V,,,,,,,170411,,,N*4A
$GPGGA,153220.562,,,,,0,00,,,M,0.0,M,,0000*50
$GPGSA,M,1,,,,,,,,,,,,,,,*12
$GPRMC,153220.562,V,,,,,,,170411,,,N*49
$GPGGA,153221.558,,,,,0,00,,,M,0.0,M,,0000*58
$GPGSA,M,1,,,,,,,,,,,,,,,*12
$GPRMC,153221.558,V,,,,,,,170411,,,N*41
$GPGGA,153222.558,,,,,0,00,,,M,0.0,M,,0000*5B
$GPGSA,M,1,,,,,,,,,,,,,,,*12
$GPRMC,153222.558,V,,,,,,,170411,,,N*42
$GPGGA,153223.558,,,,,0,00,,,M,0.0,M,,0000*5A
$GPGSA,M,1,,,,,,,,,,,,,,,*12
$GPRMC,153223.558,V,,,,,,,170411,,,N*43
$GPGGA,153224.558,,,,,0,00,,,M,0.0,M,,0000*5D
$GPGSA,M,1,,,,,,,,,,,,,,,*12
$GPGSV,3,1,11,29,52,197,14,21,42,346,21,25,42,170,,09,37,031,16*75
$GPGSV,3,2,11,12,33,118,,14,27,282,,27,17,032,14,31,15,215,23*7D
$GPGSV,3,3,11,18,05,344,,02,05,140,,05,04,093,*4F
$GPRMC,153224.558,V,,,,,,,170411,,,N*44
$GPGGA,153225.558,,,,,0,00,,,M,0.0,M,,0000*5C
$GPGSA,M,1,,,,,,,,,,,,,,,*12
$GPRMC,153225.558,V,,,,,,,170411,,,N*45
$GPGGA,153226.558,,,,,0,00,,,M,0.0,M,,0000*5F
$GPGSA,M,1,,,,,,,,,,,,,,,*12
$GPRMC,153226.558,V,,,,,,,170411,,,N*46
$GPGGA,153227.558,,,,,0,00,,,M,0.0,M,,0000*5E
$GPGSA,M,1,,,,,,,,,,,,,,,*12
$GPRMC,153227.558,V,,,,,,,170411,,,N*47
$GPGGA,153228.558,,,,,0,00,,,M,0.0,M,,0000*51
$GPGSA,M,1,,,,,,,,,,,,,,,*12
$GPRMC,153228.558,V,,,,,,,170411,,,N*48
$GPGGA,153229.558,,,,,0,00,,,M,0.0,M,,0000*50
$GPGSA,M,1,,,,,,,,,,,,,,,*12
$GPGSV,3,1,11,29,52,197,33,21,42,346,35,25,42,170,,09,37,031,33*72
$GPGSV,3,2,11,12,33,118,,14,27,282,,27,17,032,27,31,15,215,32*7D
$GPGSV,3,3,11,18,05,344,,02,05,140,,05,04,093,*4F
$GPRMC,153229.558,V,,,,,,,170411,,,N*49
$GPGGA,153230.558,,,,,0,00,,,M,0.0,M,,0000*58
$GPGSA,M,1,,,,,,,,,,,,,,,*12
$GPRMC,153230.558,V,,,,,,,170411,,,N*41
$GPGGA,153231.558,,,,,0,00,,,M,0.0,M,,0000*59
$GPGSA,M,1,,,,,,,,,,,,,,,*12
$GPRMC,153231.558,V,,,,,,,170411,,,N*40
$GPGGA,153232.558,,,,,0,00,,,M,0.0,M,,0000*5A
$GPGSA,M,1,,,,,,,,,,,,,,,*12
$GPRMC,153232.558,V,,,,,,,170411,,,N*43
$GPGGA,153233.558,,,,,0,00,,,M,0.0,M,,0000*5B
$GPGSA,M,1,,,,,,,,,,,,,,,*12
$GPRMC,153233.558,V,,,,,,,170411,,,N*42
$GPGGA,153234.558,,,,,0,00,,,M,0.0,M,,0000*5C
$GPGSA,M,1,,,,,,,,,,,,,,,*12
$GPGSV,3,1,11,29,52,197,36,21,42,346,33,25,42,170,,09,37,031,28*7B
$GPGSV,3,2,11,12,33,118,,14,27,282,,27,17,032,27,31,15,215,32*7D
$GPGSV,3,3,11,18,05,344,,02,05,140,,05,04,093,*4F
$GPRMC,153234.558,V,,,,,,,170411,,,N*45
$GPGGA,153235.558,,,,,0,00,,,M,0.0,M,,0000*5D
$GPGSA,M,1,,,,,,,,,,,,,,,*12
$GPRMC,153235.558,V,,,,,,,170411,,,N*44
$GPGGA,153236.558,,,,,0,00,,,M,0.0,M,,0000*5E
$GPGSA,M,1,,,,,,,,,,,,,,,*12
$GPRMC,153236.558,V,,,,,,,170411,,,N*47
$GPGGA,153237.558,,,,,0,00,,,M,0.0,M,,0000*5F
$GPGSA,M,1,,,,,,,,,,,,,,,*12
$GPRMC,153237.558,V,,,,,,,170411,,,N*46
$GPGGA,153238.558,,,,,0,00,,,M,0.0,M,,0000*50
$GPGSA,M,1,,,,,,,,,,,,,,,*12
$GPRMC,153238.558,V,,,,,,,170411,,,N*49
$GPGGA,153239.558,,,,,0,00,,,M,0.0,M,,0000*51
$GPGSA,M,1,,,,,,,,,,,,,,,*12
$GPGSV,3,1,11,29,52,197,38,21,42,346,36,25,42,170,,09,37,031,30*79
$GPGSV,3,2,11,12,33,118,,14,27,282,,27,17,032,27,31,15,215,33*7C
$GPGSV,3,3,11,18,05,344,,02,05,140,,05,04,093,*4F
$GPRMC,153239.558,V,,,,,,,170411,,,N*48
$GPGGA,153240.558,,,,,0,00,,,M,0.0,M,,0000*5F
$GPGSA,M,1,,,,,,,,,,,,,,,*12
$GPRMC,153240.558,V,,,,,,,170411,,,N*46
$GPGGA,153241.562,,,,,0,00,,,M,0.0,M,,0000*57
$GPGSA,M,1,,,,,,,,,,,,,,,*12
$GPRMC,153241.562,V,,,,,,,170411,,,N*4E
$GPGGA,153242.558,,,,,0,00,,,M,0.0,M,,0000*5D
$GPGSA,M,1,,,,,,,,,,,,,,,*12
$GPRMC,153242.558,V,,,,,,,170411,,,N*44
$GPGGA,153243.562,,,,,0,00,,,M,0.0,M,,0000*55
$GPGSA,M,1,,,,,,,,,,,,,,,*12
$GPRMC,153243.562,V,,,,,,,170411,,,N*4C
$GPGGA,153244.558,,,,,0,00,,,M,0.0,M,,0000*5B
$GPGSA,M,1,,,,,,,,,,,,,,,*12
$GPGSV,3,1,11,29,52,197,39,21,42,346,35,25,42,170,,09,37,031,33*78
$GPGSV,3,2,11,12,33,118,,14,27,282,,27,17,032,25,31,15,215,27*7B
$GPGSV,3,3,11,18,05,344,,02,05,140,,05,04,093,*4F
$GPRMC,153244.558,V,,,,,,,170411,,,N*42
$GPGGA,153245.558,,,,,0,00,,,M,0.0,M,,0000*5A
$GPGSA,M,1,,,,,,,,,,,,,,,*12
$GPRMC,153245.558,V,,,,,,,170411,,,N*43
$GPGGA,153246.558,,,,,0,00,,,M,0.0,M,,0000*59
$GPGSA,M,1,,,,,,,,,,,,,,,*12
$GPRMC,153246.558,V,,,,,,,170411,,,N*40
$GPGGA,153247.558,,,,,0,00,,,M,0.0,M,,0000*58
$GPGSA,M,1,,,,,,,,,,,,,,,*12
$GPRMC,153247.558,V,,,,,,,170411,,,N*41
$GPGGA,153248.558,,,,,0,00,,,M,0.0,M,,0000*57
$GPGSA,M,1,,,,,,,,,,,,,,,*12
$GPRMC,153248.558,V,,,,,,,170411,,,N*4E
$GPGGA,153249.558,,,,,0,00,,,M,0.0,M,,0000*56
$GPGSA,M,1,,,,,,,,,,,,,,,*12
$GPGSV,3,1,11,29,52,197,29,21,43,346,36,25,42,169,,09,37,031,26*77
$GPGSV,3,2,11,12,33,117,,14,27,283,,27,16,031,25,31,15,215,18*7B
$GPGSV,3,3,11,18,05,345,,02,04,140,,05,04,093,*4F
$GPRMC,153249.558,V,,,,,,,170411,,,N*4F
$GPGGA,153250.558,,,,,0,00,,,M,0.0,M,,0000*5E
$GPGSA,M,1,,,,,,,,,,,,,,,*12
$GPRMC,153250.558,V,,,,,,,170411,,,N*47
$GPGGA,153251.558,,,,,0,00,,,M,0.0,M,,0000*5F
$GPGSA,M,1,,,,,,,,,,,,,,,*12
$GPRMC,153251.558,V,,,,,,,170411,,,N*46
$GPGGA,153252.562,,,,,0,00,,,M,0.0,M,,0000*55
$GPGSA,M,1,,,,,,,,,,,,,,,*12
$GPRMC,153252.562,V,,,,,,,170411,,,N*4C
$GPGGA,153253.558,,,,,0,00,,,M,0.0,M,,0000*5D
$GPGSA,M,1,,,,,,,,,,,,,,,*12
$GPRMC,153253.558,V,,,,,,,170411,,,N*44
$GPGGA,153254.558,,,,,0,00,,,M,0.0,M,,0000*5A
$GPGSA,M,1,,,,,,,,,,,,,,,*12
$GPGSV,3,1,11,29,52,197,41,21,43,346,40,25,42,169,,09,37,031,42*7A
$GPGSV,3,2,11,12,33,117,,14,27,283,,27,16,031,24,31,15,215,30*70
$GPGSV,3,3,11,18,05,345,,02,04,140,,05,04,093,*4F
$GPRMC,153254.558,V,,,,,,,170411,,,N*43
$GPGGA,153255.558,,,,,0,00,,,M,0.0,M,,0000*5B
$GPGSA,M,1,,,,,,,,,,,,,,,*12
$GPRMC,153255.558,V,,,,,,,170411,,,N*42
$GPGGA,153256.558,,,,,0,00,,,M,0.0,M,,0000*58
$GPGSA,M,1,,,,,,,,,,,,,,,*12
$GPRMC,153256.558,V,,,,,,,170411,,,N*41
$GPGGA,153257.558,,,,,0,00,,,M,0.0,M,,0000*59
$GPGSA,M,1,,,,,,,,,,,,,,,*12
$GPRMC,153257.558,V,,,,,,,170411,,,N*40
$GPGGA,153258.558,,,,,0,00,,,M,0.0,M,,0000*56
$GPGSA,M,1,,,,,,,,,,,,,,,*12
$GPRMC,153258.558,V,,,,,,,170411,,,N*4F
$GPGGA,153259.558,,,,,0,00,,,M,0.0,M,,0000*57
$GPGSA,M,1,,,,,,,,,,,,,,,*12
$GPGSV,3,1,11,29,52,197,43,21,43,346,28,25,42,169,,09,37,031,39*7A
$GPGSV,3,2,11,12,33,117,,14,27,283,,27,16,031,26,31,15,215,27*74
$GPGSV,3,3,11,18,05,345,,02,04,140,,05,04,093,*4F
$GPRMC,153259.558,V,,,,,,,170411,,,N*4E
$GPGGA,153300.558,,,,,0,00,,,M,0.0,M,,0000*5A
$GPGSA,M,1,,,,,,,,,,,,,,,*12
$GPRMC,153300.558,V,,,,,,,170411,,,N*43
$GPGGA,153301.558,,,,,0,00,,,M,0.0,M,,0000*5B
$GPGSA,M,1,,,,,,,,,,,,,,,*12
$GPRMC,153301.558,V,,,,,,,170411,,,N*42
$GPGGA,153302.558,,,,,0,00,,,M,0.0,M,,0000*58
$GPGSA,M,1,,,,,,,,,,,,,,,*12
$GPRMC,153302.558,V,,,,,,,170411,,,N*41
$GPGGA,153303.558,,,,,0,00,,,M,0.0,M,,0000*59
$GPGSA,M,1,,,,,,,,,,,,,,,*12
$GPRMC,153303.558,V,,,,,,,170411,,,N*40
$GPGGA,153304.558,,,,,0,00,,,M,0.0,M,,0000*5E
$GPGSA,M,1,,,,,,,,,,,,,,,*12
$GPGSV,3,1,11,29,52,197,27,21,43,346,26,25,42,169,,09,37,031,28*76
$GPGSV,3,2,11,12,33,117,,14,27,283,,27,16,031,17,31,15,215,18*7A
$GPGSV,3,3,11,18,05,345,,02,04,140,,05,04,093,*4F
$GPRMC,153304.558,V,,,,,,,170411,,,N*47
$GPGGA,153305.558,,,,,0,00,,,M,0.0,M,,0000*5F
$GPGSA,M,1,,,,,,,,,,,,,,,*12
$GPRMC,153305.558,V,,,,,,,170411,,,N*46
$GPGGA,153306.558,,,,,0,00,,,M,0.0,M,,0000*5C
$GPGSA,M,1,,,,,,,,,,,,,,,*12
$GPRMC,153306.558,V,,,,,,,170411,,,N*45
$GPGGA,153307.558,,,,,0,00,,,M,0.0,M,,0000*5D
$GPGSA,M,1,,,,,,,,,,,,,,,*12
$GPRMC,153307.558,V,,,,,,,170411,,,N*44
$GPGGA,153308.558,,,,,0,00,,,M,0.0,M,,0000*52
$GPGSA,M,1,,,,,,,,,,,,,,,*12
$GPRMC,153308.558,V,,,,,,,170411,,,N*4B
$GPGGA,153309.558,,,,,0,00,,,M,0.0,M,,0000*53
$GPGSA,M,1,,,,,,,,,,,,,,,*12
$GPGSV,3,1,11,29,52,197,28,21,43,346,21,25,42,169,,09,37,031,29*7F
$GPGSV,3,2,11,12,33,117,,14,27,283,,27,16,031,18,31,15,215,17*7A
$GPGSV,3,3,11,18,05,345,,02,04,140,,05,04,093,*4F
$GPRMC,153309.558,V,,,,,,,170411,,,N*4A
$GPGGA,153310.558,,,,,0,00,,,M,0.0,M,,0000*5B
$GPGSA,M,1,,,,,,,,,,,,,,,*12
$GPRMC,153310.558,V,,,,,,,170411,,,N*42
$GPGGA,153311.558,,,,,0,00,,,M,0.0,M,,0000*5A
$GPGSA,M,1,,,,,,,,,,,,,,,*12
$GPRMC,153311.558,V,,,,,,,170411,,,N*43
$GPGGA,153312.558,,,,,0,00,,,M,0.0,M,,0000*59
$GPGSA,M,1,,,,,,,,,,,,,,,*12
$GPRMC,153312.558,V,,,,,,,170411,,,N*40
$GPGGA,153313.558,,,,,0,00,,,M,0.0,M,,0000*58
$GPGSA,M,1,,,,,,,,,,,,,,,*12
$GPRMC,153313.558,V,,,,,,,170411,,,N*41
$GPGGA,153314.558,,,,,0,00,,,M,0.0,M,,0000*5F
$GPGSA,M,1,,,,,,,,,,,,,,,*12
$GPGSV,3,1,11,29,52,197,30,21,43,346,36,25,42,169,,09,37,031,32*7A
$GPGSV,3,2,11,12,33,117,,14,27,283,,27,16,031,28,31,15,215,17*79
$GPGSV,3,3,11,18,05,345,,02,04,140,,05,04,093,*4F
$GPRMC,153314.558,V,,,,,,,170411,,,N*46
$GPGGA,153315.558,,,,,0,00,,,M,0.0,M,,0000*5E
$GPGSA,M,1,,,,,,,,,,,,,,,*12
$GPRMC,153315.558,V,,,,,,,170411,,,N*47
$GPGGA,153316.558,,,,,0,00,,,M,0.0,M,,0000*5D
$GPGSA,M,1,,,,,,,,,,,,,,,*12
$GPRMC,153316.558,V,,,,,,,170411,,,N*44
$GPGGA,153317.558,,,,,0,00,,,M,0.0,M,,0000*5C
$GPGSA,M,1,,,,,,,,,,,,,,,*12
$GPRMC,153317.558,V,,,,,,,170411,,,N*45
$GPGGA,153318.562,,,,,0,00,,,M,0.0,M,,0000*5A
$GPGSA,M,1,,,,,,,,,,,,,,,*12
$GPRMC,153318.562,V,,,,,,,170411,,,N*43
$GPGGA,153319.558,,,,,0,00,,,M,0.0,M,,0000*52
$GPGSA,M,1,,,,,,,,,,,,,,,*12
$GPGSV,3,1,11,29,52,197,33,21,43,346,29,25,42,169,35,09,37,031,35*76
$GPGSV,3,2,11,12,33,117,,14,27,283,,27,16,031,28,31,15,215,22*7F
$GPGSV,3,3,11,18,05,345,,02,04,140,,05,04,093,*4F
$GPRMC,153319.558,V,,,,,,,170411,,,N*4B
$GPGGA,153320.558,,,,,0,00,,,M,0.0,M,,0000*58
$GPGSA,M,1,,,,,,,,,,,,,,,*12
$GPRMC,153320.558,V,,,,,,,170411,,,N*41
$GPGGA,153321.558,,,,,0,00,,,M,0.0,M,,0000*59
$GPGSA,M,1,,,,,,,,,,,,,,,*12
$GPRMC,153321.558,V,,,,,,,170411,,,N*40
$GPGGA,153322.558,,,,,0,00,,,M,0.0,M,,0000*5A
$GPGSA,M,1,,,,,,,,,,,,,,,*12
$GPRMC,153322.558,V,,,,,,,170411,,,N*43
$GPGGA,153323.558,,,,,0,00,,,M,0.0,M,,0000*5B
$GPGSA,M,1,,,,,,,,,,,,,,,*12
$GPRMC,153323.558,V,,,,,,,170411,,,N*42
$GPGGA,153324.558,,,,,0,00,,,M,0.0,M,,0000*5C
$GPGSA,M,1,,,,,,,,,,,,,,,*12
$GPGSV,3,1,11,29,52,197,24,21,43,346,30,25,42,169,27,09,37,031,17*7B
$GPGSV,3,2,11,12,33,117,,14,27,283,,27,16,031,22,31,15,215,15*71
$GPGSV,3,3,11,18,05,345,,02,04,140,,05,04,093,*4F
$GPRMC,153324.558,V,,,,,,,170411,,,N*45
$GPGGA,153325.558,,,,,0,00,,,M,0.0,M,,0000*5D
$GPGSA,M,1,,,,,,,,,,,,,,,*12
$GPRMC,153325.558,V,,,,,,,170411,,,N*44
$GPGGA,153326.562,,,,,0,00,,,M,0.0,M,,0000*57
$GPGSA,M,1,,,,,,,,,,,,,,,*12
$GPRMC,153326.562,V,,,,,,,170411,,,N*4E
$GPGGA,153356.427,,,,,0,00,,,M,0.0,M,,0000*50
$GPGSA,M,1,,,,,,,,,,,,,,,*12
$GPRMC,153356.427,V,,,,,,,170411,,,N*49
$GPGGA,153357.122,,,,,0,00,,,M,0.0,M,,0000*51
$GPGSA,M,1,,,,,,,,,,,,,,,*12
$GPRMC,153357.122,V,,,,,,,170411,,,N*48
$GPGGA,153358.125,,,,,0,00,,,M,0.0,M,,0000*59
$GPGSA,M,1,,,,,,,,,,,,,,,*12
$GPRMC,153358.125,V,,,,,,,170411,,,N*40
$GPGGA,153359.111,,,,,0,00,,,M,0.0,M,,0000*5F
$GPGSA,M,1,,,,,,,,,,,,,,,*12
$GPGSV,3,1,11,29,51,196,44,21,43,346,,25,42,169,45,09,36,031,38*74
$GPGSV,3,2,11,12,33,117,46,14,27,283,,27,16,031,,31,15,215,34*70
$GPGSV,3,3,11,18,05,345,,02,04,140,,05,04,094,*48
$GPRMC,153359.111,V,,,,,,,170411,,,N*46
$GPGGA,153400.111,,,,,0,00,,,M,0.0,M,,0000*54
$GPGSA,M,1,,,,,,,,,,,,,,,*12
$GPRMC,153400.111,V,,,,,,,170411,,,N*4D
$GPGGA,153401.111,,,,,0,00,,,M,0.0,M,,0000*55
$GPGSA,M,1,,,,,,,,,,,,,,,*12
$GPRMC,153401.111,V,,,,,,,170411,,,N*4C
$GPGGA,153402.111,,,,,0,00,,,M,0.0,M,,0000*56
$GPGSA,M,1,,,,,,,,,,,,,,,*12
$GPRMC,153402.111,V,,,,,,,170411,,,N*4F
$GPGGA,153403.111,,,,,0,00,,,M,0.0,M,,0000*57
$GPGSA,M,1,,,,,,,,,,,,,,,*12
$GPRMC,153403.111,V,,,,,,,170411,,,N*4E
$GPGGA,153404.111,,,,,0,00,,,M,0.0,M,,0000*50
$GPGSA,M,1,,,,,,,,,,,,,,,*12
$GPGSV,3,1,11,29,51,196,44,21,43,346,,25,42,169,46,09,36,031,37*78
$GPGSV,3,2,11,12,33,117,46,14,27,283,,27,16,031,,31,15,215,32*76
$GPGSV,3,3,11,18,05,345,,02,04,140,,05,04,094,*48
$GPRMC,153404.111,V,,,,,,,170411,,,N*49
$GPGGA,153405.111,,,,,0,00,,,M,0.0,M,,0000*51
$GPGSA,M,1,,,,,,,,,,,,,,,*12
$GPRMC,153405.111,V,,,,,,,170411,,,N*48
$GPGGA,153406.111,,,,,0,00,,,M,0.0,M,,0000*52
$GPGSA,M,1,,,,,,,,,,,,,,,*12
$GPRMC,153406.111,V,,,,,,,170411,,,N*4B
$GPGGA,153407.111,,,,,0,00,,,M,0.0,M,,0000*53
$GPGSA,M,1,,,,,,,,,,,,,,,*12
$GPRMC,153407.111,V,,,,,,,170411,,,N*4A
$GPGGA,153408.111,,,,,0,00,,,M,0.0,M,,0000*5C
$GPGSA,M,1,,,,,,,,,,,,,,,*12
$GPRMC,153408.111,V,,,,,,,170411,,,N*45
$GPGGA,153409.111,,,,,0,00,,,M,0.0,M,,0000*5D
$GPGSA,M,1,,,,,,,,,,,,,,,*12
$GPGSV,3,1,11,29,51,196,44,21,43,346,37,25,42,169,46,09,36,031,37*7C
$GPGSV,3,2,11,12,33,117,47,14,27,283,,27,16,031,,31,15,215,34*71
$GPGSV,3,3,11,18,05,345,,02,04,140,,05,04,094,*48
$GPRMC,153409.111,V,,,,,,,170411,,,N*44
$GPGGA,153410.111,,,,,0,00,,,M,0.0,M,,0000*55
$GPGSA,M,1,,,,,,,,,,,,,,,*12
$GPRMC,153410.111,V,,,,,,,170411,,,N*4C
$GPGGA,153411.111,,,,,0,00,,,M,0.0,M,,0000*54
$GPGSA,M,1,,,,,,,,,,,,,,,*12
$GPRMC,153411.111,V,,,,,,,170411,,,N*4D
$GPGGA,153412.111,,,,,0,00,,,M,0.0,M,,0000*57
$GPGSA,M,1,,,,,,,,,,,,,,,*12
$GPRMC,153412.111,V,,,,,,,170411,,,N*4E
$GPGGA,153413.111,,,,,0,00,,,M,0.0,M,,0000*56
$GPGSA,M,1,,,,,,,,,,,,,,,*12
$GPRMC,153413.111,V,,,,,,,170411,,,N*4F
$GPGGA,153414.111,,,,,0,00,,,M,0.0,M,,0000*51
$GPGSA,M,1,,,,,,,,,,,,,,,*12
$GPGSV,3,1,11,29,51,196,43,21,43,346,37,25,42,169,46,09,36,031,38*74
$GPGSV,3,2,11,12,33,117,47,14,27,283,,27,16,031,,31,15,215,33*76
$GPGSV,3,3,11,18,05,345,,02,04,140,,05,04,094,*48
$GPRMC,153414.111,V,,,,,,,170411,,,N*48
$GPGGA,153415.111,,,,,0,00,,,M,0.0,M,,0000*50
$GPGSA,M,1,,,,,,,,,,,,,,,*12
$GPRMC,153415.111,V,,,,,,,170411,,,N*49
$GPGGA,153416.111,,,,,0,00,,,M,0.0,M,,0000*53
$GPGSA,M,1,,,,,,,,,,,,,,,*12
$GPRMC,153416.111,V,,,,,,,170411,,,N*4A
$GPGGA,153417.111,,,,,0,00,,,M,0.0,M,,0000*52
$GPGSA,M,1,,,,,,,,,,,,,,,*12
$GPRMC,153417.111,V,,,,,,,170411,,,N*4B
$GPGGA,153418.111,,,,,0,00,,,M,0.0,M,,0000*5D
$GPGSA,M,1,,,,,,,,,,,,,,,*12
$GPRMC,153418.111,V,,,,,,,170411,,,N*44
$GPGGA,153419.111,,,,,0,00,,,M,0.0,M,,0000*5C
$GPGSA,M,1,,,,,,,,,,,,,,,*12
$GPGSV,3,1,11,29,51,196,43,21,44,346,29,25,42,169,46,09,36,031,34*70
$GPGSV,3,2,11,12,33,116,47,14,27,284,,27,16,031,,31,16,215,33*73
$GPGSV,3,3,11,18,05,345,,02,04,141,,05,04,094,*49
$GPRMC,153419.111,V,,,,,,,170411,,,N*45
$GPGGA,153420.111,,,,,0,00,,,M,0.0,M,,0000*56
$GPGSA,M,1,,,,,,,,,,,,,,,*12
$GPRMC,153420.111,V,,,,,,,170411,,,N*4F
$GPGGA,153421.111,,,,,0,00,,,M,0.0,M,,0000*57
$GPGSA,M,1,,,,,,,,,,,,,,,*12
$GPRMC,153421.111,V,,,,,,,170411,,,N*4E
$GPGGA,153422.111,,,,,0,00,,,M,0.0,M,,0000*54
$GPGSA,M,1,,,,,,,,,,,,,,,*12
$GPRMC,153422.111,V,,,,,,,170411,,,N*4D
$GPGGA,153423.111,,,,,0,00,,,M,0.0,M,,0000*55
$GPGSA,M,1,,,,,,,,,,,,,,,*12
$GPRMC,153423.111,V,,,,,,,170411,,,N*4C
$GPGGA,153424.111,,,,,0,00,,,M,0.0,M,,0000*52
$GPGSA,M,1,,,,,,,,,,,,,,,*12
$GPGSV,3,1,11,29,51,196,45,21,44,346,38,25,42,169,46,09,36,031,33*71
$GPGSV,3,2,11,12,33,116,46,14,27,284,,27,16,031,,31,16,215,30*71
$GPGSV,3,3,11,18,05,345,,02,04,141,,05,04,094,*49
$GPRMC,153424.111,V,,,,,,,170411,,,N*4B
$GPGGA,153425.115,,,,,0,00,,,M,0.0,M,,0000*57
$GPGSA,M,1,,,,,,,,,,,,,,,*12
$GPRMC,153425.115,V,,,,,,,170411,,,N*4E
$GPGGA,153426.111,,,,,0,00,,,M,0.0,M,,0000*50
$GPGSA,M,1,,,,,,,,,,,,,,,*12
$GPRMC,153426.111,V,,,,,,,170411,,,N*49
$GPGGA,153427.111,,,,,0,00,,,M,0.0,M,,0000*51
$GPGSA,M,1,,,,,,,,,,,,,,,*12
$GPRMC,153427.111,V,,,,,,,170411,,,N*48
$GPGGA,153428.111,,,,,0,00,,,M,0.0,M,,0000*5E
$GPGSA,M,1,,,,,,,,,,,,,,,*12
$GPRMC,153428.111,V,,,,,,,170411,,,N*47
$GPGGA,153429.115,,,,,0,00,,,M,0.0,M,,0000*5B
$GPGSA,M,1,,,,,,,,,,,,,,,*12
$GPGSV,3,1,11,29,51,196,44,21,44,346,37,25,42,169,40,09,36,031,32*78
$GPGSV,3,2,11,12,33,116,46,14,27,284,,27,16,031,,31,16,215,29*79
$GPGSV,3,3,11,18,05,345,,02,04,141,,05,04,094,*49
$GPRMC,153429.115,V,,,,,,,170411,,,N*42
$GPGGA,153430.111,,,,,0,00,,,M,0.0,M,,0000*57
$GPGSA,M,1,,,,,,,,,,,,,,,*12
$GPRMC,153430.111,V,,,,,,,170411,,,N*4E
$GPGGA,153431.111,,,,,0,00,,,M,0.0,M,,0000*56
$GPGSA,M,1,,,,,,,,,,,,,,,*12
$GPRMC,153431.111,V,,,,,,,170411,,,N*4F
$GPGGA,153432.111,,,,,0,00,,,M,0.0,M,,0000*55
$GPGSA,M,1,,,,,,,,,,,,,,,*12
$GPRMC,153432.111,V,,,,,,,170411,,,N*4C
$GPGGA,153433.111,,,,,0,00,,,M,0.0,M,,0000*54
$GPGSA,M,1,,,,,,,,,,,,,,,*12
$GPRMC,153433.111,V,,,,,,,170411,,,N*4D
$GPGGA,153434.111,,,,,0,00,,,M,0.0,M,,0000*53
$GPGSA,M,1,,,,,,,,,,,,,,,*12
$GPGSV,3,1,11,29,51,196,45,21,44,346,37,25,42,169,41,09,36,031,25*7E
$GPGSV,3,2,11,12,33,116,47,14,27,284,,27,16,031,,31,16,215,29*78
$GPGSV,3,3,11,18,05,345,,02,04,141,,05,04,094,*49
$GPRMC,153434.111,V,,,,,,,170411,,,N*4A
$GPGGA,153435.111,,,,,0,00,,,M,0.0,M,,0000*52
$GPGSA,M,1,,,,,,,,,,,,,,,*12
$GPRMC,153435.111,V,,,,,,,170411,,,N*4B
$GPGGA,153436.111,,,,,0,00,,,M,0.0,M,,0000*51
$GPGSA,M,1,,,,,,,,,,,,,,,*12
$GPRMC,153436.111,V,,,,,,,170411,,,N*48
$GPGGA,153437.111,,,,,0,00,,,M,0.0,M,,0000*50
$GPGSA,M,1,,,,,,,,,,,,,,,*12
$GPRMC,153437.111,V,,,,,,,170411,,,N*49
$GPGGA,153438.111,,,,,0,00,,,M,0.0,M,,0000*5F
$GPGSA,M,1,,,,,,,,,,,,,,,*12
$GPRMC,153438.111,V,,,,,,,170411,,,N*46
$GPGGA,153439.111,,,,,0,00,,,M,0.0,M,,0000*5E
$GPGSA,M,1,,,,,,,,,,,,,,,*12
$GPGSV,3,1,11,12,32,116,46,29,51,195,46,21,44,346,38,25,42,168,42*7C
$GPGSV,3,2,11,09,36,031,34,14,27,284,,31,16,215,32,27,16,031,*7D
$GPGSV,3,3,11,18,06,345,,02,04,141,,05,04,094,*4A
$GPRMC,153439.111,V,,,,,,,170411,,,N*47
$GPGGA,153440.111,,,,,0,00,,,M,0.0,M,,0000*50
$GPGSA,M,1,,,,,,,,,,,,,,,*12
$GPRMC,153440.111,V,,,,,,,170411,,,N*49
$GPGGA,153441.111,,,,,0,00,,,M,0.0,M,,0000*51
$GPGSA,M,1,,,,,,,,,,,,,,,*12
$GPRMC,153441.111,V,,,,,,,170411,,,N*48
$GPGGA,153442.111,,,,,0,00,,,M,0.0,M,,0000*52
$GPGSA,M,1,,,,,,,,,,,,,,,*12
$GPRMC,153442.111,V,,,,,,,170411,,,N*4B
$GPGGA,153443.111,,,,,0,00,,,M,0.0,M,,0000*53
$GPGSA,M,1,,,,,,,,,,,,,,,*12
$GPRMC,153443.111,V,,,,,,,170411,,,N*4A
$GPGGA,153444.111,,,,,0,00,,,M,0.0,M,,0000*54
$GPGSA,M,1,,,,,,,,,,,,,,,*12
$GPGSV,3,1,11,12,32,116,45,29,51,195,46,21,44,346,39,25,42,168,43*7F
$GPGSV,3,2,11,09,36,031,29,14,27,284,,31,16,215,23,27,16,031,*71
$GPGSV,3,3,11,18,06,345,,02,04,141,,05,04,094,*4A
$GPRMC,153444.111,V,,,,,,,170411,,,N*4D
$GPGGA,153445.111,,,,,0,00,,,M,0.0,M,,0000*55
$GPGSA,M,1,,,,,,,,,,,,,,,*12
$GPRMC,153445.111,V,,,,,,,170411,,,N*4C
$GPGGA,153446.111,,,,,0,00,,,M,0.0,M,,0000*56
$GPGSA,M,1,,,,,,,,,,,,,,,*12
$GPRMC,153446.111,V,,,,,,,170411,,,N*4F
$GPGGA,153447.111,,,,,0,00,,,M,0.0,M,,0000*57
$GPGSA,M,1,,,,,,,,,,,,,,,*12
$GPRMC,153447.111,V,,,,,,,170411,,,N*4E
$GPGGA,153448.111,,,,,0,00,,,M,0.0,M,,0000*58
$GPGSA,M,1,,,,,,,,,,,,,,,*12
$GPRMC,153448.111,V,,,,,,,170411,,,N*41
$GPGGA,153449.111,,,,,0,00,,,M,0.0,M,,0000*59
$GPGSA,M,1,,,,,,,,,,,,,,,*12
$GPGSV,3,1,11,12,32,116,44,29,51,195,45,21,44,346,31,25,42,168,44*72
$GPGSV,3,2,11,09,36,031,30,14,27,284,,31,16,215,18,27,16,031,*71
$GPGSV,3,3,11,18,06,345,,05,04,094,,02,04,141,*4A
$GPRMC,153449.111,V,,,,,,,170411,,,N*40
$GPGGA,153450.111,,,,,0,00,,,M,0.0,M,,0000*51
$GPGSA,M,1,,,,,,,,,,,,,,,*12
$GPRMC,153450.111,V,,,,,,,170411,,,N*48
$GPGGA,153451.111,,,,,0,00,,,M,0.0,M,,0000*50
$GPGSA,M,1,,,,,,,,,,,,,,,*12
$GPRMC,153451.111,V,,,,,,,170411,,,N*49
$GPGGA,153452.111,,,,,0,00,,,M,0.0,M,,0000*53
$GPGSA,M,1,,,,,,,,,,,,,,,*12
$GPRMC,153452.111,V,,,,,,,170411,,,N*4A
$GPGGA,153453.111,,,,,0,00,,,M,0.0,M,,0000*52
$GPGSA,M,1,,,,,,,,,,,,,,,*12
$GPRMC,153453.111,V,,,,,,,170411,,,N*4B
$GPGGA,153454.111,,,,,0,00,,,M,0.0,M,,0000*55
$GPGSA,M,1,,,,,,,,,,,,,,,*12
$GPGSV,3,1,11,29,51,195,44,25,42,168,42,12,32,116,42,21,44,346,34*76
$GPGSV,3,2,11,09,36,031,31,14,27,284,,31,16,215,30,27,16,031,*7A
$GPGSV,3,3,11,18,06,345,,05,04,094,,02,04,141,*4A
$GPRMC,153454.111,V,,,,,,,170411,,,N*4C
$GPGGA,153455.111,,,,,0,00,,,M,0.0,M,,0000*54
$GPGSA,M,1,,,,,,,,,,,,,,,*12
$GPRMC,153455.111,V,,,,,,,170411,,,N*4D
$GPGGA,153456.111,,,,,0,00,,,M,0.0,M,,0000*57
$GPGSA,M,1,,,,,,,,,,,,,,,*12
$GPRMC,153456.111,V,,,,,,,170411,,,N*4E
$GPGGA,153457.111,,,,,0,00,,,M,0.0,M,,0000*56
$GPGSA,M,1,,,,,,,,,,,,,,,*12
$GPRMC,153457.111,V,,,,,,,170411,,,N*4F
$GPGGA,153458.111,1405.2059,S,07545.8299,W,1,04,1.7,431.7,M,15.2,M,,0000*5E
$GPGSA,M,3,12,25,29,21,,,,,,,,,2.0,1.7,1.0*37
$GPRMC,153458.111,A,1405.2059,S,07545.8299,W,0.06,172.35,170411,,,A*6F
$GPGGA,153459.111,1405.2062,S,07545.8296,W,1,04,1.7,432.1,M,15.2,M,,0000*5D
$GPGSA,M,3,12,25,29,21,,,,,,,,,2.0,1.7,1.0*37
$GPGSV,3,1,11,29,51,195,35,21,44,346,28,25,42,168,42,12,32,116,39*71
$GPGSV,3,2,11,09,36,031,26,14,27,284,,31,16,215,33,27,15,031,*7C
$GPGSV,3,3,11,18,06,346,,05,04,094,,02,04,141,*49
$GPRMC,153459.111,A,1405.2062,S,07545.8296,W,0.05,83.89,170411,,,A*52
$GPGGA,153500.000,1405.2067,S,07545.8292,W,1,04,1.7,433.3,M,15.2,M,,0000*53
$GPGSA,M,3,12,25,29,21,,,,,,,,,2.0,1.7,1.0*37
$GPRMC,153500.000,A,1405.2067,S,07545.8292,W,0.07,72.20,170411,,,A*50
$GPGGA,153501.000,1405.2073,S,07545.8286,W,1,04,1.7,435.9,M,15.2,M,,0000*5E
$GPGSA,M,3,12,25,29,21,,,,,,,,,2.0,1.7,1.0*37
$GPRMC,153501.000,A,1405.2073,S,07545.8286,W,0.08,95.98,170411,,,A*54
$GPGGA,153502.000,1405.2106,S,07545.8255,W,1,04,1.7,450.2,M,15.2,M,,0000*58
$GPGSA,M,3,12,25,29,21,,,,,,,,,2.0,1.7,1.0*37
$GPRMC,153502.000,A,1405.2106,S,07545.8255,W,0.21,144.74,170411,,,A*6E
$GPGGA,153503.000,1405.2115,S,07545.8246,W,1,04,1.7,454.7,M,15.2,M,,0000*58
$GPGSA,M,3,12,25,29,21,,,,,,,,,2.0,1.7,1.0*37
$GPRMC,153503.000,A,1405.2115,S,07545.8246,W,0.14,136.39,170411,,,A*65
$GPGGA,153504.000,1405.2097,S,07545.8204,W,1,05,1.5,481.6,M,15.2,M,,0000*58
$GPGSA,M,3,12,25,29,09,21,,,,,,,,1.8,1.5,1.0*37
$GPGSV,3,1,11,29,51,195,34,21,44,346,26,25,42,168,42,12,32,116,39*7E
$GPGSV,3,2,11,09,36,031,28,14,27,284,37,31,16,215,35,27,15,031,26*74
$GPGSV,3,3,11,18,06,346,,05,04,094,,02,04,141,*49
$GPRMC,153504.000,A,1405.2097,S,07545.8204,W,0.09,28.79,170411,,,A*59
$GPGGA,153505.000,1405.2090,S,07545.8188,W,1,05,1.5,491.7,M,15.2,M,,0000*59
$GPGSA,M,3,12,25,29,09,21,,,,,,,,1.8,1.5,1.0*37
$GPRMC,153505.000,A,1405.2090,S,07545.8188,W,0.10,11.43,170411,,,A*53
$GPGGA,153506.000,1405.2085,S,07545.8183,W,1,05,1.5,495.7,M,15.2,M,,0000*51
$GPGSA,M,3,12,25,29,09,21,,,,,,,,1.8,1.5,1.0*37
$GPRMC,153506.000,A,1405.2085,S,07545.8183,W,0.12,358.80,170411,,,A*6C
$GPGGA,153507.000,1405.2081,S,07545.8182,W,1,05,1.5,496.8,M,15.2,M,,0000*59
$GPGSA,M,3,12,25,29,09,21,,,,,,,,1.8,1.5,1.0*37
$GPRMC,153507.000,A,1405.2081,S,07545.8182,W,0.11,30.59,170411,,,A*52
$GPGGA,153508.000,1405.2078,S,07545.8183,W,1,05,1.5,496.3,M,15.2,M,,0000*5A
$GPGSA,M,3,12,25,29,09,21,,,,,,,,1.8,1.5,1.0*37
$GPRMC,153508.000,A,1405.2078,S,07545.8183,W,0.12,28.66,170411,,,A*5C
$GPGGA,153509.000,1405.2076,S,07545.8186,W,1,05,1.5,494.9,M,15.2,M,,0000*58
$GPGSA,M,3,12,25,29,09,21,,,,,,,,1.8,1.5,1.0*37
$GPGSV,3,1,11,29,51,195,34,21,44,346,32,25,42,168,42,09,36,031,28*71
$GPGSV,3,2,11,12,32,116,39,14,27,284,37,31,16,215,34,27,15,031,25*7C
$GPGSV,3,3,11,18,06,346,,05,04,094,,02,04,141,*49
$GPRMC,153509.000,A,1405.2076,S,07545.8186,W,0.11,31.72,170411,,,A*58
$GPGGA,153510.000,1405.2073,S,07545.8185,W,1,05,1.5,495.7,M,15.2,M,,0000*59
$GPGSA,M,3,12,25,29,09,21,,,,,,,,1.8,1.5,1.0*37
$GPRMC,153510.000,A,1405.2073,S,07545.8185,W,0.12,30.37,170411,,,A*55
$GPGGA,153511.000,1405.2069,S,07545.8182,W,1,05,1.5,497.9,M,15.2,M,,0000*58
$GPGSA,M,3,12,25,29,09,21,,,,,,,,1.8,1.5,1.0*37
$GPRMC,153511.000,A,1405.2069,S,07545.8182,W,0.21,27.61,170411,,,A*5D
$GPGGA,153512.000,1405.2069,S,07545.8186,W,1,05,1.5,495.6,M,15.2,M,,0000*52
$GPGSA,M,3,12,25,29,09,21,,,,,,,,1.8,1.5,1.0*37
$GPRMC,153512.000,A,1405.2069,S,07545.8186,W,0.16,20.25,170411,,,A*59
$GPGGA,153513.000,1405.2067,S,07545.8186,W,1,05,1.5,495.3,M,15.2,M,,0000*58
$GPGSA,M,3,12,25,29,09,21,,,,,,,,1.8,1.5,1.0*37
$GPRMC,153513.000,A,1405.2067,S,07545.8186,W,0.07,108.21,170411,,,A*69
$GPGGA,153514.000,1405.2066,S,07545.8187,W,1,05,1.5,495.2,M,15.2,M,,0000*5E
$GPGSA,M,3,12,25,29,09,21,,,,,,,,1.8,1.5,1.0*37
$GPGSV,3,1,11,29,51,195,34,21,44,346,33,25,42,168,43,09,36,031,22*7B
$GPGSV,3,2,11,12,32,116,39,14,27,284,37,31,16,215,34,27,15,031,25*7C
$GPGSV,3,3,11,18,06,346,,05,04,094,11,02,04,141,*49
$GPRMC,153514.000,A,1405.2066,S,07545.8187,W,0.06,129.53,170411,,,A*69
$GPGGA,153515.000,1405.2065,S,07545.8186,W,1,05,1.5,495.9,M,15.2,M,,0000*56
$GPGSA,M,3,12,25,29,09,21,,,,,,,,1.8,1.5,1.0*37
$GPRMC,153515.000,A,1405.2065,S,07545.8186,W,0.19,29.04,170411,,,A*57
$GPGGA,153516.000,1405.2062,S,07545.8182,W,1,05,1.5,497.9,M,15.2,M,,0000*54
$GPGSA,M,3,12,25,29,09,21,,,,,,,,1.8,1.5,1.0*37
$GPRMC,153516.000,A,1405.2062,S,07545.8182,W,0.16,38.41,170411,,,A*59
$GPGGA,153517.000,1405.2060,S,07545.8179,W,1,05,1.5,499.9,M,15.2,M,,0000*5D
$GPGSA,M,3,12,25,29,09,21,,,,,,,,1.8,1.5,1.0*37
$GPRMC,153517.000,A,1405.2060,S,07545.8179,W,0.08,82.97,170411,,,A*5B
$GPGGA,153519.411,1405.2060,S,07545.8179,W,1,05,1.5,499.0,M,15.2,M,,0000*5E
$GPGSA,M,3,29,21,25,09,12,,,,,,,,1.8,1.5,1.0*37
$GPGSV,3,1,11,29,51,195,28,21,44,346,29,25,42,168,35,09,36,030,28*77
$GPGSV,3,2,11,12,32,116,37,14,27,284,30,31,16,215,33,27,15,031,*75
$GPGSV,3,3,11,18,06,346,,05,04,094,,02,04,141,*49
$GPRMC,153519.411,A,1405.2060,S,07545.8179,W,0.29,31.52,170411,,,A*53
$GPGGA,153520.003,1405.2060,S,07545.8179,W,1,05,1.5,498.2,M,15.2,M,,0000*50
$GPGSA,M,3,29,21,25,09,12,,,,,,,,1.8,1.5,1.0*37
$GPRMC,153520.003,A,1405.2060,S,07545.8179,W,0.86,82.42,170411,,,A*52
$GPGGA,153521.000,1405.2060,S,07545.8180,W,1,05,1.5,497.6,M,15.2,M,,0000*5F
$GPGSA,M,3,29,21,25,09,12,,,,,,,,1.8,1.5,1.0*37
$GPRMC,153521.000,A,1405.2060,S,07545.8180,W,0.53,262.72,170411,,,A*61
$GPGGA,153522.000,1405.2061,S,07545.8181,W,0,00,,497.6,M,15.2,M,,0000*72
$GPGSA,M,1,,,,,,,,,,,,,,,*12
$GPRMC,153522.000,V,1405.2061,S,07545.8181,W,,,170411,,,N*7F
$GPGGA,153523.000,1405.2061,S,07545.8183,W,0,00,,497.6,M,15.2,M,,0000*71
$GPGSA,M,1,,,,,,,,,,,,,,,*12
$GPRMC,153523.000,V,1405.2061,S,07545.8183,W,,,170411,,,N*7C
$GPGGA,153524.000,1405.2061,S,07545.8184,W,0,00,,497.7,M,15.2,M,,0000*70
$GPGSA,M,1,,,,,,,,,,,,,,,*12
$GPGSV,3,1,11,29,51,195,,21,44,346,39,25,42,168,37,09,36,030,*74
$GPGSV,3,2,11,12,32,116,42,14,27,284,,31,16,215,28,27,15,031,*7E
$GPGSV,3,3,11,18,06,346,,05,04,094,,02,04,141,*49
$GPRMC,153524.000,V,1405.2061,S,07545.8184,W,,,170411,,,N*7C
$GPGGA,153525.000,1405.2043,S,07545.8198,W,1,05,1.5,497.1,M,15.2,M,,0000*54
$GPGSA,M,3,21,25,12,09,29,,,,,,,,1.8,1.5,1.0*37
$GPRMC,153525.000,A,1405.2043,S,07545.8198,W,0.04,100.17,170411,,,A*6B
$GPGGA,153526.000,1405.2037,S,07545.8205,W,1,05,1.5,497.4,M,15.2,M,,0000*56
$GPGSA,M,3,21,25,12,09,29,,,,,,,,1.8,1.5,1.0*37
$GPRMC,153526.000,A,1405.2037,S,07545.8205,W,0.04,89.84,170411,,,A*56
$GPGGA,153527.000,1405.2041,S,07545.8212,W,1,05,1.5,495.6,M,15.2,M,,0000*50
$GPGSA,M,3,21,25,12,09,29,,,,,,,,1.8,1.5,1.0*37
$GPRMC,153527.000,A,1405.2041,S,07545.8212,W,0.11,85.60,170411,,,A*52
$GPGGA,153528.000,1405.2043,S,07545.8226,W,1,05,1.5,490.9,M,15.2,M,,0000*50
$GPGSA,M,3,21,25,12,09,29,,,,,,,,1.8,1.5,1.0*37
$GPRMC,153528.000,A,1405.2043,S,07545.8226,W,0.06,18.28,170411,,,A*56
$GPGGA,153529.000,1405.2045,S,07545.8232,W,1,05,1.5,488.2,M,15.2,M,,0000*50
$GPGSA,M,3,21,25,12,09,29,,,,,,,,1.8,1.5,1.0*37
$GPGSV,3,1,11,29,51,195,34,21,44,346,41,25,42,168,39,09,36,030,38*79
$GPGSV,3,2,11,12,32,116,41,14,27,284,31,31,16,215,32,27,15,031,*74
$GPGSV,3,3,11,18,06,346,,05,04,094,22,02,04,141,*49
$GPRMC,153529.000,A,1405.2045,S,07545.8232,W,0.11,72.17,170411,,,A*52
$GPGGA,153530.000,1405.2044,S,07545.8239,W,1,05,1.5,484.9,M,15.2,M,,0000*55
$GPGSA,M,3,21,25,12,09,29,,,,,,,,1.8,1.5,1.0*37
$GPRMC,153530.000,A,1405.2044,S,07545.8239,W,0.04,62.26,170411,,,A*57
$GPGGA,153531.000,1405.2044,S,07545.8242,W,1,05,1.5,483.4,M,15.2,M,,0000*52
$GPGSA,M,3,21,25,12,09,29,,,,,,,,1.8,1.5,1.0*37
$GPRMC,153531.000,A,1405.2044,S,07545.8242,W,0.11,77.23,170411,,,A*5F
$GPGGA,153532.000,1405.2044,S,07545.8244,W,1,04,1.7,482.3,M,15.2,M,,0000*52
$GPGSA,M,3,21,25,12,29,,,,,,,,,2.0,1.7,1.0*37
$GPRMC,153532.000,A,1405.2044,S,07545.8244,W,0.02,72.56,170411,,,A*5F
$GPGGA,153533.000,1405.2044,S,07545.8244,W,1,05,1.5,481.3,M,15.2,M,,0000*53
$GPGSA,M,3,21,25,12,09,29,,,,,,,,1.8,1.5,1.0*37
$GPRMC,153533.000,A,1405.2044,S,07545.8244,W,0.36,287.12,170411,,,A*61
$GPGGA,153534.000,1405.2043,S,07545.8245,W,1,05,1.5,481.1,M,15.2,M,,0000*50
$GPGSA,M,3,21,25,12,09,29,,,,,,,,1.8,1.5,1.0*37
$GPGSV,3,1,11,29,51,195,40,21,44,346,41,25,42,168,44,09,36,030,29*70
$GPGSV,3,2,11,12,32,116,31,14,27,284,25,31,16,215,32,27,15,031,*76
$GPGSV,3,3,11,18,06,346,,05,04,094,22,02,04,141,*49
$GPRMC,153534.000,A,1405.2043,S,07545.8245,W,0.02,281.51,170411,,,A*66
$GPGGA,153535.000,1405.2042,S,07545.8243,W,1,05,1.5,481.8,M,15.2,M,,0000*5F
$GPGSA,M,3,21,25,12,09,29,,,,,,,,1.8,1.5,1.0*37
$GPRMC,153535.000,A,1405.2042,S,07545.8243,W,0.05,179.08,170411,,,A*6F
$GPGGA,153535.999,1405.2041,S,07545.8244,W,1,05,1.5,481.7,M,15.2,M,,0000*5D
$GPGSA,M,3,29,21,25,09,12,,,,,,,,1.8,1.5,1.0*37
$GPRMC,153535.999,A,1405.2041,S,07545.8244,W,1.57,263.61,170411,,,A*63
$GPGGA,153537.001,1405.2040,S,07545.8244,W,1,05,1.5,481.8,M,15.2,M,,0000*59
$GPGSA,M,3,29,21,25,09,12,,,,,,,,1.8,1.5,1.0*37
$GPRMC,153537.001,A,1405.2040,S,07545.8244,W,0.55,266.73,170411,,,A*6D
$GPGGA,153538.000,1405.2038,S,07545.8235,W,1,05,1.5,482.9,M,15.2,M,,0000*5C
$GPGSA,M,3,29,21,25,09,12,,,,,,,,1.8,1.5,1.0*37
$GPRMC,153538.000,A,1405.2038,S,07545.8235,W,0.63,76.31,170411,,,A*5A
$GPGGA,153539.000,1405.2040,S,07545.8239,W,1,04,2.3,481.4,M,15.2,M,,0000*54
$GPGSA,M,3,29,21,25,09,,,,,,,,,2.5,2.3,1.0*3F
$GPGSV,3,1,11,29,51,195,48,21,44,346,39,25,43,168,43,09,35,030,27*7C
$GPGSV,3,2,11,12,32,116,28,14,27,284,39,31,16,215,41,27,15,031,*77
$GPGSV,3,3,11,18,06,346,,05,04,094,,02,03,141,*4E
$GPRMC,153539.000,A,1405.2040,S,07545.8239,W,0.19,253.56,170411,,,A*61
$GPGGA,153540.000,1405.2041,S,07545.8244,W,1,04,2.3,479.2,M,15.2,M,,0000*50
$GPGSA,M,3,29,21,25,09,,,,,,,,,2.5,2.3,1.0*3F
$GPRMC,153540.000,A,1405.2041,S,07545.8244,W,0.22,262.38,170411,,,A*66
$GPGGA,153541.000,1405.2040,S,07545.8249,W,1,05,1.5,477.0,M,15.2,M,,0000*55
$GPGSA,M,3,29,21,25,09,12,,,,,,,,1.8,1.5,1.0*37
$GPRMC,153541.000,A,1405.2040,S,07545.8249,W,0.18,294.03,170411,,,A*63
$GPGGA,153542.000,1405.2041,S,07545.8260,W,1,04,2.3,472.4,M,15.2,M,,0000*59
$GPGSA,M,3,29,21,25,09,,,,,,,,,2.5,2.3,1.0*3F
$GPRMC,153542.000,A,1405.2041,S,07545.8260,W,0.29,275.48,170411,,,A*68
$GPGGA,153543.000,1405.2041,S,07545.8263,W,1,04,2.3,471.5,M,15.2,M,,0000*59
$GPGSA,M,3,29,21,25,09,,,,,,,,,2.5,2.3,1.0*3F
$GPRMC,153543.000,A,1405.2041,S,07545.8263,W,0.28,289.69,170411,,,A*6B
$GPGGA,153544.000,1405.2039,S,07545.8263,W,1,04,2.3,471.1,M,15.2,M,,0000*55
$GPGSA,M,3,29,21,25,09,,,,,,,,,2.5,2.3,1.0*3F
$GPGSV,3,1,11,29,51,195,47,21,44,346,32,25,43,168,44,09,35,030,33*7A
$GPGSV,3,2,11,12,32,116,,14,27,284,38,31,16,215,41,27,15,031,*7C
$GPGSV,3,3,11,18,06,346,,05,04,094,,02,03,141,*4E
$GPRMC,153544.000,A,1405.2039,S,07545.8263,W,0.23,292.03,170411,,,A*6E
$GPGGA,153545.000,1405.2038,S,07545.8259,W,1,04,2.3,471.9,M,15.2,M,,0000*54
$GPGSA,M,3,29,21,25,09,,,,,,,,,2.5,2.3,1.0*3F
$GPRMC,153545.000,A,1405.2038,S,07545.8259,W,0.11,259.95,170411,,,A*6E
$GPGGA,153546.000,1405.2038,S,07545.8257,W,1,04,2.3,472.3,M,15.2,M,,0000*50
$GPGSA,M,3,29,21,25,09,,,,,,,,,2.5,2.3,1.0*3F
$GPRMC,153546.000,A,1405.2038,S,07545.8257,W,0.13,270.37,170411,,,A*62
$GPGGA,153547.000,1405.2037,S,07545.8250,W,1,04,2.3,474.1,M,15.2,M,,0000*5D
$GPGSA,M,3,29,21,25,09,,,,,,,,,2.5,2.3,1.0*3F
$GPRMC,153547.000,A,1405.2037,S,07545.8250,W,0.03,246.03,170411,,,A*68
$GPGGA,153548.000,1405.2037,S,07545.8247,W,1,05,1.5,475.1,M,15.2,M,,0000*51
$GPGSA,M,3,29,21,25,09,12,,,,,,,,1.8,1.5,1.0*37
$GPRMC,153548.000,A,1405.2037,S,07545.8247,W,0.14,79.87,170411,,,A*55
$GPGGA,153549.000,1405.2037,S,07545.8242,W,1,05,1.5,475.8,M,15.2,M,,0000*5C
$GPGSA,M,3,29,21,25,09,12,,,,,,,,1.8,1.5,1.0*37
$GPGSV,3,1,11,29,51,195,47,21,44,346,42,25,43,168,45,09,35,030,34*7B
$GPGSV,3,2,11,12,32,116,28,14,27,284,38,31,16,215,41,27,15,031,*76
$GPGSV,3,3,11,18,06,346,,05,04,095,24,02,03,141,*49
$GPRMC,153549.000,A,1405.2037,S,07545.8242,W,0.02,189.13,170411,,,A*65
$GPGGA,153550.000,1405.2038,S,07545.8240,W,1,04,2.3,476.4,M,15.2,M,,0000*52
$GPGSA,M,3,29,21,25,09,,,,,,,,,2.5,2.3,1.0*3F
$GPRMC,153550.000,A,1405.2038,S,07545.8240,W,0.05,256.24,170411,,,A*62
$GPGGA,153551.000,1405.2038,S,07545.8238,W,1,04,2.3,477.0,M,15.2,M,,0000*59
$GPGSA,M,3,29,21,25,09,,,,,,,,,2.5,2.3,1.0*3F
$GPRMC,153551.000,A,1405.2038,S,07545.8238,W,0.07,235.92,170411,,,A*66
$GPGGA,153552.000,1405.2038,S,07545.8236,W,1,04,2.3,477.6,M,15.2,M,,0000*52
$GPGSA,M,3,29,21,25,09,,,,,,,,,2.5,2.3,1.0*3F
$GPRMC,153552.000,A,1405.2038,S,07545.8236,W,0.02,172.38,170411,,,A*6E
$GPGGA,153553.000,1405.2039,S,07545.8235,W,1,04,2.3,478.1,M,15.2,M,,0000*59
$GPGSA,M,3,29,21,25,09,,,,,,,,,2.5,2.3,1.0*3F
$GPRMC,153553.000,A,1405.2039,S,07545.8235,W,0.02,204.91,170411,,,A*6C
$GPGGA,153554.000,1405.2039,S,07545.8233,W,1,04,2.3,478.6,M,15.2,M,,0000*5F
$GPGSA,M,3,29,21,25,09,,,,,,,,,2.5,2.3,1.0*3F
$GPGSV,3,1,11,29,51,195,46,21,44,346,45,25,43,168,45,09,35,030,36*7F
$GPGSV,3,2,11,12,32,116,,14,27,284,38,31,16,215,41,27,15,031,*7C
$GPGSV,3,3,11,18,06,346,,05,04,095,23,02,03,141,*4E
$GPRMC,153554.000,A,1405.2039,S,07545.8233,W,0.04,123.39,170411,,,A*6F
$GPGGA,153555.000,1405.2040,S,07545.8235,W,1,05,1.5,478.2,M,15.2,M,,0000*56
$GPGSA,M,3,29,21,25,09,12,,,,,,,,1.8,1.5,1.0*37
$GPRMC,153555.000,A,1405.2040,S,07545.8235,W,0.43,268.73,170411,,,A*67
$GPGGA,153556.000,1405.2040,S,07545.8232,W,1,04,2.3,478.1,M,15.2,M,,0000*55
$GPGSA,M,3,29,21,25,09,,,,,,,,,2.5,2.3,1.0*3F
$GPRMC,153556.000,A,1405.2040,S,07545.8232,W,0.51,82.77,170411,,,A*52
$GPGGA,153556.999,1405.2040,S,07545.8232,W,1,04,2.3,478.1,M,15.2,M,,0000*5C
$GPGSA,M,3,29,21,25,09,,,,,,,,,2.5,2.3,1.0*3F
$GPRMC,153556.999,A,1405.2040,S,07545.8232,W,0.07,159.96,170411,,,A*60
$GPGGA,153558.000,1405.2040,S,07545.8230,W,1,04,2.3,478.0,M,15.2,M,,0000*58
$GPGSA,M,3,29,21,25,09,,,,,,,,,2.5,2.3,1.0*3F
$GPRMC,153558.000,A,1405.2040,S,07545.8230,W,0.13,82.96,170411,,,A*57
$GPGGA,153559.000,1405.2041,S,07545.8227,W,1,04,2.3,477.8,M,15.2,M,,0000*59
$GPGSA,M,3,29,21,25,09,,,,,,,,,2.5,2.3,1.0*3F
$GPGSV,3,1,11,29,51,195,41,21,44,346,30,25,43,168,39,09,35,030,33*74
$GPGSV,3,2,11,12,32,116,,14,27,284,37,31,16,215,38,27,15,031,*7D
$GPGSV,3,3,11,18,06,346,,05,04,095,,02,03,141,*4F
$GPRMC,153559.000,A,1405.2041,S,07545.8227,W,0.11,166.58,170411,,,A*6A
$GPGGA,153600.000,1405.2040,S,07545.8229,W,1,04,1.9,477.4,M,15.2,M,,0000*5C
$GPGSA,M,3,29,25,09,12,,,,,,,,,2.1,1.9,1.0*32
$GPRMC,153600.000,A,1405.2040,S,07545.8229,W,0.27,31.97,170411,,,A*5F
$GPGGA,153601.002,1405.2040,S,07545.8226,W,1,05,1.5,477.1,M,15.2,M,,0000*58
$GPGSA,M,3,29,21,25,09,12,,,,,,,,1.8,1.5,1.0*37
$GPRMC,153601.002,A,1405.2040,S,07545.8226,W,0.54,226.57,170411,,,A*6F
$GPGGA,153601.999,1405.2041,S,07545.8226,W,1,05,1.5,477.2,M,15.2,M,,0000*51
$GPGSA,M,3,29,21,25,09,12,,,,,,,,1.8,1.5,1.0*37
$GPRMC,153601.999,A,1405.2041,S,07545.8226,W,0.43,119.43,170411,,,A*69
$GPGGA,153602.999,1405.2041,S,07545.8225,W,1,04,2.3,477.3,M,15.2,M,,0000*54
$GPGSA,M,3,29,21,25,09,,,,,,,,,2.5,2.3,1.0*3F
$GPRMC,153602.999,A,1405.2041,S,07545.8225,W,0.30,112.92,170411,,,A*6A
$GPGGA,153604.000,1405.2042,S,07545.8222,W,1,04,2.3,477.8,M,15.2,M,,0000*54
$GPGSA,M,3,29,21,25,09,,,,,,,,,2.5,2.3,1.0*3F
$GPGSV,3,1,11,29,51,195,40,21,44,346,39,25,43,168,40,09,35,030,37*76
$GPGSV,3,2,11,12,32,116,,14,27,284,37,31,16,215,39,27,15,031,*7C
$GPGSV,3,3,11,18,06,346,,05,04,095,,02,03,141,*4F
$GPRMC,153604.000,A,1405.2042,S,07545.8222,W,0.47,111.16,170411,,,A*6E
$GPGGA,153605.000,1405.2042,S,07545.8220,W,1,04,2.3,477.8,M,15.2,M,,0000*57
$GPGSA,M,3,29,21,25,09,,,,,,,,,2.5,2.3,1.0*3F
$GPRMC,153605.000,A,1405.2042,S,07545.8220,W,0.34,87.52,170411,,,A*57
$GPGGA,153606.000,1405.2043,S,07545.8221,W,1,04,2.3,477.7,M,15.2,M,,0000*5B
$GPGSA,M,3,29,21,25,09,,,,,,,,,2.5,2.3,1.0*3F
$GPRMC,153606.000,A,1405.2043,S,07545.8221,W,0.54,259.01,170411,,,A*65
$GPGGA,153606.999,1405.2044,S,07545.8223,W,1,04,2.3,477.3,M,15.2,M,,0000*53
$GPGSA,M,3,29,21,25,09,,,,,,,,,2.5,2.3,1.0*3F
$GPRMC,153606.999,A,1405.2044,S,07545.8223,W,1.00,260.79,170411,,,A*6C
$GPGGA,153608.000,1405.2045,S,07545.8226,W,1,04,2.3,477.3,M,15.2,M,,0000*50
$GPGSA,M,3,29,21,25,09,,,,,,,,,2.5,2.3,1.0*3F
$GPRMC,153608.000,A,1405.2045,S,07545.8226,W,0.99,267.79,170411,,,A*69
$GPGGA,153609.002,1405.2045,S,07545.8228,W,1,05,1.5,476.9,M,15.2,M,,0000*52
$GPGSA,M,3,29,21,25,09,12,,,,,,,,1.8,1.5,1.0*37
$GPGSV,3,1,11,29,51,195,41,21,44,346,41,25,43,168,41,09,35,030,38*76
$GPGSV,3,2,11,12,32,116,28,14,27,284,36,31,16,215,38,27,15,031,*76
$GPGSV,3,3,11,18,06,346,,05,04,095,,02,03,141,*4F
$GPRMC,153609.002,A,1405.2045,S,07545.8228,W,0.34,243.85,170411,,,A*66
$GPGGA,153610.000,1405.2045,S,07545.8226,W,1,05,1.5,477.4,M,15.2,M,,0000*5A
$GPGSA,M,3,29,21,25,09,12,,,,,,,,1.8,1.5,1.0*37
$GPRMC,153610.000,A,1405.2045,S,07545.8226,W,0.21,263.56,170411,,,A*6A
$GPGGA,153611.000,1405.2045,S,07545.8225,W,1,05,1.5,477.2,M,15.2,M,,0000*5E
$GPGSA,M,3,29,21,25,09,12,,,,,,,,1.8,1.5,1.0*37
$GPRMC,153611.000,A,1405.2045,S,07545.8225,W,0.51,253.95,170411,,,A*63
$GPGGA,153612.000,1405.2044,S,07545.8227,W,1,05,1.5,477.6,M,15.2,M,,0000*5A
$GPGSA,M,3,29,21,25,09,12,,,,,,,,1.8,1.5,1.0*37
$GPRMC,153612.000,A,1405.2044,S,07545.8227,W,0.54,303.89,170411,,,A*6F
$GPGGA,153613.000,1405.2044,S,07545.8219,W,1,05,1.5,478.3,M,15.2,M,,0000*5C
$GPGSA,M,3,29,21,25,09,12,,,,,,,,1.8,1.5,1.0*37
$GPRMC,153613.000,A,1405.2044,S,07545.8219,W,0.67,137.85,170411,,,A*6A
$GPGGA,153614.000,1405.2044,S,07545.8215,W,1,05,1.5,478.5,M,15.2,M,,0000*51
$GPGSA,M,3,29,21,25,09,12,,,,,,,,1.8,1.5,1.0*37
$GPGSV,3,1,11,29,51,195,41,21,44,346,38,25,43,168,39,09,35,030,36*79
$GPGSV,3,2,11,12,32,116,31,14,27,284,33,31,16,215,37,27,15,031,*74
$GPGSV,3,3,11,18,06,346,,05,04,095,,02,03,141,*4F
$GPRMC,153614.000,A,1405.2044,S,07545.8215,W,0.09,134.16,170411,,,A*60
$GPGGA,153614.998,1405.2043,S,07545.8209,W,1,04,2.3,478.7,M,15.2,M,,0000*55
$GPGSA,M,3,29,21,25,09,,,,,,,,,2.5,2.3,1.0*3F
$GPRMC,153614.998,A,1405.2043,S,07545.8209,W,0.47,127.26,170411,,,A*69
$GPGGA,153616.002,1405.2044,S,07545.8208,W,1,05,1.5,478.2,M,15.2,M,,0000*5A
$GPGSA,M,3,29,21,25,09,12,,,,,,,,1.8,1.5,1.0*37
$GPRMC,153616.002,A,1405.2044,S,07545.8208,W,0.44,258.99,170411,,,A*6B
$GPGGA,153617.000,1405.2043,S,07545.8211,W,1,05,1.5,477.8,M,15.2,M,,0000*53
$GPGSA,M,3,29,21,25,09,12,,,,,,,,1.8,1.5,1.0*37
$GPRMC,153617.000,A,1405.2043,S,07545.8211,W,0.15,189.21,170411,,,A*6F
$GPGGA,153618.000,1405.2043,S,07545.8208,W,1,05,1.5,477.5,M,15.2,M,,0000*59
$GPGSA,M,3,29,21,25,09,12,,,,,,,,1.8,1.5,1.0*37
$GPRMC,153618.000,A,1405.2043,S,07545.8208,W,0.66,345.36,170411,,,A*68
$GPGGA,153619.000,1405.2041,S,07545.8210,W,1,05,1.5,477.2,M,15.2,M,,0000*54
$GPGSA,M,3,29,21,25,09,12,,,,,,,,1.8,1.5,1.0*37
$GPGSV,3,1,11,29,51,195,41,21,44,346,34,25,43,168,41,09,35,030,38*74
$GPGSV,3,2,11,12,32,116,30,14,27,284,36,31,16,215,37,27,15,031,*70
$GPGSV,3,3,11,18,06,346,,05,04,095,,02,03,141,*4F
$GPRMC,153619.000,A,1405.2041,S,07545.8210,W,0.36,328.48,170411,,,A*65
$GPGGA,153620.000,1405.2040,S,07545.8208,W,1,05,1.5,476.6,M,15.2,M,,0000*53
$GPGSA,M,3,29,21,25,09,12,,,,,,,,1.8,1.5,1.0*37
$GPRMC,153620.000,A,1405.2040,S,07545.8208,W,1.17,106.96,170411,,,A*68
$GPGGA,153621.000,1405.2041,S,07545.8207,W,1,05,1.5,477.1,M,15.2,M,,0000*5A
$GPGSA,M,3,29,21,25,09,12,,,,,,,,1.8,1.5,1.0*37
$GPRMC,153621.000,A,1405.2041,S,07545.8207,W,0.31,242.32,170411,,,A*6F
$GPGGA,153622.000,1405.2041,S,07545.8209,W,1,05,1.5,476.0,M,15.2,M,,0000*57
$GPGSA,M,3,29,21,25,09,12,,,,,,,,1.8,1.5,1.0*37
$GPRMC,153622.000,A,1405.2041,S,07545.8209,W,0.28,217.41,170411,,,A*6E
$GPGGA,153623.000,1405.2042,S,07545.8211,W,1,05,1.5,475.1,M,15.2,M,,0000*5E
$GPGSA,M,3,29,21,25,09,12,,,,,,,,1.8,1.5,1.0*37
$GPRMC,153623.000,A,1405.2042,S,07545.8211,W,0.24,220.20,170411,,,A*6A
$GPGGA,153623.999,1405.2044,S,07545.8213,W,1,05,1.5,474.5,M,15.2,M,,0000*56
$GPGSA,M,3,29,21,25,09,12,,,,,,,,1.8,1.5,1.0*37
$GPGSV,3,1,11,29,51,195,41,21,44,346,41,25,43,168,41,09,35,030,36*78
$GPGSV,3,2,11,12,32,116,31,14,27,284,36,31,16,215,33,27,15,031,*75
$GPGSV,3,3,11,18,06,346,,05,04,095,,02,03,141,*4F
$GPRMC,153623.999,A,1405.2044,S,07545.8213,W,1.51,257.27,170411,,,A*63
$GPGGA,153625.001,1405.2042,S,07545.8214,W,1,05,1.5,474.3,M,15.2,M,,0000*5F
$GPGSA,M,3,29,21,25,09,12,,,,,,,,1.8,1.5,1.0*37
$GPRMC,153625.001,A,1405.2042,S,07545.8214,W,0.22,174.75,170411,,,A*6C
$GPGGA,153626.001,1405.2042,S,07545.8214,W,1,05,1.5,474.0,M,15.2,M,,0000*5F
$GPGSA,M,3,29,21,25,09,12,,,,,,,,1.8,1.5,1.0*37
$GPRMC,153626.001,A,1405.2042,S,07545.8214,W,0.17,55.60,170411,,,A*5F
$GPGGA,153627.001,1405.2041,S,07545.8213,W,1,05,1.5,474.3,M,15.2,M,,0000*59
$GPGSA,M,3,29,21,25,09,12,,,,,,,,1.8,1.5,1.0*37
$GPRMC,153627.001,A,1405.2041,S,07545.8213,W,0.37,266.10,170411,,,A*6D
$GPGGA,153628.000,1405.2043,S,07545.8206,W,1,05,1.5,474.0,M,15.2,M,,0000*52
$GPGSA,M,3,29,21,25,09,12,,,,,,,,1.8,1.5,1.0*37
$GPRMC,153628.000,A,1405.2043,S,07545.8206,W,0.25,224.86,170411,,,A*6F
$GPGGA,153629.000,1405.2042,S,07545.8210,W,1,05,1.5,473.2,M,15.2,M,,0000*50
$GPGSA,M,3,29,21,25,09,12,,,,,,,,1.8,1.5,1.0*37
$GPGSV,3,1,11,29,51,195,40,21,44,346,41,25,43,168,41,09,35,030,37*78
$GPGSV,3,2,11,12,32,116,33,14,27,284,35,31,16,215,36,27,15,031,*71
$GPGSV,3,3,11,18,06,346,,05,04,095,,02,03,141,*4F
$GPRMC,153629.000,A,1405.2042,S,07545.8210,W,0.34,257.58,170411,,,A*6F
$GPGGA,153630.000,1405.2042,S,07545.8209,W,1,05,1.5,473.0,M,15.2,M,,0000*52
$GPGSA,M,3,29,21,25,09,12,,,,,,,,1.8,1.5,1.0*37
$GPRMC,153630.000,A,1405.2042,S,07545.8209,W,0.38,275.74,170411,,,A*6D
$GPGGA,153631.000,1405.2042,S,07545.8210,W,1,05,1.5,472.7,M,15.2,M,,0000*5D
$GPGSA,M,3,29,21,25,09,12,,,,,,,,1.8,1.5,1.0*37
$GPRMC,153631.000,A,1405.2042,S,07545.8210,W,0.13,33.88,170411,,,A*5E
$GPGGA,153632.001,1405.2041,S,07545.8211,W,1,05,1.5,472.7,M,15.2,M,,0000*5D
$GPGSA,M,3,29,21,25,09,12,,,,,,,,1.8,1.5,1.0*37
$GPRMC,153632.001,A,1405.2041,S,07545.8211,W,0.24,306.57,170411,,,A*6D
$GPGGA,153633.000,1405.2041,S,07545.8208,W,1,05,1.5,472.9,M,15.2,M,,0000*5B
$GPGSA,M,3,29,21,25,09,12,,,,,,,,1.8,1.5,1.0*37
$GPRMC,153633.000,A,1405.2041,S,07545.8208,W,0.49,62.35,170411,,,A*5B
$GPGGA,153634.001,1405.2040,S,07545.8208,W,1,05,1.5,473.1,M,15.2,M,,0000*55
$GPGSA,M,3,29,21,25,09,12,,,,,,,,1.8,1.5,1.0*37
$GPGSV,3,1,11,29,51,195,41,21,44,346,34,25,43,168,41,09,35,030,38*74
$GPGSV,3,2,11,12,32,116,32,14,27,284,35,31,16,215,36,27,15,031,*70
$GPGSV,3,3,11,18,06,346,,05,04,095,,02,03,141,*4F
$GPRMC,153634.001,A,1405.2040,S,07545.8208,W,1.15,290.76,170411,,,A*6C
$GPGGA,153635.000,1405.2037,S,07545.8204,W,1,05,1.5,473.8,M,15.2,M,,0000*50
$GPGSA,M,3,29,21,25,09,12,,,,,,,,1.8,1.5,1.0*37
$GPRMC,153635.000,A,1405.2037,S,07545.8204,W,0.38,314.52,170411,,,A*65
$GPGGA,153636.000,1405.2037,S,07545.8203,W,1,05,1.5,473.8,M,15.2,M,,0000*54
$GPGSA,M,3,29,21,25,09,12,,,,,,,,1.8,1.5,1.0*37
$GPRMC,153636.000,A,1405.2037,S,07545.8203,W,0.30,293.57,170411,,,A*62
$GPGGA,153637.000,1405.2038,S,07545.8206,W,1,05,1.5,473.7,M,15.2,M,,0000*50
$GPGSA,M,3,29,21,25,09,12,,,,,,,,1.8,1.5,1.0*37
$GPRMC,153637.000,A,1405.2038,S,07545.8206,W,0.22,166.69,170411,,,A*6E
$GPGGA,153638.000,1405.2038,S,07545.8210,W,1,05,1.5,473.3,M,15.2,M,,0000*5C
$GPGSA,M,3,29,21,25,09,12,,,,,,,,1.8,1.5,1.0*37
$GPRMC,153638.000,A,1405.2038,S,07545.8210,W,0.54,86.88,170411,,,A*57
$GPGGA,153639.000,1405.2038,S,07545.8210,W,1,05,1.5,473.0,M,15.2,M,,0000*5E
$GPGSA,M,3,29,21,25,09,12,,,,,,,,1.8,1.5,1.0*37
$GPGSV,3,1,11,29,51,195,41,21,44,346,39,25,43,168,41,09,35,030,39*78
$GPGSV,3,2,11,12,32,116,35,14,27,284,35,31,16,215,37,27,15,031,*76
$GPGSV,3,3,11,18,06,346,,05,04,095,,02,03,141,*4F
$GPRMC,153639.000,A,1405.2038,S,07545.8210,W,0.77,85.67,170411,,,A*55
$GPGGA,153640.000,1405.2039,S,07545.8212,W,1,05,1.5,472.8,M,15.2,M,,0000*5A
$GPGSA,M,3,29,21,25,09,12,,,,,,,,1.8,1.5,1.0*37
$GPRMC,153640.000,A,1405.2039,S,07545.8212,W,0.47,266.77,170411,,,A*65
$GPGGA,153641.000,1405.2040,S,07545.8208,W,1,05,1.5,473.2,M,15.2,M,,0000*55
$GPGSA,M,3,29,21,25,09,12,,,,,,,,1.8,1.5,1.0*37
$GPRMC,153641.000,A,1405.2040,S,07545.8208,W,0.25,168.90,170411,,,A*61
$GPGGA,153642.000,1405.2041,S,07545.8212,W,1,05,1.5,472.2,M,15.2,M,,0000*5D
$GPGSA,M,3,29,21,25,09,12,,,,,,,,1.8,1.5,1.0*37
$GPRMC,153642.000,A,1405.2041,S,07545.8212,W,0.27,194.27,170411,,,A*65
$GPGGA,153643.002,1405.2041,S,07545.8210,W,1,05,1.5,472.1,M,15.2,M,,0000*5F
$GPGSA,M,3,29,21,25,09,12,,,,,,,,1.8,1.5,1.0*37
$GPRMC,153643.002,A,1405.2041,S,07545.8210,W,0.21,127.62,170411,,,A*6B
$GPGGA,153643.998,1405.2042,S,07545.8212,W,1,05,1.5,471.1,M,15.2,M,,0000*57
$GPGSA,M,3,29,21,25,09,12,,,,,,,,1.8,1.5,1.0*37
$GPGSV,3,1,11,29,51,195,41,21,44,346,41,25,43,168,41,09,35,030,35*7B
$GPGSV,3,2,11,12,32,116,35,14,27,284,32,31,16,215,38,27,15,031,*7E
$GPGSV,3,3,11,18,06,346,,05,04,095,,02,03,141,*4F
$GPRMC,153643.998,A,1405.2042,S,07545.8212,W,0.25,246.85,170411,,,A*69
$GPGGA,153645.000,1405.2041,S,07545.8212,W,1,05,1.5,471.1,M,15.2,M,,0000*5A
$GPGSA,M,3,29,21,25,09,12,,,,,,,,1.8,1.5,1.0*37
$GPRMC,153645.000,A,1405.2041,S,07545.8212,W,0.22,298.33,170411,,,A*6D
$GPGGA,153646.000,1405.2042,S,07545.8211,W,1,05,1.5,470.7,M,15.2,M,,0000*5E
$GPGSA,M,3,29,21,25,09,12,,,,,,,,1.8,1.5,1.0*37
$GPRMC,153646.000,A,1405.2042,S,07545.8211,W,0.36,268.86,170411,,,A*6A
$GPGGA,153647.000,1405.2041,S,07545.8207,W,1,05,1.5,471.1,M,15.2,M,,0000*5C
$GPGSA,M,3,29,21,25,09,12,,,,,,,,1.8,1.5,1.0*37
$GPRMC,153647.000,A,1405.2041,S,07545.8207,W,1.24,85.77,170411,,,A*52
$GPGGA,153648.000,1405.2041,S,07545.8207,W,1,05,1.5,470.2,M,15.2,M,,0000*51
$GPGSA,M,3,29,21,25,09,12,,,,,,,,1.8,1.5,1.0*37
$GPRMC,153648.000,A,1405.2041,S,07545.8207,W,0.17,59.98,170411,,,A*5C
$GPGGA,153649.000,1405.2040,S,07545.8206,W,1,05,1.5,470.4,M,15.2,M,,0000*56
$GPGSA,M,3,29,21,25,09,12,,,,,,,,1.8,1.5,1.0*37
$GPGSV,3,1,11,29,51,195,40,21,44,346,38,25,43,168,41,09,35,030,35*74
$GPGSV,3,2,11,12,32,116,30,14,27,284,31,31,16,215,37,27,15,031,*77
$GPGSV,3,3,11,18,06,346,,05,04,095,,02,03,141,*4F
$GPRMC,153649.000,A,1405.2040,S,07545.8206,W,0.32,207.66,170411,,,A*62
$GPGGA,153650.000,1405.2040,S,07545.8208,W,1,05,1.5,470.1,M,15.2,M,,0000*55
$GPGSA,M,3,29,21,25,09,12,,,,,,,,1.8,1.5,1.0*37
$GPRMC,153650.000,A,1405.2040,S,07545.8208,W,0.74,281.08,170411,,,A*60
$GPGGA,153651.000,1405.2040,S,07545.8204,W,1,05,1.5,469.9,M,15.2,M,,0000*58
$GPGSA,M,3,29,21,25,09,12,,,,,,,,1.8,1.5,1.0*37
$GPRMC,153651.000,A,1405.2040,S,07545.8204,W,0.31,158.04,170411,,,A*67
$GPGGA,153652.000,1405.2040,S,07545.8208,W,1,05,1.5,469.5,M,15.2,M,,0000*5B
$GPGSA,M,3,29,21,25,09,12,,,,,,,,1.8,1.5,1.0*37
$GPRMC,153652.000,A,1405.2040,S,07545.8208,W,1.12,293.89,170411,,,A*69
$GPGGA,153653.000,1405.2039,S,07545.8215,W,1,05,1.5,468.7,M,15.2,M,,0000*5B
$GPGSA,M,3,29,21,25,09,12,,,,,,,,1.8,1.5,1.0*37
$GPRMC,153653.000,A,1405.2039,S,07545.8215,W,1.73,277.54,170411,,,A*67
$GPGGA,153654.000,1405.2039,S,07545.8215,W,1,05,1.5,468.8,M,15.2,M,,0000*53
$GPGSA,M,3,29,21,25,09,12,,,,,,,,1.8,1.5,1.0*37
$GPGSV,3,1,11,29,51,195,40,21,44,346,31,25,43,168,41,09,35,030,38*70
$GPGSV,3,2,11,12,32,116,33,14,27,284,32,31,16,215,37,27,15,031,*77
$GPGSV,3,3,11,18,06,346,,05,04,095,,02,03,141,*4F
$GPRMC,153654.000,A,1405.2039,S,07545.8215,W,0.48,250.57,170411,,,A*6F
$GPGGA,153655.000,1405.2039,S,07545.8214,W,1,05,1.5,468.6,M,15.2,M,,0000*5D
$GPGSA,M,3,29,21,25,09,12,,,,,,,,1.8,1.5,1.0*37
$GPRMC,153655.000,A,1405.2039,S,07545.8214,W,0.24,260.99,170411,,,A*64
$GPGGA,153656.000,1405.2041,S,07545.8218,W,1,05,1.5,468.4,M,15.2,M,,0000*5F
$GPGSA,M,3,29,21,25,09,12,,,,,,,,1.8,1.5,1.0*37
$GPRMC,153656.000,A,1405.2041,S,07545.8218,W,0.77,290.38,170411,,,A*66
$GPGGA,153657.000,1405.2041,S,07545.8224,W,1,05,1.5,468.3,M,15.2,M,,0000*56
$GPGSA,M,3,29,21,25,09,12,,,,,,,,1.8,1.5,1.0*37
$GPRMC,153657.000,A,1405.2041,S,07545.8224,W,0.20,215.91,170411,,,A*64
$GPGGA,153658.000,1405.2041,S,07545.8224,W,1,05,1.5,467.7,M,15.2,M,,0000*52
$GPGSA,M,3,29,21,25,09,12,,,,,,,,1.8,1.5,1.0*37
$GPRMC,153658.000,A,1405.2041,S,07545.8224,W,0.12,131.40,170411,,,A*63
$GPGGA,153659.000,1405.2043,S,07545.8225,W,1,05,1.5,467.8,M,15.2,M,,0000*5F
$GPGSA,M,3,29,21,25,09,12,,,,,,,,1.8,1.5,1.0*37
$GPGSV,3,1,11,29,51,195,38,21,44,346,39,25,43,168,41,09,35,030,37*78
$GPGSV,3,2,11,12,32,116,33,14,27,284,32,31,16,215,38,27,15,031,*78
$GPGSV,3,3,11,18,06,346,,05,04,095,,02,03,141,*4F
$GPRMC,153659.000,A,1405.2043,S,07545.8225,W,0.68,234.34,170411,,,A*69
$GPGGA,153700.000,1405.2043,S,07545.8225,W,1,05,1.5,467.1,M,15.2,M,,0000*5B
$GPGSA,M,3,29,21,25,09,12,,,,,,,,1.8,1.5,1.0*37
$GPRMC,153700.000,A,1405.2043,S,07545.8225,W,0.56,82.55,170411,,,A*51
$GPGGA,153701.000,1405.2043,S,07545.8223,W,1,05,1.5,467.0,M,15.2,M,,0000*5D
$GPGSA,M,3,29,21,25,09,12,,,,,,,,1.8,1.5,1.0*37
$GPRMC,153701.000,A,1405.2043,S,07545.8223,W,0.38,258.77,170411,,,A*6B
$GPGGA,153702.000,1405.2044,S,07545.8227,W,1,05,1.5,466.5,M,15.2,M,,0000*59
$GPGSA,M,3,29,21,25,09,12,,,,,,,,1.8,1.5,1.0*37
$GPRMC,153702.000,A,1405.2044,S,07545.8227,W,0.14,225.31,170411,,,A*6D
$GPGGA,153703.000,1405.2044,S,07545.8229,W,1,05,1.5,466.1,M,15.2,M,,0000*52
$GPGSA,M,3,29,21,25,09,12,,,,,,,,1.8,1.5,1.0*37
$GPRMC,153703.000,A,1405.2044,S,07545.8229,W,0.16,155.40,170411,,,A*62
$GPGGA,153704.000,1405.2046,S,07545.8229,W,1,05,1.5,466.6,M,15.2,M,,0000*50
$GPGSA,M,3,29,21,25,09,12,,,,,,,,1.8,1.5,1.0*37
$GPGSV,3,1,11,29,50,194,44,21,45,346,45,25,43,167,46,09,35,030,36*70
$GPGSV,3,2,11,12,32,115,37,14,27,285,36,31,17,215,38,27,15,031,*7B
$GPGSV,3,3,11,18,06,346,,05,04,095,,02,03,141,*4F
$GPRMC,153704.000,A,1405.2046,S,07545.8229,W,0.12,183.60,170411,,,A*6A
$GPGGA,153705.000,1405.2045,S,07545.8231,W,1,05,1.5,467.4,M,15.2,M,,0000*58
$GPGSA,M,3,29,21,25,09,12,,,,,,,,1.8,1.5,1.0*37
$GPRMC,153705.000,A,1405.2045,S,07545.8231,W,0.04,242.88,170411,,,A*6E
$GPGGA,153706.000,1405.2046,S,07545.8231,W,1,05,1.5,468.1,M,15.2,M,,0000*52
$GPGSA,M,3,29,21,25,09,12,,,,,,,,1.8,1.5,1.0*37
$GPRMC,153706.000,A,1405.2046,S,07545.8231,W,0.03,219.02,170411,,,A*65
$GPGGA,153707.000,1405.2046,S,07545.8229,W,1,05,1.5,468.5,M,15.2,M,,0000*5E
$GPGSA,M,3,29,21,25,09,12,,,,,,,,1.8,1.5,1.0*37
$GPRMC,153707.000,A,1405.2046,S,07545.8229,W,0.02,142.86,170411,,,A*6D
$GPGGA,153708.000,1405.2047,S,07545.8231,W,1,05,1.5,468.4,M,15.2,M,,0000*58
$GPGSA,M,3,29,21,25,09,12,,,,,,,,1.8,1.5,1.0*37
$GPRMC,153708.000,A,1405.2047,S,07545.8231,W,0.04,231.17,170411,,,A*63
$GPGGA,153709.000,1405.2049,S,07545.8232,W,1,05,1.5,468.4,M,15.2,M,,0000*54
$GPGSA,M,3,29,21,25,09,12,,,,,,,,1.8,1.5,1.0*37
$GPGSV,3,1,11,29,50,194,44,21,45,346,39,25,43,167,46,09,35,030,37*7A
$GPGSV,3,2,11,12,32,115,36,14,27,285,36,31,17,215,39,27,15,031,*7B
$GPGSV,3,3,11,18,06,346,,05,04,095,18,02,03,141,*46
$GPRMC,153709.000,A,1405.2049,S,07545.8232,W,0.08,306.97,170411,,,A*6E
$GPGGA,153710.000,1405.2050,S,07545.8231,W,1,05,1.5,468.7,M,15.2,M,,0000*54
$GPGSA,M,3,29,21,25,09,12,,,,,,,,1.8,1.5,1.0*37
$GPRMC,153710.000,A,1405.2050,S,07545.8231,W,0.04,303.95,170411,,,A*66
$GPGGA,153711.000,1405.2050,S,07545.8234,W,1,05,1.5,468.5,M,15.2,M,,0000*52
$GPGSA,M,3,29,21,25,09,12,,,,,,,,1.8,1.5,1.0*37
$GPRMC,153711.000,A,1405.2050,S,07545.8234,W,0.15,313.31,170411,,,A*6D
$GPGGA,153712.000,1405.2049,S,07545.8236,W,1,05,1.5,468.3,M,15.2,M,,0000*5D
$GPGSA,M,3,29,21,25,09,12,,,,,,,,1.8,1.5,1.0*37
$GPRMC,153712.000,A,1405.2049,S,07545.8236,W,0.13,317.52,170411,,,A*63
$GPGGA,153713.000,1405.2049,S,07545.8239,W,1,04,1.9,468.0,M,15.2,M,,0000*5D
$GPGSA,M,3,29,25,09,12,,,,,,,,,2.1,1.9,1.0*32
$GPRMC,153713.000,A,1405.2049,S,07545.8239,W,0.21,317.76,170411,,,A*6A
$GPGGA,153714.000,1405.2048,S,07545.8240,W,1,04,1.9,467.9,M,15.2,M,,0000*53
$GPGSA,M,3,29,25,09,12,,,,,,,,,2.1,1.9,1.0*32
$GPGSV,3,1,11,29,50,194,44,21,45,346,,25,43,167,46,09,35,030,37*70
$GPGSV,3,2,11,12,32,115,35,14,27,285,35,31,17,215,39,27,15,031,*7B
$GPGSV,3,3,11,18,06,346,,05,04,095,20,02,03,141,*4D
$GPRMC,153714.000,A,1405.2048,S,07545.8240,W,0.26,312.77,170411,,,A*61
$GPGGA,153715.000,1405.2048,S,07545.8238,W,1,05,1.5,468.0,M,15.2,M,,0000*56
$GPGSA,M,3,29,25,09,12,21,,,,,,,,1.8,1.5,1.0*37
$GPRMC,153715.000,A,1405.2048,S,07545.8238,W,0.05,293.09,170411,,,A*6F
$GPGGA,153716.000,1405.2049,S,07545.8234,W,1,05,1.5,468.5,M,15.2,M,,0000*5D
$GPGSA,M,3,29,25,09,12,21,,,,,,,,1.8,1.5,1.0*37
$GPRMC,153716.000,A,1405.2049,S,07545.8234,W,0.03,136.60,170411,,,A*64
$GPGGA,153717.000,1405.2050,S,07545.8231,W,1,05,1.5,469.0,M,15.2,M,,0000*55
$GPGSA,M,3,29,25,09,12,21,,,,,,,,1.8,1.5,1.0*37
$GPRMC,153717.000,A,1405.2050,S,07545.8231,W,0.03,143.64,170411,,,A*6E
$GPGGA,153717.998,1405.2050,S,07545.8229,W,1,05,1.5,468.7,M,15.2,M,,0000*52
$GPGSA,M,3,29,21,25,09,12,,,,,,,,1.8,1.5,1.0*37
$GPRMC,153717.998,A,1405.2050,S,07545.8229,W,0.10,144.65,170411,,,A*6B
$GPGGA,153719.001,1405.2050,S,07545.8229,W,1,05,1.5,468.2,M,15.2,M,,0000*50
$GPGSA,M,3,29,21,25,09,12,,,,,,,,1.8,1.5,1.0*37
$GPGSV,3,1,11,29,50,194,39,21,45,346,39,25,43,167,41,09,35,030,36*76
$GPGSV,3,2,11,12,32,115,31,14,27,285,32,31,17,215,37,27,15,031,*76
$GPGSV,3,3,11,18,06,346,,05,04,095,,02,03,141,*4F
$GPRMC,153719.001,A,1405.2050,S,07545.8229,W,0.61,252.65,170411,,,A*6E
$GPGGA,153720.001,1405.2051,S,07545.8229,W,1,05,1.5,467.7,M,15.2,M,,0000*51
$GPGSA,M,3,29,21,25,09,12,,,,,,,,1.8,1.5,1.0*37
$GPRMC,153720.001,A,1405.2051,S,07545.8229,W,0.42,247.42,170411,,,A*65
$GPGGA,153721.000,1405.2051,S,07545.8228,W,1,05,1.5,467.5,M,15.2,M,,0000*52
$GPGSA,M,3,29,21,25,09,12,,,,,,,,1.8,1.5,1.0*37
$GPRMC,153721.000,A,1405.2051,S,07545.8228,W,0.52,106.62,170411,,,A*61
$GPGGA,153722.001,1405.2052,S,07545.8228,W,1,05,1.5,467.2,M,15.2,M,,0000*54
$GPGSA,M,3,29,21,25,09,12,,,,,,,,1.8,1.5,1.0*37
$GPRMC,153722.001,A,1405.2052,S,07545.8228,W,0.78,251.91,170411,,,A*65
$GPGGA,153723.001,1405.2052,S,07545.8227,W,1,05,1.5,467.0,M,15.2,M,,0000*58
$GPGSA,M,3,29,21,25,09,12,,,,,,,,1.8,1.5,1.0*37
$GPRMC,153723.001,A,1405.2052,S,07545.8227,W,0.24,263.60,170411,,,A*6D
$GPGGA,153724.000,1405.2052,S,07545.8228,W,1,05,1.5,466.7,M,15.2,M,,0000*57
$GPGSA,M,3,29,21,25,09,12,,,,,,,,1.8,1.5,1.0*37
$GPGSV,3,1,11,29,50,194,40,21,45,346,38,25,43,167,41,09,35,030,36*79
$GPGSV,3,2,11,12,32,115,31,14,27,285,31,31,17,215,38,27,15,031,*7A
$GPGSV,3,3,11,18,06,346,,05,04,095,,02,03,141,*4F
$GPRMC,153724.000,A,1405.2052,S,07545.8228,W,0.16,215.69,170411,,,A*6D
$GPGGA,153725.000,1405.2053,S,07545.8229,W,1,05,1.5,466.3,M,15.2,M,,0000*52
$GPGSA,M,3,29,21,25,09,12,,,,,,,,1.8,1.5,1.0*37
$GPRMC,153725.000,A,1405.2053,S,07545.8229,W,0.49,260.59,170411,,,A*67
$GPGGA,153726.001,1405.2053,S,07545.8227,W,1,05,1.5,466.0,M,15.2,M,,0000*5D
$GPGSA,M,3,29,21,25,09,12,,,,,,,,1.8,1.5,1.0*37
$GPRMC,153726.001,A,1405.2053,S,07545.8227,W,0.28,230.12,170411,,,A*66
$GPGGA,153728.001,1405.2054,S,07545.8230,W,1,05,1.5,465.5,M,15.2,M,,0000*54
$GPGSA,M,3,29,21,25,09,12,,,,,,,,1.8,1.5,1.0*37
$GPRMC,153728.001,A,1405.2054,S,07545.8230,W,0.37,258.15,170411,,,A*6E
$GPGGA,153729.000,1405.2054,S,07545.8231,W,1,05,1.5,465.4,M,15.2,M,,0000*54
$GPGSA,M,3,29,21,25,09,12,,,,,,,,1.8,1.5,1.0*37
