$GPGGA,143058.000,2213.7651,S,07013.6410,W,1,07,1.2,26.3,M,34.6,M,,0000*6B
$GPGSA,M,3,29,25,12,09,21,14,31,,,,,,2.8,1.2,2.5*32
$GPRMC,143058.000,A,2213.7651,S,07013.6410,W,28.70,177.80,020511,,,A*58
$GPGGA,143059.000,2213.7732,S,07013.6406,W,1,07,1.2,25.8,M,34.6,M,,0000*61
$GPGSA,M,3,29,25,12,09,21,14,31,,,,,,2.8,1.2,2.5*32
$GPRMC,143059.000,A,2213.7732,S,07013.6406,W,29.18,178.99,020511,,,A*52
$GPGGA,143100.000,2213.7814,S,07013.6407,W,1,07,1.2,24.9,M,34.6,M,,0000*66
$GPGSA,M,3,29,25,12,09,21,14,31,,,,,,2.8,1.2,2.5*32
$GPGSV,3,1,10,29,58,213,37,25,52,175,36,12,43,111,39,09,32,021,37*7E
$GPGSV,3,2,10,21,31,341,29,14,19,285,39,31,18,218,39,02,15,138,*7B
$GPGSV,3,3,10,27,12,025,,05,09,088,*75
$GPRMC,143100.000,A,2213.7814,S,07013.6407,W,28.96,180.01,020511,,,A*54
$GPGGA,143101.002,2213.7894,S,07013.6406,W,1,07,1.2,23.4,M,34.6,M,,0000*66
$GPGSA,M,3,29,25,12,09,21,14,31,,,,,,2.8,1.2,2.5*32
$GPRMC,143101.002,A,2213.7894,S,07013.6406,W,28.80,180.81,020511,,,A*51
$GPGGA,143101.999,2213.7973,S,07013.6410,W,1,07,1.2,23.7,M,34.6,M,,0000*61
$GPGSA,M,3,29,25,12,09,21,14,31,,,,,,2.8,1.2,2.5*32
$GPRMC,143101.999,A,2213.7973,S,07013.6410,W,29.25,181.02,020511,,,A*51
$GPGGA,143102.999,2213.8056,S,07013.6413,W,1,07,1.2,23.6,M,34.6,M,,0000*61
$GPGSA,M,3,29,25,12,09,21,14,31,,,,,,2.8,1.2,2.5*32
$GPRMC,143102.999,A,2213.8056,S,07013.6413,W,29.11,181.16,020511,,,A*52
$GPGGA,143104.000,2213.8135,S,07013.6414,W,1,07,1.2,22.4,M,34.6,M,,0000*6E
$GPGSA,M,3,29,25,12,09,21,14,31,,,,,,2.8,1.2,2.5*32
$GPRMC,143104.000,A,2213.8135,S,07013.6414,W,28.93,181.36,020511,,,A*57
$GPGGA,143104.998,2213.8213,S,07013.6414,W,1,07,1.2,22.4,M,34.6,M,,0000*61
$GPGSA,M,3,29,25,12,09,21,14,31,,,,,,2.8,1.2,2.5*32
$GPGSV,3,1,10,29,58,213,37,25,52,175,36,12,43,111,38,09,32,021,34*7C
$GPGSV,3,2,10,21,31,341,30,14,19,285,37,31,18,218,39,02,15,138,*7D
$GPGSV,3,3,10,27,12,025,,05,09,088,*75
$GPRMC,143104.998,A,2213.8213,S,07013.6414,W,28.72,181.20,020511,,,A*50
$GPGGA,143106.001,2213.8292,S,07013.6415,W,1,07,1.2,21.8,M,34.6,M,,0000*6D
$GPGSA,M,3,29,25,12,09,21,14,31,,,,,,2.8,1.2,2.5*32
$GPRMC,143106.001,A,2213.8292,S,07013.6415,W,28.44,181.30,020511,,,A*57
$GPGGA,143107.002,2213.8369,S,07013.6416,W,1,06,1.5,21.4,M,34.6,M,,0000*63
$GPGSA,M,3,29,25,12,09,21,14,,,,,,,4.4,1.5,4.1*3F
$GPRMC,143107.002,A,2213.8369,S,07013.6416,W,28.69,182.22,020511,,,A*5C
$GPGGA,143107.999,2213.8448,S,07013.6423,W,1,07,1.2,21.1,M,34.6,M,,0000*69
$GPGSA,M,3,29,25,12,09,21,14,31,,,,,,2.8,1.2,2.5*32
$GPRMC,143107.999,A,2213.8448,S,07013.6423,W,28.49,185.14,020511,,,A*55
$GPGGA,143108.999,2213.8527,S,07013.6434,W,1,07,1.2,20.4,M,34.6,M,,0000*6C
$GPGSA,M,3,29,25,12,09,21,14,31,,,,,,2.8,1.2,2.5*32
$GPRMC,143108.999,A,2213.8527,S,07013.6434,W,29.35,188.53,020511,,,A*50
$GPGGA,143110.000,2213.8607,S,07013.6452,W,1,07,1.2,20.4,M,34.6,M,,0000*6D
$GPGSA,M,3,29,25,12,09,21,14,31,,,,,,2.8,1.2,2.5*32
$GPGSV,3,1,10,29,58,213,37,25,52,175,34,12,43,111,39,09,32,021,20*7A
$GPGSV,3,2,10,21,31,341,35,14,19,285,37,31,18,218,39,02,15,138,*78
$GPGSV,3,3,10,27,12,025,,05,09,088,*75
$GPRMC,143110.000,A,2213.8607,S,07013.6452,W,28.58,192.08,020511,,,A*5E
$GPGGA,143111.000,2213.8686,S,07013.6470,W,1,06,1.3,18.6,M,34.6,M,,0000*6C
$GPGSA,M,3,29,25,12,21,14,31,,,,,,,2.9,1.3,2.6*38
$GPRMC,143111.000,A,2213.8686,S,07013.6470,W,29.33,196.07,020511,,,A*51
$GPGGA,143111.997,2213.8765,S,07013.6496,W,1,07,1.2,17.6,M,34.6,M,,0000*60
$GPGSA,M,3,29,25,12,09,21,14,31,,,,,,2.8,1.2,2.5*32
$GPRMC,143111.997,A,2213.8765,S,07013.6496,W,29.38,197.65,020511,,,A*5C
$GPGGA,143112.998,2213.8843,S,07013.6524,W,1,08,1.0,16.8,M,34.6,M,,0000*6D
$GPGSA,M,3,29,25,12,09,21,14,31,27,,,,,2.2,1.0,2.0*3A
$GPRMC,143112.998,A,2213.8843,S,07013.6524,W,28.99,199.72,020511,,,A*51
$GPGGA,143114.001,2213.8919,S,07013.6556,W,1,08,1.0,16.5,M,34.6,M,,0000*64
$GPGSA,M,3,29,25,12,09,21,14,31,27,,,,,2.2,1.0,2.0*3A
$GPRMC,143114.001,A,2213.8919,S,07013.6556,W,29.58,201.86,020511,,,A*50
$GPGGA,143115.000,2213.8993,S,07013.6590,W,1,08,1.0,15.8,M,34.6,M,,0000*62
$GPGSA,M,3,29,25,12,09,21,14,31,27,,,,,2.2,1.0,2.0*3A
$GPGSV,3,1,10,29,58,213,38,25,52,175,37,12,43,111,38,09,32,021,34*72
$GPGSV,3,2,10,21,31,341,36,14,19,285,37,31,18,218,35,02,15,138,*77
$GPGSV,3,3,10,27,12,025,36,05,09,088,*70
$GPRMC,143115.000,A,2213.8993,S,07013.6590,W,29.32,204.64,020511,,,A*5D
$GPGGA,143116.003,2213.9064,S,07013.6628,W,1,08,1.0,15.2,M,34.6,M,,0000*68
$GPGSA,M,3,29,25,12,09,21,14,31,27,,,,,2.2,1.0,2.0*3A
$GPRMC,143116.003,A,2213.9064,S,07013.6628,W,28.84,207.60,020511,,,A*56
$GPGGA,143116.998,2213.9134,S,07013.6670,W,1,07,1.4,14.6,M,34.6,M,,0000*64
$GPGSA,M,3,29,25,12,09,21,14,27,,,,,,3.3,1.4,3.0*3D
$GPRMC,143116.998,A,2213.9134,S,07013.6670,W,28.21,210.66,020511,,,A*5B
$GPGGA,143117.999,2213.9202,S,07013.6711,W,1,07,1.4,13.0,M,34.6,M,,0000*65
$GPGSA,M,3,29,25,12,09,21,14,27,,,,,,3.3,1.4,3.0*3D
$GPRMC,143117.999,A,2213.9202,S,07013.6711,W,29.40,212.43,020511,,,A*58
$GPGGA,143118.998,2213.9272,S,07013.6758,W,1,06,1.6,13.0,M,34.6,M,,0000*62
$GPGSA,M,3,29,25,12,21,14,27,,,,,,,3.8,1.6,3.4*39
$GPRMC,143118.998,A,2213.9272,S,07013.6758,W,29.07,215.11,020511,,,A*5F
$GPGGA,143120.004,2213.9340,S,07013.6809,W,1,08,1.0,12.9,M,34.6,M,,0000*6E
$GPGSA,M,3,29,25,12,09,21,14,31,27,,,,,2.2,1.0,2.0*3A
$GPGSV,3,1,10,29,58,213,33,25,52,175,39,12,43,111,29,09,32,021,23*71
$GPGSV,3,2,10,21,31,341,34,14,19,285,39,31,18,218,25,02,15,138,*7A
$GPGSV,3,3,10,27,12,025,37,05,09,088,*71
$GPRMC,143120.004,A,2213.9340,S,07013.6809,W,29.19,217.19,020511,,,A*56
$GPGGA,143120.999,2213.9403,S,07013.6862,W,1,05,1.8,12.4,M,34.6,M,,0000*66
$GPGSA,M,3,29,25,21,14,27,,,,,,,,3.9,1.8,3.4*35
$GPRMC,143120.999,A,2213.9403,S,07013.6862,W,28.73,217.53,020511,,,A*55
$GPGGA,143121.996,2213.9468,S,07013.6915,W,1,06,1.6,11.9,M,34.6,M,,0000*67
$GPGSA,M,3,29,25,09,21,14,27,,,,,,,3.5,1.6,3.1*3B
$GPRMC,143121.996,A,2213.9468,S,07013.6915,W,29.62,217.82,020511,,,A*5A
$GPGGA,143123.001,2213.9534,S,07013.6969,W,1,07,1.1,10.1,M,34.6,M,,0000*6E
$GPGSA,M,3,29,25,12,21,14,31,27,,,,,,2.3,1.1,2.0*33
$GPRMC,143123.001,A,2213.9534,S,07013.6969,W,29.43,217.98,020511,,,A*54
$GPGGA,143124.002,2213.9600,S,07013.7025,W,1,05,1.8,9.2,M,34.6,M,,0000*5E
$GPGSA,M,3,29,25,21,14,27,,,,,,,,3.9,1.8,3.4*35
$GPRMC,143124.002,A,2213.9600,S,07013.7025,W,29.36,218.66,020511,,,A*58
$GPGGA,143125.000,2213.9661,S,07013.7080,W,1,07,1.1,8.9,M,34.6,M,,0000*54
$GPGSA,M,3,29,25,12,21,14,31,27,,,,,,2.3,1.1,2.0*33
$GPGSV,3,1,10,29,58,213,35,25,52,175,39,12,43,111,24,09,32,021,*7B
$GPGSV,3,2,10,21,31,341,34,14,19,285,39,31,18,218,32,02,15,138,*7C
$GPGSV,3,3,10,27,12,025,36,05,09,088,*70
$GPRMC,143125.000,A,2213.9661,S,07013.7080,W,29.18,218.64,020511,,,A*5D
$GPGGA,143126.000,2213.9725,S,07013.7136,W,1,07,1.2,7.9,M,34.6,M,,0000*56
$GPGSA,M,3,29,25,09,21,14,31,27,,,,,,2.4,1.2,2.0*3D
$GPRMC,143126.000,A,2213.9725,S,07013.7136,W,29.25,219.30,020511,,,A*5D
$GPGGA,143127.002,2213.9786,S,07013.7193,W,1,08,1.0,7.6,M,34.6,M,,0000*51
$GPGSA,M,3,29,25,12,09,21,14,31,27,,,,,2.2,1.0,2.0*3A
$GPRMC,143127.002,A,2213.9786,S,07013.7193,W,28.91,219.18,020511,,,A*5C
$GPGGA,143127.998,2213.9849,S,07013.7248,W,1,06,1.3,8.0,M,34.6,M,,0000*56
$GPGSA,M,3,29,25,21,14,31,27,,,,,,,2.4,1.3,2.0*35
$GPRMC,143127.998,A,2213.9849,S,07013.7248,W,28.72,216.54,020511,,,A*55
$GPGGA,143128.996,2213.9913,S,07013.7299,W,1,08,1.0,7.7,M,34.6,M,,0000*50
$GPGSA,M,3,29,25,12,09,21,14,31,27,,,,,2.2,1.0,2.0*3A
$GPRMC,143128.996,A,2213.9913,S,07013.7299,W,29.29,215.32,020511,,,A*5A
$GPGGA,143130.005,2213.9980,S,07013.7354,W,1,07,1.1,9.8,M,34.6,M,,0000*5F
$GPGSA,M,3,29,25,12,21,14,31,27,,,,,,2.3,1.1,2.0*33
$GPGSV,3,1,10,29,58,213,35,25,52,175,38,12,43,111,36,09,32,021,*79
$GPGSV,3,2,10,21,31,341,33,14,19,285,39,31,18,218,35,02,15,138,*7C
$GPGSV,3,3,10,27,12,025,36,05,09,088,*70
$GPRMC,143130.005,A,2213.9980,S,07013.7354,W,29.14,212.91,020511,,,A*5A
$GPGGA,143130.998,2214.0048,S,07013.7399,W,1,07,1.1,9.6,M,34.6,M,,0000*5E
$GPGSA,M,3,29,25,12,21,14,31,27,,,,,,2.3,1.1,2.0*33
$GPRMC,143130.998,A,2214.0048,S,07013.7399,W,29.03,210.63,020511,,,A*5C
$GPGGA,143131.998,2214.0118,S,07013.7443,W,1,08,1.0,12.0,M,34.6,M,,0000*69
$GPGSA,M,3,29,25,12,09,21,14,31,27,,,,,2.2,1.0,2.0*3A
$GPRMC,143131.998,A,2214.0118,S,07013.7443,W,29.87,207.41,020511,,,A*53
$GPGGA,143133.007,2214.0189,S,07013.7487,W,1,08,1.0,13.0,M,34.6,M,,0000*65
$GPGSA,M,3,29,25,12,21,09,14,31,27,,,,,2.2,1.0,2.0*3A
$GPRMC,143133.007,A,2214.0189,S,07013.7487,W,29.56,206.24,020511,,,A*50
$GPGGA,143133.996,2214.0263,S,07013.7523,W,1,08,1.0,14.3,M,34.6,M,,0000*68
$GPGSA,M,3,29,25,12,21,09,14,31,27,,,,,2.2,1.0,2.0*3A
$GPRMC,143133.996,A,2214.0263,S,07013.7523,W,28.98,201.92,020511,,,A*50
$GPGGA,143134.997,2214.0339,S,07013.7557,W,1,08,1.0,13.6,M,34.6,M,,0000*61
$GPGSA,M,3,29,25,12,21,09,14,31,27,,,,,2.2,1.0,2.0*3A
$GPGSV,3,1,10,29,58,212,37,25,53,174,34,12,43,110,40,21,31,341,37*7E
$GPGSV,3,2,10,09,31,021,30,14,19,286,37,31,19,219,35,02,15,138,*7D
$GPGSV,3,3,10,27,11,025,35,05,09,089,*71
$GPRMC,143134.997,A,2214.0339,S,07013.7557,W,28.93,200.57,020511,,,A*58
$GPGGA,143136.000,2214.0416,S,07013.7585,W,1,08,1.0,12.8,M,34.6,M,,0000*6E
$GPGSA,M,3,29,25,12,21,09,14,31,27,,,,,2.2,1.0,2.0*3A
$GPRMC,143136.000,A,2214.0416,S,07013.7585,W,29.15,199.03,020511,,,A*55
$GPGGA,143137.000,2214.0493,S,07013.7610,W,1,08,1.0,11.3,M,34.6,M,,0000*65
$GPGSA,M,3,29,25,12,21,09,14,31,27,,,,,2.2,1.0,2.0*3A
$GPRMC,143137.000,A,2214.0493,S,07013.7610,W,29.45,198.82,020511,,,A*5B
$GPGGA,143138.002,2214.0569,S,07013.7641,W,1,07,1.1,12.1,M,34.6,M,,0000*67
$GPGSA,M,3,29,25,12,21,14,31,27,,,,,,2.3,1.1,2.0*33
$GPRMC,143138.002,A,2214.0569,S,07013.7641,W,29.55,199.51,020511,,,A*58
$GPGGA,143138.997,2214.0645,S,07013.7671,W,1,08,1.0,13.4,M,34.6,M,,0000*66
$GPGSA,M,3,29,25,12,21,09,14,31,27,,,,,2.2,1.0,2.0*3A
$GPRMC,143138.997,A,2214.0645,S,07013.7671,W,29.39,199.20,020511,,,A*5F
$GPGGA,143139.999,2214.0724,S,07013.7703,W,1,08,1.0,14.8,M,34.6,M,,0000*60
$GPGSA,M,3,29,25,12,21,09,14,31,27,,,,,2.2,1.0,2.0*3A
$GPGSV,3,1,10,29,58,212,36,25,53,174,35,12,43,110,38,21,31,341,37*71
$GPGSV,3,2,10,09,31,021,31,14,19,286,35,31,19,219,34,02,15,138,*7F
$GPGSV,3,3,10,27,11,025,34,05,09,089,*70
$GPRMC,143139.999,A,2214.0724,S,07013.7703,W,29.67,199.77,020511,,,A*5B
$GPGGA,143141.005,2214.0803,S,07013.7731,W,1,08,1.0,13.8,M,34.6,M,,0000*6F
$GPGSA,M,3,29,25,12,21,09,14,31,27,,,,,2.2,1.0,2.0*3A
$GPRMC,143141.005,A,2214.0803,S,07013.7731,W,29.53,199.61,020511,,,A*53
$GPGGA,143141.996,2214.0879,S,07013.7762,W,1,08,1.0,15.4,M,34.6,M,,0000*6D
$GPGSA,M,3,29,25,12,21,09,14,31,27,,,,,2.2,1.0,2.0*3A
$GPRMC,143141.996,A,2214.0879,S,07013.7762,W,29.39,199.78,020511,,,A*5F
$GPGGA,143143.002,2214.0957,S,07013.7795,W,1,08,1.0,15.8,M,34.6,M,,0000*62
$GPGSA,M,3,29,25,12,21,09,14,31,27,,,,,2.2,1.0,2.0*3A
$GPRMC,143143.002,A,2214.0957,S,07013.7795,W,29.72,198.87,020511,,,A*52
$GPGGA,143144.001,2214.1036,S,07013.7824,W,1,08,1.0,15.7,M,34.6,M,,0000*63
$GPGSA,M,3,29,25,12,21,09,14,31,27,,,,,2.2,1.0,2.0*3A
$GPRMC,143144.001,A,2214.1036,S,07013.7824,W,29.59,199.73,020511,,,A*5F
$GPGGA,143144.999,2214.1116,S,07013.7853,W,1,07,1.4,15.9,M,34.6,M,,0000*6D
$GPGSA,M,3,29,25,12,21,09,14,27,,,,,,3.3,1.4,3.0*3D
$GPGSV,3,1,10,29,58,212,37,25,53,174,35,12,43,110,39,21,31,341,37*71
$GPGSV,3,2,10,09,31,021,29,14,19,286,36,31,19,219,,02,15,138,*72
$GPGSV,3,3,10,27,11,025,34,05,09,089,*70
$GPRMC,143144.999,A,2214.1116,S,07013.7853,W,29.22,199.05,020511,,,A*59
$GPGGA,143146.002,2214.1196,S,07013.7881,W,1,08,1.0,15.6,M,34.6,M,,0000*67
$GPGSA,M,3,29,25,12,21,09,14,31,27,,,,,2.2,1.0,2.0*3A
$GPRMC,143146.002,A,2214.1196,S,07013.7881,W,29.76,199.52,020511,,,A*54
$GPGGA,143146.998,2214.1277,S,07013.7910,W,1,07,1.1,13.8,M,34.6,M,,0000*6E
$GPGSA,M,3,29,25,12,21,14,31,27,,,,,,2.3,1.1,2.0*33
$GPRMC,143146.998,A,2214.1277,S,07013.7910,W,29.59,198.53,020511,,,A*56
$GPGGA,143147.999,2214.1355,S,07013.7935,W,1,08,1.0,13.1,M,34.6,M,,0000*6F
$GPGSA,M,3,29,25,12,21,09,14,31,27,,,,,2.2,1.0,2.0*3A
$GPRMC,143147.999,A,2214.1355,S,07013.7935,W,29.70,198.80,020511,,,A*55
$GPGGA,143148.999,2214.1430,S,07013.7967,W,1,08,1.0,14.6,M,34.6,M,,0000*63
$GPGSA,M,3,29,25,12,21,09,14,31,27,,,,,2.2,1.0,2.0*3A
$GPRMC,143148.999,A,2214.1430,S,07013.7967,W,29.74,202.47,020511,,,A*56
$GPGGA,143150.000,2214.1508,S,07013.8000,W,1,08,1.0,14.7,M,34.6,M,,0000*6F
$GPGSA,M,3,29,25,12,21,09,14,31,27,,,,,2.2,1.0,2.0*3A
$GPGSV,3,1,10,29,58,212,36,25,53,174,35,12,43,110,38,21,31,341,37*71
$GPGSV,3,2,10,09,31,021,31,14,19,286,35,31,19,219,35,02,15,138,*7E
$GPGSV,3,3,10,27,11,025,34,05,09,089,*70
$GPRMC,143150.000,A,2214.1508,S,07013.8000,W,29.35,201.50,020511,,,A*5B
$GPGGA,143150.999,2214.1586,S,07013.8029,W,1,08,1.0,16.0,M,34.6,M,,0000*6E
$GPGSA,M,3,29,25,12,21,09,14,31,27,,,,,2.2,1.0,2.0*3A
$GPRMC,143150.999,A,2214.1586,S,07013.8029,W,29.50,199.80,020511,,,A*53
$GPGGA,143151.998,2214.1665,S,07013.8055,W,1,07,1.2,15.7,M,34.6,M,,0000*62
$GPGSA,M,3,29,25,12,21,09,14,31,,,,,,2.8,1.2,2.5*32
$GPRMC,143151.998,A,2214.1665,S,07013.8055,W,28.96,198.89,020511,,,A*55
$GPGGA,143153.000,2214.1743,S,07013.8083,W,1,07,1.2,15.4,M,34.6,M,,0000*65
$GPGSA,M,3,29,25,12,21,09,14,31,,,,,,2.8,1.2,2.5*32
$GPRMC,143153.000,A,2214.1743,S,07013.8083,W,29.08,198.95,020511,,,A*5A
$GPGGA,143154.001,2214.1825,S,07013.8110,W,1,08,1.0,14.4,M,34.6,M,,0000*6B
$GPGSA,M,3,29,25,12,21,09,14,31,27,,,,,2.2,1.0,2.0*3A
$GPRMC,143154.001,A,2214.1825,S,07013.8110,W,29.17,198.42,020511,,,A*5C
$GPGGA,143154.999,2214.1901,S,07013.8138,W,1,07,1.2,14.8,M,34.6,M,,0000*6F
$GPGSA,M,3,29,25,12,21,09,14,31,,,,,,2.8,1.2,2.5*32
$GPGSV,3,1,10,29,58,212,36,25,53,174,32,12,43,110,38,21,31,341,37*76
$GPGSV,3,2,10,09,31,021,30,14,19,286,36,31,19,219,36,02,15,138,*7F
$GPGSV,3,3,10,27,11,025,,05,09,089,*77
$GPRMC,143154.999,A,2214.1901,S,07013.8138,W,28.36,199.08,020511,,,A*54
$GPGGA,143156.000,2214.1978,S,07013.8166,W,1,08,1.0,14.9,M,34.6,M,,0000*6D
$GPGSA,M,3,29,25,12,21,09,14,31,27,,,,,2.2,1.0,2.0*3A
$GPRMC,143156.000,A,2214.1978,S,07013.8166,W,29.43,198.99,020511,,,A*50
$GPGGA,143157.001,2214.2053,S,07013.8194,W,1,08,1.0,14.8,M,34.6,M,,0000*62
$GPGSA,M,3,29,25,12,21,09,14,31,27,,,,,2.2,1.0,2.0*3A
$GPRMC,143157.001,A,2214.2053,S,07013.8194,W,28.85,199.86,020511,,,A*5A
$GPGGA,143157.999,2214.2133,S,07013.8222,W,1,08,1.0,14.7,M,34.6,M,,0000*6C
$GPGSA,M,3,29,25,12,21,09,14,31,27,,,,,2.2,1.0,2.0*3A
$GPRMC,143157.999,A,2214.2133,S,07013.8222,W,29.09,201.08,020511,,,A*5A
$GPGGA,143158.998,2214.2208,S,07013.8253,W,1,07,1.2,16.3,M,34.6,M,,0000*64
$GPGSA,M,3,29,25,12,21,09,14,31,,,,,,2.8,1.2,2.5*32
$GPRMC,143158.998,A,2214.2208,S,07013.8253,W,29.95,201.03,020511,,,A*57
$GPGGA,143159.998,2214.2285,S,07013.8286,W,1,08,1.0,17.8,M,34.6,M,,0000*6F
$GPGSA,M,3,29,25,12,21,09,14,31,27,,,,,2.2,1.0,2.0*3A
$GPGSV,3,1,10,29,58,212,37,25,53,174,32,12,43,110,29,21,31,341,38*78
$GPGSV,3,2,10,09,31,021,29,14,19,286,35,31,19,219,39,02,15,138,*7B
$GPGSV,3,3,10,27,11,025,23,05,09,089,*76
$GPRMC,143159.998,A,2214.2285,S,07013.8286,W,29.97,200.17,020511,,,A*5D
$GPGGA,143201.003,2214.2365,S,07013.8317,W,1,07,1.2,18.4,M,34.6,M,,0000*62
$GPGSA,M,3,29,25,21,09,14,31,27,,,,,,2.4,1.2,2.0*3D
$GPRMC,143201.003,A,2214.2365,S,07013.8317,W,29.92,199.22,020511,,,A*5E
$GPGGA,143201.997,2214.2446,S,07013.8347,W,1,08,1.0,20.5,M,34.6,M,,0000*62
$GPGSA,M,3,29,25,12,21,09,14,31,27,,,,,2.2,1.0,2.0*3A
$GPRMC,143201.997,A,2214.2446,S,07013.8347,W,29.82,198.09,020511,,,A*50
$GPGGA,143203.002,2214.2525,S,07013.8373,W,1,07,1.2,20.7,M,34.6,M,,0000*69
$GPGSA,M,3,29,25,21,09,14,31,27,,,,,,2.4,1.2,2.0*3D
$GPRMC,143203.002,A,2214.2525,S,07013.8373,W,29.49,197.18,020511,,,A*5C
$GPGGA,143204.001,2214.2602,S,07013.8396,W,1,07,1.2,19.9,M,34.6,M,,0000*64
$GPGSA,M,3,29,25,21,09,14,31,27,,,,,,2.4,1.2,2.0*3D
$GPRMC,143204.001,A,2214.2602,S,07013.8396,W,30.12,195.33,020511,,,A*58
$GPGGA,143205.001,2214.2682,S,07013.8419,W,1,06,1.3,21.0,M,34.6,M,,0000*6F
$GPGSA,M,3,29,25,21,14,31,27,,,,,,,2.4,1.3,2.0*35
$GPGSV,3,1,10,29,58,212,36,25,53,174,32,12,43,110,,21,31,341,36*7C
$GPGSV,3,2,10,09,31,021,,14,19,286,39,31,19,219,39,02,15,138,*7C
$GPGSV,3,3,10,27,11,025,28,05,09,089,*7D
$GPRMC,143205.001,A,2214.2682,S,07013.8419,W,30.19,193.76,020511,,,A*5D
$GPGGA,143205.997,2214.2764,S,07013.8439,W,1,07,1.2,21.3,M,34.6,M,,0000*61
$GPGSA,M,3,29,25,21,09,14,31,27,,,,,,2.4,1.2,2.0*3D
$GPRMC,143205.997,A,2214.2764,S,07013.8439,W,30.11,192.26,020511,,,A*5C
$GPGGA,143207.000,2214.2843,S,07013.8459,W,1,07,1.2,22.0,M,34.6,M,,0000*68
$GPGSA,M,3,29,25,21,09,14,31,27,,,,,,2.4,1.2,2.0*3D
$GPRMC,143207.000,A,2214.2843,S,07013.8459,W,30.14,192.81,020511,,,A*5D
$GPGGA,143207.999,2214.2924,S,07013.8479,W,1,08,1.0,21.7,M,34.6,M,,0000*6A
$GPGSA,M,3,29,25,12,21,09,14,31,27,,,,,2.2,1.0,2.0*3A
$GPRMC,143207.999,A,2214.2924,S,07013.8479,W,30.35,192.63,020511,,,A*59
$GPGGA,143209.000,2214.3006,S,07013.8500,W,1,08,1.0,21.7,M,34.6,M,,0000*6A
$GPGSA,M,3,29,25,12,21,09,14,31,27,,,,,2.2,1.0,2.0*3A
$GPRMC,143209.000,A,2214.3006,S,07013.8500,W,30.68,191.63,020511,,,A*52
$GPGGA,143210.001,2214.3089,S,07013.8514,W,1,07,1.2,20.0,M,34.6,M,,0000*6A
$GPGSA,M,3,29,25,12,21,09,31,27,,,,,,2.3,1.2,2.0*3C
$GPGSV,3,1,10,29,58,212,34,25,53,174,32,12,43,110,34,21,31,341,34*7B
$GPGSV,3,2,10,09,31,021,32,14,19,286,,31,19,219,39,02,15,138,*77
$GPGSV,3,3,10,27,11,025,36,05,09,089,*72
$GPRMC,143210.001,A,2214.3089,S,07013.8514,W,30.63,192.35,020511,,,A*52
$GPGGA,143210.997,2214.3177,S,07013.8529,W,1,08,1.0,18.6,M,34.6,M,,0000*62
$GPGSA,M,3,29,25,12,21,09,14,31,27,,,,,2.2,1.0,2.0*3A
$GPRMC,143210.997,A,2214.3177,S,07013.8529,W,31.00,191.09,020511,,,A*52
$GPGGA,143212.000,2214.3262,S,07013.8555,W,1,08,1.0,20.2,M,34.6,M,,0000*64
$GPGSA,M,3,29,25,12,21,09,14,31,27,,,,,2.2,1.0,2.0*3A
$GPRMC,143212.000,A,2214.3262,S,07013.8555,W,31.35,193.46,020511,,,A*54
$GPGGA,143213.000,2214.3346,S,07013.8575,W,1,08,1.0,18.6,M,34.6,M,,0000*6F
$GPGSA,M,3,29,25,12,21,09,14,31,27,,,,,2.2,1.0,2.0*3A
$GPRMC,143213.000,A,2214.3346,S,07013.8575,W,30.88,195.05,020511,,,A*56
$GPGGA,143214.001,2214.3426,S,07013.8604,W,1,08,1.0,20.1,M,34.6,M,,0000*61
$GPGSA,M,3,29,25,12,21,09,14,31,27,,,,,2.2,1.0,2.0*3A
$GPRMC,143214.001,A,2214.3426,S,07013.8604,W,30.84,197.98,020511,,,A*5E
$GPGGA,143215.000,2214.3507,S,07013.8635,W,1,08,1.0,19.2,M,34.6,M,,0000*68
$GPGSA,M,3,29,25,12,21,09,14,31,27,,,,,2.2,1.0,2.0*3A
$GPGSV,3,1,10,29,58,212,36,25,53,174,37,12,43,110,39,21,31,341,36*73
$GPGSV,3,2,10,09,31,021,36,14,19,286,35,31,19,219,31,02,15,138,*7D
$GPGSV,3,3,10,27,11,025,37,05,09,089,*73
$GPRMC,143215.000,A,2214.3507,S,07013.8635,W,30.40,201.07,020511,,,A*5C
$GPGGA,143215.999,2214.3585,S,07013.8671,W,1,08,1.0,19.3,M,34.6,M,,0000*6A
$GPGSA,M,3,29,25,12,21,09,14,31,27,,,,,2.2,1.0,2.0*3A
$GPRMC,143215.999,A,2214.3585,S,07013.8671,W,30.01,205.51,020511,,,A*5D
$GPGGA,143217.001,2214.3661,S,07013.8710,W,1,07,1.4,19.2,M,34.6,M,,0000*65
$GPGSA,M,3,29,25,12,21,09,14,27,,,,,,3.3,1.4,3.0*3D
$GPRMC,143217.001,A,2214.3661,S,07013.8710,W,29.84,208.62,020511,,,A*50
$GPGGA,143218.001,2214.3730,S,07013.8756,W,1,07,1.2,19.0,M,34.6,M,,0000*69
$GPGSA,M,3,29,25,21,09,14,31,27,,,,,,2.4,1.2,2.0*3D
$GPRMC,143218.001,A,2214.3730,S,07013.8756,W,29.34,212.68,020511,,,A*52
$GPGGA,143219.001,2214.3796,S,07013.8808,W,1,07,1.2,19.5,M,34.6,M,,0000*65
$GPGSA,M,3,29,25,21,09,14,31,27,,,,,,2.4,1.2,2.0*3D
$GPRMC,143219.001,A,2214.3796,S,07013.8808,W,29.48,216.36,020511,,,A*5F
$GPGGA,143219.998,2214.3863,S,07013.8860,W,1,07,1.1,18.7,M,34.6,M,,0000*67
$GPGSA,M,3,29,25,12,21,14,31,27,,,,,,2.3,1.1,2.0*33
$GPGSV,3,1,10,29,58,212,36,25,53,174,37,12,43,110,27,21,31,341,35*7F
$GPGSV,3,2,10,09,31,021,,14,19,286,37,31,19,219,25,02,15,138,*7F
$GPGSV,3,3,10,27,11,025,36,05,09,089,*72
$GPRMC,143219.998,A,2214.3863,S,07013.8860,W,30.06,216.73,020511,,,A*5E
$GPGGA,143221.000,2214.3927,S,07013.8914,W,1,05,1.8,18.0,M,34.6,M,,0000*6B
$GPGSA,M,3,29,25,21,14,27,,,,,,,,3.8,1.8,3.4*34
$GPRMC,143221.000,A,2214.3927,S,07013.8914,W,29.49,217.98,020511,,,A*59
$GPGGA,143221.999,2214.3992,S,07013.8969,W,1,06,1.3,17.1,M,34.6,M,,0000*60
$GPGSA,M,3,29,25,21,14,31,27,,,,,,,2.4,1.3,2.0*35
$GPRMC,143221.999,A,2214.3992,S,07013.8969,W,29.38,218.84,020511,,,A*50
$GPGGA,143223.002,2214.4058,S,07013.9024,W,1,07,1.1,17.8,M,34.6,M,,0000*6A
$GPGSA,M,3,29,25,12,21,14,31,27,,,,,,2.3,1.1,2.0*33
$GPRMC,143223.002,A,2214.4058,S,07013.9024,W,29.25,216.24,020511,,,A*58
$GPGGA,143223.999,2214.4124,S,07013.9075,W,1,08,1.0,17.6,M,34.6,M,,0000*6F
$GPGSA,M,3,29,25,12,21,09,14,31,27,,,,,2.3,1.0,2.0*3B
$GPRMC,143223.999,A,2214.4124,S,07013.9075,W,29.87,214.89,020511,,,A*50
$GPGGA,143224.996,2214.4195,S,07013.9121,W,1,06,1.4,15.0,M,34.6,M,,0000*63
$GPGSA,M,3,29,25,12,14,31,27,,,,,,,2.7,1.4,2.3*32
$GPGSV,3,1,10,29,58,212,36,25,53,174,39,12,43,110,33,21,31,341,*72
$GPGSV,3,2,10,09,31,021,,14,19,286,35,31,19,219,29,02,15,138,*71
$GPGSV,3,3,10,27,11,025,35,05,09,089,*71
$GPRMC,143224.996,A,2214.4195,S,07013.9121,W,30.00,212.43,020511,,,A*55
$GPGGA,143226.003,2214.4269,S,07013.9167,W,1,08,1.0,15.7,M,34.6,M,,0000*6B
$GPGSA,M,3,29,25,12,21,09,14,31,27,,,,,2.3,1.0,2.0*3B
$GPRMC,143226.003,A,2214.4269,S,07013.9167,W,29.81,208.39,020511,,,A*57
$GPGGA,143227.001,2214.4342,S,07013.9205,W,1,08,1.0,15.6,M,34.6,M,,0000*66
$GPGSA,M,3,29,25,12,21,09,14,31,27,,,,,2.3,1.0,2.0*3B
$GPRMC,143227.001,A,2214.4342,S,07013.9205,W,28.46,204.57,020511,,,A*55
$GPGGA,143227.997,2214.4419,S,07013.9235,W,1,07,1.2,14.2,M,34.6,M,,0000*62
$GPGSA,M,3,29,25,21,09,14,31,27,,,,,,2.4,1.2,2.0*3D
$GPRMC,143227.997,A,2214.4419,S,07013.9235,W,29.40,201.17,020511,,,A*5F
$GPGGA,143229.000,2214.4499,S,07013.9252,W,1,07,1.2,12.5,M,34.6,M,,0000*63
$GPGSA,M,3,29,25,21,09,14,31,27,,,,,,2.4,1.2,2.0*3D
$GPRMC,143229.000,A,2214.4499,S,07013.9252,W,28.75,192.34,020511,,,A*50
$GPGGA,143230.003,2214.4576,S,07013.9266,W,1,08,1.0,13.8,M,34.6,M,,0000*6E
$GPGSA,M,3,29,25,12,21,09,14,31,27,,,,,2.3,1.0,2.0*3B
$GPGSV,3,1,10,29,58,212,38,25,53,174,37,12,43,110,34,21,31,341,35*73
$GPGSV,3,2,10,09,31,021,33,14,19,286,38,31,19,219,39,02,15,138,*7D
$GPGSV,3,3,10,27,11,025,32,05,09,089,*76
$GPRMC,143230.003,A,2214.4576,S,07013.9266,W,28.98,191.61,020511,,,A*5C
$GPGGA,143230.998,2214.4652,S,07013.9287,W,1,07,1.2,13.8,M,34.6,M,,0000*62
$GPGSA,M,3,29,25,12,21,09,14,31,,,,,,2.8,1.2,2.5*32
$GPRMC,143230.998,A,2214.4652,S,07013.9287,W,28.50,191.04,020511,,,A*5A
$GPGGA,143232.000,2214.4731,S,07013.9301,W,1,07,1.2,13.7,M,34.6,M,,0000*6C
$GPGSA,M,3,29,25,12,21,09,14,31,,,,,,2.8,1.2,2.5*32
$GPRMC,143232.000,A,2214.4731,S,07013.9301,W,28.87,189.03,020511,,,A*5F
$GPGGA,143232.999,2214.4809,S,07013.9317,W,1,07,1.2,13.7,M,34.6,M,,0000*66
$GPGSA,M,3,29,25,12,21,09,14,31,,,,,,2.8,1.2,2.5*32
$GPRMC,143232.999,A,2214.4809,S,07013.9317,W,28.06,191.45,020511,,,A*57
$GPGGA,143233.999,2214.4881,S,07013.9342,W,1,07,1.2,12.9,M,34.6,M,,0000*68
$GPGSA,M,3,29,25,12,21,09,14,31,,,,,,2.8,1.2,2.5*32
$GPRMC,143233.999,A,2214.4881,S,07013.9342,W,27.90,196.87,020511,,,A*5F
$GPGGA,143234.999,2214.4959,S,07013.9365,W,1,07,1.2,12.0,M,34.6,M,,0000*67
$GPGSA,M,3,29,25,12,21,09,14,31,,,,,,2.8,1.2,2.5*32
$GPGSV,3,1,10,29,58,212,34,25,53,174,37,12,43,110,36,21,31,341,36*7E
$GPGSV,3,2,10,09,31,021,38,14,19,286,35,31,19,219,33,02,15,138,*71
$GPGSV,3,3,10,27,11,025,,05,09,089,*77
$GPRMC,143234.999,A,2214.4959,S,07013.9365,W,28.40,199.33,020511,,,A*5B
$GPGGA,143236.000,2214.5030,S,07013.9396,W,1,07,1.2,11.1,M,34.6,M,,0000*65
$GPGSA,M,3,29,25,21,09,14,31,27,,,,,,2.4,1.2,2.0*3D
$GPRMC,143236.000,A,2214.5030,S,07013.9396,W,28.33,200.83,020511,,,A*57
$GPGGA,143236.998,2214.5102,S,07013.9432,W,1,08,1.0,10.1,M,34.6,M,,0000*68
$GPGSA,M,3,29,25,12,21,09,14,31,27,,,,,2.3,1.0,2.0*3B
$GPRMC,143236.998,A,2214.5102,S,07013.9432,W,28.61,204.76,020511,,,A*5F
$GPGGA,143237.999,2214.5173,S,07013.9486,W,1,08,1.0,10.2,M,34.6,M,,0000*62
$GPGSA,M,3,29,25,12,21,09,14,31,27,,,,,2.3,1.0,2.0*3B
$GPRMC,143237.999,A,2214.5173,S,07013.9486,W,30.37,211.39,020511,,,A*53
$GPGGA,143239.003,2214.5231,S,07013.9541,W,1,06,1.6,8.4,M,34.6,M,,0000*5E
$GPGSA,M,3,29,25,21,09,14,27,,,,,,,3.5,1.6,3.1*3B
$GPRMC,143239.003,A,2214.5231,S,07013.9541,W,28.59,216.47,020511,,,A*57
$GPGGA,143239.999,2214.5289,S,07013.9603,W,1,07,1.2,8.5,M,34.6,M,,0000*56
$GPGSA,M,3,29,25,21,09,14,31,27,,,,,,2.4,1.2,2.0*3D
$GPGSV,3,1,10,29,58,212,35,25,53,174,39,12,43,110,,21,31,341,33*71
$GPGSV,3,2,10,09,31,021,30,14,19,286,40,31,19,219,28,02,15,138,*71
$GPGSV,3,3,10,27,11,025,36,05,09,089,*72
$GPRMC,143239.999,A,2214.5289,S,07013.9603,W,29.64,219.65,020511,,,A*5B
$GPGGA,143240.998,2214.5353,S,07013.9662,W,1,07,1.2,6.7,M,34.6,M,,0000*54
$GPGSA,M,3,29,25,21,09,14,31,27,,,,,,2.4,1.2,2.0*3D
$GPRMC,143240.998,A,2214.5353,S,07013.9662,W,30.32,220.25,020511,,,A*50
$GPGGA,143242.000,2214.5415,S,07013.9729,W,1,08,1.0,6.3,M,34.6,M,,0000*5C
$GPGSA,M,3,29,25,12,21,09,14,31,27,,,,,2.3,1.0,2.0*3B
$GPRMC,143242.000,A,2214.5415,S,07013.9729,W,29.48,217.21,020511,,,A*54
$GPGGA,143243.000,2214.5477,S,07013.9792,W,1,07,1.1,7.4,M,34.6,M,,0000*51
$GPGSA,M,3,29,25,12,21,14,31,27,,,,,,2.3,1.1,2.0*33
$GPRMC,143243.000,A,2214.5477,S,07013.9792,W,28.74,213.79,020511,,,A*56
$GPGGA,143244.001,2214.5547,S,07013.9839,W,1,07,1.2,7.3,M,34.6,M,,0000*5F
$GPGSA,M,3,29,25,12,21,09,31,27,,,,,,2.4,1.2,2.0*3B
$GPRMC,143244.001,A,2214.5547,S,07013.9839,W,29.42,211.36,020511,,,A*51
$GPGGA,143244.997,2214.5617,S,07013.9880,W,1,08,1.0,5.9,M,34.6,M,,0000*58
$GPGSA,M,3,29,25,12,21,09,14,31,27,,,,,2.3,1.0,2.0*3B
$GPGSV,3,1,10,29,58,212,36,25,53,174,37,12,43,110,36,21,31,341,36*7C
$GPGSV,3,2,10,09,31,021,29,14,19,286,39,31,19,219,36,02,15,138,*78
$GPGSV,3,3,10,27,11,025,35,05,09,089,*71
$GPRMC,143244.997,A,2214.5617,S,07013.9880,W,29.02,208.96,020511,,,A*55
$GPGGA,143245.999,2214.5689,S,07013.9931,W,1,08,1.0,6.6,M,34.6,M,,0000*57
$GPGSA,M,3,29,25,12,21,09,14,31,27,,,,,2.3,1.0,2.0*3B
$GPRMC,143245.999,A,2214.5689,S,07013.9931,W,29.25,208.80,020511,,,A*54
$GPGGA,143247.000,2214.5761,S,07013.9976,W,1,08,1.0,7.3,M,34.6,M,,0000*5C
$GPGSA,M,3,29,25,12,21,09,14,31,27,,,,,2.3,1.0,2.0*3B
$GPRMC,143247.000,A,2214.5761,S,07013.9976,W,29.61,208.61,020511,,,A*54
$GPGGA,143248.003,2214.5835,S,07014.0019,W,1,08,1.0,7.5,M,34.6,M,,0000*56
$GPGSA,M,3,29,25,12,21,09,14,31,27,,,,,2.3,1.0,2.0*3B
$GPRMC,143248.003,A,2214.5835,S,07014.0019,W,28.87,211.15,020511,,,A*5A
$GPGGA,143248.999,2214.5899,S,07014.0067,W,1,08,1.0,9.4,M,34.6,M,,0000*5C
$GPGSA,M,3,29,25,12,21,09,14,31,27,,,,,2.3,1.0,2.0*3B
$GPRMC,143248.999,A,2214.5899,S,07014.0067,W,29.31,212.80,020511,,,A*5C
$GPGGA,143249.998,2214.5967,S,07014.0117,W,1,07,1.1,9.9,M,34.6,M,,0000*59
$GPGSA,M,3,29,25,12,21,14,31,27,,,,,,2.3,1.1,2.0*33
$GPGSV,3,1,10,29,58,212,35,25,53,174,39,12,43,110,32,21,31,341,36*75
$GPGSV,3,2,10,09,31,021,,14,19,286,39,31,19,219,32,02,15,138,*77
$GPGSV,3,3,10,27,11,025,37,05,09,089,*73
$GPRMC,143249.998,A,2214.5967,S,07014.0117,W,29.07,215.44,020511,,,A*50
$GPGGA,143251.002,2214.6033,S,07014.0171,W,1,08,1.0,9.4,M,34.6,M,,0000*52
$GPGSA,M,3,29,25,12,21,09,14,31,27,,,,,2.3,1.0,2.0*3B
$GPRMC,143251.002,A,2214.6033,S,07014.0171,W,29.71,216.17,020511,,,A*5C
$GPGGA,143251.998,2214.6096,S,07014.0232,W,1,07,1.2,10.9,M,34.6,M,,0000*6B
$GPGSA,M,3,29,25,21,09,14,31,27,,,,,,2.4,1.2,2.0*3D
$GPRMC,143251.998,A,2214.6096,S,07014.0232,W,29.95,216.68,020511,,,A*5F
$GPGGA,143253.002,2214.6161,S,07014.0287,W,1,08,1.0,11.4,M,34.6,M,,0000*65
$GPGSA,M,3,29,25,12,21,09,14,31,27,,,,,2.3,1.0,2.0*3B
$GPRMC,143253.002,A,2214.6161,S,07014.0287,W,29.69,218.81,020511,,,A*5A
$GPGGA,143253.998,2214.6224,S,07014.0341,W,1,06,1.3,13.0,M,34.6,M,,0000*6D
$GPGSA,M,3,29,25,21,14,31,27,,,,,,,2.4,1.3,2.0*35
$GPRMC,143253.998,A,2214.6224,S,07014.0341,W,29.13,217.91,020511,,,A*5A
$GPGGA,143255.000,2214.6287,S,07014.0394,W,1,07,1.2,13.2,M,34.6,M,,0000*60
$GPGSA,M,3,29,25,21,09,14,31,27,,,,,,2.4,1.2,2.0*3D
$GPGSV,3,1,10,29,58,212,32,25,53,174,38,12,43,110,,21,31,341,35*71
$GPGSV,3,2,10,09,31,021,24,14,19,286,39,31,19,219,36,02,15,138,*75
$GPGSV,3,3,10,27,11,025,34,05,09,089,*70
$GPRMC,143255.000,A,2214.6287,S,07014.0394,W,28.87,216.04,020511,,,A*54
$GPGGA,143256.000,2214.6349,S,07014.0447,W,1,07,1.1,13.2,M,34.6,M,,0000*6A
$GPGSA,M,3,29,25,12,21,14,31,27,,,,,,2.3,1.1,2.0*33
$GPRMC,143256.000,A,2214.6349,S,07014.0447,W,29.05,215.41,020511,,,A*54
$GPGGA,143257.002,2214.6420,S,07014.0494,W,1,08,1.0,12.5,M,34.6,M,,0000*67
$GPGSA,M,3,29,25,12,21,09,14,31,27,,,,,2.3,1.0,2.0*3B
$GPRMC,143257.002,A,2214.6420,S,07014.0494,W,29.24,212.85,020511,,,A*5D
$GPGGA,143258.000,2214.6487,S,07014.0544,W,1,08,1.0,12.8,M,34.6,M,,0000*66
$GPGSA,M,3,29,25,12,21,09,14,31,27,,,,,2.3,1.0,2.0*3B
$GPRMC,143258.000,A,2214.6487,S,07014.0544,W,29.53,210.97,020511,,,A*50
$GPGGA,143258.998,2214.6561,S,07014.0576,W,1,07,1.1,12.2,M,34.6,M,,0000*62
$GPGSA,M,3,29,25,12,21,14,31,27,,,,,,2.3,1.1,2.0*33
$GPRMC,143258.998,A,2214.6561,S,07014.0576,W,29.81,209.09,020511,,,A*50
$GPGGA,143300.002,2214.6635,S,07014.0615,W,1,08,1.0,11.6,M,34.6,M,,0000*69
$GPGSA,M,3,29,25,12,21,09,14,31,27,,,,,2.3,1.0,2.0*3B
$GPGSV,3,1,10,29,58,212,35,25,53,174,39,12,43,110,35,21,31,341,35*71
$GPGSV,3,2,10,09,31,021,33,14,19,286,37,31,19,219,27,02,15,138,*7D
$GPGSV,3,3,10,27,11,025,35,05,09,089,*71
$GPRMC,143300.002,A,2214.6635,S,07014.0615,W,30.25,209.39,020511,,,A*57
$GPGGA,143301.000,2214.6710,S,07014.0657,W,1,08,1.0,11.2,M,34.6,M,,0000*6E
$GPGSA,M,3,29,25,12,21,09,14,31,27,,,,,2.3,1.0,2.0*3B
$GPRMC,143301.000,A,2214.6710,S,07014.0657,W,30.67,208.00,020511,,,A*59
$GPGGA,143302.003,2214.6788,S,07014.0697,W,1,08,1.0,11.0,M,34.6,M,,0000*61
$GPGSA,M,3,29,25,12,21,09,14,31,27,,,,,2.3,1.0,2.0*3B
$GPRMC,143302.003,A,2214.6788,S,07014.0697,W,30.63,206.36,020511,,,A*5B
$GPGGA,143302.993,2214.6866,S,07014.0736,W,1,08,1.0,11.0,M,34.6,M,,0000*64
$GPGSA,M,3,29,25,12,21,09,14,31,27,,,,,2.3,1.0,2.0*3B
$GPRMC,143302.993,A,2214.6866,S,07014.0736,W,31.16,204.66,020511,,,A*5A
$GPGGA,143304.004,2214.6941,S,07014.0781,W,1,08,1.0,11.2,M,34.6,M,,0000*6F
$GPGSA,M,3,29,25,12,21,09,14,31,27,,,,,2.3,1.0,2.0*3B
$GPRMC,143304.004,A,2214.6941,S,07014.0781,W,30.93,205.21,020511,,,A*5D
$GPGGA,143304.996,2214.7017,S,07014.0817,W,1,08,1.0,11.3,M,34.6,M,,0000*67
$GPGSA,M,3,29,25,12,21,09,14,31,27,,,,,2.3,1.0,2.0*3B
$GPGSV,3,1,10,29,58,212,37,25,53,174,38,12,43,110,38,21,31,341,36*7C
$GPGSV,3,2,10,09,31,021,36,14,19,286,36,31,19,219,30,02,15,138,*7F
$GPGSV,3,3,10,27,11,025,35,05,09,089,*71
$GPRMC,143304.996,A,2214.7017,S,07014.0817,W,30.89,203.33,020511,,,A*5A
$GPGGA,143306.004,2214.7095,S,07014.0847,W,1,08,1.0,10.5,M,34.6,M,,0000*6F
$GPGSA,M,3,29,25,12,21,09,14,31,27,,,,,2.3,1.0,2.0*3B
$GPRMC,143306.004,A,2214.7095,S,07014.0847,W,30.81,202.24,020511,,,A*5A
$GPGGA,143306.997,2214.7178,S,07014.0885,W,1,08,1.0,10.2,M,34.6,M,,0000*67
$GPGSA,M,3,29,25,12,21,09,14,31,27,,,,,2.3,1.0,2.0*3B
$GPRMC,143306.997,A,2214.7178,S,07014.0885,W,30.84,203.04,020511,,,A*53
$GPGGA,143307.999,2214.7260,S,07014.0924,W,1,08,1.0,9.9,M,34.6,M,,0000*5B
$GPGSA,M,3,29,25,12,21,09,14,31,27,,,,,2.3,1.0,2.0*3B
$GPRMC,143307.999,A,2214.7260,S,07014.0924,W,31.26,203.05,020511,,,A*54
$GPGGA,143308.999,2214.7339,S,07014.0960,W,1,08,1.0,10.3,M,34.6,M,,0000*6B
$GPGSA,M,3,29,25,12,21,09,14,31,27,,,,,2.3,1.0,2.0*3B
$GPRMC,143308.999,A,2214.7339,S,07014.0960,W,31.37,203.35,020511,,,A*55
$GPGGA,143309.999,2214.7419,S,07014.1001,W,1,08,1.0,11.0,M,34.6,M,,0000*62
$GPGSA,M,3,29,25,12,21,09,14,31,27,,,,,2.3,1.0,2.0*3B
$GPGSV,3,1,10,29,58,212,37,25,53,174,35,12,43,110,38,21,31,341,38*7F
$GPGSV,3,2,10,09,31,021,30,14,19,286,37,31,19,219,35,02,15,138,*7D
$GPGSV,3,3,10,27,11,025,33,05,09,089,*77
$GPRMC,143309.999,A,2214.7419,S,07014.1001,W,30.80,201.55,020511,,,A*57
$GPGGA,143310.999,2214.7499,S,07014.1030,W,1,08,1.0,10.5,M,34.6,M,,0000*64
$GPGSA,M,3,29,25,12,21,09,14,31,27,,,,,2.3,1.0,2.0*3B
$GPRMC,143310.999,A,2214.7499,S,07014.1030,W,30.64,201.28,020511,,,A*55
$GPGGA,143311.999,2214.7582,S,07014.1063,W,1,08,1.0,9.4,M,34.6,M,,0000*51
$GPGSA,M,3,29,25,12,21,09,14,31,27,,,,,2.3,1.0,2.0*3B
$GPRMC,143311.999,A,2214.7582,S,07014.1063,W,30.19,201.93,020511,,,A*53
$GPGGA,143312.999,2214.7660,S,07014.1095,W,1,08,1.0,9.8,M,34.6,M,,0000*58
$GPGSA,M,3,29,25,12,21,09,14,31,27,,,,,2.3,1.0,2.0*3B
$GPRMC,143312.999,A,2214.7660,S,07014.1095,W,30.64,201.03,020511,,,A*55
$GPGGA,143314.003,2214.7737,S,07014.1125,W,1,06,1.3,10.0,M,34.6,M,,0000*60
$GPGSA,M,3,29,25,12,21,09,31,,,,,,,2.9,1.3,2.6*34
$GPRMC,143314.003,A,2214.7737,S,07014.1125,W,30.97,202.22,020511,,,A*5C
$GPGGA,143314.998,2214.7818,S,07014.1161,W,1,08,1.0,9.4,M,34.6,M,,0000*58
$GPGSA,M,3,29,25,12,21,09,14,31,27,,,,,2.3,1.0,2.0*3B
$GPGSV,3,1,10,29,58,212,38,25,53,174,32,12,43,110,39,21,31,341,38*76
$GPGSV,3,2,10,09,31,021,30,14,19,286,36,31,19,219,35,02,15,138,*7C
$GPGSV,3,3,10,27,11,025,27,05,09,089,*72
$GPRMC,143314.998,A,2214.7818,S,07014.1161,W,30.12,200.60,020511,,,A*5C
$GPGGA,143315.999,2214.7898,S,07014.1192,W,1,08,1.0,9.5,M,34.6,M,,0000*5D
$GPGSA,M,3,29,25,12,21,09,14,31,27,,,,,2.3,1.0,2.0*3B
$GPRMC,143315.999,A,2214.7898,S,07014.1192,W,29.92,201.21,020511,,,A*5C
$GPGGA,143317.000,2214.7978,S,07014.1226,W,1,08,1.0,9.7,M,34.6,M,,0000*57
$GPGSA,M,3,29,25,12,21,09,14,31,27,,,,,2.3,1.0,2.0*3B
$GPRMC,143317.000,A,2214.7978,S,07014.1226,W,30.28,201.76,020511,,,A*5F
$GPGGA,143318.002,2214.8053,S,07014.1259,W,1,08,1.0,11.8,M,34.6,M,,0000*6B
$GPGSA,M,3,29,25,12,21,09,14,31,27,,,,,2.3,1.0,2.0*3B
$GPRMC,143318.002,A,2214.8053,S,07014.1259,W,30.16,201.24,020511,,,A*5F
$GPGGA,143318.999,2214.8132,S,07014.1293,W,1,08,1.0,12.3,M,34.6,M,,0000*68
$GPGSA,M,3,29,25,12,21,09,14,31,27,,,,,2.3,1.0,2.0*3B
$GPRMC,143318.999,A,2214.8132,S,07014.1293,W,29.94,202.72,020511,,,A*56
$GPGGA,143319.999,2214.8207,S,07014.1326,W,1,08,1.0,12.5,M,34.6,M,,0000*65
$GPGSA,M,3,29,25,12,21,09,14,31,27,,,,,2.3,1.0,2.0*3B
$GPGSV,3,1,10,29,58,212,36,25,53,174,34,12,43,110,39,21,31,341,37*71
$GPGSV,3,2,10,09,31,021,31,14,19,286,36,31,19,219,37,02,15,138,*7F
$GPGSV,3,3,10,27,11,025,29,05,09,089,*7C
$GPRMC,143319.999,A,2214.8207,S,07014.1326,W,30.34,203.26,020511,,,A*5F
$GPGGA,143320.998,2214.8285,S,07014.1360,W,1,07,1.2,12.0,M,34.6,M,,0000*6E
$GPGSA,M,3,29,25,12,21,09,14,31,,,,,,2.8,1.2,2.6*31
$GPRMC,143320.998,A,2214.8285,S,07014.1360,W,30.40,203.30,020511,,,A*58
$GPGGA,143322.002,2214.8361,S,07014.1395,W,1,08,1.0,13.3,M,34.6,M,,0000*68
$GPGSA,M,3,29,25,12,21,09,14,31,27,,,,,2.3,1.0,2.0*3B
$GPRMC,143322.002,A,2214.8361,S,07014.1395,W,30.58,202.10,020511,,,A*5B
$GPGGA,143322.999,2214.8441,S,07014.1434,W,1,08,1.0,14.0,M,34.6,M,,0000*6E
$GPGSA,M,3,29,25,12,21,09,14,31,27,,,,,2.3,1.0,2.0*3B
$GPRMC,143322.999,A,2214.8441,S,07014.1434,W,30.88,202.03,020511,,,A*56
$GPGGA,143323.999,2214.8521,S,07014.1470,W,1,08,1.0,15.3,M,34.6,M,,0000*6A
$GPGSA,M,3,29,25,12,21,09,14,31,27,,,,,2.3,1.0,2.0*3B
$GPRMC,143323.999,A,2214.8521,S,07014.1470,W,30.43,202.25,020511,,,A*53
$GPGGA,143324.998,2214.8600,S,07014.1504,W,1,07,1.2,16.9,M,34.6,M,,0000*6A
$GPGSA,M,3,29,25,12,21,09,14,31,,,,,,2.8,1.2,2.6*31
$GPGSV,3,1,10,29,58,212,38,25,53,174,33,12,43,110,39,21,31,341,37*78
$GPGSV,3,2,10,09,31,021,32,14,19,286,35,31,19,219,35,02,15,138,*7D
$GPGSV,3,3,10,27,11,025,,05,09,089,*77
$GPRMC,143324.998,A,2214.8600,S,07014.1504,W,30.62,201.48,020511,,,A*5C
$GPGGA,143326.002,2214.8681,S,07014.1535,W,1,08,1.0,17.8,M,34.6,M,,0000*64
$GPGSA,M,3,29,25,12,21,09,14,31,27,,,,,2.3,1.0,2.0*3B
$GPRMC,143326.002,A,2214.8681,S,07014.1535,W,30.35,200.84,020511,,,A*5C
$GPGGA,143326.997,2214.8758,S,07014.1566,W,1,07,1.2,19.1,M,34.6,M,,0000*68
$GPGSA,M,3,29,25,12,09,14,31,27,,,,,,2.5,1.2,2.2*3E
$GPRMC,143326.997,A,2214.8758,S,07014.1566,W,30.89,202.53,020511,,,A*55
$GPGGA,143328.001,2214.8838,S,07014.1601,W,1,08,1.0,19.2,M,34.6,M,,0000*65
$GPGSA,M,3,29,25,12,21,09,14,31,27,,,,,2.3,1.0,2.0*3B
$GPRMC,143328.001,A,2214.8838,S,07014.1601,W,30.95,200.85,020511,,,A*52
$GPGGA,143328.998,2214.8919,S,07014.1632,W,1,08,1.0,19.5,M,34.6,M,,0000*69
$GPGSA,M,3,29,25,12,21,09,14,31,27,,,,,2.3,1.0,2.0*3B
$GPRMC,143328.998,A,2214.8919,S,07014.1632,W,31.06,200.11,020511,,,A*5F
$GPGGA,143330.006,2214.9001,S,07014.1663,W,1,08,1.0,21.0,M,34.6,M,,0000*65
$GPGSA,M,3,29,25,12,21,09,14,31,27,,,,,2.3,1.0,2.0*3B
$GPGSV,3,1,10,29,58,212,39,25,53,174,33,12,43,110,38,21,31,341,39*76
$GPGSV,3,2,10,09,31,021,33,14,19,286,38,31,19,219,37,02,15,138,*73
$GPGSV,3,3,10,27,11,025,24,05,09,089,*71
$GPRMC,143330.006,A,2214.9001,S,07014.1663,W,30.87,197.37,020511,,,A*5C
$GPGGA,143330.997,2214.9081,S,07014.1690,W,1,08,1.0,21.7,M,34.6,M,,0000*67
$GPGSA,M,3,29,25,12,21,09,14,31,27,,,,,2.3,1.0,2.0*3B
$GPRMC,143330.997,A,2214.9081,S,07014.1690,W,30.07,196.51,020511,,,A*50
$GPGGA,143331.999,2214.9162,S,07014.1709,W,1,08,1.0,22.4,M,34.6,M,,0000*65
$GPGSA,M,3,29,25,12,21,09,14,31,27,,,,,2.3,1.0,2.0*3B
$GPRMC,143331.999,A,2214.9162,S,07014.1709,W,29.95,191.79,020511,,,A*5C
$GPGGA,143332.998,2214.9240,S,07014.1731,W,1,07,1.1,25.8,M,34.6,M,,0000*6A
$GPGSA,M,3,29,25,12,21,14,31,27,,,,,,2.3,1.1,2.0*33
$GPRMC,143332.998,A,2214.9240,S,07014.1731,W,30.00,189.29,020511,,,A*5E
$GPGGA,143334.000,2214.9321,S,07014.1743,W,1,07,1.1,26.4,M,34.6,M,,0000*68
$GPGSA,M,3,29,25,12,21,14,31,27,,,,,,2.3,1.1,2.0*33
$GPRMC,143334.000,A,2214.9321,S,07014.1743,W,29.88,185.99,020511,,,A*5C
$GPGGA,143335.000,2214.9404,S,07014.1747,W,1,07,1.1,27.7,M,34.6,M,,0000*6F
$GPGSA,M,3,29,25,12,21,14,31,27,,,,,,2.3,1.1,2.0*33
$GPGSV,3,1,10,29,58,212,38,25,53,174,35,12,43,110,38,21,31,341,34*7C
$GPGSV,3,2,10,09,31,021,,14,19,286,37,31,19,219,39,02,15,138,*72
$GPGSV,3,3,10,27,11,025,34,05,09,089,*70
$GPRMC,143335.000,A,2214.9404,S,07014.1747,W,29.64,182.41,020511,,,A*59
$GPGGA,143336.000,2214.9487,S,07014.1748,W,1,07,1.1,27.8,M,34.6,M,,0000*67
$GPGSA,M,3,29,25,12,21,14,31,27,,,,,,2.3,1.1,2.0*33
$GPRMC,143336.000,A,2214.9487,S,07014.1748,W,29.98,179.34,020511,,,A*5B
$GPGGA,143337.000,2214.9570,S,07014.1743,W,1,07,1.2,28.7,M,34.6,M,,0000*67
$GPGSA,M,3,29,25,12,09,14,31,27,,,,,,2.5,1.2,2.2*3E
$GPRMC,143337.000,A,2214.9570,S,07014.1743,W,30.25,177.12,020511,,,A*5C
$GPGGA,143338.000,2214.9652,S,07014.1741,W,1,07,1.2,30.6,M,34.6,M,,0000*61
$GPGSA,M,3,29,25,12,09,14,31,27,,,,,,2.5,1.2,2.2*3E
$GPRMC,143338.000,A,2214.9652,S,07014.1741,W,29.42,175.60,020511,,,A*5C
$GPGGA,143338.998,2214.9734,S,07014.1735,W,1,08,1.0,31.7,M,34.6,M,,0000*66
$GPGSA,M,3,29,25,12,21,09,14,31,27,,,,,2.3,1.0,2.0*3B
$GPRMC,143338.998,A,2214.9734,S,07014.1735,W,30.18,175.68,020511,,,A*59
$GPGGA,143340.003,2214.9823,S,07014.1728,W,1,07,1.2,31.5,M,34.6,M,,0000*68
$GPGSA,M,3,29,25,12,21,09,14,31,,,,,,2.8,1.2,2.6*31
$GPGSV,3,1,10,29,58,212,36,25,53,174,37,12,43,110,39,21,31,341,26*72
$GPGSV,3,2,10,09,31,021,36,14,19,286,39,31,19,219,39,02,15,138,*79
$GPGSV,3,3,10,27,11,025,,05,09,089,*77
$GPRMC,143340.003,A,2214.9823,S,07014.1728,W,30.64,173.42,020511,,,A*5D
$GPGGA,143341.004,2214.9903,S,07014.1715,W,1,07,1.2,33.1,M,34.6,M,,0000*65
$GPGSA,M,3,29,25,12,21,09,14,31,,,,,,2.8,1.2,2.6*31
$GPRMC,143341.004,A,2214.9903,S,07014.1715,W,29.95,173.61,020511,,,A*51
$GPGGA,143341.995,2214.9987,S,07014.1706,W,1,07,1.2,33.1,M,34.6,M,,0000*6A
$GPGSA,M,3,29,25,12,21,09,14,31,,,,,,2.8,1.2,2.6*31
$GPRMC,143341.995,A,2214.9987,S,07014.1706,W,30.49,172.95,020511,,,A*5D
$GPGGA,143343.002,2215.0070,S,07014.1695,W,1,07,1.2,32.4,M,34.6,M,,0000*69
$GPGSA,M,3,29,25,12,21,09,14,31,,,,,,2.8,1.2,2.6*31
$GPRMC,143343.002,A,2215.0070,S,07014.1695,W,30.42,173.31,020511,,,A*5E
$GPGGA,143343.998,2215.0155,S,07014.1689,W,1,07,1.2,31.9,M,34.6,M,,0000*66
$GPGSA,M,3,29,25,12,21,09,14,31,,,,,,2.8,1.2,2.6*31
$GPRMC,143343.998,A,2215.0155,S,07014.1689,W,30.65,173.16,020511,,,A*5F
$GPGGA,143345.000,2215.0242,S,07014.1678,W,1,07,1.2,31.5,M,34.6,M,,0000*6F
$GPGSA,M,3,29,25,12,21,09,14,31,,,,,,2.8,1.2,2.6*31
$GPGSV,3,1,10,29,58,212,36,25,53,174,37,12,43,110,39,21,31,341,28*7C
$GPGSV,3,2,10,09,31,021,35,14,19,286,38,31,19,219,39,02,15,138,*7B
$GPGSV,3,3,10,27,11,025,,05,09,089,*77
$GPRMC,143345.000,A,2215.0242,S,07014.1678,W,31.05,173.42,020511,,,A*5C
$GPGGA,143346.000,2215.0329,S,07014.1668,W,1,07,1.2,32.3,M,34.6,M,,0000*64
$GPGSA,M,3,29,25,12,21,09,14,31,,,,,,2.8,1.2,2.6*31
$GPRMC,143346.000,A,2215.0329,S,07014.1668,W,31.47,174.30,020511,,,A*56
$GPGGA,143346.999,2215.0418,S,07014.1658,W,1,07,1.2,34.0,M,34.6,M,,0000*6E
$GPGSA,M,3,29,25,12,21,09,14,31,,,,,,2.8,1.2,2.6*31
$GPRMC,143346.999,A,2215.0418,S,07014.1658,W,31.57,173.41,020511,,,A*59
$GPGGA,143348.000,2215.0505,S,07014.1646,W,1,07,1.2,33.4,M,34.6,M,,0000*68
$GPGSA,M,3,29,25,12,21,09,14,31,,,,,,2.8,1.2,2.6*31
$GPRMC,143348.000,A,2215.0505,S,07014.1646,W,31.59,173.18,020511,,,A*5E
$GPGGA,143349.000,2215.0593,S,07014.1636,W,1,07,1.2,34.1,M,34.6,M,,0000*63
$GPGSA,M,3,29,25,12,21,09,14,31,,,,,,2.8,1.2,2.6*31
$GPRMC,143349.000,A,2215.0593,S,07014.1636,W,32.27,173.84,020511,,,A*58
$GPGGA,143349.999,2215.0681,S,07014.1629,W,1,07,1.2,36.2,M,34.6,M,,0000*65
$GPGSA,M,3,29,25,12,21,09,14,31,,,,,,2.8,1.2,2.6*31
$GPGSV,3,1,10,29,58,212,36,25,53,174,36,12,43,110,39,21,31,341,26*73
$GPGSV,3,2,10,09,31,021,36,14,19,286,39,31,19,219,39,02,15,138,*79
$GPGSV,3,3,10,27,11,025,,05,09,089,*77
$GPRMC,143349.999,A,2215.0681,S,07014.1629,W,31.17,173.99,020511,,,A*53
$GPGGA,143351.000,2215.0763,S,07014.1615,W,1,07,1.2,33.9,M,34.6,M,,0000*69
$GPGSA,M,3,29,25,12,21,09,14,31,,,,,,2.8,1.2,2.6*31
$GPRMC,143351.000,A,2215.0763,S,07014.1615,W,31.18,173.16,020511,,,A*59
$GPGGA,143352.003,2215.0850,S,07014.1605,W,1,07,1.2,33.3,M,34.6,M,,0000*6D
$GPGSA,M,3,29,25,12,21,09,14,31,,,,,,2.8,1.2,2.6*31
$GPRMC,143352.003,A,2215.0850,S,07014.1605,W,31.06,175.40,020511,,,A*5D
$GPGGA,143352.997,2215.0935,S,07014.1600,W,1,07,1.2,33.9,M,34.6,M,,0000*64
$GPGSA,M,3,29,25,12,21,09,14,31,,,,,,2.8,1.2,2.6*31
$GPRMC,143352.997,A,2215.0935,S,07014.1600,W,30.65,177.33,020511,,,A*5C
$GPGGA,143353.999,2215.1017,S,07014.1596,W,1,07,1.2,33.4,M,34.6,M,,0000*62
$GPGSA,M,3,29,25,12,21,09,14,31,,,,,,2.8,1.2,2.6*31
$GPRMC,143353.999,A,2215.1017,S,07014.1596,W,30.24,180.52,020511,,,A*5D
$GPGGA,143354.999,2215.1100,S,07014.1596,W,1,07,1.2,32.0,M,34.6,M,,0000*67
$GPGSA,M,3,29,25,12,21,09,14,31,,,,,,2.8,1.2,2.6*31
$GPGSV,3,1,10,29,58,212,37,25,53,174,35,12,43,110,38,21,31,341,32*75
$GPGSV,3,2,10,09,31,021,35,14,19,286,37,31,19,219,39,02,15,138,*74
$GPGSV,3,3,10,27,11,025,,05,09,089,*77
$GPRMC,143354.999,A,2215.1100,S,07014.1596,W,29.70,183.60,020511,,,A*56
$GPGGA,143356.000,2215.1184,S,07014.1600,W,1,07,1.2,32.9,M,34.6,M,,0000*65
$GPGSA,M,3,29,25,12,21,09,14,31,,,,,,2.8,1.2,2.6*31
$GPRMC,143356.000,A,2215.1184,S,07014.1600,W,30.70,185.88,020511,,,A*55
$GPGGA,143357.000,2215.1268,S,07014.1611,W,1,07,1.2,33.2,M,34.6,M,,0000*6F
$GPGSA,M,3,29,25,12,21,09,14,31,,,,,,2.8,1.2,2.6*31
$GPRMC,143357.000,A,2215.1268,S,07014.1611,W,30.61,189.62,020511,,,A*5D
$GPGGA,143357.998,2215.1349,S,07014.1625,W,1,06,1.5,31.8,M,34.6,M,,0000*6C
$GPGSA,M,3,29,25,12,21,09,14,,,,,,,4.3,1.5,4.0*39
$GPRMC,143357.998,A,2215.1349,S,07014.1625,W,30.13,191.02,020511,,,A*5A
$GPGGA,143359.001,2215.1433,S,07014.1644,W,1,07,1.2,31.0,M,34.6,M,,0000*68
$GPGSA,M,3,29,25,12,21,09,14,31,,,,,,2.8,1.2,2.6*31
$GPRMC,143359.001,A,2215.1433,S,07014.1644,W,30.71,194.90,020511,,,A*5A
$GPGGA,143400.000,2215.1513,S,07014.1669,W,1,07,1.2,30.3,M,34.6,M,,0000*6C
$GPGSA,M,3,29,25,12,21,09,14,31,,,,,,2.8,1.2,2.6*31
$GPGSV,3,1,10,29,58,212,37,25,53,174,37,12,43,110,39,21,31,341,37*73
$GPGSV,3,2,10,09,31,021,37,14,19,286,37,31,19,219,35,02,15,138,*7A
$GPGSV,3,3,10,27,11,025,,05,09,089,*77
$GPRMC,143400.000,A,2215.1513,S,07014.1669,W,30.79,197.22,020511,,,A*5E
$GPGGA,143401.001,2215.1593,S,07014.1696,W,1,07,1.2,29.9,M,34.6,M,,0000*66
$GPGSA,M,3,29,25,12,21,09,14,31,,,,,,2.8,1.2,2.6*31
$GPRMC,143401.001,A,2215.1593,S,07014.1696,W,30.22,199.45,020511,,,A*57
$GPGGA,143402.000,2215.1672,S,07014.1731,W,1,07,1.2,30.1,M,34.6,M,,0000*64
$GPGSA,M,3,29,25,12,21,09,14,31,,,,,,2.8,1.2,2.6*31
$GPRMC,143402.000,A,2215.1672,S,07014.1731,W,30.75,203.28,020511,,,A*5C
$GPGGA,143403.001,2215.1756,S,07014.1765,W,1,06,1.5,29.1,M,34.6,M,,0000*6C
$GPGSA,M,3,29,25,12,21,09,14,,,,,,,4.3,1.5,4.0*39
$GPRMC,143403.001,A,2215.1756,S,07014.1765,W,30.74,203.29,020511,,,A*5A
$GPGGA,143404.000,2215.1832,S,07014.1801,W,1,06,1.5,28.1,M,34.6,M,,0000*6B
$GPGSA,M,3,29,25,12,21,09,14,,,,,,,4.3,1.5,4.0*39
$GPRMC,143404.000,A,2215.1832,S,07014.1801,W,30.50,204.27,020511,,,A*53
$GPGGA,143405.000,2215.1911,S,07014.1838,W,1,06,1.5,27.7,M,34.6,M,,0000*69
$GPGSA,M,3,29,25,12,21,09,14,,,,,,,4.3,1.5,4.0*39
$GPGSV,3,1,10,29,58,212,37,25,53,174,38,12,43,110,38,21,31,341,36*7C
$GPGSV,3,2,10,09,31,021,37,14,19,286,37,31,19,219,,02,15,138,*7C
$GPGSV,3,3,10,27,11,025,,05,09,089,*77
$GPRMC,143405.000,A,2215.1911,S,07014.1838,W,30.39,204.35,020511,,,A*54
$GPGGA,143406.000,2215.1987,S,07014.1875,W,1,06,1.5,28.2,M,34.6,M,,0000*66
$GPGSA,M,3,29,25,12,21,09,14,,,,,,,4.3,1.5,4.0*39
$GPRMC,143406.000,A,2215.1987,S,07014.1875,W,29.90,203.50,020511,,,A*5E
$GPGGA,143407.000,2215.2062,S,07014.1914,W,1,06,1.5,29.6,M,34.6,M,,0000*65
$GPGSA,M,3,29,25,12,21,09,14,,,,,,,4.3,1.5,4.0*39
$GPRMC,143407.000,A,2215.2062,S,07014.1914,W,30.15,204.53,020511,,,A*59
$GPGGA,143407.998,2215.2135,S,07014.1950,W,1,07,1.2,29.1,M,34.6,M,,0000*6F
$GPGSA,M,3,29,25,12,21,09,14,31,,,,,,2.8,1.2,2.6*31
$GPRMC,143407.998,A,2215.2135,S,07014.1950,W,29.79,205.33,020511,,,A*57
$GPGGA,143409.000,2215.2210,S,07014.1989,W,1,07,1.2,29.6,M,34.6,M,,0000*6E
$GPGSA,M,3,29,25,12,21,09,14,31,,,,,,2.8,1.2,2.6*31
$GPRMC,143409.000,A,2215.2210,S,07014.1989,W,29.21,205.04,020511,,,A*58
$GPGGA,143410.000,2215.2286,S,07014.2017,W,1,07,1.2,26.9,M,34.6,M,,0000*64
$GPGSA,M,3,29,25,12,21,09,14,31,,,,,,2.8,1.2,2.6*31
$GPGSV,3,1,10,29,58,212,35,25,53,174,37,12,43,110,37,21,31,341,38*70
$GPGSV,3,2,10,09,31,021,36,14,19,286,36,31,19,219,31,02,15,138,*7E
$GPGSV,3,3,10,27,11,025,,05,09,089,*77
$GPRMC,143410.000,A,2215.2286,S,07014.2017,W,29.47,203.63,020511,,,A*55
$GPGGA,143411.000,2215.2364,S,07014.2051,W,1,07,1.2,26.3,M,34.6,M,,0000*60
$GPGSA,M,3,29,25,12,21,09,14,31,,,,,,2.8,1.2,2.6*31
$GPRMC,143411.000,A,2215.2364,S,07014.2051,W,29.04,203.88,020511,,,A*59
$GPGGA,143412.000,2215.2441,S,07014.2082,W,1,07,1.2,23.9,M,34.6,M,,0000*62
$GPGSA,M,3,29,25,12,21,09,14,31,,,,,,2.8,1.2,2.6*31
$GPRMC,143412.000,A,2215.2441,S,07014.2082,W,29.09,202.49,020511,,,A*55
$GPGGA,143412.998,2215.2515,S,07014.2112,W,1,08,1.0,22.7,M,34.6,M,,0000*60
$GPGSA,M,3,29,25,12,21,09,14,31,27,,,,,2.3,1.0,2.0*3B
$GPRMC,143412.998,A,2215.2515,S,07014.2112,W,29.06,198.89,020511,,,A*56
$GPGGA,143414.000,2215.2596,S,07014.2140,W,1,08,1.0,22.2,M,34.6,M,,0000*67
$GPGSA,M,3,29,25,12,21,09,14,31,27,,,,,2.3,1.0,2.0*3B
$GPRMC,143414.000,A,2215.2596,S,07014.2140,W,29.05,196.41,020511,,,A*5D
$GPGGA,143415.000,2215.2674,S,07014.2159,W,1,08,1.0,21.0,M,34.6,M,,0000*60
$GPGSA,M,3,29,25,12,21,09,14,31,27,,,,,2.3,1.0,2.0*3B
$GPGSV,3,1,10,29,58,212,38,25,53,174,37,12,43,110,37,21,31,341,36*73
$GPGSV,3,2,10,09,31,021,34,14,19,286,39,31,19,219,39,02,15,138,*7B
$GPGSV,3,3,10,27,11,025,31,05,09,089,*75
$GPRMC,143415.000,A,2215.2674,S,07014.2159,W,29.29,190.99,020511,,,A*56
$GPGGA,143416.002,2215.2752,S,07014.2174,W,1,08,1.0,19.5,M,34.6,M,,0000*65
$GPGSA,M,3,29,25,12,21,09,14,31,27,,,,,2.3,1.0,2.0*3B
$GPRMC,143416.002,A,2215.2752,S,07014.2174,W,29.15,187.32,020511,,,A*55
$GPGGA,143417.003,2215.2836,S,07014.2184,W,1,07,1.2,18.2,M,34.6,M,,0000*6C
$GPGSA,M,3,29,25,12,21,09,14,31,,,,,,2.8,1.2,2.6*31
$GPRMC,143417.003,A,2215.2836,S,07014.2184,W,28.89,183.35,020511,,,A*50
$GPGGA,143417.996,2215.2914,S,07014.2183,W,1,06,1.3,17.9,M,34.6,M,,0000*6B
$GPGSA,M,3,29,25,12,09,14,31,,,,,,,3.0,1.3,2.7*3B
$GPRMC,143417.996,A,2215.2914,S,07014.2183,W,29.65,180.58,020511,,,A*58
$GPGGA,143419.000,2215.2996,S,07014.2186,W,1,07,1.2,17.8,M,34.6,M,,0000*6D
$GPGSA,M,3,29,25,12,21,09,14,31,,,,,,2.8,1.2,2.6*31
$GPRMC,143419.000,A,2215.2996,S,07014.2186,W,29.82,180.08,020511,,,A*53
$GPGGA,143420.000,2215.3075,S,07014.2177,W,1,07,1.2,16.0,M,34.6,M,,0000*65
$GPGSA,M,3,29,25,12,21,09,14,31,,,,,,2.8,1.2,2.6*31
$GPGSV,3,1,10,29,58,212,39,25,53,174,40,12,43,110,34,21,31,341,31*76
$GPGSV,3,2,10,09,31,021,28,14,19,286,34,31,19,219,38,02,15,138,*7A
$GPGSV,3,3,10,27,11,025,,05,09,089,*77
$GPRMC,143420.000,A,2215.3075,S,07014.2177,W,28.38,177.53,020511,,,A*54
$GPGGA,143420.999,2215.3148,S,07014.2161,W,1,06,1.3,14.2,M,34.6,M,,0000*64
$GPGSA,M,3,29,25,12,09,14,31,,,,,,,3.0,1.3,2.7*3B
$GPRMC,143420.999,A,2215.3148,S,07014.2161,W,27.65,173.82,020511,,,A*5A
$GPGGA,143422.004,2215.3213,S,07014.2125,W,1,07,1.2,12.2,M,34.6,M,,0000*60
$GPGSA,M,3,29,25,12,21,09,14,31,,,,,,2.8,1.2,2.6*31
$GPRMC,143422.004,A,2215.3213,S,07014.2125,W,25.93,166.25,020511,,,A*5A
$GPGGA,143422.997,2215.3278,S,07014.2062,W,1,05,1.7,10.1,M,34.6,M,,0000*6A
$GPGSA,M,3,29,25,12,14,31,,,,,,,,3.2,1.7,2.7*34
$GPRMC,143422.997,A,2215.3278,S,07014.2062,W,27.18,156.84,020511,,,A*5F
$GPGGA,143423.997,2215.3347,S,07014.1978,W,1,06,1.3,7.2,M,34.6,M,,0000*55
$GPGSA,M,3,29,25,12,21,14,31,,,,,,,3.0,1.3,2.7*31
$GPRMC,143423.997,A,2215.3347,S,07014.1978,W,28.81,147.67,020511,,,A*50
$GPGGA,143425.003,2215.3406,S,07014.1891,W,1,05,1.7,7.0,M,34.6,M,,0000*56
$GPGSA,M,3,29,25,12,14,31,,,,,,,,3.2,1.7,2.7*34
$GPGSV,3,1,10,29,58,212,40,25,53,174,40,12,43,110,33,21,31,341,*7D
$GPGSV,3,2,10,09,31,021,,14,19,286,33,31,19,219,38,02,15,138,*77
$GPGSV,3,3,10,27,11,025,,05,09,089,*77
$GPRMC,143425.003,A,2215.3406,S,07014.1891,W,30.36,139.13,020511,,,A*59
$GPGGA,143425.999,2215.3464,S,07014.1817,W,1,07,1.2,6.4,M,34.6,M,,0000*54
$GPGSA,M,3,29,25,12,21,09,14,31,,,,,,2.8,1.2,2.6*31
$GPRMC,143425.999,A,2215.3464,S,07014.1817,W,29.96,137.17,020511,,,A*51
$GPGGA,143427.000,2215.3525,S,07014.1751,W,1,05,1.7,6.0,M,34.6,M,,0000*55
$GPGSA,M,3,29,25,12,14,31,,,,,,,,3.2,1.7,2.7*34
$GPRMC,143427.000,A,2215.3525,S,07014.1751,W,29.82,135.12,020511,,,A*51
$GPGGA,143427.999,2215.3581,S,07014.1683,W,1,07,1.2,7.1,M,34.6,M,,0000*5B
$GPGSA,M,3,29,25,12,21,09,14,31,,,,,,2.8,1.2,2.6*31
$GPRMC,143427.999,A,2215.3581,S,07014.1683,W,30.62,135.19,020511,,,A*55
$GPGGA,143428.999,2215.3640,S,07014.1606,W,1,07,1.2,7.6,M,34.6,M,,0000*50
$GPGSA,M,3,29,25,12,21,09,14,31,,,,,,2.8,1.2,2.6*31
$GPRMC,143428.999,A,2215.3640,S,07014.1606,W,30.56,134.23,020511,,,A*56
$GPGGA,143429.999,2215.3693,S,07014.1542,W,1,07,1.2,8.4,M,34.6,M,,0000*51
$GPGSA,M,3,29,25,12,21,09,14,31,,,,,,2.8,1.2,2.6*31
$GPGSV,3,1,10,29,58,212,39,25,53,174,39,12,43,110,35,21,31,341,33*7B
$GPGSV,3,2,10,09,31,021,27,14,19,286,36,31,19,219,39,02,15,138,*76
$GPGSV,3,3,10,27,11,025,,05,09,089,*77
$GPRMC,143429.999,A,2215.3693,S,07014.1542,W,30.01,133.28,020511,,,A*54
$GPGGA,143430.999,2215.3745,S,07014.1469,W,1,07,1.2,7.8,M,34.6,M,,0000*58
$GPGSA,M,3,29,25,12,21,09,14,31,,,,,,2.8,1.2,2.6*31
$GPRMC,143430.999,A,2215.3745,S,07014.1469,W,30.03,135.36,020511,,,A*55
$GPGGA,143431.999,2215.3800,S,07014.1403,W,1,07,1.2,6.5,M,34.6,M,,0000*57
$GPGSA,M,3,29,25,12,21,09,14,31,,,,,,2.8,1.2,2.6*31
$GPRMC,143431.999,A,2215.3800,S,07014.1403,W,29.84,136.18,020511,,,A*5E
$GPGGA,143433.001,2215.3860,S,07014.1357,W,1,07,1.2,10.0,M,34.6,M,,0000*6F
$GPGSA,M,3,29,25,12,21,09,31,14,,,,,,2.8,1.2,2.6*31
$GPRMC,143433.001,A,2215.3860,S,07014.1357,W,29.92,136.72,020511,,,A*5F
$GPGGA,143433.998,2215.3917,S,07014.1291,W,1,07,1.2,9.9,M,34.6,M,,0000*5D
$GPGSA,M,3,29,25,12,21,09,31,14,,,,,,2.8,1.2,2.6*31
$GPRMC,143433.998,A,2215.3917,S,07014.1291,W,29.76,136.67,020511,,,A*52
$GPGGA,143435.000,2215.3979,S,07014.1226,W,1,07,1.2,9.8,M,34.6,M,,0000*56
$GPGSA,M,3,29,25,12,21,09,31,14,,,,,,2.8,1.2,2.6*31
$GPGSV,3,1,10,29,58,209,39,25,53,172,39,12,42,108,35,21,33,341,31*7F
$GPGSV,3,2,10,09,30,020,29,31,20,219,38,14,19,287,38,02,14,138,*7D
$GPGSV,3,3,10,27,10,025,,05,10,090,*76
$GPRMC,143435.000,A,2215.3979,S,07014.1226,W,30.18,137.08,020511,,,A*50
$GPGGA,143436.001,2215.4035,S,07014.1159,W,1,07,1.2,9.6,M,34.6,M,,0000*57
$GPGSA,M,3,29,25,12,21,09,31,14,,,,,,2.8,1.2,2.6*31
$GPRMC,143436.001,A,2215.4035,S,07014.1159,W,29.79,135.92,020511,,,A*51
$GPGGA,143436.999,2215.4096,S,07014.1090,W,1,07,1.2,9.5,M,34.6,M,,0000*51
$GPGSA,M,3,29,25,12,21,09,31,14,,,,,,2.8,1.2,2.6*31
$GPRMC,143436.999,A,2215.4096,S,07014.1090,W,29.88,136.88,020511,,,A*52
$GPGGA,143437.999,2215.4154,S,07014.1025,W,1,07,1.2,11.5,M,34.6,M,,0000*68
$GPGSA,M,3,29,25,12,21,09,31,14,,,,,,2.8,1.2,2.6*31
$GPRMC,143437.999,A,2215.4154,S,07014.1025,W,29.97,137.33,020511,,,A*5D
$GPGGA,143438.999,2215.4213,S,07014.0961,W,1,07,1.2,12.1,M,34.6,M,,0000*68
$GPGSA,M,3,29,25,12,21,09,31,14,,,,,,2.8,1.2,2.6*31
$GPRMC,143438.999,A,2215.4213,S,07014.0961,W,29.53,136.95,020511,,,A*5F
$GPGGA,143440.001,2215.4276,S,07014.0907,W,1,07,1.2,13.4,M,34.6,M,,0000*68
$GPGSA,M,3,29,25,12,21,09,31,14,,,,,,2.8,1.2,2.6*31
$GPGSV,3,1,10,29,58,209,39,25,53,172,39,12,42,108,35,21,33,341,33*7D
$GPGSV,3,2,10,09,30,020,27,31,20,219,37,14,19,287,37,02,14,138,*73
$GPGSV,3,3,10,27,10,025,,05,10,090,*76
$GPRMC,143440.001,A,2215.4276,S,07014.0907,W,29.69,136.97,020511,,,A*50
$GPGGA,143440.998,2215.4335,S,07014.0847,W,1,07,1.2,13.0,M,34.6,M,,0000*66
$GPGSA,M,3,29,25,12,21,09,31,14,,,,,,2.8,1.2,2.6*31
$GPRMC,143440.998,A,2215.4335,S,07014.0847,W,29.82,136.79,020511,,,A*5F
$GPGGA,143442.000,2215.4391,S,07014.0785,W,1,07,1.2,13.0,M,34.6,M,,0000*63
$GPGSA,M,3,29,25,12,21,09,31,14,,,,,,2.8,1.2,2.6*31
$GPRMC,143442.000,A,2215.4391,S,07014.0785,W,29.31,137.21,020511,,,A*5E
$GPGGA,143443.000,2215.4448,S,07014.0725,W,1,07,1.2,14.3,M,34.6,M,,0000*6F
$GPGSA,M,3,29,25,12,21,09,31,14,,,,,,2.8,1.2,2.6*31
$GPRMC,143443.000,A,2215.4448,S,07014.0725,W,29.42,137.12,020511,,,A*52
$GPGGA,143444.000,2215.4508,S,07014.0666,W,1,07,1.2,13.6,M,34.6,M,,0000*69
$GPGSA,M,3,29,25,12,21,09,31,14,,,,,,2.8,1.2,2.6*31
$GPRMC,143444.000,A,2215.4508,S,07014.0666,W,29.22,136.89,020511,,,A*53
$GPGGA,143445.001,2215.4570,S,07014.0608,W,1,07,1.2,14.2,M,34.6,M,,0000*6D
$GPGSA,M,3,29,25,12,21,09,31,14,,,,,,2.8,1.2,2.6*31
$GPGSV,3,1,10,29,58,209,38,25,53,172,40,12,42,108,35,21,33,341,34*75
$GPGSV,3,2,10,09,30,020,27,31,20,219,37,14,19,287,37,02,14,138,*73
$GPGSV,3,3,10,27,10,025,,05,10,090,*76
$GPRMC,143445.001,A,2215.4570,S,07014.0608,W,29.83,137.91,020511,,,A*57
$GPGGA,143446.002,2215.4628,S,07014.0550,W,1,07,1.2,15.3,M,34.6,M,,0000*6D
$GPGSA,M,3,29,25,12,21,09,31,14,,,,,,2.8,1.2,2.6*31
$GPRMC,143446.002,A,2215.4628,S,07014.0550,W,29.24,137.60,020511,,,A*54
$GPGGA,143446.997,2215.4690,S,07014.0491,W,1,07,1.2,16.5,M,34.6,M,,0000*62
$GPGSA,M,3,29,25,12,21,09,31,14,,,,,,2.8,1.2,2.6*31
$GPRMC,143446.997,A,2215.4690,S,07014.0491,W,29.42,137.97,020511,,,A*56
$GPGGA,143447.998,2215.4750,S,07014.0432,W,1,06,1.3,17.1,M,34.6,M,,0000*6D
$GPGSA,M,3,29,25,12,21,31,14,,,,,,,3.0,1.3,2.7*31
$GPRMC,143447.998,A,2215.4750,S,07014.0432,W,29.31,137.06,020511,,,A*50
$GPGGA,143449.002,2215.4802,S,07014.0374,W,1,07,1.2,18.7,M,34.6,M,,0000*6D
$GPGSA,M,3,29,25,12,21,09,31,14,,,,,,2.8,1.2,2.6*31
$GPRMC,143449.002,A,2215.4802,S,07014.0374,W,28.69,137.03,020511,,,A*50
$GPGGA,143450.000,2215.4859,S,07014.0313,W,1,07,1.2,19.5,M,34.6,M,,0000*6B
$GPGSA,M,3,29,25,12,21,09,31,14,,,,,,2.8,1.2,2.6*31
$GPGSV,3,1,10,29,58,209,39,25,53,172,39,12,42,108,35,21,33,341,36*78
$GPGSV,3,2,10,09,30,020,28,31,20,219,37,14,19,287,37,02,14,138,*7C
$GPGSV,3,3,10,27,10,025,,05,10,090,*76
$GPRMC,143450.000,A,2215.4859,S,07014.0313,W,28.30,137.34,020511,,,A*5D
$GPGGA,143451.000,2215.4916,S,07014.0257,W,1,07,1.2,19.6,M,34.6,M,,0000*62
$GPGSA,M,3,29,25,12,21,09,31,14,,,,,,2.8,1.2,2.6*31
$GPRMC,143451.000,A,2215.4916,S,07014.0257,W,27.98,136.99,020511,,,A*5C
$GPGGA,143451.998,2215.4974,S,07014.0202,W,1,06,1.5,21.3,M,34.6,M,,0000*66
$GPGSA,M,3,29,25,12,21,09,14,,,,,,,4.3,1.5,4.0*39
$GPRMC,143451.998,A,2215.4974,S,07014.0202,W,27.76,136.22,020511,,,A*50
$GPGGA,143453.002,2215.5029,S,07014.0144,W,1,07,1.2,21.8,M,34.6,M,,0000*62
$GPGSA,M,3,29,25,12,21,09,31,14,,,,,,2.8,1.2,2.6*31
$GPRMC,143453.002,A,2215.5029,S,07014.0144,W,27.63,136.63,020511,,,A*58
$GPGGA,143454.000,2215.5091,S,07014.0091,W,1,07,1.2,23.6,M,34.6,M,,0000*61
$GPGSA,M,3,29,25,12,21,09,31,14,,,,,,2.8,1.2,2.6*31
$GPRMC,143454.000,A,2215.5091,S,07014.0091,W,26.82,136.20,020511,,,A*5E
$GPGGA,143455.000,2215.5148,S,07014.0039,W,1,07,1.2,25.6,M,34.6,M,,0000*61
$GPGSA,M,3,29,25,12,21,09,31,14,,,,,,2.8,1.2,2.6*31
$GPGSV,3,1,10,29,58,209,38,25,53,172,40,12,42,108,34,21,33,341,36*76
$GPGSV,3,2,10,09,30,020,29,31,20,219,35,14,19,287,37,02,14,138,*7F
$GPGSV,3,3,10,27,10,025,,05,10,090,*76
$GPRMC,143455.000,A,2215.5148,S,07014.0039,W,26.51,136.85,020511,,,A*59
$GPGGA,143455.999,2215.5204,S,07013.9988,W,1,07,1.2,27.9,M,34.6,M,,0000*63
$GPGSA,M,3,29,25,12,21,09,31,14,,,,,,2.8,1.2,2.6*31
$GPRMC,143455.999,A,2215.5204,S,07013.9988,W,26.10,136.11,020511,,,A*5E
$GPGGA,143457.003,2215.5257,S,07013.9937,W,1,07,1.2,30.2,M,34.6,M,,0000*64
$GPGSA,M,3,29,25,12,21,09,31,14,,,,,,2.8,1.2,2.6*31
$GPRMC,143457.003,A,2215.5257,S,07013.9937,W,26.07,136.10,020511,,,A*53
$GPGGA,143457.997,2215.5307,S,07013.9880,W,1,07,1.2,30.7,M,34.6,M,,0000*6C
$GPGSA,M,3,29,25,12,21,09,31,14,,,,,,2.8,1.2,2.6*31
$GPRMC,143457.997,A,2215.5307,S,07013.9880,W,26.32,136.17,020511,,,A*5F
$GPGGA,143458.997,2215.5360,S,07013.9823,W,1,07,1.2,31.0,M,34.6,M,,0000*6D
$GPGSA,M,3,29,25,12,21,09,31,14,,,,,,2.8,1.2,2.6*31
$GPRMC,143458.997,A,2215.5360,S,07013.9823,W,26.42,136.97,020511,,,A*57
$GPGGA,143500.003,2215.5415,S,07013.9766,W,1,07,1.2,30.7,M,34.6,M,,0000*68
$GPGSA,M,3,29,25,12,21,09,31,14,,,,,,2.8,1.2,2.6*31
$GPGSV,3,1,10,29,58,209,37,25,53,172,39,12,42,108,34,21,33,341,34*75
$GPGSV,3,2,10,09,30,020,28,31,20,219,36,14,19,287,37,02,14,138,*7D
$GPGSV,3,3,10,27,10,025,,05,10,090,*76
$GPRMC,143500.003,A,2215.5415,S,07013.9766,W,26.54,136.66,020511,,,A*5D
$GPGGA,143500.999,2215.5465,S,07013.9713,W,1,07,1.2,33.3,M,34.6,M,,0000*60
$GPGSA,M,3,29,25,12,21,09,31,14,,,,,,2.8,1.2,2.6*31
$GPRMC,143500.999,A,2215.5465,S,07013.9713,W,27.04,136.70,020511,,,A*51
$GPGGA,143502.000,2215.5527,S,07013.9652,W,1,07,1.2,32.5,M,34.6,M,,0000*6F
$GPGSA,M,3,29,25,12,21,09,31,14,,,,,,2.8,1.2,2.6*31
$GPRMC,143502.000,A,2215.5527,S,07013.9652,W,27.05,135.19,020511,,,A*54
$GPGGA,143502.999,2215.5581,S,07013.9594,W,1,07,1.2,32.7,M,34.6,M,,0000*61
$GPGSA,M,3,29,25,12,21,09,31,14,,,,,,2.8,1.2,2.6*31
$GPRMC,143502.999,A,2215.5581,S,07013.9594,W,27.56,136.64,020511,,,A*57
$GPGGA,143504.002,2215.5637,S,07013.9536,W,1,07,1.2,35.9,M,34.6,M,,0000*63
$GPGSA,M,3,29,25,12,21,09,31,14,,,,,,2.8,1.2,2.6*31
$GPRMC,143504.002,A,2215.5637,S,07013.9536,W,27.81,135.47,020511,,,A*54
$GPGGA,143504.998,2215.5693,S,07013.9476,W,1,07,1.2,37.4,M,34.6,M,,0000*6D
$GPGSA,M,3,29,25,12,21,09,31,14,,,,,,2.8,1.2,2.6*31
$GPGSV,3,1,10,29,58,209,39,25,53,172,39,12,42,108,33,21,33,341,35*7D
$GPGSV,3,2,10,09,30,020,30,31,20,219,36,14,19,287,37,02,14,138,*74
$GPGSV,3,3,10,27,10,025,,05,10,090,*76
$GPRMC,143504.998,A,2215.5693,S,07013.9476,W,27.43,136.81,020511,,,A*52
$GPGGA,143506.000,2215.5749,S,07013.9418,W,1,07,1.2,37.7,M,34.6,M,,0000*6A
$GPGSA,M,3,29,25,12,21,09,31,14,,,,,,2.8,1.2,2.6*31
$GPRMC,143506.000,A,2215.5749,S,07013.9418,W,27.87,136.42,020511,,,A*51
$GPGGA,143507.000,2215.5805,S,07013.9355,W,1,07,1.2,36.6,M,34.6,M,,0000*62
$GPGSA,M,3,29,25,12,21,09,31,14,,,,,,2.8,1.2,2.6*31
$GPRMC,143507.000,A,2215.5805,S,07013.9355,W,27.83,136.18,020511,,,A*52
$GPGGA,143508.001,2215.5862,S,07013.9298,W,1,06,1.3,39.1,M,34.6,M,,0000*65
$GPGSA,M,3,29,25,12,21,31,14,,,,,,,3.0,1.3,2.7*31
$GPRMC,143508.001,A,2215.5862,S,07013.9298,W,28.22,137.19,020511,,,A*59
$GPGGA,143508.998,2215.5919,S,07013.9237,W,1,07,1.2,38.7,M,34.6,M,,0000*63
$GPGSA,M,3,29,25,12,21,09,31,14,,,,,,2.8,1.2,2.6*31
$GPRMC,143508.998,A,2215.5919,S,07013.9237,W,28.96,137.06,020511,,,A*59
$GPGGA,143510.000,2215.5975,S,07013.9178,W,1,07,1.2,40.2,M,34.6,M,,0000*6A
$GPGSA,M,3,29,25,12,21,09,31,14,,,,,,2.8,1.2,2.6*31
$GPGSV,3,1,10,29,58,209,39,25,53,172,40,12,42,108,30,21,33,341,28*7C
$GPGSV,3,2,10,09,30,020,27,31,20,219,37,14,19,287,36,02,14,138,*72
$GPGSV,3,3,10,27,10,025,,05,10,090,*76
$GPRMC,143510.000,A,2215.5975,S,07013.9178,W,29.29,137.65,020511,,,A*5A
$GPGGA,143511.003,2215.6036,S,07013.9115,W,1,06,1.3,42.8,M,34.6,M,,0000*66
$GPGSA,M,3,29,25,12,09,31,14,,,,,,,3.0,1.3,2.7*3B
$GPRMC,143511.003,A,2215.6036,S,07013.9115,W,29.82,136.61,020511,,,A*5A
$GPGGA,143512.000,2215.6093,S,07013.9049,W,1,06,1.3,41.4,M,34.6,M,,0000*6E
$GPGSA,M,3,29,25,12,09,31,14,,,,,,,3.0,1.3,2.7*3B
$GPRMC,143512.000,A,2215.6093,S,07013.9049,W,29.90,136.65,020511,,,A*5A
$GPGGA,143512.996,2215.6151,S,07013.8984,W,1,06,1.3,41.5,M,34.6,M,,0000*6F
$GPGSA,M,3,29,25,12,09,31,14,,,,,,,3.0,1.3,2.7*3B
$GPRMC,143512.996,A,2215.6151,S,07013.8984,W,30.23,135.03,020511,,,A*59
