$GPGGA,182046.001,1430.6292,S,07316.1713,W,1,08,0.9,4132.9,M,25.9,M,,0000*67
$GPGSA,M,3,21,30,22,31,25,16,29,06,,,,,2.4,0.9,2.2*3E
$GPGSV,3,1,11,18,56,051,,21,46,164,33,30,46,209,39,22,40,003,37*74
$GPGSV,3,2,11,31,39,307,29,25,35,047,35,16,23,211,27,29,19,115,38*77
$GPGSV,3,3,11,06,15,232,32,03,06,238,,14,05,355,36*43
$GPRMC,182046.001,A,1430.6292,S,07316.1713,W,23.03,331.85,200411,,,A*5F
$GPGGA,182046.998,1430.6233,S,07316.1743,W,1,07,1.0,4132.2,M,25.9,M,,0000*6C
$GPGSA,M,3,21,30,22,31,25,29,06,,,,,,2.5,1.0,2.3*31
$GPRMC,182046.998,A,1430.6233,S,07316.1743,W,22.92,333.71,200411,,,A*58
$GPGGA,182048.000,1430.6175,S,07316.1772,W,1,08,0.9,4131.6,M,25.9,M,,0000*69
$GPGSA,M,3,18,21,30,22,31,25,29,06,,,,,2.2,0.9,2.0*34
$GPRMC,182048.000,A,1430.6175,S,07316.1772,W,23.05,334.48,200411,,,A*5F
$GPGGA,182049.001,1430.6121,S,07316.1795,W,1,09,0.9,4131.4,M,25.9,M,,0000*62
$GPGSA,M,3,18,21,30,22,31,25,16,29,06,,,,2.2,0.9,2.0*33
$GPRMC,182049.001,A,1430.6121,S,07316.1795,W,23.01,334.73,200411,,,A*5B
$GPGGA,182049.998,1430.6067,S,07316.1825,W,1,08,0.9,4132.5,M,25.9,M,,0000*6F
$GPGSA,M,3,18,21,30,22,31,25,29,06,,,,,2.2,0.9,2.0*34
$GPRMC,182049.998,A,1430.6067,S,07316.1825,W,23.11,334.93,200411,,,A*5A
$GPGGA,182051.000,1430.6010,S,07316.1854,W,1,08,0.9,4131.5,M,25.9,M,,0000*6B
$GPGSA,M,3,18,21,30,22,31,25,29,06,,,,,2.2,0.9,2.0*34
$GPGSV,3,1,11,18,56,051,29,21,46,164,32,30,46,209,39,22,40,003,37*7E
$GPGSV,3,2,11,31,39,307,33,25,35,047,36,16,23,211,,29,19,115,37*75
$GPGSV,3,3,11,06,15,232,33,03,06,238,,14,05,355,*47
$GPRMC,182051.000,A,1430.6010,S,07316.1854,W,22.55,332.94,200411,,,A*5D
$GPGGA,182052.002,1430.5952,S,07316.1882,W,1,07,1.0,4131.9,M,25.9,M,,0000*66
$GPGSA,M,3,21,30,22,31,25,29,06,,,,,,2.5,1.0,2.3*31
$GPRMC,182052.002,A,1430.5952,S,07316.1882,W,22.49,335.64,200411,,,A*5E
$GPGGA,182053.002,1430.5899,S,07316.1905,W,1,07,1.0,4132.1,M,25.9,M,,0000*64
$GPGSA,M,3,18,30,21,22,31,16,29,,,,,,2.6,1.0,2.4*3A
$GPRMC,182053.002,A,1430.5899,S,07316.1905,W,22.65,338.73,200411,,,A*52
$GPGGA,182053.999,1430.5842,S,07316.1923,W,1,08,1.0,4131.4,M,25.9,M,,0000*64
$GPGSA,M,3,18,30,21,22,31,25,16,29,,,,,2.6,1.0,2.4*3D
$GPRMC,182053.999,A,1430.5842,S,07316.1923,W,22.88,344.29,200411,,,A*5C
$GPGGA,182054.997,1430.5778,S,07316.1941,W,1,08,1.0,4130.1,M,25.9,M,,0000*6B
$GPGSA,M,3,18,30,21,22,31,25,16,29,,,,,2.6,1.0,2.4*3D
$GPRMC,182054.997,A,1430.5778,S,07316.1941,W,22.68,348.52,200411,,,A*59
$GPGGA,182055.999,1430.5717,S,07316.1949,W,1,07,1.0,4130.5,M,25.9,M,,0000*6E
$GPGSA,M,3,18,21,22,31,25,16,29,,,,,,2.8,1.0,2.6*32
$GPGSV,3,1,11,18,56,054,38,30,47,209,,21,45,163,38,22,41,004,36*79
$GPGSV,3,2,11,31,38,308,37,25,34,045,41,16,24,211,37,29,19,113,32*7C
$GPGSV,3,3,11,06,15,231,,03,06,237,,14,05,356,*48
$GPRMC,182055.999,A,1430.5717,S,07316.1949,W,23.27,354.86,200411,,,A*59
$GPGGA,182057.000,1430.5649,S,07316.1948,W,1,08,1.0,4129.3,M,25.9,M,,0000*6F
$GPGSA,M,3,18,30,21,22,31,25,16,29,,,,,2.6,1.0,2.4*3D
$GPRMC,182057.000,A,1430.5649,S,07316.1948,W,23.55,0.39,200411,,,A*5A
$GPGGA,182058.002,1430.5586,S,07316.1944,W,1,07,1.2,4130.0,M,25.9,M,,0000*68
$GPGSA,M,3,18,30,21,22,25,16,29,,,,,,2.8,1.2,2.5*32
$GPRMC,182058.002,A,1430.5586,S,07316.1944,W,23.08,5.33,200411,,,A*5C
$GPGGA,182059.000,1430.5521,S,07316.1934,W,1,08,1.0,4128.7,M,25.9,M,,0000*62
$GPGSA,M,3,18,30,21,22,31,25,16,29,,,,,2.6,1.0,2.4*3D
$GPRMC,182059.000,A,1430.5521,S,07316.1934,W,23.25,6.85,200411,,,A*54
$GPGGA,182059.998,1430.5458,S,07316.1922,W,1,07,1.2,4128.0,M,25.9,M,,0000*68
$GPGSA,M,3,18,30,21,22,25,16,29,,,,,,2.8,1.2,2.5*32
$GPRMC,182059.998,A,1430.5458,S,07316.1922,W,22.75,11.66,200411,,,A*6B
$GPGGA,182100.999,1430.5397,S,07316.1906,W,1,06,1.7,4126.9,M,25.9,M,,0000*65
$GPGSA,M,3,18,30,21,22,25,29,,,,,,,3.9,1.7,3.5*31
$GPGSV,3,1,11,18,56,054,31,30,47,209,37,21,45,163,30,22,41,004,33*79
$GPGSV,3,2,11,31,38,308,,25,34,045,36,16,24,211,,29,19,113,37*79
$GPGSV,3,3,11,06,15,231,,03,06,237,,14,05,356,*48
$GPRMC,182100.999,A,1430.5397,S,07316.1906,W,23.36,12.13,200411,,,A*62
$GPGGA,182102.000,1430.5331,S,07316.1891,W,1,07,1.2,4126.5,M,25.9,M,,0000*65
$GPGSA,M,3,18,30,21,22,25,16,29,,,,,,2.8,1.2,2.5*32
$GPRMC,182102.000,A,1430.5331,S,07316.1891,W,23.99,10.92,200411,,,A*64
$GPGGA,182103.000,1430.5267,S,07316.1876,W,1,07,1.2,4126.0,M,25.9,M,,0000*6A
$GPGSA,M,3,18,30,21,22,25,16,29,,,,,,2.8,1.2,2.5*32
$GPRMC,182103.000,A,1430.5267,S,07316.1876,W,24.31,10.76,200411,,,A*61
$GPGGA,182104.000,1430.5202,S,07316.1865,W,1,07,1.2,4125.5,M,25.9,M,,0000*6A
$GPGSA,M,3,18,30,21,22,25,16,29,,,,,,2.8,1.2,2.5*32
$GPRMC,182104.000,A,1430.5202,S,07316.1865,W,24.27,11.57,200411,,,A*62
$GPGGA,182105.000,1430.5136,S,07316.1850,W,1,07,1.2,4124.8,M,25.9,M,,0000*65
$GPGSA,M,3,18,30,21,22,25,16,29,,,,,,2.8,1.2,2.5*32
$GPRMC,182105.000,A,1430.5136,S,07316.1850,W,23.31,12.19,200411,,,A*68
$GPGGA,182106.000,1430.5074,S,07316.1839,W,1,07,1.2,4125.3,M,25.9,M,,0000*64
$GPGSA,M,3,18,30,21,22,25,16,29,,,,,,2.8,1.2,2.5*32
$GPGSV,3,1,11,18,56,054,32,30,47,209,37,21,45,163,31,22,41,004,32*7A
$GPGSV,3,2,11,31,38,308,,25,34,045,37,16,24,211,33,29,19,113,36*79
$GPGSV,3,3,11,06,15,231,,03,06,237,,14,05,356,*48
$GPRMC,182106.000,A,1430.5074,S,07316.1839,W,23.14,12.14,200411,,,A*69
$GPGGA,182107.000,1430.5012,S,07316.1826,W,1,07,1.2,4123.9,M,25.9,M,,0000*67
$GPGSA,M,3,18,30,21,22,25,16,29,,,,,,2.8,1.2,2.5*32
$GPRMC,182107.000,A,1430.5012,S,07316.1826,W,22.77,10.92,200411,,,A*6E
$GPGGA,182107.999,1430.4952,S,07316.1813,W,1,06,1.7,4125.1,M,25.9,M,,0000*6E
$GPGSA,M,3,18,30,21,22,25,29,,,,,,,3.9,1.7,3.5*31
$GPRMC,182107.999,A,1430.4952,S,07316.1813,W,22.28,9.50,200411,,,A*51
$GPGGA,182108.999,1430.4892,S,07316.1800,W,1,06,1.7,4126.2,M,25.9,M,,0000*6E
$GPGSA,M,3,18,30,21,22,25,29,,,,,,,3.9,1.7,3.5*31
$GPRMC,182108.999,A,1430.4892,S,07316.1800,W,22.11,10.21,200411,,,A*65
$GPGGA,182109.999,1430.4833,S,07316.1787,W,1,06,1.7,4126.9,M,25.9,M,,0000*6F
$GPGSA,M,3,18,30,21,22,25,29,,,,,,,3.9,1.7,3.5*31
$GPRMC,182109.999,A,1430.4833,S,07316.1787,W,21.30,12.77,200411,,,A*6E
$GPGGA,182110.998,1430.4778,S,07316.1774,W,1,06,1.7,4127.6,M,25.9,M,,0000*64
$GPGSA,M,3,18,30,21,22,25,29,,,,,,,3.9,1.7,3.5*31
$GPGSV,3,1,11,18,56,054,33,30,47,209,36,21,45,163,33,22,41,004,33*79
$GPGSV,3,2,11,31,38,308,,25,34,045,36,16,24,211,,29,19,113,37*79
$GPGSV,3,3,11,06,15,231,,03,06,237,,14,05,356,*48
$GPRMC,182110.998,A,1430.4778,S,07316.1774,W,19.88,11.47,200411,,,A*63
$GPGGA,182112.004,1430.4729,S,07316.1761,W,1,06,1.7,4125.6,M,25.9,M,,0000*68
$GPGSA,M,3,18,30,21,22,25,29,,,,,,,3.9,1.7,3.5*31
$GPRMC,182112.004,A,1430.4729,S,07316.1761,W,16.98,10.24,200411,,,A*67
$GPGGA,182112.996,1430.4688,S,07316.1748,W,1,06,1.7,4125.3,M,25.9,M,,0000*6E
$GPGSA,M,3,18,30,21,22,25,29,,,,,,,3.9,1.7,3.5*31
$GPRMC,182112.996,A,1430.4688,S,07316.1748,W,15.43,11.47,200411,,,A*65
$GPGGA,182114.003,1430.4648,S,07316.1736,W,1,05,1.7,4123.1,M,25.9,M,,0000*6F
$GPGSA,M,3,18,30,21,22,29,,,,,,,,3.9,1.7,3.5*36
$GPRMC,182114.003,A,1430.4648,S,07316.1736,W,14.85,15.97,200411,,,A*61
$GPGGA,182114.999,1430.4623,S,07316.1719,W,1,07,1.2,4120.1,M,25.9,M,,0000*61
$GPGSA,M,3,18,30,21,22,25,16,29,,,,,,2.8,1.2,2.5*32
$GPRMC,182114.999,A,1430.4623,S,07316.1719,W,13.11,24.16,200411,,,A*6A
$GPGGA,182115.998,1430.4600,S,07316.1687,W,1,06,1.4,4118.8,M,25.9,M,,0000*63
$GPGSA,M,3,18,30,22,25,16,29,,,,,,,3.2,1.4,2.9*30
$GPGSV,3,1,11,18,56,054,38,30,47,209,40,21,45,163,,22,41,004,29*78
$GPGSV,3,2,11,31,38,308,,25,34,045,35,16,24,211,36,29,19,113,31*79
$GPGSV,3,3,11,06,15,231,,03,06,237,,14,05,356,*48
$GPRMC,182115.998,A,1430.4600,S,07316.1687,W,12.66,33.62,200411,,,A*69
$GPGGA,182117.001,1430.4609,S,07316.1653,W,1,08,1.0,4115.4,M,25.9,M,,0000*63
$GPGSA,M,3,18,30,21,22,31,25,16,29,,,,,2.6,1.0,2.4*3D
$GPRMC,182117.001,A,1430.4609,S,07316.1653,W,9.80,56.87,200411,,,A*58
$GPGGA,182117.999,1430.4632,S,07316.1616,W,1,08,1.0,4113.7,M,25.9,M,,0000*67
$GPGSA,M,3,18,30,21,22,31,25,16,29,,,,,2.6,1.0,2.4*3D
$GPRMC,182117.999,A,1430.4632,S,07316.1616,W,10.50,88.44,200411,,,A*60
$GPGGA,182119.001,1430.4646,S,07316.1590,W,1,07,1.0,4111.6,M,25.9,M,,0000*63
$GPGSA,M,3,18,30,21,22,31,16,29,,,,,,2.6,1.0,2.4*3A
$GPRMC,182119.001,A,1430.4646,S,07316.1590,W,10.36,101.37,200411,,,A*5C
$GPGGA,182120.001,1430.4678,S,07316.1583,W,1,06,1.4,4113.3,M,25.9,M,,0000*64
$GPGSA,M,3,18,30,22,31,25,16,,,,,,,3.6,1.4,3.4*31
$GPRMC,182120.001,A,1430.4678,S,07316.1583,W,9.65,123.86,200411,,,A*6D
$GPGGA,182120.996,1430.4705,S,07316.1545,W,1,08,1.0,4111.5,M,25.9,M,,0000*6C
$GPGSA,M,3,18,30,21,22,31,25,16,29,,,,,2.6,1.0,2.4*3D
$GPGSV,3,1,11,18,56,054,37,30,47,209,38,21,45,163,38,22,41,004,31*7A
$GPGSV,3,2,11,31,38,308,39,25,34,045,38,16,24,211,31,29,19,113,34*7C
$GPGSV,3,3,11,06,15,231,,03,06,237,,14,05,356,*48
$GPRMC,182120.996,A,1430.4705,S,07316.1545,W,11.96,127.75,200411,,,A*56
$GPGGA,182122.001,1430.4744,S,07316.1516,W,1,08,1.0,4111.4,M,25.9,M,,0000*6B
$GPGSA,M,3,18,30,21,22,31,25,16,29,,,,,2.6,1.0,2.4*3D
$GPRMC,182122.001,A,1430.4744,S,07316.1516,W,9.80,133.86,200411,,,A*67
$GPGGA,182123.001,1430.4799,S,07316.1507,W,1,07,1.1,4112.6,M,25.9,M,,0000*65
$GPGSA,M,3,18,30,21,22,31,25,29,,,,,,3.1,1.1,2.8*31
$GPRMC,182123.001,A,1430.4799,S,07316.1507,W,10.72,154.14,200411,,,A*59
$GPGGA,182123.999,1430.4860,S,07316.1530,W,1,08,1.0,4111.6,M,25.9,M,,0000*6D
$GPGSA,M,3,18,30,21,22,31,25,16,29,,,,,2.6,1.0,2.4*3D
$GPRMC,182123.999,A,1430.4860,S,07316.1530,W,12.92,179.31,200411,,,A*58
$GPGGA,182124.999,1430.4920,S,07316.1572,W,1,08,1.0,4109.8,M,25.9,M,,0000*6E
$GPGSA,M,3,18,30,21,22,31,25,16,29,,,,,2.6,1.0,2.4*3D
$GPRMC,182124.999,A,1430.4920,S,07316.1572,W,17.21,194.82,200411,,,A*5A
$GPGGA,182125.998,1430.4975,S,07316.1587,W,1,08,1.0,4110.7,M,25.9,M,,0000*63
$GPGSA,M,3,18,30,21,22,31,25,16,29,,,,,2.6,1.0,2.4*3D
$GPGSV,3,1,11,18,56,054,37,30,47,209,37,21,45,163,37,22,41,004,38*73
$GPGSV,3,2,11,31,38,308,39,25,34,045,37,16,24,211,25,29,19,113,36*74
$GPGSV,3,3,11,06,15,231,,03,06,237,,14,05,356,*48
$GPRMC,182125.998,A,1430.4975,S,07316.1587,W,17.95,193.76,200411,,,A*53
$GPGGA,182127.000,1430.5048,S,07316.1616,W,1,08,1.0,4109.8,M,25.9,M,,0000*63
$GPGSA,M,3,18,30,21,22,31,25,16,29,,,,,2.6,1.0,2.4*3D
$GPRMC,182127.000,A,1430.5048,S,07316.1616,W,18.86,193.31,200411,,,A*5A
$GPGGA,182128.003,1430.5110,S,07316.1642,W,1,07,1.1,4108.9,M,25.9,M,,0000*6C
$GPGSA,M,3,18,30,21,22,31,25,29,,,,,,3.0,1.1,2.8*30
$GPRMC,182128.003,A,1430.5110,S,07316.1642,W,19.32,193.88,200411,,,A*57
$GPGGA,182128.998,1430.5156,S,07316.1649,W,1,08,1.0,4106.9,M,25.9,M,,0000*6E
$GPGSA,M,3,18,30,21,22,31,25,16,29,,,,,2.6,1.0,2.4*3D
$GPRMC,182128.998,A,1430.5156,S,07316.1649,W,20.25,189.89,200411,,,A*53
$GPGGA,182130.001,1430.5212,S,07316.1646,W,1,07,1.1,4106.5,M,25.9,M,,0000*60
$GPGSA,M,3,18,30,21,22,31,25,29,,,,,,3.0,1.1,2.8*30
$GPRMC,182130.001,A,1430.5212,S,07316.1646,W,19.60,184.91,200411,,,A*50
$GPGGA,182130.998,1430.5271,S,07316.1650,W,1,06,1.7,4104.9,M,25.9,M,,0000*62
$GPGSA,M,3,18,30,21,22,25,29,,,,,,,3.9,1.7,3.5*31
$GPGSV,3,1,11,18,56,054,34,30,47,209,39,21,45,163,31,22,41,004,35*75
$GPGSV,3,2,11,31,38,308,,25,34,045,38,16,24,211,,29,19,113,37*77
$GPGSV,3,3,11,06,15,231,,03,06,237,,14,05,356,*48
$GPRMC,182130.998,A,1430.5271,S,07316.1650,W,20.37,181.99,200411,,,A*5E
$GPGGA,182132.000,1430.5327,S,07316.1650,W,1,08,1.0,4103.7,M,25.9,M,,0000*6A
$GPGSA,M,3,18,30,21,22,31,25,16,29,,,,,2.6,1.0,2.4*3D
$GPRMC,182132.000,A,1430.5327,S,07316.1650,W,20.38,177.15,200411,,,A*54
$GPGGA,182133.001,1430.5386,S,07316.1650,W,1,08,1.0,4103.6,M,25.9,M,,0000*60
$GPGSA,M,3,18,30,21,22,31,25,16,29,,,,,2.6,1.0,2.4*3D
$GPRMC,182133.001,A,1430.5386,S,07316.1650,W,19.90,173.49,200411,,,A*5A
$GPGGA,182134.000,1430.5442,S,07316.1639,W,1,08,1.0,4103.2,M,25.9,M,,0000*62
$GPGSA,M,3,18,30,21,22,31,25,16,29,,,,,2.6,1.0,2.4*3D
$GPRMC,182134.000,A,1430.5442,S,07316.1639,W,20.10,170.54,200411,,,A*51
$GPGGA,182135.000,1430.5497,S,07316.1625,W,1,06,1.7,4101.4,M,25.9,M,,0000*6B
$GPGSA,M,3,18,30,21,22,25,29,,,,,,,3.9,1.7,3.5*31
$GPRMC,182135.000,A,1430.5497,S,07316.1625,W,19.01,164.62,200411,,,A*5F
$GPGGA,182136.003,1430.5553,S,07316.1605,W,1,08,1.0,4102.4,M,25.9,M,,0000*6A
$GPGSA,M,3,18,30,21,22,31,25,16,29,,,,,2.6,1.0,2.4*3D
$GPGSV,3,1,11,18,56,054,36,30,47,209,37,21,45,163,37,22,41,004,39*73
$GPGSV,3,2,11,31,38,308,29,25,34,045,38,16,24,211,26,29,19,113,30*7F
$GPGSV,3,3,11,06,15,231,,03,06,237,,14,05,356,*48
$GPRMC,182136.003,A,1430.5553,S,07316.1605,W,19.53,156.87,200411,,,A*59
$GPGGA,182136.998,1430.5604,S,07316.1588,W,1,07,1.0,4100.7,M,25.9,M,,0000*68
$GPGSA,M,3,18,30,21,22,31,16,29,,,,,,2.6,1.0,2.4*3A
$GPRMC,182136.998,A,1430.5604,S,07316.1588,W,19.78,152.39,200411,,,A*5D
$GPGGA,182138.001,1430.5655,S,07316.1560,W,1,08,1.0,4101.9,M,25.9,M,,0000*6D
$GPGSA,M,3,18,30,21,22,31,25,16,29,,,,,2.6,1.0,2.4*3D
$GPRMC,182138.001,A,1430.5655,S,07316.1560,W,19.36,146.00,200411,,,A*5D
$GPGGA,182139.001,1430.5701,S,07316.1530,W,1,08,1.0,4099.7,M,25.9,M,,0000*67
$GPGSA,M,3,18,30,21,22,31,25,16,29,,,,,2.6,1.0,2.4*3D
$GPRMC,182139.001,A,1430.5701,S,07316.1530,W,18.25,144.34,200411,,,A*5F
$GPGGA,182139.998,1430.5743,S,07316.1498,W,1,07,1.0,4096.6,M,25.9,M,,0000*6A
$GPGSA,M,3,18,21,22,31,25,16,29,,,,,,2.8,1.0,2.6*32
$GPRMC,182139.998,A,1430.5743,S,07316.1498,W,17.59,142.48,200411,,,A*5A
$GPGGA,182141.000,1430.5781,S,07316.1468,W,1,07,1.0,4095.3,M,25.9,M,,0000*6A
$GPGSA,M,3,18,21,22,31,25,16,29,,,,,,2.8,1.0,2.6*32
$GPGSV,3,1,11,18,56,054,39,30,47,209,,21,45,163,38,22,41,004,37*79
$GPGSV,3,2,11,31,38,308,40,25,34,045,30,16,24,211,29,29,19,113,29*7F
$GPGSV,3,3,11,06,15,231,,03,06,237,,14,05,356,*48
$GPRMC,182141.000,A,1430.5781,S,07316.1468,W,15.72,141.88,200411,,,A*58
$GPGGA,182141.999,1430.5815,S,07316.1444,W,1,07,1.0,4093.5,M,25.9,M,,0000*6F
$GPGSA,M,3,18,21,22,31,25,16,29,,,,,,2.8,1.0,2.6*32
$GPRMC,182141.999,A,1430.5815,S,07316.1444,W,14.67,143.00,200411,,,A*5A
$GPGGA,182142.998,1430.5846,S,07316.1420,W,1,06,1.7,4094.4,M,25.9,M,,0000*69
$GPGSA,M,3,18,30,21,22,31,16,,,,,,,4.9,1.7,4.6*3B
$GPRMC,182142.998,A,1430.5846,S,07316.1420,W,13.96,140.37,200411,,,A*52
$GPGGA,182144.000,1430.5869,S,07316.1402,W,1,06,1.3,4092.9,M,25.9,M,,0000*65
$GPGSA,M,3,18,21,22,31,25,16,,,,,,,4.0,1.3,3.8*3B
$GPRMC,182144.000,A,1430.5869,S,07316.1402,W,11.56,149.01,200411,,,A*53
$GPGGA,182145.003,1430.5881,S,07316.1391,W,1,08,1.0,4090.3,M,25.9,M,,0000*69
$GPGSA,M,3,18,30,21,22,31,25,16,29,,,,,2.6,1.0,2.4*3D
$GPRMC,182145.003,A,1430.5881,S,07316.1391,W,8.71,154.41,200411,,,A*6F
$GPGGA,182145.999,1430.5886,S,07316.1389,W,1,08,1.0,4090.9,M,25.9,M,,0000*67
$GPGSA,M,3,18,30,21,22,31,25,16,29,,,,,2.6,1.0,2.4*3D
$GPGSV,3,1,11,18,56,054,37,30,47,209,31,21,45,163,38,22,41,004,31*73
$GPGSV,3,2,11,31,38,308,38,25,34,045,30,16,24,211,31,29,19,113,31*70
$GPGSV,3,3,11,06,15,231,,03,06,237,,14,05,356,*48
$GPRMC,182145.999,A,1430.5886,S,07316.1389,W,5.70,156.41,200411,,,A*65
$GPGGA,182147.000,1430.5874,S,07316.1395,W,1,08,1.0,4089.0,M,25.9,M,,0000*6D
$GPGSA,M,3,18,30,21,22,31,25,16,29,,,,,2.6,1.0,2.4*3D
$GPRMC,182147.000,A,1430.5874,S,07316.1395,W,1.75,197.67,200411,,,A*66
$GPGGA,182148.000,1430.5872,S,07316.1393,W,1,08,1.0,4088.2,M,25.9,M,,0000*61
$GPGSA,M,3,18,30,21,22,31,25,16,29,,,,,2.6,1.0,2.4*3D
$GPRMC,182148.000,A,1430.5872,S,07316.1393,W,0.32,170.98,200411,,,A*62
$GPGGA,182148.999,1430.5873,S,07316.1394,W,1,08,1.0,4089.4,M,25.9,M,,0000*69
$GPGSA,M,3,18,30,21,22,31,25,16,29,,,,,2.6,1.0,2.4*3D
$GPRMC,182148.999,A,1430.5873,S,07316.1394,W,0.14,273.15,200411,,,A*6C
$GPGGA,182149.999,1430.5875,S,07316.1395,W,1,08,1.0,4087.4,M,25.9,M,,0000*61
$GPGSA,M,3,18,30,21,22,31,25,16,29,,,,,2.6,1.0,2.4*3D
$GPRMC,182149.999,A,1430.5875,S,07316.1395,W,0.86,271.69,200411,,,A*68
$GPGGA,182150.999,1430.5876,S,07316.1397,W,1,08,1.0,4085.2,M,25.9,M,,0000*6C
$GPGSA,M,3,18,30,21,22,31,25,16,29,,,,,2.6,1.0,2.4*3D
$GPGSV,3,1,11,18,56,054,38,30,47,209,27,21,45,163,38,22,41,004,38*72
$GPGSV,3,2,11,31,38,308,39,25,34,045,30,16,24,211,31,29,19,113,27*76
$GPGSV,3,3,11,06,15,231,,03,06,237,,14,05,356,*48
$GPRMC,182150.999,A,1430.5876,S,07316.1397,W,0.22,192.92,200411,,,A*65
$GPGGA,182151.998,1430.5885,S,07316.1398,W,1,07,1.0,4084.7,M,25.9,M,,0000*64
$GPGSA,M,3,18,30,21,22,31,16,29,,,,,,2.6,1.0,2.4*3A
$GPRMC,182151.998,A,1430.5885,S,07316.1398,W,0.53,39.88,200411,,,A*5B
$GPGGA,182152.998,1430.5885,S,07316.1396,W,1,08,1.0,4084.6,M,25.9,M,,0000*67
$GPGSA,M,3,18,30,21,22,31,25,16,29,,,,,2.6,1.0,2.4*3D
$GPRMC,182152.998,A,1430.5885,S,07316.1396,W,0.40,125.50,200411,,,A*6D
$GPGGA,182154.003,1430.5889,S,07316.1392,W,1,08,1.0,4086.8,M,25.9,M,,0000*6E
$GPGSA,M,3,18,30,21,22,31,25,16,29,,,,,2.6,1.0,2.4*3D
$GPRMC,182154.003,A,1430.5889,S,07316.1392,W,0.42,195.45,200411,,,A*65
$GPGGA,182154.997,1430.5889,S,07316.1388,W,1,08,1.0,4086.9,M,25.9,M,,0000*60
$GPGSA,M,3,18,30,21,22,31,25,16,29,,,,,2.6,1.0,2.4*3D
$GPRMC,182154.997,A,1430.5889,S,07316.1388,W,0.15,205.14,200411,,,A*66
$GPGGA,182156.000,1430.5897,S,07316.1386,W,1,08,1.0,4091.3,M,25.9,M,,0000*68
$GPGSA,M,3,18,30,21,22,31,25,16,29,,,,,2.6,1.0,2.4*3D
$GPGSV,3,1,11,18,56,054,39,30,47,209,26,21,45,163,38,22,41,004,36*7C
$GPGSV,3,2,11,31,38,308,40,25,34,045,33,16,24,211,34,29,19,113,31*79
$GPGSV,3,3,11,06,15,231,,03,06,237,,14,05,356,*48
$GPRMC,182156.000,A,1430.5897,S,07316.1386,W,0.40,106.61,200411,,,A*60
$GPGGA,182157.000,1430.5906,S,07316.1383,W,1,08,1.0,4093.7,M,25.9,M,,0000*63
$GPGSA,M,3,18,30,21,22,31,25,16,29,,,,,2.6,1.0,2.4*3D
$GPRMC,182157.000,A,1430.5906,S,07316.1383,W,0.31,250.59,200411,,,A*60
$GPGGA,182158.002,1430.5903,S,07316.1382,W,1,07,1.0,4093.4,M,25.9,M,,0000*66
$GPGSA,M,3,18,21,22,31,25,16,29,,,,,,2.8,1.0,2.6*32
$GPRMC,182158.002,A,1430.5903,S,07316.1382,W,0.66,196.58,200411,,,A*63
$GPGGA,182158.998,1430.5897,S,07316.1384,W,1,08,1.0,4095.2,M,25.9,M,,0000*69
$GPGSA,M,3,18,30,21,22,31,25,16,29,,,,,2.6,1.0,2.4*3D
$GPRMC,182158.998,A,1430.5897,S,07316.1384,W,0.15,227.11,200411,,,A*63
$GPGGA,182200.002,1430.5896,S,07316.1382,W,1,08,1.0,4095.3,M,25.9,M,,0000*6B
$GPGSA,M,3,18,30,21,22,31,25,16,29,,,,,2.6,1.0,2.4*3D
$GPRMC,182200.002,A,1430.5896,S,07316.1382,W,0.16,165.83,200411,,,A*6D
$GPGGA,182200.998,1430.5896,S,07316.1378,W,1,08,1.0,4093.4,M,25.9,M,,0000*65
$GPGSA,M,3,18,30,21,22,31,25,16,29,,,,,2.6,1.0,2.4*3D
$GPGSV,3,1,11,18,56,054,40,30,47,209,26,21,45,163,39,22,41,004,37*72
$GPGSV,3,2,11,31,38,308,40,25,34,045,33,16,24,211,33,29,19,113,31*7E
$GPGSV,3,3,11,06,15,231,,03,06,237,,14,05,356,*48
$GPRMC,182200.998,A,1430.5896,S,07316.1378,W,0.20,11.42,200411,,,A*58
$GPGGA,182202.000,1430.5896,S,07316.1378,W,1,08,1.0,4092.9,M,25.9,M,,0000*63
$GPGSA,M,3,18,30,21,22,31,25,16,29,,,,,2.6,1.0,2.4*3D
$GPRMC,182202.000,A,1430.5896,S,07316.1378,W,0.66,266.16,200411,,,A*63
$GPGGA,182203.000,1430.5895,S,07316.1387,W,1,08,1.0,4094.6,M,25.9,M,,0000*68
$GPGSA,M,3,18,30,21,22,31,25,16,29,,,,,2.6,1.0,2.4*3D
$GPRMC,182203.000,A,1430.5895,S,07316.1387,W,0.13,219.25,200411,,,A*6B
$GPGGA,182204.002,1430.5894,S,07316.1382,W,1,07,1.0,4095.3,M,25.9,M,,0000*62
$GPGSA,M,3,18,21,22,31,25,16,29,,,,,,2.8,1.0,2.6*32
$GPRMC,182204.002,A,1430.5894,S,07316.1382,W,0.35,224.08,200411,,,A*6F
$GPGGA,182205.000,1430.5893,S,07316.1379,W,1,07,1.0,4095.4,M,25.9,M,,0000*65
$GPGSA,M,3,18,21,22,31,25,16,29,,,,,,2.8,1.0,2.6*32
$GPRMC,182205.000,A,1430.5893,S,07316.1379,W,0.45,234.29,200411,,,A*6A
$GPGGA,182206.001,1430.5894,S,07316.1377,W,1,08,1.0,4095.2,M,25.9,M,,0000*67
$GPGSA,M,3,18,30,21,22,31,25,16,29,,,,,2.6,1.0,2.4*3D
$GPGSV,3,1,11,18,56,054,39,30,47,209,25,21,45,163,39,22,41,004,37*7F
$GPGSV,3,2,11,31,38,308,40,25,34,045,35,16,24,211,32,29,19,113,31*79
$GPGSV,3,3,11,06,15,231,,03,06,237,,14,05,356,*48
$GPRMC,182206.001,A,1430.5894,S,07316.1377,W,0.26,166.84,200411,,,A*67
$GPGGA,182206.999,1430.5893,S,07316.1379,W,1,07,1.0,4095.1,M,25.9,M,,0000*6A
$GPGSA,M,3,18,21,22,31,25,16,29,,,,,,2.8,1.0,2.6*32
$GPRMC,182206.999,A,1430.5893,S,07316.1379,W,0.15,249.82,200411,,,A*6E
$GPGGA,182207.999,1430.5890,S,07316.1380,W,1,07,1.0,4095.6,M,25.9,M,,0000*69
$GPGSA,M,3,18,21,22,31,25,16,29,,,,,,2.8,1.0,2.6*32
$GPRMC,182207.999,A,1430.5890,S,07316.1380,W,0.50,225.51,200411,,,A*6F
$GPGGA,182209.000,1430.5889,S,07316.1382,W,1,07,1.0,4094.1,M,25.9,M,,0000*62
$GPGSA,M,3,18,21,22,31,25,16,29,,,,,,2.8,1.0,2.6*32
$GPRMC,182209.000,A,1430.5889,S,07316.1382,W,0.26,181.38,200411,,,A*61
$GPGGA,182209.998,1430.5884,S,07316.1380,W,1,08,1.0,4093.2,M,25.9,M,,0000*6E
$GPGSA,M,3,18,30,21,22,31,25,16,29,,,,,2.6,1.0,2.4*3D
$GPRMC,182209.998,A,1430.5884,S,07316.1380,W,0.17,260.87,200411,,,A*6C
$GPGGA,182211.001,1430.5883,S,07316.1378,W,1,07,1.0,4092.0,M,25.9,M,,0000*62
$GPGSA,M,3,18,21,22,31,25,16,29,,,,,,2.8,1.0,2.6*32
$GPGSV,3,1,11,18,56,054,39,30,47,209,,21,45,163,38,22,41,004,36*78
$GPGSV,3,2,11,31,38,308,39,25,34,045,34,16,24,211,33,29,19,113,31*77
$GPGSV,3,3,11,06,15,231,,03,06,237,,14,05,356,*48
$GPRMC,182211.001,A,1430.5883,S,07316.1378,W,0.10,317.97,200411,,,A*6B
$GPGGA,182211.999,1430.5883,S,07316.1379,W,1,07,1.0,4091.7,M,25.9,M,,0000*6F
$GPGSA,M,3,18,21,22,31,25,16,29,,,,,,2.8,1.0,2.6*32
$GPRMC,182211.999,A,1430.5883,S,07316.1379,W,0.39,241.76,200411,,,A*64
$GPGGA,182213.001,1430.5881,S,07316.1377,W,1,08,1.0,4092.9,M,25.9,M,,0000*6B
$GPGSA,M,3,18,30,21,22,31,25,16,29,,,,,2.6,1.0,2.4*3D
$GPRMC,182213.001,A,1430.5881,S,07316.1377,W,0.27,12.86,200411,,,A*56
$GPGGA,182213.999,1430.5881,S,07316.1378,W,1,07,1.0,4094.8,M,25.9,M,,0000*64
$GPGSA,M,3,18,21,22,31,25,16,29,,,,,,2.8,1.0,2.6*32
$GPRMC,182213.999,A,1430.5881,S,07316.1378,W,0.29,316.32,200411,,,A*67
$GPGGA,182214.998,1430.5879,S,07316.1382,W,1,07,1.0,4095.1,M,25.9,M,,0000*68
$GPGSA,M,3,18,21,22,31,25,16,29,,,,,,2.8,1.0,2.6*32
$GPRMC,182214.998,A,1430.5879,S,07316.1382,W,0.21,336.90,200411,,,A*61
$GPGGA,182216.000,1430.5878,S,07316.1384,W,1,07,1.0,4097.2,M,25.9,M,,0000*64
$GPGSA,M,3,18,30,21,22,31,16,29,,,,,,2.6,1.0,2.4*3A
$GPGSV,3,1,11,18,56,054,38,30,47,209,28,21,45,163,38,22,41,004,36*73
$GPGSV,3,2,11,31,38,308,41,25,34,045,,16,24,211,34,29,19,113,32*7B
$GPGSV,3,3,11,06,15,231,,03,06,237,,14,05,356,*48
$GPRMC,182216.000,A,1430.5878,S,07316.1384,W,0.20,93.22,200411,,,A*58
$GPGGA,182216.999,1430.5876,S,07316.1385,W,1,06,1.1,4096.6,M,25.9,M,,0000*67
$GPGSA,M,3,18,21,22,31,16,29,,,,,,,2.9,1.1,2.7*34
$GPRMC,182216.999,A,1430.5876,S,07316.1385,W,0.32,2.26,200411,,,A*61
$GPGGA,182218.000,1430.5875,S,07316.1385,W,1,07,1.0,4095.9,M,25.9,M,,0000*6F
$GPGSA,M,3,18,21,22,31,25,16,29,,,,,,2.8,1.0,2.6*32
$GPRMC,182218.000,A,1430.5875,S,07316.1385,W,0.36,253.73,200411,,,A*67
$GPGGA,182219.001,1430.5874,S,07316.1387,W,1,07,1.0,4097.4,M,25.9,M,,0000*63
$GPGSA,M,3,18,21,22,31,25,16,29,,,,,,2.8,1.0,2.6*32
$GPRMC,182219.001,A,1430.5874,S,07316.1387,W,0.34,232.35,200411,,,A*63
$GPGGA,182219.999,1430.5874,S,07316.1387,W,1,06,1.1,4097.6,M,25.9,M,,0000*69
$GPGSA,M,3,18,21,22,31,16,29,,,,,,,2.9,1.1,2.7*34
$GPRMC,182219.999,A,1430.5874,S,07316.1387,W,0.36,224.12,200411,,,A*6B
$GPGGA,182220.998,1430.5876,S,07316.1388,W,1,06,1.1,4099.1,M,25.9,M,,0000*66
$GPGSA,M,3,18,21,22,31,16,29,,,,,,,2.9,1.1,2.7*34
$GPGSV,3,1,11,18,56,054,39,30,47,209,,21,45,163,39,22,41,004,35*7A
$GPGSV,3,2,11,31,38,308,41,25,34,045,,16,24,211,33,29,19,113,32*7C
$GPGSV,3,3,11,06,15,231,,03,06,237,,14,05,356,*48
$GPRMC,182220.998,A,1430.5876,S,07316.1388,W,0.24,257.45,200411,,,A*68
$GPGGA,182222.003,1430.5877,S,07316.1391,W,1,08,1.0,4098.6,M,25.9,M,,0000*6F
$GPGSA,M,3,18,30,21,22,31,25,16,29,,,,,2.6,1.0,2.4*3D
$GPRMC,182222.003,A,1430.5877,S,07316.1391,W,0.64,218.73,200411,,,A*62
$GPGGA,182222.999,1430.5878,S,07316.1391,W,1,07,1.0,4098.0,M,25.9,M,,0000*63
$GPGSA,M,3,18,21,22,31,25,16,29,,,,,,2.8,1.0,2.6*32
$GPRMC,182222.999,A,1430.5878,S,07316.1391,W,0.14,255.62,200411,,,A*69
$GPGGA,182223.999,1430.5880,S,07316.1393,W,1,07,1.0,4099.3,M,25.9,M,,0000*65
$GPGSA,M,3,18,30,21,22,31,16,29,,,,,,2.6,1.0,2.4*3A
$GPRMC,182223.999,A,1430.5880,S,07316.1393,W,0.19,44.92,200411,,,A*5D
$GPGGA,182225.000,1430.5877,S,07316.1395,W,1,08,1.0,4099.7,M,25.9,M,,0000*6F
$GPGSA,M,3,18,30,21,22,31,25,16,29,,,,,2.6,1.0,2.4*3D
$GPRMC,182225.000,A,1430.5877,S,07316.1395,W,0.10,340.02,200411,,,A*6B
$GPGGA,182225.999,1430.5877,S,07316.1396,W,1,08,1.0,4100.0,M,25.9,M,,0000*63
$GPGSA,M,3,18,30,21,22,31,25,16,29,,,,,2.6,1.0,2.4*3D
$GPGSV,3,1,11,18,56,054,40,30,47,209,26,21,45,163,38,22,41,004,36*72
$GPGSV,3,2,11,31,38,308,40,25,34,045,27,16,24,211,33,29,19,113,32*78
$GPGSV,3,3,11,06,15,231,,03,06,237,,14,05,356,*48
$GPRMC,182225.999,A,1430.5877,S,07316.1396,W,0.44,202.06,200411,,,A*63
$GPGGA,182226.999,1430.5876,S,07316.1398,W,1,08,1.0,4098.7,M,25.9,M,,0000*68
$GPGSA,M,3,18,30,21,22,31,25,16,29,,,,,2.6,1.0,2.4*3D
$GPRMC,182226.999,A,1430.5876,S,07316.1398,W,0.03,344.29,200411,,,A*62
$GPGGA,182227.999,1430.5876,S,07316.1396,W,1,08,1.0,4100.1,M,25.9,M,,0000*61
$GPGSA,M,3,18,30,21,22,31,25,16,29,,,,,2.6,1.0,2.4*3D
$GPRMC,182227.999,A,1430.5876,S,07316.1396,W,0.32,78.86,200411,,,A*56
$GPGGA,182228.996,1430.5875,S,07316.1395,W,1,08,1.0,4100.6,M,25.9,M,,0000*66
$GPGSA,M,3,18,30,21,22,31,25,16,29,,,,,2.6,1.0,2.4*3D
$GPRMC,182228.996,A,1430.5875,S,07316.1395,W,0.10,299.22,200411,,,A*65
$GPGGA,182230.004,1430.5875,S,07316.1394,W,1,08,1.0,4100.0,M,25.9,M,,0000*6A
$GPGSA,M,3,18,30,21,22,31,25,16,29,,,,,2.6,1.0,2.4*3D
$GPRMC,182230.004,A,1430.5875,S,07316.1394,W,0.19,314.46,200411,,,A*60
$GPGGA,182231.001,1430.5874,S,07316.1395,W,1,08,1.0,4099.7,M,25.9,M,,0000*68
$GPGSA,M,3,18,30,21,22,31,25,16,29,,,,,2.6,1.0,2.4*3D
$GPGSV,3,1,11,18,56,054,41,30,47,209,27,21,45,163,39,22,41,004,32*77
$GPGSV,3,2,11,31,38,308,41,25,34,045,32,16,24,211,34,29,19,113,31*79
$GPGSV,3,3,11,06,15,231,,03,06,237,,14,05,356,*48
$GPRMC,182231.001,A,1430.5874,S,07316.1395,W,0.28,209.67,200411,,,A*68
$GPGGA,182231.995,1430.5872,S,07316.1396,W,1,08,1.0,4099.8,M,25.9,M,,0000*66
$GPGSA,M,3,18,30,21,22,31,25,16,29,,,,,2.6,1.0,2.4*3D
$GPRMC,182231.995,A,1430.5872,S,07316.1396,W,0.40,24.88,200411,,,A*5B
$GPGGA,182233.002,1430.5872,S,07316.1396,W,1,07,1.0,4100.2,M,25.9,M,,0000*67
$GPGSA,M,3,18,21,22,31,25,16,29,,,,,,2.8,1.0,2.6*32
$GPRMC,182233.002,A,1430.5872,S,07316.1396,W,0.45,250.00,200411,,,A*6A
$GPGGA,182234.001,1430.5869,S,07316.1395,W,1,07,1.0,4100.0,M,25.9,M,,0000*68
$GPGSA,M,3,18,21,22,31,25,16,29,,,,,,2.8,1.0,2.6*32
$GPRMC,182234.001,A,1430.5869,S,07316.1395,W,0.22,201.10,200411,,,A*63
$GPGGA,182234.999,1430.5869,S,07316.1395,W,1,07,1.0,4100.0,M,25.9,M,,0000*60
$GPGSA,M,3,18,21,22,31,25,16,29,,,,,,2.8,1.0,2.6*32
$GPRMC,182234.999,A,1430.5869,S,07316.1395,W,0.11,235.10,200411,,,A*6C
$GPGGA,182235.999,1430.5870,S,07316.1395,W,1,07,1.0,4101.2,M,25.9,M,,0000*6A
$GPGSA,M,3,18,21,22,31,25,16,29,,,,,,2.8,1.0,2.6*32
$GPGSV,3,1,11,18,56,054,40,30,47,209,,21,45,163,39,22,41,004,34*75
$GPGSV,3,2,11,31,38,308,40,25,34,045,31,16,24,211,34,29,19,113,31*7B
$GPGSV,3,3,11,06,15,231,,03,06,237,,14,05,356,*48
$GPRMC,182235.999,A,1430.5870,S,07316.1395,W,0.11,321.90,200411,,,A*69
$GPGGA,182236.999,1430.5874,S,07316.1396,W,1,07,1.0,4102.9,M,25.9,M,,0000*66
$GPGSA,M,3,18,21,22,31,25,16,29,,,,,,2.8,1.0,2.6*32
$GPRMC,182236.999,A,1430.5874,S,07316.1396,W,0.78,233.38,200411,,,A*62
$GPGGA,182237.999,1430.5873,S,07316.1395,W,1,07,1.0,4102.8,M,25.9,M,,0000*62
$GPGSA,M,3,18,21,22,31,25,16,29,,,,,,2.8,1.0,2.6*32
$GPRMC,182237.999,A,1430.5873,S,07316.1395,W,0.24,194.31,200411,,,A*69
$GPGGA,182238.999,1430.5872,S,07316.1397,W,1,07,1.0,4104.5,M,25.9,M,,0000*65
$GPGSA,M,3,18,21,22,31,25,16,29,,,,,,2.8,1.0,2.6*32
$GPRMC,182238.999,A,1430.5872,S,07316.1397,W,0.33,195.07,200411,,,A*67
$GPGGA,182239.999,1430.5872,S,07316.1397,W,1,07,1.0,4104.5,M,25.9,M,,0000*64
$GPGSA,M,3,18,21,22,31,25,16,29,,,,,,2.8,1.0,2.6*32
$GPRMC,182239.999,A,1430.5872,S,07316.1397,W,0.17,141.08,200411,,,A*66
$GPGGA,182240.999,1430.5872,S,07316.1396,W,1,07,1.0,4103.8,M,25.9,M,,0000*61
$GPGSA,M,3,18,21,22,31,25,16,29,,,,,,2.8,1.0,2.6*32
$GPGSV,3,1,11,18,56,054,39,30,47,209,,21,45,163,39,22,41,004,32*7D
$GPGSV,3,2,11,31,38,308,40,25,34,045,31,16,24,211,34,29,19,113,30*7A
$GPGSV,3,3,11,06,15,231,,03,06,237,,14,05,356,*48
$GPRMC,182240.999,A,1430.5872,S,07316.1396,W,0.22,21.22,200411,,,A*50
$GPGGA,182242.000,1430.5871,S,07316.1397,W,1,07,1.0,4104.3,M,25.9,M,,0000*64
$GPGSA,M,3,18,21,22,31,25,16,29,,,,,,2.8,1.0,2.6*32
$GPRMC,182242.000,A,1430.5871,S,07316.1397,W,0.26,235.79,200411,,,A*64
$GPGGA,182242.998,1430.5870,S,07316.1397,W,1,06,1.3,4103.8,M,25.9,M,,0000*63
$GPGSA,M,3,18,21,22,31,25,29,,,,,,,3.1,1.3,2.8*30
$GPRMC,182242.998,A,1430.5870,S,07316.1397,W,0.34,200.02,200411,,,A*64
$GPGGA,182243.999,1430.5869,S,07316.1398,W,1,08,1.0,4103.1,M,25.9,M,,0000*60
$GPGSA,M,3,18,30,21,22,31,25,16,29,,,,,2.6,1.0,2.4*3D
$GPRMC,182243.999,A,1430.5869,S,07316.1398,W,0.18,139.73,200411,,,A*62
$GPGGA,182245.001,1430.5868,S,07316.1396,W,1,07,1.0,4102.6,M,25.9,M,,0000*68
$GPGSA,M,3,18,21,22,31,25,16,29,,,,,,2.8,1.0,2.6*32
$GPRMC,182245.001,A,1430.5868,S,07316.1396,W,0.39,209.38,200411,,,A*6F
$GPGGA,182246.000,1430.5869,S,07316.1396,W,1,07,1.0,4103.8,M,25.9,M,,0000*64
$GPGSA,M,3,18,21,22,31,25,16,29,,,,,,2.8,1.0,2.6*32
$GPGSV,3,1,11,18,56,054,41,30,47,209,,21,45,163,39,22,41,004,31*71
$GPGSV,3,2,11,31,38,308,41,25,34,045,32,16,24,211,32,29,19,113,32*7C
$GPGSV,3,3,11,06,15,231,,03,06,237,,14,05,356,*48
$GPRMC,182246.000,A,1430.5869,S,07316.1396,W,0.19,195.14,200411,,,A*66
$GPGGA,182247.000,1430.5868,S,07316.1399,W,1,07,1.0,4103.6,M,25.9,M,,0000*65
$GPGSA,M,3,18,21,22,31,25,16,29,,,,,,2.8,1.0,2.6*32
$GPRMC,182247.000,A,1430.5868,S,07316.1399,W,0.81,244.40,200411,,,A*66
$GPGGA,182248.001,1430.5870,S,07316.1400,W,1,08,1.0,4103.9,M,25.9,M,,0000*65
$GPGSA,M,3,18,30,21,22,31,25,16,29,,,,,2.6,1.0,2.4*3D
$GPRMC,182248.001,A,1430.5870,S,07316.1400,W,0.13,199.99,200411,,,A*6A
$GPGGA,182248.999,1430.5870,S,07316.1401,W,1,07,1.0,4104.3,M,25.9,M,,0000*6E
$GPGSA,M,3,18,21,22,31,25,16,29,,,,,,2.8,1.0,2.6*32
$GPRMC,182248.999,A,1430.5870,S,07316.1401,W,0.22,14.52,200411,,,A*52
$GPGGA,182249.999,1430.5870,S,07316.1401,W,1,07,1.0,4105.1,M,25.9,M,,0000*6C
$GPGSA,M,3,18,21,22,31,25,16,29,,,,,,2.8,1.0,2.6*32
$GPRMC,182249.999,A,1430.5870,S,07316.1401,W,0.55,243.36,200411,,,A*61
$GPGGA,182251.001,1430.5869,S,07316.1402,W,1,07,1.0,4105.7,M,25.9,M,,0000*60
$GPGSA,M,3,18,21,22,31,25,16,29,,,,,,2.8,1.0,2.6*32
$GPGSV,3,1,11,18,56,054,38,30,47,209,,21,45,163,38,22,41,004,31*7E
$GPGSV,3,2,11,31,38,308,40,25,34,045,31,16,24,211,33,29,19,113,31*7C
$GPGSV,3,3,11,06,15,231,,03,06,237,,14,05,356,*48
$GPRMC,182251.001,A,1430.5869,S,07316.1402,W,0.13,96.13,200411,,,A*54
$GPGGA,182251.997,1430.5872,S,07316.1403,W,1,07,1.0,4107.4,M,25.9,M,,0000*6C
$GPGSA,M,3,18,21,22,31,25,16,29,,,,,,2.8,1.0,2.6*32
$GPRMC,182251.997,A,1430.5872,S,07316.1403,W,0.20,254.17,200411,,,A*61
$GPGGA,182253.003,1430.5872,S,07316.1404,W,1,07,1.0,4108.0,M,25.9,M,,0000*66
$GPGSA,M,3,18,21,22,31,25,16,29,,,,,,2.8,1.0,2.6*32
$GPRMC,182253.003,A,1430.5872,S,07316.1404,W,0.74,243.02,200411,,,A*63
$GPGGA,182253.997,1430.5871,S,07316.1410,W,1,07,1.0,4108.9,M,25.9,M,,0000*6D
$GPGSA,M,3,18,21,22,31,25,16,29,,,,,,2.8,1.0,2.6*32
$GPRMC,182253.997,A,1430.5871,S,07316.1410,W,0.54,256.20,200411,,,A*67
$GPGGA,182255.000,1430.5871,S,07316.1409,W,1,07,1.0,4109.0,M,25.9,M,,0000*6C
$GPGSA,M,3,18,21,22,31,25,16,29,,,,,,2.8,1.0,2.6*32
$GPRMC,182255.000,A,1430.5871,S,07316.1409,W,0.43,228.07,200411,,,A*64
$GPGGA,182256.001,1430.5872,S,07316.1408,W,1,07,1.0,4110.1,M,25.9,M,,0000*65
$GPGSA,M,3,18,21,22,31,25,16,29,,,,,,2.8,1.0,2.6*32
$GPGSV,3,1,11,18,56,054,40,30,47,209,,21,45,163,38,22,41,004,31*71
$GPGSV,3,2,11,31,38,308,40,25,34,045,31,16,24,211,32,29,19,113,31*7D
$GPGSV,3,3,11,06,15,231,,03,06,237,,14,05,356,*48
$GPRMC,182256.001,A,1430.5872,S,07316.1408,W,0.38,188.45,200411,,,A*67
$GPGGA,182256.999,1430.5871,S,07316.1411,W,1,07,1.0,4110.1,M,25.9,M,,0000*66
$GPGSA,M,3,18,21,22,31,25,16,29,,,,,,2.8,1.0,2.6*32
$GPRMC,182256.999,A,1430.5871,S,07316.1411,W,0.76,245.06,200411,,,A*6B
$GPGGA,182258.000,1430.5872,S,07316.1410,W,1,07,1.0,4112.0,M,25.9,M,,0000*60
$GPGSA,M,3,18,21,22,31,25,16,29,,,,,,2.8,1.0,2.6*32
$GPRMC,182258.000,A,1430.5872,S,07316.1410,W,0.01,333.54,200411,,,A*69
$GPGGA,182258.999,1430.5871,S,07316.1411,W,1,07,1.0,4112.5,M,25.9,M,,0000*6E
$GPGSA,M,3,18,21,22,31,25,16,29,,,,,,2.8,1.0,2.6*32
$GPRMC,182258.999,A,1430.5871,S,07316.1411,W,0.28,243.62,200411,,,A*6A
$GPGGA,182259.999,1430.5873,S,07316.1412,W,1,07,1.0,4113.8,M,25.9,M,,0000*62
$GPGSA,M,3,18,21,22,31,25,16,29,,,,,,2.8,1.0,2.6*32
$GPRMC,182259.999,A,1430.5873,S,07316.1412,W,0.87,262.87,200411,,,A*67
$GPGGA,182300.999,1430.5874,S,07316.1413,W,1,07,1.0,4114.2,M,25.9,M,,0000*64
$GPGSA,M,3,18,21,22,31,25,16,29,,,,,,2.8,1.0,2.6*32
$GPGSV,3,1,11,18,56,054,39,30,47,209,,21,45,163,38,22,41,004,32*7C
$GPGSV,3,2,11,31,38,308,40,25,34,045,34,16,24,211,31,29,19,113,31*7B
$GPGSV,3,3,11,06,15,231,,03,06,237,,14,05,356,*48
$GPRMC,182300.999,A,1430.5874,S,07316.1413,W,0.08,282.20,200411,,,A*68
$GPGGA,182301.999,1430.5874,S,07316.1412,W,1,07,1.0,4115.0,M,25.9,M,,0000*67
$GPGSA,M,3,18,21,22,31,25,16,29,,,,,,2.8,1.0,2.6*32
$GPRMC,182301.999,A,1430.5874,S,07316.1412,W,0.06,42.32,200411,,,A*5B
$GPGGA,182302.999,1430.5872,S,07316.1413,W,1,07,1.0,4114.7,M,25.9,M,,0000*65
$GPGSA,M,3,18,21,22,31,25,16,29,,,,,,2.8,1.0,2.6*32
$GPRMC,182302.999,A,1430.5872,S,07316.1413,W,0.31,48.21,200411,,,A*53
$GPGGA,182304.000,1430.5869,S,07316.1409,W,1,07,1.0,4114.5,M,25.9,M,,0000*69
$GPGSA,M,3,18,21,22,31,25,16,29,,,,,,2.8,1.0,2.6*32
$GPRMC,182304.000,A,1430.5869,S,07316.1409,W,0.08,256.15,200411,,,A*6D
$GPGGA,182305.000,1430.5869,S,07316.1408,W,1,07,1.0,4115.5,M,25.9,M,,0000*68
$GPGSA,M,3,18,21,22,31,25,16,29,,,,,,2.8,1.0,2.6*32
$GPRMC,182305.000,A,1430.5869,S,07316.1408,W,0.18,208.79,200411,,,A*6D
$GPGGA,182305.999,1430.5871,S,07316.1409,W,1,07,1.0,4117.6,M,25.9,M,,0000*68
$GPGSA,M,3,18,21,22,31,25,16,29,,,,,,2.8,1.0,2.6*32
$GPGSV,3,1,11,18,56,054,39,30,47,209,,21,45,163,38,22,41,004,33*7D
$GPGSV,3,2,11,31,38,308,39,25,34,045,31,16,24,211,33,29,19,113,33*70
$GPGSV,3,3,11,06,15,231,,03,06,237,,14,05,356,*48
$GPRMC,182305.999,A,1430.5871,S,07316.1409,W,0.45,230.87,200411,,,A*6E
$GPGGA,182306.999,1430.5870,S,07316.1409,W,1,07,1.0,4117.2,M,25.9,M,,0000*6E
$GPGSA,M,3,18,21,22,31,25,16,29,,,,,,2.8,1.0,2.6*32
$GPRMC,182306.999,A,1430.5870,S,07316.1409,W,0.20,155.67,200411,,,A*61
$GPGGA,182307.999,1430.5870,S,07316.1409,W,1,07,1.0,4117.3,M,25.9,M,,0000*6E
$GPGSA,M,3,18,21,22,31,25,16,29,,,,,,2.8,1.0,2.6*32
$GPRMC,182307.999,A,1430.5870,S,07316.1409,W,0.35,217.11,200411,,,A*60
$GPGGA,182308.997,1430.5874,S,07316.1409,W,1,08,1.0,4117.4,M,25.9,M,,0000*63
$GPGSA,M,3,18,30,21,22,31,25,16,29,,,,,2.6,1.0,2.4*3D
$GPRMC,182308.997,A,1430.5874,S,07316.1409,W,0.24,205.22,200411,,,A*66
$GPGGA,182310.002,1430.5875,S,07316.1410,W,1,07,1.0,4115.8,M,25.9,M,,0000*67
$GPGSA,M,3,18,30,21,22,31,16,29,,,,,,2.6,1.0,2.4*3A
$GPRMC,182310.002,A,1430.5875,S,07316.1410,W,0.13,342.22,200411,,,A*65
$GPGGA,182311.000,1430.5873,S,07316.1409,W,1,07,1.0,4114.8,M,25.9,M,,0000*6B
$GPGSA,M,3,18,21,22,31,25,16,29,,,,,,2.8,1.0,2.6*32
$GPGSV,3,1,11,18,56,054,38,30,47,209,,21,45,163,39,22,41,004,31*7F
$GPGSV,3,2,11,31,38,308,41,25,34,045,28,16,24,211,35,29,19,113,34*76
$GPGSV,3,3,11,06,15,231,,03,06,237,,14,05,356,*48
$GPRMC,182311.000,A,1430.5873,S,07316.1409,W,0.23,208.64,200411,,,A*66
$GPGGA,182312.001,1430.5871,S,07316.1406,W,1,08,1.0,4112.9,M,25.9,M,,0000*6C
$GPGSA,M,3,18,30,21,22,31,25,16,29,,,,,2.6,1.0,2.4*3D
$GPRMC,182312.001,A,1430.5871,S,07316.1406,W,0.45,188.82,200411,,,A*6A
$GPGGA,182313.000,1430.5874,S,07316.1405,W,1,08,1.0,4112.5,M,25.9,M,,0000*66
$GPGSA,M,3,18,30,21,22,31,25,16,29,,,,,2.6,1.0,2.4*3D
$GPRMC,182313.000,A,1430.5874,S,07316.1405,W,0.34,243.26,200411,,,A*60
$GPGGA,182313.999,1430.5877,S,07316.1405,W,1,07,1.0,4112.6,M,25.9,M,,0000*60
$GPGSA,M,3,18,21,22,31,25,16,29,,,,,,2.8,1.0,2.6*32
$GPRMC,182313.999,A,1430.5877,S,07316.1405,W,0.19,198.97,200411,,,A*6A
$GPGGA,182314.997,1430.5876,S,07316.1404,W,1,06,1.1,4113.5,M,25.9,M,,0000*6B
$GPGSA,M,3,18,21,22,31,16,29,,,,,,,2.9,1.1,2.7*34
$GPRMC,182314.997,A,1430.5876,S,07316.1404,W,0.66,233.66,200411,,,A*67
$GPGGA,182316.002,1430.5877,S,07316.1403,W,1,07,1.0,4113.3,M,25.9,M,,0000*6C
$GPGSA,M,3,18,21,22,31,25,16,29,,,,,,2.8,1.0,2.6*32
$GPGSV,3,1,11,18,56,054,38,30,47,209,,21,45,163,38,22,41,004,37*78
$GPGSV,3,2,11,31,38,308,41,25,34,045,27,16,24,211,34,29,19,113,29*74
$GPGSV,3,3,11,06,15,231,,03,06,237,,14,05,356,*48
$GPRMC,182316.002,A,1430.5877,S,07316.1403,W,0.69,238.95,200411,,,A*6E
$GPGGA,182316.998,1430.5878,S,07316.1405,W,1,08,1.0,4112.2,M,25.9,M,,0000*60
$GPGSA,M,3,18,30,21,22,31,25,16,29,,,,,2.6,1.0,2.4*3D
$GPRMC,182316.998,A,1430.5878,S,07316.1405,W,0.51,226.84,200411,,,A*69
$GPGGA,182318.000,1430.5875,S,07316.1404,W,1,08,1.0,4111.3,M,25.9,M,,0000*68
$GPGSA,M,3,18,30,21,22,31,25,16,29,,,,,2.6,1.0,2.4*3D
$GPRMC,182318.000,A,1430.5875,S,07316.1404,W,0.27,18.40,200411,,,A*55
$GPGGA,182319.002,1430.5873,S,07316.1404,W,1,07,1.0,4110.7,M,25.9,M,,0000*67
$GPGSA,M,3,18,21,22,31,25,16,29,,,,,,2.8,1.0,2.6*32
$GPRMC,182319.002,A,1430.5873,S,07316.1404,W,0.07,200.90,200411,,,A*64
$GPGGA,182320.000,1430.5871,S,07316.1405,W,1,07,1.1,4111.4,M,25.9,M,,0000*6F
$GPGSA,M,3,18,30,21,22,31,25,29,,,,,,3.0,1.1,2.8*30
$GPRMC,182320.000,A,1430.5871,S,07316.1405,W,0.23,274.98,200411,,,A*62
$GPGGA,182320.999,1430.5870,S,07316.1401,W,1,06,1.3,4111.9,M,25.9,M,,0000*6D
$GPGSA,M,3,18,21,22,31,25,16,,,,,,,4.0,1.3,3.8*3B
$GPGSV,3,1,11,18,56,054,39,30,47,209,,21,45,163,40,22,41,004,33*72
$GPGSV,3,2,11,31,38,308,40,25,34,045,30,16,24,211,32,29,19,113,*7E
$GPGSV,3,3,11,06,15,231,,03,06,237,,14,05,356,*48
$GPRMC,182320.999,A,1430.5870,S,07316.1401,W,0.40,226.00,200411,,,A*6D
$GPGGA,182322.001,1430.5871,S,07316.1402,W,1,07,1.2,4111.9,M,25.9,M,,0000*65
$GPGSA,M,3,18,30,21,22,31,25,16,,,,,,3.5,1.2,3.3*30
$GPRMC,182322.001,A,1430.5871,S,07316.1402,W,0.36,268.07,200411,,,A*69
$GPGGA,182323.001,1430.5869,S,07316.1404,W,1,07,1.0,4112.1,M,25.9,M,,0000*62
$GPGSA,M,3,18,21,22,31,25,16,29,,,,,,2.8,1.0,2.6*32
$GPRMC,182323.001,A,1430.5869,S,07316.1404,W,0.52,313.38,200411,,,A*64
$GPGGA,182323.996,1430.5870,S,07316.1406,W,1,08,1.0,4115.1,M,25.9,M,,0000*67
$GPGSA,M,3,18,30,21,22,31,25,16,29,,,,,2.6,1.0,2.4*3D
$GPRMC,182323.996,A,1430.5870,S,07316.1406,W,0.50,262.10,200411,,,A*66
$GPGGA,182325.000,1430.5869,S,07316.1405,W,1,08,1.0,4114.5,M,25.9,M,,0000*69
$GPGSA,M,3,18,30,21,22,31,25,16,29,,,,,2.6,1.0,2.4*3D
$GPRMC,182325.000,A,1430.5869,S,07316.1405,W,0.13,324.78,200411,,,A*67
$GPGGA,182325.999,1430.5870,S,07316.1407,W,1,08,1.0,4115.9,M,25.9,M,,0000*67
$GPGSA,M,3,18,30,21,22,31,25,16,29,,,,,2.6,1.0,2.4*3D
$GPGSV,3,1,11,18,56,054,39,30,47,209,25,21,45,163,39,22,41,004,32*7A
$GPGSV,3,2,11,31,38,308,42,25,34,045,29,16,24,211,33,29,19,113,31*77
$GPGSV,3,3,11,06,15,231,,03,06,237,,14,05,356,*48
$GPRMC,182325.999,A,1430.5870,S,07316.1407,W,0.11,204.78,200411,,,A*65
$GPGGA,182327.002,1430.5871,S,07316.1407,W,1,08,1.0,4117.0,M,25.9,M,,0000*64
$GPGSA,M,3,18,30,21,22,31,25,16,29,,,,,2.6,1.0,2.4*3D
$GPRMC,182327.002,A,1430.5871,S,07316.1407,W,0.36,300.79,200411,,,A*6C
$GPGGA,182327.998,1430.5872,S,07316.1407,W,1,08,1.0,4116.6,M,25.9,M,,0000*6A
$GPGSA,M,3,18,30,21,22,31,25,16,29,,,,,2.6,1.0,2.4*3D
$GPRMC,182327.998,A,1430.5872,S,07316.1407,W,0.15,228.79,200411,,,A*6F
$GPGGA,182328.999,1430.5871,S,07316.1408,W,1,08,1.0,4115.6,M,25.9,M,,0000*6B
$GPGSA,M,3,18,30,21,22,31,25,16,29,,,,,2.6,1.0,2.4*3D
$GPRMC,182328.999,A,1430.5871,S,07316.1408,W,0.16,43.54,200411,,,A*5E
$GPGGA,182329.999,1430.5870,S,07316.1406,W,1,08,1.0,4114.1,M,25.9,M,,0000*63
$GPGSA,M,3,18,30,21,22,31,25,16,29,,,,,2.6,1.0,2.4*3D
$GPRMC,182329.999,A,1430.5870,S,07316.1406,W,0.47,8.98,200411,,,A*6B
$GPGGA,182330.999,1430.5870,S,07316.1406,W,1,08,1.0,4113.0,M,25.9,M,,0000*6D
$GPGSA,M,3,18,30,21,22,31,25,16,29,,,,,2.5,1.0,2.4*3E
$GPGSV,3,1,11,18,56,054,38,30,47,209,29,21,45,163,39,22,41,004,32*77
$GPGSV,3,2,11,31,38,308,41,25,34,045,27,16,24,211,34,29,19,113,33*7F
$GPGSV,3,3,11,06,15,231,,03,06,237,,14,05,356,*48
$GPRMC,182330.999,A,1430.5870,S,07316.1406,W,0.08,79.13,200411,,,A*5D
$GPGGA,182332.003,1430.5870,S,07316.1407,W,1,07,1.0,4112.5,M,25.9,M,,0000*6F
$GPGSA,M,3,18,21,22,31,25,16,29,,,,,,2.8,1.0,2.6*32
$GPRMC,182332.003,A,1430.5870,S,07316.1407,W,0.72,213.17,200411,,,A*63
$GPGGA,182332.996,1430.5872,S,07316.1408,W,1,08,1.0,4112.4,M,25.9,M,,0000*69
$GPGSA,M,3,18,30,21,22,31,25,16,29,,,,,2.5,1.0,2.4*3E
$GPRMC,182332.996,A,1430.5872,S,07316.1408,W,0.57,219.00,200411,,,A*60
$GPGGA,182334.003,1430.5872,S,07316.1409,W,1,07,1.0,4113.0,M,25.9,M,,0000*61
$GPGSA,M,3,18,21,22,31,25,16,29,,,,,,2.8,1.0,2.6*32
$GPRMC,182334.003,A,1430.5872,S,07316.1409,W,0.19,292.72,200411,,,A*6E
$GPGGA,182334.999,1430.5872,S,07316.1410,W,1,07,1.0,4113.0,M,25.9,M,,0000*63
$GPGSA,M,3,18,30,21,22,31,16,29,,,,,,2.6,1.0,2.4*3A
$GPRMC,182334.999,A,1430.5872,S,07316.1410,W,0.51,249.57,200411,,,A*61
$GPGGA,182335.998,1430.5873,S,07316.1412,W,1,06,1.1,4112.6,M,25.9,M,,0000*67
$GPGSA,M,3,18,21,22,31,16,29,,,,,,,2.9,1.1,2.7*34
$GPGSV,3,1,11,18,56,054,39,30,47,209,,21,45,163,40,22,41,004,34*75
$GPGSV,3,2,11,31,38,308,39,25,34,045,,16,24,211,34,29,19,113,33*75
$GPGSV,3,3,11,06,15,231,,03,06,237,,14,05,356,*48
$GPRMC,182335.998,A,1430.5873,S,07316.1412,W,0.53,222.69,200411,,,A*60
$GPGGA,182337.001,1430.5875,S,07316.1413,W,1,07,1.0,4113.1,M,25.9,M,,0000*6D
$GPGSA,M,3,18,30,21,22,31,16,29,,,,,,2.6,1.0,2.4*3A
$GPRMC,182337.001,A,1430.5875,S,07316.1413,W,0.13,184.10,200411,,,A*69
$GPGGA,182338.001,1430.5874,S,07316.1413,W,1,07,1.0,4114.9,M,25.9,M,,0000*6C
$GPGSA,M,3,18,21,22,31,25,16,29,,,,,,2.8,1.0,2.6*32
$GPRMC,182338.001,A,1430.5874,S,07316.1413,W,0.08,9.38,200411,,,A*63
$GPGGA,182338.998,1430.5873,S,07316.1413,W,1,08,1.0,4114.4,M,25.9,M,,0000*60
$GPGSA,M,3,18,30,21,22,31,25,16,29,,,,,2.5,1.0,2.4*3E
$GPRMC,182338.998,A,1430.5873,S,07316.1413,W,0.11,242.41,200411,,,A*66
$GPGGA,182340.001,1430.5872,S,07316.1414,W,1,07,1.0,4115.2,M,25.9,M,,0000*68
$GPGSA,M,3,18,21,22,31,25,16,29,,,,,,2.8,1.0,2.6*32
$GPRMC,182340.001,A,1430.5872,S,07316.1414,W,0.25,66.98,200411,,,A*51
$GPGGA,182340.999,1430.5873,S,07316.1414,W,1,06,1.1,4116.5,M,25.9,M,,0000*65
$GPGSA,M,3,18,21,22,31,16,29,,,,,,,2.9,1.1,2.7*34
$GPGSV,3,1,11,18,56,054,39,30,47,209,,21,45,163,38,22,41,004,36*78
$GPGSV,3,2,11,31,38,308,41,25,34,045,,16,24,211,36,29,19,113,32*79
$GPGSV,3,3,11,06,15,231,,03,06,237,,14,05,356,*48
$GPRMC,182340.999,A,1430.5873,S,07316.1414,W,0.35,255.85,200411,,,A*67
$GPGGA,182341.999,1430.5878,S,07316.1415,W,1,08,1.0,4117.4,M,25.9,M,,0000*61
$GPGSA,M,3,18,30,21,22,31,25,16,29,,,,,2.5,1.0,2.4*3E
$GPRMC,182341.999,A,1430.5878,S,07316.1415,W,0.16,211.49,200411,,,A*6D
$GPGGA,182342.999,1430.5880,S,07316.1415,W,1,06,1.1,4116.9,M,25.9,M,,0000*66
$GPGSA,M,3,18,21,22,31,16,29,,,,,,,2.9,1.1,2.7*34
$GPRMC,182342.999,A,1430.5880,S,07316.1415,W,0.14,179.96,200411,,,A*64
$GPGGA,182343.999,1430.5881,S,07316.1415,W,1,08,1.0,4117.4,M,25.9,M,,0000*65
$GPGSA,M,3,18,30,21,22,31,25,16,29,,,,,2.5,1.0,2.4*3E
$GPRMC,182343.999,A,1430.5881,S,07316.1415,W,0.47,236.64,200411,,,A*67
$GPGGA,182345.001,1430.5881,S,07316.1416,W,1,07,1.0,4118.0,M,25.9,M,,0000*6C
$GPGSA,M,3,18,30,21,22,31,16,29,,,,,,2.6,1.0,2.4*3A
$GPRMC,182345.001,A,1430.5881,S,07316.1416,W,0.13,174.02,200411,,,A*6E
$GPGGA,182345.999,1430.5880,S,07316.1415,W,1,07,1.0,4117.2,M,25.9,M,,0000*6B
$GPGSA,M,3,18,21,22,31,25,16,29,,,,,,2.8,1.0,2.6*32
$GPGSV,3,1,11,18,56,054,40,30,47,209,,21,45,163,40,22,41,004,34*7B
$GPGSV,3,2,11,31,38,308,40,25,34,045,23,16,24,211,36,29,19,113,33*78
$GPGSV,3,3,11,06,15,231,,03,06,237,,14,05,356,*48
$GPRMC,182345.999,A,1430.5880,S,07316.1415,W,0.02,151.37,200411,,,A*65
$GPGGA,182346.997,1430.5882,S,07316.1416,W,1,06,1.1,4117.5,M,25.9,M,,0000*60
$GPGSA,M,3,18,21,22,31,16,29,,,,,,,2.9,1.1,2.7*34
$GPRMC,182346.997,A,1430.5882,S,07316.1416,W,0.31,255.55,200411,,,A*6A
$GPGGA,182348.001,1430.5880,S,07316.1415,W,1,06,1.1,4115.7,M,25.9,M,,0000*69
$GPGSA,M,3,18,21,22,31,16,29,,,,,,,2.9,1.1,2.7*34
$GPRMC,182348.001,A,1430.5880,S,07316.1415,W,0.49,234.38,200411,,,A*60
$GPGGA,182349.000,1430.5879,S,07316.1415,W,1,08,1.0,4116.2,M,25.9,M,,0000*66
$GPGSA,M,3,18,30,21,22,31,25,16,29,,,,,2.5,1.0,2.4*3E
$GPRMC,182349.000,A,1430.5879,S,07316.1415,W,0.10,293.06,200411,,,A*6A
$GPGGA,182350.002,1430.5879,S,07316.1417,W,1,05,2.8,4116.4,M,25.9,M,,0000*6E
$GPGSA,M,3,18,21,22,31,16,,,,,,,,9.2,2.8,8.7*3F
$GPRMC,182350.002,A,1430.5879,S,07316.1417,W,0.49,202.57,200411,,,A*62
$GPGGA,182350.999,1430.5881,S,07316.1417,W,1,06,1.1,4116.3,M,25.9,M,,0000*6C
$GPGSA,M,3,18,21,22,31,16,29,,,,,,,2.9,1.1,2.7*34
$GPGSV,3,1,11,18,56,054,40,30,47,209,,21,45,163,39,22,41,004,34*75
$GPGSV,3,2,11,31,38,308,39,25,34,045,,16,24,211,34,29,19,113,32*74
$GPGSV,3,3,11,06,15,231,,03,06,237,,14,05,356,*48
$GPRMC,182350.999,A,1430.5881,S,07316.1417,W,0.24,215.23,200411,,,A*60
$GPGGA,182351.997,1430.5881,S,07316.1416,W,1,06,1.1,4116.9,M,25.9,M,,0000*68
$GPGSA,M,3,18,21,22,31,16,29,,,,,,,2.9,1.1,2.7*34
$GPRMC,182351.997,A,1430.5881,S,07316.1416,W,0.50,248.93,200411,,,A*6E
$GPGGA,182353.005,1430.5881,S,07316.1418,W,1,07,1.0,4117.1,M,25.9,M,,0000*6F
$GPGSA,M,3,18,30,21,22,31,16,29,,,,,,2.6,1.0,2.4*3A
$GPRMC,182353.005,A,1430.5881,S,07316.1418,W,0.29,217.01,200411,,,A*6F
$GPGGA,182353.996,1430.5884,S,07316.1419,W,1,06,1.1,4118.4,M,25.9,M,,0000*62
$GPGSA,M,3,18,21,22,31,16,29,,,,,,,2.9,1.1,2.7*34
$GPRMC,182353.996,A,1430.5884,S,07316.1419,W,0.26,215.20,200411,,,A*66
$GPGGA,182354.999,1430.5885,S,07316.1420,W,1,06,1.1,4120.3,M,25.9,M,,0000*6D
$GPGSA,M,3,18,21,22,31,16,29,,,,,,,2.9,1.1,2.7*34
$GPRMC,182354.999,A,1430.5885,S,07316.1420,W,0.51,261.04,200411,,,A*60
$GPGGA,182356.000,1430.5884,S,07316.1420,W,1,08,1.0,4119.4,M,25.9,M,,0000*65
$GPGSA,M,3,18,30,21,22,31,25,16,29,,,,,2.5,1.0,2.3*39
$GPGSV,3,1,11,18,57,056,39,30,49,209,25,21,44,162,40,22,43,004,34*7D
$GPGSV,3,2,11,31,37,310,41,25,33,044,25,16,25,211,36,29,18,112,33*7E
$GPGSV,3,3,11,06,16,230,,03,07,236,,14,05,357,*4B
$GPRMC,182356.000,A,1430.5884,S,07316.1420,W,0.75,219.80,200411,,,A*6F
$GPGGA,182357.002,1430.5885,S,07316.1418,W,1,07,1.0,4118.1,M,25.9,M,,0000*67
$GPGSA,M,3,18,21,22,31,25,16,29,,,,,,2.8,1.0,2.6*32
$GPRMC,182357.002,A,1430.5885,S,07316.1418,W,0.23,251.68,200411,,,A*6F
$GPGGA,182358.001,1430.5885,S,07316.1417,W,1,06,1.1,4117.6,M,25.9,M,,0000*6C
$GPGSA,M,3,18,21,22,31,16,29,,,,,,,2.9,1.1,2.7*34
$GPRMC,182358.001,A,1430.5885,S,07316.1417,W,0.07,102.76,200411,,,A*60
$GPGGA,182359.001,1430.5886,S,07316.1418,W,1,07,1.0,4118.6,M,25.9,M,,0000*6E
$GPGSA,M,3,18,21,22,31,25,16,29,,,,,,2.8,1.0,2.6*32
$GPRMC,182359.001,A,1430.5886,S,07316.1418,W,0.53,196.76,200411,,,A*61
$GPGGA,182400.003,1430.5886,S,07316.1418,W,1,07,1.0,4118.7,M,25.9,M,,0000*66
$GPGSA,M,3,18,21,22,31,25,16,29,,,,,,2.8,1.0,2.6*32
$GPRMC,182400.003,A,1430.5886,S,07316.1418,W,0.21,338.27,200411,,,A*6F
$GPGGA,182400.997,1430.5886,S,07316.1417,W,1,07,1.0,4118.7,M,25.9,M,,0000*6D
$GPGSA,M,3,18,21,22,31,25,16,29,,,,,,2.8,1.0,2.6*32
$GPGSV,3,1,11,18,57,056,39,30,49,209,,21,44,162,38,22,43,004,33*72
$GPGSV,3,2,11,31,37,310,40,25,33,044,28,16,25,211,35,29,18,112,34*76
$GPGSV,3,3,11,06,16,230,,03,07,236,,14,05,357,*4B
$GPRMC,182400.997,A,1430.5886,S,07316.1417,W,0.26,200.45,200411,,,A*6D
$GPGGA,182402.000,1430.5885,S,07316.1417,W,1,07,1.0,4118.3,M,25.9,M,,0000*6F
$GPGSA,M,3,18,21,22,31,25,16,29,,,,,,2.8,1.0,2.6*32
$GPRMC,182402.000,A,1430.5885,S,07316.1417,W,0.32,255.31,200411,,,A*6D
$GPGGA,182403.000,1430.5884,S,07316.1417,W,1,07,1.0,4120.2,M,25.9,M,,0000*65
$GPGSA,M,3,18,21,22,31,25,16,29,,,,,,2.8,1.0,2.6*32
$GPRMC,182403.000,A,1430.5884,S,07316.1417,W,0.23,231.29,200411,,,A*66
$GPGGA,182404.001,1430.5885,S,07316.1418,W,1,07,1.0,4121.8,M,25.9,M,,0000*66
$GPGSA,M,3,18,21,22,31,25,16,29,,,,,,2.8,1.0,2.6*32
$GPRMC,182404.001,A,1430.5885,S,07316.1418,W,0.20,225.99,200411,,,A*63
$GPGGA,182405.000,1430.5888,S,07316.1419,W,1,07,1.0,4122.4,M,25.9,M,,0000*65
$GPGSA,M,3,18,21,22,31,25,16,29,,,,,,2.8,1.0,2.6*32
$GPRMC,182405.000,A,1430.5888,S,07316.1419,W,0.40,55.83,200411,,,A*57
$GPGGA,182406.000,1430.5889,S,07316.1420,W,1,07,1.0,4122.7,M,25.9,M,,0000*6E
$GPGSA,M,3,18,21,22,31,25,16,29,,,,,,2.8,1.0,2.6*32
$GPGSV,3,1,11,18,57,056,40,30,49,209,,21,44,162,40,22,43,004,34*74
$GPGSV,3,2,11,31,37,310,41,25,33,044,31,16,25,211,35,29,18,112,33*78
$GPGSV,3,3,11,06,16,230,,03,07,236,,14,05,357,*4B
$GPRMC,182406.000,A,1430.5889,S,07316.1420,W,0.12,264.69,200411,,,A*6C
$GPGGA,182406.999,1430.5890,S,07316.1420,W,1,07,1.0,4123.7,M,25.9,M,,0000*6E
$GPGSA,M,3,18,21,22,31,25,16,29,,,,,,2.8,1.0,2.6*32
$GPRMC,182406.999,A,1430.5890,S,07316.1420,W,0.17,158.44,200411,,,A*6B
$GPGGA,182408.001,1430.5890,S,07316.1421,W,1,07,1.0,4123.8,M,25.9,M,,0000*66
$GPGSA,M,3,18,21,22,31,25,16,29,,,,,,2.8,1.0,2.6*32
$GPRMC,182408.001,A,1430.5890,S,07316.1421,W,0.33,256.01,200411,,,A*66
$GPGGA,182409.000,1430.5890,S,07316.1422,W,1,07,1.0,4124.5,M,25.9,M,,0000*6F
$GPGSA,M,3,18,21,22,31,25,16,29,,,,,,2.8,1.0,2.6*32
$GPRMC,182409.000,A,1430.5890,S,07316.1422,W,0.18,14.16,200411,,,A*5E
$GPGGA,182410.000,1430.5890,S,07316.1422,W,1,07,1.0,4125.0,M,25.9,M,,0000*63
$GPGSA,M,3,18,21,22,31,25,16,29,,,,,,2.8,1.0,2.6*32
$GPRMC,182410.000,A,1430.5890,S,07316.1422,W,0.45,240.83,200411,,,A*61
$GPGGA,182411.000,1430.5889,S,07316.1424,W,1,07,1.0,4124.5,M,25.9,M,,0000*68
$GPGSA,M,3,18,21,22,31,25,16,29,,,,,,2.8,1.0,2.6*32
$GPGSV,3,1,11,18,57,056,41,30,49,209,,21,44,162,39,22,43,004,32*7D
$GPGSV,3,2,11,31,37,310,40,25,33,044,30,16,25,211,36,29,18,112,33*7B
$GPGSV,3,3,11,06,16,230,,03,07,236,,14,05,357,*4B
$GPRMC,182411.000,A,1430.5889,S,07316.1424,W,0.89,234.09,200411,,,A*6F
$GPGGA,182412.002,1430.5890,S,07316.1426,W,1,07,1.0,4124.8,M,25.9,M,,0000*6E
$GPGSA,M,3,18,21,22,31,25,16,29,,,,,,2.8,1.0,2.6*32
$GPRMC,182412.002,A,1430.5890,S,07316.1426,W,0.54,223.36,200411,,,A*6E
$GPGGA,182412.998,1430.5890,S,07316.1426,W,1,07,1.0,4124.4,M,25.9,M,,0000*68
$GPGSA,M,3,18,21,22,31,25,16,29,,,,,,2.8,1.0,2.6*32
$GPRMC,182412.998,A,1430.5890,S,07316.1426,W,0.22,230.05,200411,,,A*67
$GPGGA,182414.001,1430.5888,S,07316.1426,W,1,07,1.0,4124.6,M,25.9,M,,0000*6C
$GPGSA,M,3,18,21,22,31,25,16,29,,,,,,2.8,1.0,2.6*32
$GPRMC,182414.001,A,1430.5888,S,07316.1426,W,0.31,276.25,200411,,,A*63
$GPGGA,182415.001,1430.5891,S,07316.1426,W,1,07,1.0,4125.2,M,25.9,M,,0000*60
$GPGSA,M,3,18,21,22,31,25,16,29,,,,,,2.8,1.0,2.6*32
$GPRMC,182415.001,A,1430.5891,S,07316.1426,W,0.37,230.15,200411,,,A*6D
$GPGGA,182416.000,1430.5890,S,07316.1428,W,1,07,1.0,4124.7,M,25.9,M,,0000*69
$GPGSA,M,3,18,21,22,31,25,16,29,,,,,,2.8,1.0,2.6*32
$GPGSV,3,1,11,18,57,056,40,30,49,209,,21,44,162,39,22,43,004,33*7D
$GPGSV,3,2,11,31,37,310,41,25,33,044,30,16,25,211,36,29,18,112,33*7A
$GPGSV,3,3,11,06,16,230,,03,07,236,,14,05,357,*4B
$GPRMC,182416.000,A,1430.5890,S,07316.1428,W,0.14,290.96,200411,,,A*60
$GPGGA,182417.000,1430.5891,S,07316.1426,W,1,07,1.0,4123.6,M,25.9,M,,0000*61
$GPGSA,M,3,18,21,22,31,25,16,29,,,,,,2.8,1.0,2.6*32
$GPRMC,182417.000,A,1430.5891,S,07316.1426,W,0.25,239.34,200411,,,A*67
$GPGGA,182418.001,1430.5888,S,07316.1428,W,1,07,1.0,4124.4,M,25.9,M,,0000*6C
$GPGSA,M,3,18,21,22,31,25,16,29,,,,,,2.8,1.0,2.6*32
$GPRMC,182418.001,A,1430.5888,S,07316.1428,W,0.21,250.03,200411,,,A*60
$GPGGA,182419.002,1430.5887,S,07316.1427,W,1,07,1.0,4123.0,M,25.9,M,,0000*6D
$GPGSA,M,3,18,21,22,31,25,16,29,,,,,,2.8,1.0,2.6*32
$GPRMC,182419.002,A,1430.5887,S,07316.1427,W,0.16,202.77,200411,,,A*62
$GPGGA,182419.998,1430.5887,S,07316.1426,W,1,07,1.0,4122.8,M,25.9,M,,0000*6F
$GPGSA,M,3,18,21,22,31,25,16,29,,,,,,2.8,1.0,2.6*32
$GPRMC,182419.998,A,1430.5887,S,07316.1426,W,0.52,250.18,200411,,,A*67
$GPGGA,182421.000,1430.5888,S,07316.1427,W,1,07,1.0,4124.1,M,25.9,M,,0000*6D
$GPGSA,M,3,18,21,22,31,25,16,29,,,,,,2.8,1.0,2.6*32
$GPGSV,3,1,11,18,57,056,41,30,49,209,,21,44,162,39,22,43,004,31*7E
$GPGSV,3,2,11,31,37,310,40,25,33,044,31,16,25,211,35,29,18,112,33*79
$GPGSV,3,3,11,06,16,230,,03,07,236,,14,05,357,*4B
$GPRMC,182421.000,A,1430.5888,S,07316.1427,W,0.20,113.10,200411,,,A*63
$GPGGA,182422.001,1430.5888,S,07316.1428,W,1,07,1.0,4124.1,M,25.9,M,,0000*60
$GPGSA,M,3,18,21,22,31,25,16,29,,,,,,2.8,1.0,2.6*32
$GPRMC,182422.001,A,1430.5888,S,07316.1428,W,0.42,241.45,200411,,,A*6E
$GPGGA,182423.000,1430.5889,S,07316.1428,W,1,07,1.0,4124.1,M,25.9,M,,0000*61
$GPGSA,M,3,18,21,22,31,25,16,29,,,,,,2.8,1.0,2.6*32
$GPRMC,182423.000,A,1430.5889,S,07316.1428,W,0.50,192.70,200411,,,A*67
$GPGGA,182424.000,1430.5888,S,07316.1427,W,1,07,1.0,4123.3,M,25.9,M,,0000*6D
$GPGSA,M,3,18,21,22,31,25,16,29,,,,,,2.8,1.0,2.6*32
$GPRMC,182424.000,A,1430.5888,S,07316.1427,W,0.17,54.07,200411,,,A*56
$GPGGA,182425.001,1430.5887,S,07316.1426,W,1,07,1.0,4123.0,M,25.9,M,,0000*60
$GPGSA,M,3,18,21,22,31,25,16,29,,,,,,2.8,1.0,2.6*32
$GPRMC,182425.001,A,1430.5887,S,07316.1426,W,0.27,156.00,200411,,,A*6F
$GPGGA,182426.001,1430.5887,S,07316.1426,W,1,07,1.0,4122.5,M,25.9,M,,0000*67
$GPGSA,M,3,18,21,22,31,25,16,29,,,,,,2.8,1.0,2.6*32
$GPGSV,3,1,11,18,57,056,40,30,49,209,,21,44,162,39,22,43,004,33*7D
$GPGSV,3,2,11,31,37,310,40,25,33,044,33,16,25,211,37,29,18,112,32*78
$GPGSV,3,3,11,06,16,230,,03,07,236,,14,05,357,*4B
$GPRMC,182426.001,A,1430.5887,S,07316.1426,W,0.41,241.30,200411,,,A*6A
$GPGGA,182427.000,1430.5886,S,07316.1426,W,1,07,1.0,4122.7,M,25.9,M,,0000*64
$GPGSA,M,3,18,21,22,31,25,16,29,,,,,,2.8,1.0,2.6*32
$GPRMC,182427.000,A,1430.5886,S,07316.1426,W,0.22,338.98,200411,,,A*63
$GPGGA,182428.000,1430.5887,S,07316.1426,W,1,07,1.0,4122.8,M,25.9,M,,0000*65
$GPGSA,M,3,18,21,22,31,25,16,29,,,,,,2.8,1.0,2.6*32
$GPRMC,182428.000,A,1430.5887,S,07316.1426,W,0.22,252.72,200411,,,A*64
$GPGGA,182429.000,1430.5887,S,07316.1428,W,1,07,1.0,4123.4,M,25.9,M,,0000*67
$GPGSA,M,3,18,21,22,31,25,16,29,,,,,,2.8,1.0,2.6*32
$GPRMC,182429.000,A,1430.5887,S,07316.1428,W,0.14,323.35,200411,,,A*6A
$GPGGA,182430.000,1430.5886,S,07316.1428,W,1,07,1.0,4123.4,M,25.9,M,,0000*6E
$GPGSA,M,3,18,21,22,31,25,16,29,,,,,,2.8,1.0,2.6*32
$GPRMC,182430.000,A,1430.5886,S,07316.1428,W,0.02,39.90,200411,,,A*53
$GPGGA,182431.000,1430.5888,S,07316.1430,W,1,07,1.0,4124.7,M,25.9,M,,0000*6C
$GPGSA,M,3,18,21,22,31,25,16,29,,,,,,2.8,1.0,2.6*32
$GPGSV,3,1,11,18,57,056,41,30,49,209,,21,44,162,38,22,43,004,32*7C
$GPGSV,3,2,11,31,37,310,41,25,33,044,32,16,25,211,35,29,18,112,32*7A
$GPGSV,3,3,11,06,16,230,,03,07,236,,14,05,357,*4B
$GPRMC,182431.000,A,1430.5888,S,07316.1430,W,0.74,259.61,200411,,,A*6E
$GPGGA,182432.000,1430.5889,S,07316.1431,W,1,07,1.0,4124.8,M,25.9,M,,0000*60
$GPGSA,M,3,18,21,22,31,25,16,29,,,,,,2.8,1.0,2.6*32
$GPRMC,182432.000,A,1430.5889,S,07316.1431,W,0.53,240.84,200411,,,A*6B
$GPGGA,182433.000,1430.5889,S,07316.1429,W,1,07,1.0,4124.8,M,25.9,M,,0000*68
$GPGSA,M,3,18,21,22,31,25,16,29,,,,,,2.8,1.0,2.6*32
$GPRMC,182433.000,A,1430.5889,S,07316.1429,W,0.13,196.58,200411,,,A*6E
$GPGGA,182434.000,1430.5889,S,07316.1428,W,1,07,1.0,4124.9,M,25.9,M,,0000*6F
$GPGSA,M,3,18,21,22,31,25,16,29,,,,,,2.8,1.0,2.6*32
$GPRMC,182434.000,A,1430.5889,S,07316.1428,W,0.66,228.27,200411,,,A*64
$GPGGA,182435.000,1430.5890,S,07316.1429,W,1,07,1.0,4125.7,M,25.9,M,,0000*68
$GPGSA,M,3,18,21,22,31,25,16,29,,,,,,2.8,1.0,2.6*32
$GPRMC,182435.000,A,1430.5890,S,07316.1429,W,0.17,77.64,200411,,,A*55
$GPGGA,182436.000,1430.5891,S,07316.1430,W,1,07,1.0,4125.3,M,25.9,M,,0000*66
$GPGSA,M,3,18,21,22,31,25,16,29,,,,,,2.8,1.0,2.6*32
$GPGSV,3,1,11,18,57,056,40,30,49,209,,21,44,162,38,22,43,004,32*7D
$GPGSV,3,2,11,31,37,310,40,25,33,044,30,16,25,211,33,29,18,112,33*7E
$GPGSV,3,3,11,06,16,230,,03,07,236,,14,05,357,*4B
$GPRMC,182436.000,A,1430.5891,S,07316.1430,W,0.32,96.49,200411,,,A*58
$GPGGA,182437.001,1430.5887,S,07316.1427,W,1,07,1.0,4123.7,M,25.9,M,,0000*65
$GPGSA,M,3,18,21,22,31,25,16,29,,,,,,2.8,1.0,2.6*32
$GPRMC,182437.001,A,1430.5887,S,07316.1427,W,0.37,336.20,200411,,,A*6A
$GPGGA,182438.001,1430.5888,S,07316.1428,W,1,07,1.0,4124.0,M,25.9,M,,0000*6A
$GPGSA,M,3,18,21,22,31,25,16,29,,,,,,2.8,1.0,2.6*32
$GPRMC,182438.001,A,1430.5888,S,07316.1428,W,0.28,249.05,200411,,,A*65
$GPGGA,182439.000,1430.5886,S,07316.1426,W,1,07,1.0,4121.7,M,25.9,M,,0000*68
$GPGSA,M,3,18,21,22,31,25,16,29,,,,,,2.8,1.0,2.6*32
$GPRMC,182439.000,A,1430.5886,S,07316.1426,W,0.15,315.22,200411,,,A*66
$GPGGA,182440.000,1430.5886,S,07316.1425,W,1,07,1.0,4121.3,M,25.9,M,,0000*61
$GPGSA,M,3,18,21,22,31,25,16,29,,,,,,2.8,1.0,2.6*32
$GPRMC,182440.000,A,1430.5886,S,07316.1425,W,0.17,167.10,200411,,,A*6F
$GPGGA,182441.000,1430.5884,S,07316.1425,W,1,07,1.0,4121.3,M,25.9,M,,0000*62
$GPGSA,M,3,18,21,22,31,25,16,29,,,,,,2.8,1.0,2.6*32
$GPGSV,3,1,11,18,57,056,41,30,49,209,,21,44,162,39,22,43,004,33*7C
$GPGSV,3,2,11,31,37,310,41,25,33,044,31,16,25,211,36,29,18,112,32*7A
$GPGSV,3,3,11,06,16,230,,03,07,236,,14,05,357,*4B
$GPRMC,182441.000,A,1430.5884,S,07316.1425,W,0.16,257.69,200411,,,A*63
$GPGGA,182442.000,1430.5883,S,07316.1425,W,1,07,1.0,4121.1,M,25.9,M,,0000*64
$GPGSA,M,3,18,21,22,31,25,16,29,,,,,,2.8,1.0,2.6*32
$GPRMC,182442.000,A,1430.5883,S,07316.1425,W,0.46,245.87,200411,,,A*61
$GPGGA,182443.000,1430.5887,S,07316.1427,W,1,07,1.0,4122.2,M,25.9,M,,0000*63
$GPGSA,M,3,18,21,22,31,25,16,29,,,,,,2.8,1.0,2.6*32
$GPRMC,182443.000,A,1430.5887,S,07316.1427,W,0.51,245.45,200411,,,A*6E
$GPGGA,182444.001,1430.5890,S,07316.1428,W,1,07,1.0,4123.4,M,25.9,M,,0000*6B
$GPGSA,M,3,18,21,22,31,25,16,29,,,,,,2.8,1.0,2.6*32
$GPRMC,182444.001,A,1430.5890,S,07316.1428,W,0.36,227.92,200411,,,A*6E
$GPGGA,182445.000,1430.5892,S,07316.1428,W,1,07,1.0,4127.0,M,25.9,M,,0000*69
$GPGSA,M,3,18,21,22,31,25,16,29,,,,,,2.8,1.0,2.6*32
$GPRMC,182445.000,A,1430.5892,S,07316.1428,W,0.18,284.47,200411,,,A*61
$GPGGA,182446.000,1430.5889,S,07316.1427,W,1,07,1.0,4125.5,M,25.9,M,,0000*68
$GPGSA,M,3,18,21,22,31,25,16,29,,,,,,2.8,1.0,2.6*32
$GPGSV,3,1,11,18,57,056,39,30,49,209,,21,44,162,39,22,43,004,31*71
$GPGSV,3,2,11,31,37,310,41,25,33,044,31,16,25,211,37,29,18,112,30*79
$GPGSV,3,3,11,06,16,230,,03,07,236,,14,05,357,*4B
$GPRMC,182446.000,A,1430.5889,S,07316.1427,W,0.54,255.63,200411,,,A*65
$GPGGA,182447.000,1430.5887,S,07316.1425,W,1,07,1.0,4124.0,M,25.9,M,,0000*61
$GPGSA,M,3,18,21,22,31,25,16,29,,,,,,2.8,1.0,2.6*32
$GPRMC,182447.000,A,1430.5887,S,07316.1425,W,0.35,219.39,200411,,,A*68
$GPGGA,182448.001,1430.5884,S,07316.1425,W,1,07,1.0,4123.1,M,25.9,M,,0000*6A
$GPGSA,M,3,18,21,22,31,25,16,29,,,,,,2.8,1.0,2.6*32
$GPRMC,182448.001,A,1430.5884,S,07316.1425,W,0.27,145.58,200411,,,A*6B
$GPGGA,182449.000,1430.5887,S,07316.1426,W,1,07,1.0,4124.0,M,25.9,M,,0000*6C
$GPGSA,M,3,18,21,22,31,25,16,29,,,,,,2.8,1.0,2.6*32
$GPRMC,182449.000,A,1430.5887,S,07316.1426,W,0.18,140.52,200411,,,A*68
$GPGGA,182450.000,1430.5883,S,07316.1421,W,1,07,1.0,4121.4,M,25.9,M,,0000*66
$GPGSA,M,3,18,21,22,31,25,16,29,,,,,,2.8,1.0,2.6*32
$GPRMC,182450.000,A,1430.5883,S,07316.1421,W,0.23,335.11,200411,,,A*6C
$GPGGA,182451.000,1430.5880,S,07316.1420,W,1,07,1.0,4120.0,M,25.9,M,,0000*60
$GPGSA,M,3,18,21,22,31,25,16,29,,,,,,2.8,1.0,2.6*32
$GPGSV,3,1,11,18,57,056,40,30,49,209,,21,44,162,38,22,43,004,30*7F
$GPGSV,3,2,11,31,37,310,40,25,33,044,34,16,25,211,36,29,18,112,31*7D
$GPGSV,3,3,11,06,16,230,,03,07,236,,14,05,357,*4B
$GPRMC,182451.000,A,1430.5880,S,07316.1420,W,0.08,348.44,200411,,,A*6C
$GPGGA,182451.999,1430.5878,S,07316.1420,W,1,07,1.0,4119.7,M,25.9,M,,0000*63
$GPGSA,M,3,18,21,22,31,25,16,29,,,,,,2.8,1.0,2.6*32
$GPRMC,182451.999,A,1430.5878,S,07316.1420,W,0.45,314.17,200411,,,A*64
$GPGGA,182453.000,1430.5876,S,07316.1420,W,1,07,1.0,4118.0,M,25.9,M,,0000*60
$GPGSA,M,3,18,21,22,31,25,16,29,,,,,,2.8,1.0,2.6*32
$GPRMC,182453.000,A,1430.5876,S,07316.1420,W,0.13,99.31,200411,,,A*50
$GPGGA,182454.000,1430.5873,S,07316.1416,W,1,07,1.0,4115.3,M,25.9,M,,0000*69
$GPGSA,M,3,18,21,22,31,25,16,29,,,,,,2.8,1.0,2.6*32
$GPRMC,182454.000,A,1430.5873,S,07316.1416,W,0.47,72.30,200411,,,A*52
$GPGGA,182455.000,1430.5874,S,07316.1417,W,1,07,1.0,4116.3,M,25.9,M,,0000*6D
$GPGSA,M,3,18,21,22,31,25,16,29,,,,,,2.8,1.0,2.6*32
$GPRMC,182455.000,A,1430.5874,S,07316.1417,W,0.55,254.09,200411,,,A*6A
$GPGGA,182456.000,1430.5873,S,07316.1415,W,1,07,1.0,4115.3,M,25.9,M,,0000*68
$GPGSA,M,3,18,21,22,31,25,16,29,,,,,,2.8,1.0,2.6*32
$GPGSV,3,1,11,18,57,056,40,30,49,209,,21,44,162,38,22,43,004,30*7F
$GPGSV,3,2,11,31,37,310,41,25,33,044,32,16,25,211,36,29,18,112,29*73
$GPGSV,3,3,11,06,16,230,,03,07,236,,14,05,357,*4B
$GPRMC,182456.000,A,1430.5873,S,07316.1415,W,0.24,66.34,200411,,,A*57
$GPGGA,182457.001,1430.5872,S,07316.1414,W,1,07,1.0,4115.3,M,25.9,M,,0000*68
$GPGSA,M,3,18,21,22,31,25,16,29,,,,,,2.8,1.0,2.6*32
$GPRMC,182457.001,A,1430.5872,S,07316.1414,W,0.36,233.63,200411,,,A*64
