$GPGGA,161527.189,,,,,0,00,,,M,0.0,M,,0000*50
$GPGSA,M,1,,,,,,,,,,,,,,,*12
$GPRMC,161527.189,V,,,,,,,300411,,,N*4C
$GPGGA,161528.189,,,,,0,00,,,M,0.0,M,,0000*5F
$GPGSA,M,1,,,,,,,,,,,,,,,*12
$GPRMC,161528.189,V,,,,,,,300411,,,N*43
$GPGGA,161529.189,,,,,0,00,,,M,0.0,M,,0000*5E
$GPGSA,M,1,,,,,,,,,,,,,,,*12
$GPRMC,161529.189,V,,,,,,,300411,,,N*42
$GPGGA,161530.189,,,,,0,00,,,M,0.0,M,,0000*56
$GPGSA,M,1,,,,,,,,,,,,,,,*12
$GPGSV,3,1,11,21,80,274,43,25,59,093,45,31,44,254,,29,35,152,32*7D
$GPGSV,3,2,11,18,24,010,33,12,24,062,39,30,16,216,,22,05,345,*7B
$GPGSV,3,3,11,05,05,130,,14,04,323,,06,00,264,*4E
$GPRMC,161530.189,V,,,,,,,300411,,,N*4A
$GPGGA,161531.189,,,,,0,00,,,M,0.0,M,,0000*57
$GPGSA,M,1,,,,,,,,,,,,,,,*12
$GPRMC,161531.189,V,,,,,,,300411,,,N*4B
$GPGGA,161532.189,,,,,0,00,,,M,0.0,M,,0000*54
$GPGSA,M,1,,,,,,,,,,,,,,,*12
$GPRMC,161532.189,V,,,,,,,300411,,,N*48
$GPGGA,161533.189,,,,,0,00,,,M,0.0,M,,0000*55
$GPGSA,M,1,,,,,,,,,,,,,,,*12
$GPRMC,161533.189,V,,,,,,,300411,,,N*49
$GPGGA,161534.189,,,,,0,00,,,M,0.0,M,,0000*52
$GPGSA,M,1,,,,,,,,,,,,,,,*12
$GPRMC,161534.189,V,,,,,,,300411,,,N*4E
$GPGGA,161535.189,,,,,0,00,,,M,0.0,M,,0000*53
$GPGSA,M,1,,,,,,,,,,,,,,,*12
$GPGSV,3,1,11,21,80,274,38,25,59,093,39,31,44,254,,29,35,152,22*7B
$GPGSV,3,2,11,18,24,010,33,12,24,062,32,30,16,216,,22,05,345,*70
$GPGSV,3,3,11,05,05,130,,14,04,323,,06,00,264,*4E
$GPRMC,161535.189,V,,,,,,,300411,,,N*4F
$GPGGA,161536.189,,,,,0,00,,,M,0.0,M,,0000*50
$GPGSA,M,1,,,,,,,,,,,,,,,*12
$GPRMC,161536.189,V,,,,,,,300411,,,N*4C
$GPGGA,161537.189,,,,,0,00,,,M,0.0,M,,0000*51
$GPGSA,M,1,,,,,,,,,,,,,,,*12
$GPRMC,161537.189,V,,,,,,,300411,,,N*4D
$GPGGA,161538.189,,,,,0,00,,,M,0.0,M,,0000*5E
$GPGSA,M,1,,,,,,,,,,,,,,,*12
$GPRMC,161538.189,V,,,,,,,300411,,,N*42
$GPGGA,161539.189,,,,,0,00,,,M,0.0,M,,0000*5F
$GPGSA,M,1,,,,,,,,,,,,,,,*12
$GPRMC,161539.189,V,,,,,,,300411,,,N*43
$GPGGA,161540.189,,,,,0,00,,,M,0.0,M,,0000*51
$GPGSA,M,1,,,,,,,,,,,,,,,*12
$GPGSV,3,1,11,21,80,274,37,25,59,093,38,31,44,254,,29,35,152,35*73
$GPGSV,3,2,11,18,24,010,33,12,24,062,28,30,16,216,,22,05,345,*7B
$GPGSV,3,3,11,05,05,130,,14,04,323,,06,00,264,*4E
$GPRMC,161540.189,V,,,,,,,300411,,,N*4D
$GPGGA,161541.189,,,,,0,00,,,M,0.0,M,,0000*50
$GPGSA,M,1,,,,,,,,,,,,,,,*12
$GPRMC,161541.189,V,,,,,,,300411,,,N*4C
$GPGGA,161542.189,,,,,0,00,,,M,0.0,M,,0000*53
$GPGSA,M,1,,,,,,,,,,,,,,,*12
$GPRMC,161542.189,V,,,,,,,300411,,,N*4F
$GPGGA,161543.189,,,,,0,00,,,M,0.0,M,,0000*52
$GPGSA,M,1,,,,,,,,,,,,,,,*12
$GPRMC,161543.189,V,,,,,,,300411,,,N*4E
$GPGGA,161544.189,,,,,0,00,,,M,0.0,M,,0000*55
$GPGSA,M,1,,,,,,,,,,,,,,,*12
$GPRMC,161544.189,V,,,,,,,300411,,,N*49
$GPGGA,161545.189,,,,,0,00,,,M,0.0,M,,0000*54
$GPGSA,M,1,,,,,,,,,,,,,,,*12
$GPGSV,3,1,11,21,80,274,37,25,59,093,35,31,44,255,,29,35,152,37*7D
$GPGSV,3,2,11,18,25,010,31,12,24,062,33,30,16,216,,22,06,345,*71
$GPGSV,3,3,11,05,05,130,,14,04,323,,06,00,264,*4E
$GPRMC,161545.189,V,,,,,,,300411,,,N*48
$GPGGA,161546.189,,,,,0,00,,,M,0.0,M,,0000*57
$GPGSA,M,1,,,,,,,,,,,,,,,*12
$GPRMC,161546.189,V,,,,,,,300411,,,N*4B
$GPGGA,161547.189,,,,,0,00,,,M,0.0,M,,0000*56
$GPGSA,M,1,,,,,,,,,,,,,,,*12
$GPRMC,161547.189,V,,,,,,,300411,,,N*4A
$GPGGA,161548.189,,,,,0,00,,,M,0.0,M,,0000*59
$GPGSA,M,1,,,,,,,,,,,,,,,*12
$GPRMC,161548.189,V,,,,,,,300411,,,N*45
$GPGGA,161549.189,,,,,0,00,,,M,0.0,M,,0000*58
$GPGSA,M,1,,,,,,,,,,,,,,,*12
$GPRMC,161549.189,V,,,,,,,300411,,,N*44
$GPGGA,161550.189,,,,,0,00,,,M,0.0,M,,0000*50
$GPGSA,M,1,,,,,,,,,,,,,,,*12
$GPGSV,3,1,11,21,80,273,45,25,59,093,43,31,44,255,38,29,35,152,43*76
$GPGSV,3,2,11,18,25,010,42,12,24,062,35,30,16,216,,22,06,345,*73
$GPGSV,3,3,11,05,05,130,,14,04,323,,06,00,264,*4E
$GPRMC,161550.189,V,,,,,,,300411,,,N*4C
$GPGGA,161551.189,,,,,0,00,,,M,0.0,M,,0000*51
$GPGSA,M,1,,,,,,,,,,,,,,,*12
$GPRMC,161551.189,V,,,,,,,300411,,,N*4D
$GPGGA,161552.189,,,,,0,00,,,M,0.0,M,,0000*52
$GPGSA,M,1,,,,,,,,,,,,,,,*12
$GPRMC,161552.189,V,,,,,,,300411,,,N*4E
$GPGGA,161553.189,,,,,0,00,,,M,0.0,M,,0000*53
$GPGSA,M,1,,,,,,,,,,,,,,,*12
$GPRMC,161553.189,V,,,,,,,300411,,,N*4F
$GPGGA,161554.189,,,,,0,00,,,M,0.0,M,,0000*54
$GPGSA,M,1,,,,,,,,,,,,,,,*12
$GPRMC,161554.189,V,,,,,,,300411,,,N*48
$GPGGA,161555.189,,,,,0,00,,,M,0.0,M,,0000*55
$GPGSA,M,1,,,,,,,,,,,,,,,*12
$GPGSV,3,1,11,21,80,273,45,25,59,093,38,31,44,255,37,29,35,152,46*70
$GPGSV,3,2,11,18,25,010,42,12,24,062,35,30,16,216,,22,06,345,*73
$GPGSV,3,3,11,05,05,130,,14,04,323,,06,00,264,*4E
$GPRMC,161555.189,V,,,,,,,300411,,,N*49
$GPGGA,161556.189,,,,,0,00,,,M,0.0,M,,0000*56
$GPGSA,M,1,,,,,,,,,,,,,,,*12
$GPRMC,161556.189,V,,,,,,,300411,,,N*4A
$GPGGA,161557.189,,,,,0,00,,,M,0.0,M,,0000*57
$GPGSA,M,1,,,,,,,,,,,,,,,*12
$GPRMC,161557.189,V,,,,,,,300411,,,N*4B
$GPGGA,161558.189,,,,,0,00,,,M,0.0,M,,0000*58
$GPGSA,M,1,,,,,,,,,,,,,,,*12
$GPRMC,161558.189,V,,,,,,,300411,,,N*44
$GPGGA,161559.189,,,,,0,00,,,M,0.0,M,,0000*59
$GPGSA,M,1,,,,,,,,,,,,,,,*12
$GPRMC,161559.189,V,,,,,,,300411,,,N*45
$GPGGA,161600.189,,,,,0,00,,,M,0.0,M,,0000*56
$GPGSA,M,1,,,,,,,,,,,,,,,*12
$GPGSV,3,1,11,25,59,093,41,21,80,273,45,31,44,255,37,29,35,152,46*7E
$GPGSV,3,2,11,18,25,010,42,12,24,062,37,30,16,216,,22,06,345,*71
$GPGSV,3,3,11,05,05,131,,14,04,323,,06,00,264,*4F
$GPRMC,161600.189,V,,,,,,,300411,,,N*4A
$GPGGA,161601.189,,,,,0,00,,,M,0.0,M,,0000*57
$GPGSA,M,1,,,,,,,,,,,,,,,*12
$GPRMC,161601.189,V,,,,,,,300411,,,N*4B
$GPGGA,161602.189,,,,,0,00,,,M,0.0,M,,0000*54
$GPGSA,M,1,,,,,,,,,,,,,,,*12
$GPRMC,161602.189,V,,,,,,,300411,,,N*48
$GPGGA,161603.189,,,,,0,00,,,M,0.0,M,,0000*55
$GPGSA,M,1,,,,,,,,,,,,,,,*12
$GPRMC,161603.189,V,,,,,,,300411,,,N*49
$GPGGA,161604.189,,,,,0,00,,,M,0.0,M,,0000*52
$GPGSA,M,1,,,,,,,,,,,,,,,*12
$GPRMC,161604.189,V,,,,,,,300411,,,N*4E
$GPGGA,161605.189,,,,,0,00,,,M,0.0,M,,0000*53
$GPGSA,M,1,,,,,,,,,,,,,,,*12
$GPGSV,3,1,11,21,80,272,46,25,59,092,41,29,35,152,45,31,44,255,37*7E
$GPGSV,3,2,11,18,25,010,41,12,24,062,38,30,16,216,,22,06,345,*7D
$GPGSV,3,3,11,05,05,131,,14,04,323,,06,00,264,*4F
$GPRMC,161605.189,V,,,,,,,300411,,,N*4F
$GPGGA,161606.189,,,,,0,00,,,M,0.0,M,,0000*50
$GPGSA,M,1,,,,,,,,,,,,,,,*12
$GPRMC,161606.189,V,,,,,,,300411,,,N*4C
$GPGGA,161607.189,,,,,0,00,,,M,0.0,M,,0000*51
$GPGSA,M,1,,,,,,,,,,,,,,,*12
$GPRMC,161607.189,V,,,,,,,300411,,,N*4D
$GPGGA,161608.189,,,,,0,00,,,M,0.0,M,,0000*5E
$GPGSA,M,1,,,,,,,,,,,,,,,*12
$GPRMC,161608.189,V,,,,,,,300411,,,N*42
$GPGGA,161609.189,,,,,0,00,,,M,0.0,M,,0000*5F
$GPGSA,M,1,,,,,,,,,,,,,,,*12
$GPRMC,161609.189,V,,,,,,,300411,,,N*43
$GPGGA,161610.189,,,,,0,00,,,M,0.0,M,,0000*57
$GPGSA,M,1,,,,,,,,,,,,,,,*12
$GPGSV,3,1,11,21,80,272,45,25,59,092,41,29,35,152,46,31,44,255,36*7F
$GPGSV,3,2,11,18,25,010,41,12,24,062,37,30,16,216,,22,06,345,*72
$GPGSV,3,3,11,05,05,131,,14,04,323,,06,00,264,*4F
$GPRMC,161610.189,V,,,,,,,300411,,,N*4B
$GPGGA,161611.189,,,,,0,00,,,M,0.0,M,,0000*56
$GPGSA,M,1,,,,,,,,,,,,,,,*12
$GPRMC,161611.189,V,,,,,,,300411,,,N*4A
$GPGGA,161612.189,,,,,0,00,,,M,0.0,M,,0000*55
$GPGSA,M,1,,,,,,,,,,,,,,,*12
$GPRMC,161612.189,V,,,,,,,300411,,,N*49
$GPGGA,161613.189,,,,,0,00,,,M,0.0,M,,0000*54
$GPGSA,M,1,,,,,,,,,,,,,,,*12
$GPRMC,161613.189,V,,,,,,,300411,,,N*48
$GPGGA,161614.189,,,,,0,00,,,M,0.0,M,,0000*53
$GPGSA,M,1,,,,,,,,,,,,,,,*12
$GPRMC,161614.189,V,,,,,,,300411,,,N*4F
$GPGGA,161615.189,,,,,0,00,,,M,0.0,M,,0000*52
$GPGSA,M,1,,,,,,,,,,,,,,,*12
$GPGSV,3,1,11,21,80,272,41,25,59,092,33,29,35,152,34,31,44,255,44*7E
$GPGSV,3,2,11,18,25,010,47,12,24,062,32,30,16,216,,22,06,345,*71
$GPGSV,3,3,11,05,05,131,,14,04,323,,06,00,264,*4F
$GPRMC,161615.189,V,,,,,,,300411,,,N*4E
$GPGGA,161616.189,,,,,0,00,,,M,0.0,M,,0000*51
$GPGSA,M,1,,,,,,,,,,,,,,,*12
$GPRMC,161616.189,V,,,,,,,300411,,,N*4D
$GPGGA,161617.189,,,,,0,00,,,M,0.0,M,,0000*50
$GPGSA,M,1,,,,,,,,,,,,,,,*12
$GPRMC,161617.189,V,,,,,,,300411,,,N*4C
$GPGGA,161618.189,,,,,0,00,,,M,0.0,M,,0000*5F
$GPGSA,M,1,,,,,,,,,,,,,,,*12
$GPRMC,161618.189,V,,,,,,,300411,,,N*43
$GPGGA,161619.189,,,,,0,00,,,M,0.0,M,,0000*5E
$GPGSA,M,1,,,,,,,,,,,,,,,*12
$GPRMC,161619.189,V,,,,,,,300411,,,N*42
$GPGGA,161620.189,,,,,0,00,,,M,0.0,M,,0000*54
$GPGSA,M,1,,,,,,,,,,,,,,,*12
$GPGSV,3,1,11,21,80,272,42,25,59,092,36,29,35,152,34,31,44,255,42*7E
$GPGSV,3,2,11,18,25,010,47,12,24,062,24,30,16,216,,22,06,345,*76
$GPGSV,3,3,11,05,05,131,,14,04,323,,06,00,264,*4F
$GPRMC,161620.189,V,,,,,,,300411,,,N*48
$GPGGA,161621.189,,,,,0,00,,,M,0.0,M,,0000*55
$GPGSA,M,1,,,,,,,,,,,,,,,*12
$GPRMC,161621.189,V,,,,,,,300411,,,N*49
$GPGGA,161622.189,1800.6769,S,07015.5154,W,1,04,2.5,592.3,M,34.6,M,,0000*5D
$GPGSA,M,3,29,25,21,18,,,,,,,,,3.7,2.5,2.7*3E
$GPRMC,161622.189,A,1800.6769,S,07015.5154,W,0.12,353.77,300411,,,A*61
$GPGGA,161623.189,1800.6781,S,07015.5160,W,1,04,2.5,588.5,M,34.6,M,,0000*50
$GPGSA,M,3,29,25,21,18,,,,,,,,,3.7,2.5,2.7*3E
$GPRMC,161623.189,A,1800.6781,S,07015.5160,W,0.04,86.29,300411,,,A*56
$GPGGA,161624.000,1800.6794,S,07015.5165,W,1,04,2.5,584.3,M,34.6,M,,0000*5C
$GPGSA,M,3,29,25,21,18,,,,,,,,,3.7,2.5,2.7*3E
$GPGSV,3,1,11,21,80,271,42,25,59,092,41,29,35,151,30,18,25,010,48*7F
$GPGSV,3,2,11,31,44,255,42,12,24,062,35,30,16,216,43,22,06,345,*7B
$GPGSV,3,3,11,05,05,131,26,14,04,323,,06,01,264,*4A
$GPRMC,161624.000,A,1800.6794,S,07015.5165,W,0.17,86.65,300411,,,A*5A
$GPGGA,161625.000,1800.6807,S,07015.5172,W,1,04,2.5,580.1,M,34.6,M,,0000*58
$GPGSA,M,3,29,25,21,18,,,,,,,,,3.7,2.5,2.7*3E
$GPRMC,161625.000,A,1800.6807,S,07015.5172,W,0.20,16.02,300411,,,A*54
$GPGGA,161626.000,1800.6802,S,07015.5171,W,1,04,2.5,581.9,M,34.6,M,,0000*54
$GPGSA,M,3,29,25,21,18,,,,,,,,,3.7,2.5,2.7*3E
$GPRMC,161626.000,A,1800.6802,S,07015.5171,W,0.36,16.92,300411,,,A*5F
$GPGGA,161627.000,1800.6799,S,07015.5171,W,1,04,2.5,582.9,M,34.6,M,,0000*5B
$GPGSA,M,3,29,25,21,18,,,,,,,,,3.7,2.5,2.7*3E
$GPRMC,161627.000,A,1800.6799,S,07015.5171,W,0.29,36.58,300411,,,A*59
$GPGGA,161628.000,1800.6806,S,07015.5194,W,1,05,1.4,579.9,M,34.6,M,,0000*51
$GPGSA,M,3,31,29,25,21,18,,,,,,,,2.8,1.4,2.4*33
$GPRMC,161628.000,A,1800.6806,S,07015.5194,W,0.07,297.05,300411,,,A*69
$GPGGA,161629.000,1800.6810,S,07015.5200,W,1,05,1.4,578.7,M,34.6,M,,0000*56
$GPGSA,M,3,31,29,25,21,18,,,,,,,,2.8,1.4,2.4*33
$GPGSV,3,1,11,21,80,271,42,25,59,092,42,31,44,255,42,29,35,151,29*71
$GPGSV,3,2,11,18,25,010,49,12,24,062,36,30,16,216,43,22,06,345,27*79
$GPGSV,3,3,11,05,05,131,27,14,04,323,,06,01,264,*4B
$GPRMC,161629.000,A,1800.6810,S,07015.5200,W,0.05,246.25,300411,,,A*6D
$GPGGA,161630.000,1800.6812,S,07015.5203,W,1,05,1.4,577.8,M,34.6,M,,0000*5F
$GPGSA,M,3,31,29,25,21,18,,,,,,,,2.8,1.4,2.4*33
$GPRMC,161630.000,A,1800.6812,S,07015.5203,W,0.08,231.65,300411,,,A*6D
$GPGGA,161631.000,1800.6814,S,07015.5205,W,1,05,1.4,577.3,M,34.6,M,,0000*55
$GPGSA,M,3,31,29,25,21,18,,,,,,,,2.8,1.4,2.4*33
$GPRMC,161631.000,A,1800.6814,S,07015.5205,W,0.07,231.57,300411,,,A*62
$GPGGA,161632.000,1800.6816,S,07015.5207,W,1,05,1.4,576.6,M,34.6,M,,0000*52
$GPGSA,M,3,31,29,25,21,18,,,,,,,,2.8,1.4,2.4*33
$GPRMC,161632.000,A,1800.6816,S,07015.5207,W,0.62,292.08,300411,,,A*61
$GPGGA,161633.000,1800.6815,S,07015.5213,W,1,04,2.8,576.3,M,34.6,M,,0000*5E
$GPGSA,M,3,31,25,21,18,,,,,,,,,5.2,2.8,4.4*3C
$GPRMC,161633.000,A,1800.6815,S,07015.5213,W,2.23,299.87,300411,,,A*6D
$GPGGA,161634.000,1800.6813,S,07015.5217,W,1,05,1.4,575.5,M,34.6,M,,0000*50
$GPGSA,M,3,31,29,25,21,18,,,,,,,,2.8,1.4,2.4*33
$GPGSV,3,1,11,21,80,271,42,25,59,092,42,31,44,255,43,29,35,151,36*7E
$GPGSV,3,2,11,18,25,010,45,12,24,062,36,30,16,216,35,22,06,345,*71
$GPGSV,3,3,11,05,05,131,27,14,04,323,,06,01,264,*4B
$GPRMC,161634.000,A,1800.6813,S,07015.5217,W,3.19,322.04,300411,,,A*6A
$GPGGA,161635.000,1800.6809,S,07015.5218,W,1,05,1.4,573.6,M,34.6,M,,0000*50
$GPGSA,M,3,31,29,25,21,18,,,,,,,,2.8,1.4,2.4*33
$GPRMC,161635.000,A,1800.6809,S,07015.5218,W,4.83,346.38,300411,,,A*66
$GPGGA,161636.000,1800.6798,S,07015.5216,W,1,05,1.4,572.2,M,34.6,M,,0000*5F
$GPGSA,M,3,31,29,25,21,18,,,,,,,,2.8,1.4,2.4*33
$GPRMC,161636.000,A,1800.6798,S,07015.5216,W,6.36,6.50,300411,,,A*69
$GPGGA,161637.000,1800.6783,S,07015.5210,W,1,05,1.4,571.0,M,34.6,M,,0000*53
$GPGSA,M,3,31,29,25,21,18,,,,,,,,2.8,1.4,2.4*33
$GPRMC,161637.000,A,1800.6783,S,07015.5210,W,7.33,15.51,300411,,,A*53
$GPGGA,161638.153,1800.6760,S,07015.5204,W,1,05,1.4,571.0,M,34.6,M,,0000*53
$GPGSA,M,3,21,25,31,29,18,,,,,,,,2.8,1.4,2.4*33
$GPRMC,161638.153,A,1800.6760,S,07015.5204,W,7.17,19.12,300411,,,A*5E
$GPGGA,161639.002,1800.6745,S,07015.5198,W,1,05,1.4,570.7,M,34.6,M,,0000*50
$GPGSA,M,3,21,25,31,29,18,,,,,,,,2.8,1.4,2.4*33
$GPRMC,161639.002,A,1800.6745,S,07015.5198,W,7.05,21.99,300411,,,A*50
$GPGGA,161640.001,1800.6726,S,07015.5189,W,1,04,4.5,570.5,M,34.6,M,,0000*5F
$GPGSA,M,3,21,25,31,29,,,,,,,,,9.2,4.5,8.0*31
$GPGSV,3,1,11,21,80,271,39,25,59,092,41,31,44,255,38,29,35,151,38*73
$GPGSV,3,2,11,18,25,010,,12,24,062,40,30,16,216,29,22,06,345,24*7A
$GPGSV,3,3,11,05,05,131,29,14,04,323,,06,01,264,*45
$GPRMC,161640.001,A,1800.6726,S,07015.5189,W,8.63,24.31,300411,,,A*50
$GPGGA,161640.998,1800.6705,S,07015.5178,W,1,05,1.4,570.6,M,34.6,M,,0000*5F
$GPGSA,M,3,21,25,31,29,18,,,,,,,,2.8,1.4,2.4*33
$GPRMC,161640.998,A,1800.6705,S,07015.5178,W,8.50,24.69,300411,,,A*5B
$GPGGA,161641.998,1800.6685,S,07015.5167,W,1,05,1.4,570.5,M,34.6,M,,0000*5A
$GPGSA,M,3,21,25,31,29,18,,,,,,,,2.8,1.4,2.4*33
$GPRMC,161641.998,A,1800.6685,S,07015.5167,W,7.11,27.06,300411,,,A*5D
$GPGGA,161643.004,1800.6669,S,07015.5160,W,1,05,1.4,569.8,M,34.6,M,,0000*54
$GPGSA,M,3,21,25,31,29,18,,,,,,,,2.8,1.4,2.4*33
$GPRMC,161643.004,A,1800.6669,S,07015.5160,W,6.71,20.54,300411,,,A*51
$GPGGA,161643.996,1800.6655,S,07015.5154,W,1,05,1.4,569.3,M,34.6,M,,0000*55
$GPGSA,M,3,21,25,31,29,18,,,,,,,,2.8,1.4,2.4*33
$GPRMC,161643.996,A,1800.6655,S,07015.5154,W,4.92,18.21,300411,,,A*5D
$GPGGA,161645.000,1800.6644,S,07015.5151,W,1,05,1.4,569.0,M,34.6,M,,0000*53
$GPGSA,M,3,21,25,31,29,18,,,,,,,,2.8,1.4,2.4*33
$GPGSV,3,1,11,21,80,271,38,25,59,092,41,31,44,255,38,29,35,151,39*73
$GPGSV,3,2,11,18,25,010,38,12,24,062,40,30,16,216,,22,06,345,25*7B
$GPGSV,3,3,11,05,05,131,23,14,04,323,,06,01,264,*4F
$GPRMC,161645.000,A,1800.6644,S,07015.5151,W,3.49,6.77,300411,,,A*65
$GPGGA,161646.002,1800.6638,S,07015.5151,W,1,05,1.4,568.4,M,34.6,M,,0000*5C
$GPGSA,M,3,21,25,31,29,18,,,,,,,,2.8,1.4,2.4*33
$GPRMC,161646.002,A,1800.6638,S,07015.5151,W,1.38,351.75,300411,,,A*68
$GPGGA,161646.998,1800.6637,S,07015.5149,W,1,05,1.4,568.6,M,34.6,M,,0000*52
$GPGSA,M,3,21,25,31,29,18,,,,,,,,2.8,1.4,2.4*33
$GPRMC,161646.998,A,1800.6637,S,07015.5149,W,0.38,60.30,300411,,,A*55
$GPGGA,161648.000,1800.6637,S,07015.5148,W,1,05,1.4,568.3,M,34.6,M,,0000*50
$GPGSA,M,3,21,25,31,29,18,,,,,,,,2.8,1.4,2.4*33
$GPRMC,161648.000,A,1800.6637,S,07015.5148,W,0.25,112.84,300411,,,A*65
$GPGGA,161649.000,1800.6638,S,07015.5148,W,1,05,1.4,568.1,M,34.6,M,,0000*5C
$GPGSA,M,3,21,25,31,29,18,,,,,,,,2.8,1.4,2.4*33
$GPRMC,161649.000,A,1800.6638,S,07015.5148,W,0.11,283.03,300411,,,A*68
$GPGGA,161650.000,1800.6637,S,07015.5149,W,1,05,1.4,568.1,M,34.6,M,,0000*5A
$GPGSA,M,3,21,25,31,29,18,,,,,,,,2.8,1.4,2.4*33
$GPGSV,3,1,11,21,80,271,40,25,59,092,40,31,44,255,38,29,35,151,38*7C
$GPGSV,3,2,11,18,25,010,38,12,24,062,41,30,16,216,24,22,06,345,32*7A
$GPGSV,3,3,11,05,05,131,,14,04,323,,06,01,264,*4E
$GPRMC,161650.000,A,1800.6637,S,07015.5149,W,1.03,302.31,300411,,,A*65
$GPGGA,161651.002,1800.6636,S,07015.5153,W,1,05,1.4,567.7,M,34.6,M,,0000*5A
$GPGSA,M,3,21,25,31,29,18,,,,,,,,2.8,1.4,2.4*33
$GPRMC,161651.002,A,1800.6636,S,07015.5153,W,2.63,302.62,300411,,,A*6F
$GPGGA,161652.000,1800.6635,S,07015.5160,W,1,05,1.4,567.4,M,34.6,M,,0000*5B
$GPGSA,M,3,21,25,31,29,18,,,,,,,,2.8,1.4,2.4*33
$GPRMC,161652.000,A,1800.6635,S,07015.5160,W,1.90,261.94,300411,,,A*6F
$GPGGA,161653.000,1800.6637,S,07015.5170,W,1,04,2.8,567.1,M,34.6,M,,0000*52
$GPGSA,M,3,21,25,31,18,,,,,,,,,5.3,2.8,4.5*3C
$GPRMC,161653.000,A,1800.6637,S,07015.5170,W,3.68,261.46,300411,,,A*67
$GPGGA,161653.998,1800.6643,S,07015.5188,W,1,05,1.4,567.1,M,34.6,M,,0000*50
$GPGSA,M,3,21,25,31,29,18,,,,,,,,2.8,1.4,2.4*33
$GPRMC,161653.998,A,1800.6643,S,07015.5188,W,5.65,250.74,300411,,,A*63
$GPGGA,161655.000,1800.6651,S,07015.5203,W,1,05,1.4,566.7,M,34.6,M,,0000*5A
$GPGSA,M,3,21,25,31,29,18,,,,,,,,2.8,1.4,2.4*33
$GPGSV,3,1,11,21,80,271,38,25,59,092,40,31,44,255,41,29,35,151,38*7D
$GPGSV,3,2,11,18,25,010,35,12,24,062,29,30,16,216,40,22,06,345,*7A
$GPGSV,3,3,11,05,05,131,26,14,04,323,,06,01,264,*4A
$GPRMC,161655.000,A,1800.6651,S,07015.5203,W,6.33,246.39,300411,,,A*60
$GPGGA,161656.002,1800.6681,S,07015.5221,W,1,05,1.4,566.9,M,34.6,M,,0000*58
$GPGSA,M,3,21,25,31,29,18,,,,,,,,2.8,1.4,2.4*33
$GPRMC,161656.002,A,1800.6681,S,07015.5221,W,9.18,226.50,300411,,,A*63
$GPGGA,161657.000,1800.6737,S,07015.5239,W,1,05,1.4,566.3,M,34.6,M,,0000*54
$GPGSA,M,3,21,25,31,29,18,,,,,,,,2.8,1.4,2.4*33
$GPRMC,161657.000,A,1800.6737,S,07015.5239,W,12.75,208.34,300411,,,A*5A
$GPGGA,161657.999,1800.6774,S,07015.5258,W,1,05,1.4,565.6,M,34.6,M,,0000*5B
$GPGSA,M,3,21,25,31,29,18,,,,,,,,2.8,1.4,2.4*33
$GPRMC,161657.999,A,1800.6774,S,07015.5258,W,13.84,202.91,300411,,,A*59
$GPGGA,161658.997,1800.6824,S,07015.5275,W,1,05,1.4,563.3,M,34.6,M,,0000*5C
$GPGSA,M,3,21,25,31,29,18,,,,,,,,2.8,1.4,2.4*33
$GPRMC,161658.997,A,1800.6824,S,07015.5275,W,13.32,206.60,300411,,,A*5A
$GPGGA,161700.003,1800.6857,S,07015.5293,W,1,05,1.4,563.8,M,34.6,M,,0000*53
$GPGSA,M,3,21,25,31,29,18,,,,,,,,2.8,1.4,2.4*33
$GPGSV,3,1,11,21,80,271,37,25,59,092,41,31,44,255,40,29,35,151,36*7C
$GPGSV,3,2,11,18,25,010,36,12,24,062,24,30,16,216,40,22,06,345,*74
$GPGSV,3,3,11,05,05,131,,14,04,323,,06,01,264,*4E
$GPRMC,161700.003,A,1800.6857,S,07015.5293,W,13.96,208.88,300411,,,A*58
$GPGGA,161700.999,1800.6903,S,07015.5312,W,1,05,1.4,562.7,M,34.6,M,,0000*5F
$GPGSA,M,3,21,25,31,29,18,,,,,,,,2.8,1.4,2.4*33
$GPRMC,161700.999,A,1800.6903,S,07015.5312,W,15.75,203.76,300411,,,A*5B
$GPGGA,161701.999,1800.6945,S,07015.5330,W,1,05,1.4,562.5,M,34.6,M,,0000*5E
$GPGSA,M,3,21,25,31,29,18,,,,,,,,2.8,1.4,2.4*33
$GPRMC,161701.999,A,1800.6945,S,07015.5330,W,14.83,205.69,300411,,,A*58
$GPGGA,161702.999,1800.6982,S,07015.5348,W,1,05,1.4,560.7,M,34.6,M,,0000*59
$GPGSA,M,3,21,25,31,29,18,,,,,,,,2.8,1.4,2.4*33
$GPRMC,161702.999,A,1800.6982,S,07015.5348,W,13.94,206.82,300411,,,A*58
$GPGGA,161704.001,1800.7014,S,07015.5367,W,1,05,1.4,561.6,M,34.6,M,,0000*5D
$GPGSA,M,3,21,25,31,29,18,,,,,,,,2.8,1.4,2.4*33
$GPRMC,161704.001,A,1800.7014,S,07015.5367,W,13.36,205.08,300411,,,A*55
$GPGGA,161704.997,1800.7052,S,07015.5382,W,1,05,1.4,560.0,M,34.6,M,,0000*55
$GPGSA,M,3,21,25,31,29,18,,,,,,,,2.8,1.4,2.4*33
$GPGSV,3,1,11,21,80,271,38,25,59,092,40,31,44,255,41,29,35,151,37*72
$GPGSV,3,2,11,18,25,010,36,12,24,062,,30,16,216,38,22,06,345,*7D
$GPGSV,3,3,11,05,05,131,,14,04,323,,06,01,264,*4E
$GPRMC,161704.997,A,1800.7052,S,07015.5382,W,14.39,206.56,300411,,,A*5A
$GPGGA,161706.003,1800.7092,S,07015.5400,W,1,05,1.4,560.1,M,34.6,M,,0000*53
$GPGSA,M,3,21,25,31,29,18,,,,,,,,2.8,1.4,2.4*33
$GPRMC,161706.003,A,1800.7092,S,07015.5400,W,15.39,204.09,300411,,,A*54
$GPGGA,161707.000,1800.7134,S,07015.5420,W,1,05,1.4,558.2,M,34.6,M,,0000*56
$GPGSA,M,3,21,25,31,29,18,,,,,,,,2.8,1.4,2.4*33
$GPRMC,161707.000,A,1800.7134,S,07015.5420,W,15.47,203.25,300411,,,A*59
$GPGGA,161707.999,1800.7177,S,07015.5439,W,1,05,1.4,557.2,M,34.6,M,,0000*5F
$GPGSA,M,3,21,25,31,29,18,,,,,,,,2.8,1.4,2.4*33
$GPRMC,161707.999,A,1800.7177,S,07015.5439,W,17.19,209.21,300411,,,A*58
$GPGGA,161709.000,1800.7223,S,07015.5468,W,1,05,1.4,556.0,M,34.6,M,,0000*5D
$GPGSA,M,3,21,25,31,29,18,,,,,,,,2.8,1.4,2.4*33
$GPRMC,161709.000,A,1800.7223,S,07015.5468,W,19.59,213.85,300411,,,A*56
$GPGGA,161709.998,1800.7271,S,07015.5498,W,1,05,1.4,555.2,M,34.6,M,,0000*5C
$GPGSA,M,3,21,25,31,29,18,,,,,,,,2.8,1.4,2.4*33
$GPGSV,3,1,11,21,80,271,37,25,59,092,39,31,44,255,39,29,35,151,36*7D
$GPGSV,3,2,11,18,25,010,37,12,24,062,36,30,16,216,41,22,06,345,28*7D
$GPGSV,3,3,11,05,05,131,29,14,04,323,,06,01,264,*45
$GPRMC,161709.998,A,1800.7271,S,07015.5498,W,20.76,210.77,300411,,,A*5F
$GPGGA,161711.000,1800.7328,S,07015.5527,W,1,05,1.4,555.7,M,34.6,M,,0000*50
$GPGSA,M,3,21,25,31,29,18,,,,,,,,2.8,1.4,2.4*33
$GPRMC,161711.000,A,1800.7328,S,07015.5527,W,21.54,207.52,300411,,,A*56
$GPGGA,161712.000,1800.7385,S,07015.5560,W,1,05,1.4,556.3,M,34.6,M,,0000*50
$GPGSA,M,3,21,25,31,29,18,,,,,,,,2.8,1.4,2.4*33
$GPRMC,161712.000,A,1800.7385,S,07015.5560,W,22.29,206.42,300411,,,A*58
$GPGGA,161713.000,1800.7446,S,07015.5592,W,1,05,1.4,554.2,M,34.6,M,,0000*57
$GPGSA,M,3,21,25,31,29,18,,,,,,,,2.8,1.4,2.4*33
$GPRMC,161713.000,A,1800.7446,S,07015.5592,W,22.91,205.36,300411,,,A*5F
$GPGGA,161714.000,1800.7505,S,07015.5624,W,1,05,1.4,556.7,M,34.6,M,,0000*5F
$GPGSA,M,3,21,25,31,29,18,,,,,,,,2.8,1.4,2.4*33
$GPRMC,161714.000,A,1800.7505,S,07015.5624,W,23.17,205.36,300411,,,A*5F
$GPGGA,161714.998,1800.7562,S,07015.5655,W,1,05,1.4,556.0,M,34.6,M,,0000*57
$GPGSA,M,3,21,25,31,29,18,,,,,,,,2.8,1.4,2.4*33
$GPGSV,3,1,11,21,80,271,38,25,59,092,40,31,44,255,41,29,35,151,36*73
$GPGSV,3,2,11,18,25,010,37,12,24,062,,30,16,216,38,22,06,345,*7C
$GPGSV,3,3,11,05,05,131,,14,04,323,,06,01,264,*4E
$GPRMC,161714.998,A,1800.7562,S,07015.5655,W,23.33,207.24,300411,,,A*57
$GPGGA,161716.004,1800.7623,S,07015.5683,W,1,05,1.4,556.0,M,34.6,M,,0000*54
$GPGSA,M,3,21,25,31,29,18,,,,,,,,2.8,1.4,2.4*33
$GPRMC,161716.004,A,1800.7623,S,07015.5683,W,23.11,205.14,300411,,,A*55
$GPGGA,161716.996,1800.7680,S,07015.5711,W,1,05,1.4,554.9,M,34.6,M,,0000*5E
$GPGSA,M,3,21,25,31,29,18,,,,,,,,2.8,1.4,2.4*33
$GPRMC,161716.996,A,1800.7680,S,07015.5711,W,23.29,204.52,300411,,,A*5C
$GPGGA,161718.002,1800.7738,S,07015.5743,W,1,05,1.4,556.3,M,34.6,M,,0000*59
$GPGSA,M,3,21,25,31,29,18,,,,,,,,2.8,1.4,2.4*33
$GPRMC,161718.002,A,1800.7738,S,07015.5743,W,23.19,204.28,300411,,,A*5D
$GPGGA,161719.000,1800.7794,S,07015.5767,W,1,05,1.4,556.3,M,34.6,M,,0000*5A
$GPGSA,M,3,21,25,31,29,18,,,,,,,,2.8,1.4,2.4*33
$GPRMC,161719.000,A,1800.7794,S,07015.5767,W,22.03,204.32,300411,,,A*5F
$GPGGA,161719.998,1800.7844,S,07015.5793,W,1,05,1.4,556.9,M,34.6,M,,0000*51
$GPGSA,M,3,21,25,31,29,18,,,,,,,,2.8,1.4,2.4*33
$GPGSV,3,1,11,21,80,271,37,25,59,092,38,31,44,255,41,29,35,151,37*72
$GPGSV,3,2,11,18,25,010,37,12,24,062,30,30,16,216,39,22,06,345,28*74
$GPGSV,3,3,11,05,05,131,,14,04,323,,06,01,264,*4E
$GPRMC,161719.998,A,1800.7844,S,07015.5793,W,21.08,204.21,300411,,,A*54
$GPGGA,161721.002,1800.7900,S,07015.5819,W,1,05,1.4,556.2,M,34.6,M,,0000*57
$GPGSA,M,3,21,25,31,29,18,,,,,,,,2.8,1.4,2.4*33
$GPRMC,161721.002,A,1800.7900,S,07015.5819,W,21.36,208.20,300411,,,A*59
$GPGGA,161721.998,1800.7953,S,07015.5850,W,1,05,1.4,557.7,M,34.6,M,,0000*52
$GPGSA,M,3,21,25,31,29,18,,,,,,,,2.8,1.4,2.4*33
$GPRMC,161721.998,A,1800.7953,S,07015.5850,W,22.21,208.78,300411,,,A*50
$GPGGA,161723.005,1800.8010,S,07015.5878,W,1,05,1.4,556.2,M,34.6,M,,0000*52
$GPGSA,M,3,21,25,31,29,18,,,,,,,,2.8,1.4,2.4*33
$GPRMC,161723.005,A,1800.8010,S,07015.5878,W,22.60,207.46,300411,,,A*53
$GPGGA,161723.998,1800.8064,S,07015.5906,W,1,05,1.4,555.5,M,34.6,M,,0000*50
$GPGSA,M,3,21,25,31,29,18,,,,,,,,2.8,1.4,2.4*33
$GPRMC,161723.998,A,1800.8064,S,07015.5906,W,22.53,205.92,300411,,,A*5E
$GPGGA,161724.997,1800.8123,S,07015.5931,W,1,05,1.4,553.8,M,34.6,M,,0000*55
$GPGSA,M,3,21,25,31,29,18,,,,,,,,2.8,1.4,2.4*33
$GPGSV,3,1,11,21,80,271,37,25,59,092,37,31,44,255,40,29,35,151,33*78
$GPGSV,3,2,11,18,25,010,38,12,24,062,30,30,16,216,41,22,06,345,29*75
$GPGSV,3,3,11,05,05,131,,14,04,323,,06,01,264,*4E
$GPRMC,161724.997,A,1800.8123,S,07015.5931,W,22.98,205.66,300411,,,A*5C
$GPGGA,161726.000,1800.8179,S,07015.5960,W,1,05,1.4,554.7,M,34.6,M,,0000*53
$GPGSA,M,3,21,25,31,29,18,,,,,,,,2.8,1.4,2.4*33
$GPRMC,161726.000,A,1800.8179,S,07015.5960,W,23.43,205.03,300411,,,A*56
$GPGGA,161727.002,1800.8239,S,07015.5989,W,1,05,1.4,554.3,M,34.6,M,,0000*54
$GPGSA,M,3,21,25,31,29,18,,,,,,,,2.8,1.4,2.4*33
$GPRMC,161727.002,A,1800.8239,S,07015.5989,W,22.88,205.03,300411,,,A*53
$GPGGA,161728.004,1800.8294,S,07015.6018,W,1,05,1.4,554.4,M,34.6,M,,0000*5F
$GPGSA,M,3,21,25,31,29,18,,,,,,,,2.8,1.4,2.4*33
$GPRMC,161728.004,A,1800.8294,S,07015.6018,W,23.13,206.54,300411,,,A*5D
$GPGGA,161728.996,1800.8354,S,07015.6048,W,1,05,1.4,554.4,M,34.6,M,,0000*55
$GPGSA,M,3,21,25,31,29,18,,,,,,,,2.8,1.4,2.4*33
$GPRMC,161728.996,A,1800.8354,S,07015.6048,W,23.08,205.43,300411,,,A*58
$GPGGA,161729.999,1800.8410,S,07015.6078,W,1,05,1.4,555.5,M,34.6,M,,0000*5F
$GPGSA,M,3,21,25,31,29,18,,,,,,,,2.8,1.4,2.4*33
$GPGSV,3,1,11,21,80,271,36,25,59,092,37,31,44,255,40,29,35,151,29*72
$GPGSV,3,2,11,18,25,010,37,12,24,062,29,30,16,216,39,22,06,345,*76
$GPGSV,3,3,11,05,05,131,,14,04,323,,06,01,264,*4E
$GPRMC,161729.999,A,1800.8410,S,07015.6078,W,23.25,207.07,300411,,,A*5F
$GPGGA,161730.999,1800.8468,S,07015.6107,W,1,05,1.4,554.2,M,34.6,M,,0000*57
$GPGSA,M,3,21,25,31,29,18,,,,,,,,2.8,1.4,2.4*33
$GPRMC,161730.999,A,1800.8468,S,07015.6107,W,23.43,206.21,300411,,,A*54
$GPGGA,161732.000,1800.8532,S,07015.6136,W,1,05,1.4,552.5,M,34.6,M,,0000*51
$GPGSA,M,3,21,25,31,29,18,,,,,,,,2.8,1.4,2.4*33
$GPRMC,161732.000,A,1800.8532,S,07015.6136,W,23.81,204.95,300411,,,A*50
$GPGGA,161733.000,1800.8592,S,07015.6167,W,1,05,1.4,552.8,M,34.6,M,,0000*53
$GPGSA,M,3,21,25,31,29,18,,,,,,,,2.8,1.4,2.4*33
$GPRMC,161733.000,A,1800.8592,S,07015.6167,W,23.95,205.19,300411,,,A*5F
$GPGGA,161734.001,1800.8653,S,07015.6195,W,1,05,1.4,552.9,M,34.6,M,,0000*57
$GPGSA,M,3,21,25,31,29,18,,,,,,,,2.8,1.4,2.4*33
$GPRMC,161734.001,A,1800.8653,S,07015.6195,W,24.22,204.12,300411,,,A*5B
$GPGGA,161735.000,1800.8716,S,07015.6223,W,1,05,1.4,551.6,M,34.6,M,,0000*55
$GPGSA,M,3,21,25,31,29,18,,,,,,,,2.8,1.4,2.4*33
$GPGSV,3,1,11,21,80,271,38,25,59,092,38,31,44,255,41,29,35,151,34*7E
$GPGSV,3,2,11,18,25,010,36,12,24,062,30,30,16,216,38,22,06,345,*7E
$GPGSV,3,3,11,05,05,131,21,14,04,323,,06,01,264,*4D
$GPRMC,161735.000,A,1800.8716,S,07015.6223,W,23.67,204.77,300411,,,A*50
$GPGGA,161735.998,1800.8776,S,07015.6253,W,1,05,1.4,552.9,M,34.6,M,,0000*50
$GPGSA,M,3,21,25,31,29,18,,,,,,,,2.8,1.4,2.4*33
$GPRMC,161735.998,A,1800.8776,S,07015.6253,W,23.88,205.01,300411,,,A*58
$GPGGA,161737.000,1800.8837,S,07015.6283,W,1,05,1.4,552.8,M,34.6,M,,0000*5C
$GPGSA,M,3,21,25,31,29,18,,,,,,,,2.8,1.4,2.4*33
$GPRMC,161737.000,A,1800.8837,S,07015.6283,W,23.72,206.29,300411,,,A*59
$GPGGA,161738.000,1800.8896,S,07015.6313,W,1,05,1.4,550.5,M,34.6,M,,0000*5F
$GPGSA,M,3,21,25,31,29,18,,,,,,,,2.8,1.4,2.4*33
$GPRMC,161738.000,A,1800.8896,S,07015.6313,W,23.80,207.14,300411,,,A*57
$GPGGA,161739.000,1800.8958,S,07015.6344,W,1,05,1.4,549.7,M,34.6,M,,0000*55
$GPGSA,M,3,21,25,31,29,18,,,,,,,,2.8,1.4,2.4*33
$GPRMC,161739.000,A,1800.8958,S,07015.6344,W,23.04,206.80,300411,,,A*57
$GPGGA,161740.000,1800.9016,S,07015.6374,W,1,05,1.4,549.3,M,34.6,M,,0000*5E
$GPGSA,M,3,21,25,31,29,18,,,,,,,,2.8,1.4,2.4*33
$GPGSV,3,1,11,21,80,271,38,25,59,092,38,31,44,255,41,29,35,151,34*7E
$GPGSV,3,2,11,18,25,010,37,12,24,062,31,30,16,216,40,22,06,345,31*73
$GPGSV,3,3,11,05,05,131,23,14,04,323,,06,01,264,*4F
$GPRMC,161740.000,A,1800.9016,S,07015.6374,W,22.84,206.22,300411,,,A*59
$GPGGA,161741.000,1800.9072,S,07015.6399,W,1,05,1.4,548.6,M,34.6,M,,0000*5A
$GPGSA,M,3,21,25,31,29,18,,,,,,,,2.8,1.4,2.4*33
$GPRMC,161741.000,A,1800.9072,S,07015.6399,W,21.55,206.82,300411,,,A*5C
$GPGGA,161742.000,1800.9124,S,07015.6425,W,1,05,1.4,548.8,M,34.6,M,,0000*55
$GPGSA,M,3,21,25,31,29,18,,,,,,,,2.8,1.4,2.4*33
$GPRMC,161742.000,A,1800.9124,S,07015.6425,W,20.56,204.00,300411,,,A*57
$GPGGA,161743.000,1800.9175,S,07015.6448,W,1,05,1.4,549.6,M,34.6,M,,0000*54
$GPGSA,M,3,21,25,31,29,18,,,,,,,,2.8,1.4,2.4*33
$GPRMC,161743.000,A,1800.9175,S,07015.6448,W,19.68,205.71,300411,,,A*59
$GPGGA,161744.002,1800.9226,S,07015.6468,W,1,05,1.4,548.8,M,34.6,M,,0000*59
$GPGSA,M,3,21,25,31,29,18,,,,,,,,2.8,1.4,2.4*33
$GPRMC,161744.002,A,1800.9226,S,07015.6468,W,18.60,205.01,300411,,,A*55
$GPGGA,161744.998,1800.9269,S,07015.6488,W,1,05,1.4,547.7,M,34.6,M,,0000*56
$GPGSA,M,3,21,25,31,29,18,,,,,,,,2.8,1.4,2.4*33
$GPGSV,3,1,11,21,80,271,38,25,59,092,38,31,44,255,40,29,35,151,35*7E
$GPGSV,3,2,11,18,25,010,37,12,24,062,29,30,16,216,38,22,06,345,*77
$GPGSV,3,3,11,05,05,131,,14,04,323,,06,01,264,*4E
$GPRMC,161744.998,A,1800.9269,S,07015.6488,W,17.97,204.10,300411,,,A*5C
$GPGGA,161746.000,1800.9316,S,07015.6504,W,1,05,1.4,546.3,M,34.6,M,,0000*55
$GPGSA,M,3,21,25,31,29,18,,,,,,,,2.8,1.4,2.4*33
$GPRMC,161746.000,A,1800.9316,S,07015.6504,W,17.91,199.56,300411,,,A*59
$GPGGA,161747.000,1800.9364,S,07015.6525,W,1,05,1.4,547.7,M,34.6,M,,0000*57
$GPGSA,M,3,21,25,31,29,18,,,,,,,,2.8,1.4,2.4*33
$GPRMC,161747.000,A,1800.9364,S,07015.6525,W,18.83,200.46,300411,,,A*50
$GPGGA,161747.998,1800.9415,S,07015.6543,W,1,05,1.4,546.4,M,34.6,M,,0000*5C
$GPGSA,M,3,21,25,31,29,18,,,,,,,,2.8,1.4,2.4*33
$GPRMC,161747.998,A,1800.9415,S,07015.6543,W,19.35,202.11,300411,,,A*55
$GPGGA,161749.002,1800.9467,S,07015.6567,W,1,05,1.4,547.7,M,34.6,M,,0000*59
$GPGSA,M,3,21,25,31,29,18,,,,,,,,2.8,1.4,2.4*33
$GPRMC,161749.002,A,1800.9467,S,07015.6567,W,19.17,204.11,300411,,,A*54
$GPGGA,161749.998,1800.9516,S,07015.6592,W,1,05,1.4,547.7,M,34.6,M,,0000*5E
$GPGSA,M,3,21,25,31,29,18,,,,,,,,2.8,1.4,2.4*33
$GPGSV,3,1,11,21,80,271,38,25,59,092,39,31,44,255,41,29,35,151,38*73
$GPGSV,3,2,11,18,25,010,37,12,24,062,30,30,16,216,39,22,06,345,27*7B
$GPGSV,3,3,11,05,05,131,,14,04,323,,06,01,264,*4E
$GPRMC,161749.998,A,1800.9516,S,07015.6592,W,19.95,203.35,300411,,,A*58
$GPGGA,161751.000,1800.9565,S,07015.6614,W,1,05,1.4,550.2,M,34.6,M,,0000*55
$GPGSA,M,3,21,25,31,29,18,,,,,,,,2.8,1.4,2.4*33
$GPRMC,161751.000,A,1800.9565,S,07015.6614,W,19.87,206.09,300411,,,A*59
$GPGGA,161752.002,1800.9617,S,07015.6642,W,1,05,1.4,550.7,M,34.6,M,,0000*54
$GPGSA,M,3,21,25,31,29,18,,,,,,,,2.8,1.4,2.4*33
$GPRMC,161752.002,A,1800.9617,S,07015.6642,W,19.76,206.81,300411,,,A*53
$GPGGA,161753.002,1800.9671,S,07015.6667,W,1,05,1.4,549.7,M,34.6,M,,0000*5A
$GPGSA,M,3,21,25,31,29,18,,,,,,,,2.8,1.4,2.4*33
$GPRMC,161753.002,A,1800.9671,S,07015.6667,W,20.30,207.61,300411,,,A*52
$GPGGA,161753.998,1800.9723,S,07015.6695,W,1,05,1.4,549.0,M,34.6,M,,0000*5C
$GPGSA,M,3,21,25,31,29,18,,,,,,,,2.8,1.4,2.4*33
$GPRMC,161753.998,A,1800.9723,S,07015.6695,W,20.15,205.51,300411,,,A*55
$GPGGA,161755.000,1800.9773,S,07015.6718,W,1,05,1.4,549.0,M,34.6,M,,0000*53
$GPGSA,M,3,21,25,31,29,18,,,,,,,,2.8,1.4,2.4*33
$GPGSV,3,1,11,21,80,271,38,25,59,092,36,31,44,255,40,29,35,151,33*76
$GPGSV,3,2,11,18,25,010,37,12,24,062,33,30,16,216,39,22,06,345,31*7F
$GPGSV,3,3,11,05,05,131,25,14,04,323,,06,01,264,*49
$GPRMC,161755.000,A,1800.9773,S,07015.6718,W,19.99,204.72,300411,,,A*54
$GPGGA,161755.998,1800.9828,S,07015.6741,W,1,05,1.4,548.0,M,34.6,M,,0000*57
$GPGSA,M,3,21,25,31,29,18,,,,,,,,2.8,1.4,2.4*33
$GPRMC,161755.998,A,1800.9828,S,07015.6741,W,20.34,205.94,300411,,,A*55
$GPGGA,161757.005,1800.9879,S,07015.6770,W,1,05,1.4,547.8,M,34.6,M,,0000*59
$GPGSA,M,3,21,25,31,29,18,,,,,,,,2.8,1.4,2.4*33
$GPRMC,161757.005,A,1800.9879,S,07015.6770,W,20.53,205.74,300411,,,A*53
$GPGGA,161757.997,1800.9934,S,07015.6791,W,1,05,1.4,546.6,M,34.6,M,,0000*53
$GPGSA,M,3,21,25,31,29,18,,,,,,,,2.8,1.4,2.4*33
$GPRMC,161757.997,A,1800.9934,S,07015.6791,W,21.23,204.35,300411,,,A*54
$GPGGA,161758.999,1800.9993,S,07015.6817,W,1,05,1.4,544.1,M,34.6,M,,0000*5B
$GPGSA,M,3,21,25,31,29,18,,,,,,,,2.8,1.4,2.4*33
$GPRMC,161758.999,A,1800.9993,S,07015.6817,W,21.97,206.62,300411,,,A*56
$GPGGA,161759.998,1801.0047,S,07015.6844,W,1,05,1.4,543.7,M,34.6,M,,0000*54
$GPGSA,M,3,21,25,31,29,18,,,,,,,,2.8,1.4,2.4*33
$GPGSV,3,1,11,21,80,271,38,25,59,092,39,31,44,255,41,29,35,151,37*7C
$GPGSV,3,2,11,18,25,010,38,12,24,062,31,30,16,216,40,22,06,345,*7E
$GPGSV,3,3,11,05,05,131,28,14,04,323,,06,01,264,*44
$GPRMC,161759.998,A,1801.0047,S,07015.6844,W,21.98,206.10,300411,,,A*52
$GPGGA,161801.002,1801.0102,S,07015.6873,W,1,05,1.4,543.9,M,34.6,M,,0000*56
$GPGSA,M,3,21,25,31,29,18,,,,,,,,2.8,1.4,2.4*33
$GPRMC,161801.002,A,1801.0102,S,07015.6873,W,22.37,205.40,300411,,,A*5E
$GPGGA,161801.999,1801.0158,S,07015.6899,W,1,05,1.4,542.3,M,34.6,M,,0000*5D
$GPGSA,M,3,21,25,31,29,18,,,,,,,,2.8,1.4,2.4*33
$GPRMC,161801.999,A,1801.0158,S,07015.6899,W,22.80,206.13,300411,,,A*57
$GPGGA,161803.000,1801.0216,S,07015.6929,W,1,04,2.9,542.4,M,34.6,M,,0000*5D
$GPGSA,M,3,21,25,31,18,,,,,,,,,5.5,2.9,4.6*38
$GPRMC,161803.000,A,1801.0216,S,07015.6929,W,22.96,206.85,300411,,,A*57
$GPGGA,161804.000,1801.0275,S,07015.6958,W,1,05,1.4,541.3,M,34.6,M,,0000*52
$GPGSA,M,3,21,25,31,29,18,,,,,,,,2.8,1.4,2.4*33
$GPRMC,161804.000,A,1801.0275,S,07015.6958,W,23.15,205.61,300411,,,A*50
$GPGGA,161805.000,1801.0335,S,07015.6986,W,1,05,1.4,540.5,M,34.6,M,,0000*52
$GPGSA,M,3,21,25,31,29,18,,,,,,,,2.8,1.4,2.4*33
$GPGSV,3,1,11,21,80,271,38,25,59,092,40,31,44,255,41,29,35,151,37*72
$GPGSV,3,2,11,18,25,010,38,12,24,062,,30,16,216,40,22,06,345,*7C
$GPGSV,3,3,11,05,05,131,,14,04,323,,06,01,264,*4E
$GPRMC,161805.000,A,1801.0335,S,07015.6986,W,23.62,205.73,300411,,,A*54
$GPGGA,161806.000,1801.0396,S,07015.7017,W,1,05,1.4,540.6,M,34.6,M,,0000*5B
$GPGSA,M,3,21,25,31,29,18,,,,,,,,2.8,1.4,2.4*33
$GPRMC,161806.000,A,1801.0396,S,07015.7017,W,23.47,205.48,300411,,,A*51
$GPGGA,161807.002,1801.0455,S,07015.7046,W,1,05,1.4,541.8,M,34.6,M,,0000*5B
$GPGSA,M,3,21,25,31,29,18,,,,,,,,2.8,1.4,2.4*33
$GPRMC,161807.002,A,1801.0455,S,07015.7046,W,23.65,206.06,300411,,,A*57
$GPGGA,161807.996,1801.0519,S,07015.7073,W,1,05,1.4,540.0,M,34.6,M,,0000*59
$GPGSA,M,3,21,25,31,29,18,,,,,,,,2.8,1.4,2.4*33
$GPRMC,161807.996,A,1801.0519,S,07015.7073,W,23.23,206.01,300411,,,A*59
$GPGGA,161809.000,1801.0581,S,07015.7101,W,1,05,1.4,539.0,M,34.6,M,,0000*5A
$GPGSA,M,3,21,25,31,29,18,,,,,,,,2.8,1.4,2.4*33
$GPRMC,161809.000,A,1801.0581,S,07015.7101,W,23.70,205.77,300411,,,A*50
$GPGGA,161810.000,1801.0640,S,07015.7133,W,1,04,2.9,538.6,M,34.6,M,,0000*55
$GPGSA,M,3,21,25,31,18,,,,,,,,,5.5,2.9,4.6*38
$GPGSV,3,1,11,21,80,271,39,25,59,092,39,31,44,255,40,29,35,151,*78
$GPGSV,3,2,11,18,25,010,37,12,24,062,22,30,16,216,40,22,06,345,30*70
$GPGSV,3,3,11,05,05,131,,14,04,323,27,06,01,264,*4B
$GPRMC,161810.000,A,1801.0640,S,07015.7133,W,22.98,206.85,300411,,,A*5E
$GPGGA,161811.002,1801.0696,S,07015.7164,W,1,05,1.4,539.1,M,34.6,M,,0000*56
$GPGSA,M,3,21,25,31,29,18,,,,,,,,2.8,1.4,2.4*33
$GPRMC,161811.002,A,1801.0696,S,07015.7164,W,23.51,208.04,300411,,,A*57
$GPGGA,161811.998,1801.0755,S,07015.7197,W,1,05,1.4,537.6,M,34.6,M,,0000*57
$GPGSA,M,3,21,25,31,29,18,,,,,,,,2.8,1.4,2.4*33
$GPRMC,161811.998,A,1801.0755,S,07015.7197,W,23.94,208.60,300411,,,A*54
$GPGGA,161813.001,1801.0813,S,07015.7231,W,1,05,1.4,538.9,M,34.6,M,,0000*5E
$GPGSA,M,3,21,25,31,29,18,,,,,,,,2.8,1.4,2.4*33
$GPRMC,161813.001,A,1801.0813,S,07015.7231,W,23.98,207.69,300411,,,A*57
$GPGGA,161813.998,1801.0875,S,07015.7262,W,1,05,1.4,536.9,M,34.6,M,,0000*5F
$GPGSA,M,3,21,25,31,29,18,,,,,,,,2.8,1.4,2.4*33
$GPRMC,161813.998,A,1801.0875,S,07015.7262,W,23.62,207.21,300411,,,A*51
$GPGGA,161815.002,1801.0936,S,07015.7293,W,1,05,1.4,535.0,M,34.6,M,,0000*51
$GPGSA,M,3,21,25,31,29,18,,,,,,,,2.8,1.4,2.4*33
$GPGSV,3,1,11,21,80,271,38,25,59,092,40,31,44,255,41,29,35,151,37*72
$GPGSV,3,2,11,18,25,010,38,12,24,062,30,30,16,216,40,22,06,345,34*78
$GPGSV,3,3,11,05,05,131,27,14,04,323,,06,01,264,*4B
$GPRMC,161815.002,A,1801.0936,S,07015.7293,W,23.83,206.29,300411,,,A*53
$GPGGA,161816.000,1801.0994,S,07015.7324,W,1,05,1.4,535.5,M,34.6,M,,0000*50
$GPGSA,M,3,21,25,31,29,18,,,,,,,,2.8,1.4,2.4*33
$GPRMC,161816.000,A,1801.0994,S,07015.7324,W,23.45,206.15,300411,,,A*52
$GPGGA,161817.000,1801.1051,S,07015.7352,W,1,05,1.4,537.7,M,34.6,M,,0000*51
$GPGSA,M,3,21,25,31,29,18,,,,,,,,2.8,1.4,2.4*33
$GPRMC,161817.000,A,1801.1051,S,07015.7352,W,23.76,201.38,300411,,,A*5B
$GPGGA,161817.998,1801.1118,S,07015.7377,W,1,05,1.4,537.6,M,34.6,M,,0000*53
$GPGSA,M,3,21,25,31,29,18,,,,,,,,2.8,1.4,2.4*33
$GPRMC,161817.998,A,1801.1118,S,07015.7377,W,24.37,196.65,300411,,,A*5F
$GPGGA,161819.002,1801.1184,S,07015.7399,W,1,05,1.4,538.7,M,34.6,M,,0000*5C
$GPGSA,M,3,21,25,31,29,18,,,,,,,,2.8,1.4,2.4*33
$GPRMC,161819.002,A,1801.1184,S,07015.7399,W,23.89,195.86,300411,,,A*52
$GPGGA,161819.998,1801.1247,S,07015.7418,W,1,04,2.9,538.5,M,34.6,M,,0000*59
$GPGSA,M,3,21,25,31,18,,,,,,,,,5.5,2.9,4.7*39
$GPGSV,3,1,11,21,80,271,38,25,59,092,40,31,44,255,41,29,35,151,*76
$GPGSV,3,2,11,18,25,010,38,12,24,062,34,30,16,216,39,22,06,345,24*73
$GPGSV,3,3,11,05,05,131,23,14,04,323,,06,01,264,*4F
$GPRMC,161819.998,A,1801.1247,S,07015.7418,W,23.28,191.79,300411,,,A*55
$GPGGA,161821.000,1801.1317,S,07015.7428,W,1,05,1.4,538.7,M,34.6,M,,0000*50
$GPGSA,M,3,21,25,31,29,18,,,,,,,,2.8,1.4,2.4*33
$GPRMC,161821.000,A,1801.1317,S,07015.7428,W,24.91,188.83,300411,,,A*59
$GPGGA,161822.000,1801.1384,S,07015.7435,W,1,05,1.4,537.7,M,34.6,M,,0000*5A
$GPGSA,M,3,21,25,31,29,18,,,,,,,,2.8,1.4,2.4*33
$GPRMC,161822.000,A,1801.1384,S,07015.7435,W,23.72,186.60,300411,,,A*55
$GPGGA,161823.000,1801.1452,S,07015.7435,W,1,05,1.4,538.6,M,34.6,M,,0000*59
$GPGSA,M,3,21,25,31,29,18,,,,,,,,2.8,1.4,2.4*33
$GPRMC,161823.000,A,1801.1452,S,07015.7435,W,23.71,182.38,300411,,,A*52
$GPGGA,161824.000,1801.1515,S,07015.7431,W,1,05,1.4,538.3,M,34.6,M,,0000*5D
$GPGSA,M,3,21,25,31,29,18,,,,,,,,2.8,1.4,2.4*33
$GPRMC,161824.000,A,1801.1515,S,07015.7431,W,22.75,177.88,300411,,,A*57
$GPGGA,161825.002,1801.1581,S,07015.7414,W,1,05,1.4,536.2,M,34.6,M,,0000*5B
$GPGSA,M,3,21,25,31,29,18,,,,,,,,2.8,1.4,2.4*33
$GPGSV,3,1,11,21,80,271,39,25,59,092,40,31,44,255,41,29,35,151,33*77
$GPGSV,3,2,11,18,25,010,36,12,24,062,31,30,16,216,,22,06,345,*74
$GPGSV,3,3,11,05,05,131,29,14,04,323,,06,01,264,*45
$GPRMC,161825.002,A,1801.1581,S,07015.7414,W,23.05,172.10,300411,,,A*5C
$GPGGA,161825.998,1801.1641,S,07015.7394,W,1,05,1.4,534.6,M,34.6,M,,0000*57
$GPGSA,M,3,21,25,31,29,18,,,,,,,,2.8,1.4,2.4*33
$GPRMC,161825.998,A,1801.1641,S,07015.7394,W,21.43,167.78,300411,,,A*5C
$GPGGA,161827.000,1801.1696,S,07015.7389,W,1,05,1.4,533.3,M,34.6,M,,0000*59
$GPGSA,M,3,21,25,31,29,18,,,,,,,,2.8,1.4,2.4*33
$GPRMC,161827.000,A,1801.1696,S,07015.7389,W,21.55,167.66,300411,,,A*58
$GPGGA,161828.000,1801.1761,S,07015.7369,W,1,05,1.4,531.8,M,34.6,M,,0000*58
$GPGSA,M,3,21,25,31,29,18,,,,,,,,2.8,1.4,2.4*33
$GPRMC,161828.000,A,1801.1761,S,07015.7369,W,23.66,165.42,300411,,,A*56
$GPGGA,161829.002,1801.1816,S,07015.7333,W,1,05,1.4,530.3,M,34.6,M,,0000*51
$GPGSA,M,3,21,25,31,29,18,,,,,,,,2.8,1.4,2.4*33
$GPRMC,161829.002,A,1801.1816,S,07015.7333,W,23.17,159.41,300411,,,A*5F
$GPGGA,161830.001,1801.1870,S,07015.7295,W,1,05,1.4,528.8,M,34.6,M,,0000*55
$GPGSA,M,3,21,25,31,29,18,,,,,,,,2.8,1.4,2.4*33
$GPGSV,3,1,11,21,80,271,38,25,59,092,41,31,44,255,41,29,35,151,38*7C
$GPGSV,3,2,11,18,25,010,34,12,24,062,39,30,16,216,39,22,06,345,*74
$GPGSV,3,3,11,05,05,131,37,14,04,323,,06,01,264,*4A
$GPRMC,161830.001,A,1801.1870,S,07015.7295,W,23.08,154.67,300411,,,A*5E
$GPGGA,161830.997,1801.1919,S,07015.7240,W,1,05,1.4,525.4,M,34.6,M,,0000*54
$GPGSA,M,3,21,25,31,29,18,,,,,,,,2.8,1.4,2.4*33
$GPRMC,161830.997,A,1801.1919,S,07015.7240,W,23.80,146.01,300411,,,A*5D
$GPGGA,161831.999,1801.1959,S,07015.7158,W,1,05,1.4,524.1,M,34.6,M,,0000*51
$GPGSA,M,3,21,25,31,29,18,,,,,,,,2.8,1.4,2.4*33
$GPRMC,161831.999,A,1801.1959,S,07015.7158,W,24.27,136.73,300411,,,A*54
$GPGGA,161832.999,1801.1996,S,07015.7116,W,1,05,1.4,526.5,M,34.6,M,,0000*5D
$GPGSA,M,3,21,25,31,29,18,,,,,,,,2.8,1.4,2.4*33
$GPRMC,161832.999,A,1801.1996,S,07015.7116,W,25.90,133.40,300411,,,A*56
$GPGGA,161834.000,1801.2040,S,07015.7042,W,1,05,1.4,525.6,M,34.6,M,,0000*53
$GPGSA,M,3,21,25,31,29,18,,,,,,,,2.8,1.4,2.4*33
$GPRMC,161834.000,A,1801.2040,S,07015.7042,W,25.00,130.85,300411,,,A*5B
$GPGGA,161835.000,1801.2081,S,07015.6983,W,1,05,1.4,524.2,M,34.6,M,,0000*5F
$GPGSA,M,3,21,25,31,29,18,,,,,,,,2.8,1.4,2.4*33
$GPGSV,3,1,11,21,80,271,38,25,59,092,40,31,44,255,41,29,35,151,39*7C
$GPGSV,3,2,11,18,25,010,27,12,24,062,29,30,16,216,37,22,06,345,*79
$GPGSV,3,3,11,05,05,131,37,14,04,323,,06,01,264,*4A
$GPRMC,161835.000,A,1801.2081,S,07015.6983,W,24.89,132.23,300411,,,A*5C
$GPGGA,161836.003,1801.2127,S,07015.6939,W,1,05,1.4,524.3,M,34.6,M,,0000*52
$GPGSA,M,3,21,25,31,29,18,,,,,,,,2.8,1.4,2.4*33
$GPRMC,161836.003,A,1801.2127,S,07015.6939,W,24.22,133.35,300411,,,A*57
$GPGGA,161836.998,1801.2170,S,07015.6879,W,1,05,1.4,524.3,M,34.6,M,,0000*5E
$GPGSA,M,3,21,25,31,29,18,,,,,,,,2.8,1.4,2.4*33
$GPRMC,161836.998,A,1801.2170,S,07015.6879,W,23.65,132.81,300411,,,A*51
$GPGGA,161838.000,1801.2215,S,07015.6835,W,1,05,1.4,523.2,M,34.6,M,,0000*56
$GPGSA,M,3,21,25,31,29,18,,,,,,,,2.8,1.4,2.4*33
$GPRMC,161838.000,A,1801.2215,S,07015.6835,W,23.07,131.45,300411,,,A*50
$GPGGA,161839.002,1801.2262,S,07015.6793,W,1,05,1.4,522.9,M,34.6,M,,0000*5C
$GPGSA,M,3,21,25,31,29,18,,,,,,,,2.8,1.4,2.4*33
$GPRMC,161839.002,A,1801.2262,S,07015.6793,W,22.85,134.06,300411,,,A*59
$GPGGA,161839.996,1801.2301,S,07015.6738,W,1,05,1.4,521.3,M,34.6,M,,0000*54
$GPGSA,M,3,21,25,31,29,18,,,,,,,,2.8,1.4,2.4*33
$GPGSV,3,1,11,21,80,271,38,25,59,092,40,31,44,255,41,29,35,151,39*7C
$GPGSV,3,2,11,18,25,010,30,12,24,062,30,30,16,216,37,22,06,345,22*77
$GPGSV,3,3,11,05,05,131,38,14,04,323,21,06,01,264,*46
$GPRMC,161839.996,A,1801.2301,S,07015.6738,W,22.95,134.89,300411,,,A*5E
$GPGGA,161841.004,1801.2340,S,07015.6679,W,1,05,1.4,522.9,M,34.6,M,,0000*51
$GPGSA,M,3,21,25,31,29,18,,,,,,,,2.8,1.4,2.4*33
$GPRMC,161841.004,A,1801.2340,S,07015.6679,W,22.36,132.00,300411,,,A*5C
$GPGGA,161842.000,1801.2378,S,07015.6627,W,1,05,1.4,524.4,M,34.6,M,,0000*5D
$GPGSA,M,3,21,25,31,29,18,,,,,,,,2.8,1.4,2.4*33
$GPRMC,161842.000,A,1801.2378,S,07015.6627,W,22.73,134.15,300411,,,A*58
$GPGGA,161842.996,1801.2416,S,07015.6568,W,1,05,1.4,523.8,M,34.6,M,,0000*57
$GPGSA,M,3,21,25,31,29,18,,,,,,,,2.8,1.4,2.4*33
$GPRMC,161842.996,A,1801.2416,S,07015.6568,W,23.36,133.43,300411,,,A*5D
$GPGGA,161844.004,1801.2456,S,07015.6523,W,1,05,1.4,523.2,M,34.6,M,,0000*52
$GPGSA,M,3,21,25,31,29,18,,,,,,,,2.8,1.4,2.4*33
$GPRMC,161844.004,A,1801.2456,S,07015.6523,W,22.59,132.37,300411,,,A*58
$GPGGA,161844.996,1801.2498,S,07015.6463,W,1,05,1.4,520.9,M,34.6,M,,0000*5F
$GPGSA,M,3,21,25,31,29,18,,,,,,,,2.8,1.4,2.4*33
$GPGSV,3,1,11,21,80,271,38,25,59,092,41,31,44,255,37,29,35,151,37*72
$GPGSV,3,2,11,18,25,010,27,12,24,062,36,30,16,216,,22,06,345,26*77
$GPGSV,3,3,11,05,05,131,40,14,04,323,,06,01,264,*4A
$GPRMC,161844.996,A,1801.2498,S,07015.6463,W,23.11,132.35,300411,,,A*52
$GPGGA,161846.000,1801.2542,S,07015.6422,W,1,05,1.4,521.7,M,34.6,M,,0000*57
$GPGSA,M,3,21,25,31,29,18,,,,,,,,2.8,1.4,2.4*33
$GPRMC,161846.000,A,1801.2542,S,07015.6422,W,23.27,130.48,300411,,,A*58
$GPGGA,161847.000,1801.2586,S,07015.6377,W,1,05,1.4,523.4,M,34.6,M,,0000*58
$GPGSA,M,3,21,25,31,29,18,,,,,,,,2.8,1.4,2.4*33
$GPRMC,161847.000,A,1801.2586,S,07015.6377,W,22.40,131.76,300411,,,A*5A
$GPGGA,161848.002,1801.2621,S,07015.6329,W,1,05,1.4,523.2,M,34.6,M,,0000*56
$GPGSA,M,3,21,25,31,29,18,,,,,,,,2.8,1.4,2.4*33
$GPRMC,161848.002,A,1801.2621,S,07015.6329,W,20.51,135.17,300411,,,A*53
$GPGGA,161848.998,1801.2655,S,07015.6283,W,1,05,1.4,521.8,M,34.6,M,,0000*56
$GPGSA,M,3,21,25,31,29,18,,,,,,,,2.8,1.4,2.4*33
$GPRMC,161848.998,A,1801.2655,S,07015.6283,W,21.22,136.25,300411,,,A*5C
$GPGGA,161850.000,1801.2700,S,07015.6241,W,1,04,4.1,521.5,M,34.6,M,,0000*54
$GPGSA,M,3,21,25,31,29,,,,,,,,,8.2,4.1,7.1*3A
$GPGSV,3,1,11,21,80,271,38,25,59,092,40,31,44,255,41,29,35,151,38*7D
$GPGSV,3,2,11,18,25,010,,12,24,062,31,30,16,216,37,22,06,345,*75
$GPGSV,3,3,11,05,05,131,37,14,04,323,24,06,01,264,*4C
$GPRMC,161850.000,A,1801.2700,S,07015.6241,W,21.21,132.45,300411,,,A*53
$GPGGA,161851.000,1801.2743,S,07015.6197,W,1,05,1.4,520.3,M,34.6,M,,0000*5C
$GPGSA,M,3,21,25,31,29,18,,,,,,,,2.8,1.4,2.4*33
$GPRMC,161851.000,A,1801.2743,S,07015.6197,W,21.70,134.71,300411,,,A*58
$GPGGA,161852.000,1801.2784,S,07015.6152,W,1,04,4.1,521.3,M,34.6,M,,0000*5D
$GPGSA,M,3,21,25,31,29,,,,,,,,,8.2,4.1,7.1*3A
$GPRMC,161852.000,A,1801.2784,S,07015.6152,W,21.11,132.75,300411,,,A*5C
$GPGGA,161853.003,1801.2825,S,07015.6104,W,1,04,4.1,521.6,M,34.6,M,,0000*5D
$GPGSA,M,3,21,25,31,29,,,,,,,,,8.2,4.1,7.1*3A
$GPRMC,161853.003,A,1801.2825,S,07015.6104,W,21.24,132.62,300411,,,A*59
$GPGGA,161853.999,1801.2865,S,07015.6062,W,1,04,4.1,521.4,M,34.6,M,,0000*50
$GPGSA,M,3,21,25,31,29,,,,,,,,,8.2,4.1,7.1*3A
$GPRMC,161853.999,A,1801.2865,S,07015.6062,W,21.95,131.77,300411,,,A*5B
$GPGGA,161854.999,1801.2908,S,07015.6009,W,1,04,4.1,520.9,M,34.6,M,,0000*5C
$GPGSA,M,3,21,25,31,29,,,,,,,,,8.2,4.1,7.1*3A
$GPGSV,3,1,11,21,80,271,38,25,59,092,41,31,44,255,41,29,35,151,38*7C
$GPGSV,3,2,11,18,25,010,,12,24,062,27,30,16,216,31,22,06,345,*74
$GPGSV,3,3,11,05,05,131,38,14,04,323,,06,01,264,*45
$GPRMC,161854.999,A,1801.2908,S,07015.6009,W,22.07,131.29,300411,,,A*58
$GPGGA,161855.997,1801.2949,S,07015.5956,W,1,05,1.4,518.7,M,34.6,M,,0000*52
$GPGSA,M,3,21,25,31,29,18,,,,,,,,2.8,1.4,2.4*33
$GPRMC,161855.997,A,1801.2949,S,07015.5956,W,23.44,133.73,300411,,,A*59
$GPGGA,161857.002,1801.2992,S,07015.5909,W,1,04,4.1,519.1,M,34.6,M,,0000*5F
$GPGSA,M,3,21,25,31,29,,,,,,,,,8.2,4.1,7.1*3A
$GPRMC,161857.002,A,1801.2992,S,07015.5909,W,23.72,133.09,300411,,,A*5A
$GPGGA,161857.998,1801.3033,S,07015.5856,W,1,05,1.4,518.2,M,34.6,M,,0000*5E
$GPGSA,M,3,21,25,31,29,18,,,,,,,,2.8,1.4,2.4*33
$GPRMC,161857.998,A,1801.3033,S,07015.5856,W,22.92,129.96,300411,,,A*5A
$GPGGA,161859.005,1801.3085,S,07015.5812,W,1,05,1.4,517.9,M,34.6,M,,0000*54
$GPGSA,M,3,21,25,31,29,18,,,,,,,,2.8,1.4,2.4*33
$GPRMC,161859.005,A,1801.3085,S,07015.5812,W,22.95,133.93,300411,,,A*5D
$GPGGA,161859.995,1801.3128,S,07015.5764,W,1,04,4.1,518.4,M,34.6,M,,0000*5F
$GPGSA,M,3,21,25,31,29,,,,,,,,,8.2,4.1,7.1*3A
$GPGSV,3,1,11,21,80,271,38,25,59,092,39,31,44,255,41,29,35,151,40*7C
$GPGSV,3,2,11,18,25,010,,12,24,062,29,30,16,216,38,22,06,345,*73
$GPGSV,3,3,11,05,05,131,41,14,04,323,16,06,01,264,*4C
$GPRMC,161859.995,A,1801.3128,S,07015.5764,W,22.80,133.45,300411,,,A*5A
$GPGGA,161901.000,1801.3171,S,07015.5712,W,1,05,1.4,517.0,M,34.6,M,,0000*51
$GPGSA,M,3,21,25,31,29,18,,,,,,,,2.8,1.4,2.4*33
$GPRMC,161901.000,A,1801.3171,S,07015.5712,W,22.04,132.44,300411,,,A*52
$GPGGA,161902.004,1801.3214,S,07015.5665,W,1,05,1.4,516.0,M,34.6,M,,0000*56
$GPGSA,M,3,21,25,31,29,18,,,,,,,,2.8,1.4,2.4*33
$GPRMC,161902.004,A,1801.3214,S,07015.5665,W,20.73,135.09,300411,,,A*58
$GPGGA,161902.999,1801.3252,S,07015.5626,W,1,05,1.4,514.8,M,34.6,M,,0000*54
$GPGSA,M,3,21,25,31,29,18,,,,,,,,2.8,1.4,2.4*33
$GPRMC,161902.999,A,1801.3252,S,07015.5626,W,19.88,135.87,300411,,,A*58
$GPGGA,161903.996,1801.3290,S,07015.5591,W,1,04,4.1,513.5,M,34.6,M,,0000*50
$GPGSA,M,3,21,25,31,29,,,,,,,,,8.1,4.1,7.0*38
$GPRMC,161903.996,A,1801.3290,S,07015.5591,W,19.12,139.15,300411,,,A*53
$GPGGA,161904.999,1801.3334,S,07015.5553,W,1,05,1.4,514.3,M,34.6,M,,0000*59
$GPGSA,M,3,21,25,31,29,18,,,,,,,,2.8,1.4,2.4*33
$GPGSV,3,1,11,21,80,271,39,25,59,092,42,31,44,255,36,29,35,151,32*74
$GPGSV,3,2,11,18,25,010,32,12,24,062,34,30,16,216,40,22,06,345,29*7A
$GPGSV,3,3,11,05,05,131,35,14,04,323,,06,01,264,27*4D
$GPRMC,161904.999,A,1801.3334,S,07015.5553,W,18.76,139.30,300411,,,A*5E
$GPGGA,161905.999,1801.3368,S,07015.5523,W,1,05,1.4,513.0,M,34.6,M,,0000*52
$GPGSA,M,3,21,25,31,29,18,,,,,,,,2.8,1.4,2.4*33
$GPRMC,161905.999,A,1801.3368,S,07015.5523,W,16.90,137.01,300411,,,A*5B
$GPGGA,161906.999,1801.3410,S,07015.5507,W,1,05,1.4,514.3,M,34.6,M,,0000*5B
$GPGSA,M,3,21,25,31,29,18,,,,,,,,2.8,1.4,2.4*33
$GPRMC,161906.999,A,1801.3410,S,07015.5507,W,15.30,143.94,300411,,,A*50
$GPGGA,161908.003,1801.3441,S,07015.5508,W,1,05,1.4,514.8,M,34.6,M,,0000*5F
$GPGSA,M,3,21,25,31,29,18,,,,,,,,2.8,1.4,2.4*33
$GPRMC,161908.003,A,1801.3441,S,07015.5508,W,11.96,153.34,300411,,,A*5C
$GPGGA,161909.000,1801.3467,S,07015.5514,W,1,05,1.4,515.7,M,34.6,M,,0000*5A
$GPGSA,M,3,21,25,31,29,18,,,,,,,,2.8,1.4,2.4*33
$GPRMC,161909.000,A,1801.3467,S,07015.5514,W,11.08,166.41,300411,,,A*54
$GPGGA,161909.998,1801.3500,S,07015.5542,W,1,05,1.4,514.6,M,34.6,M,,0000*51
$GPGSA,M,3,21,25,31,29,18,,,,,,,,2.8,1.4,2.4*33
$GPGSV,3,1,11,21,80,271,38,25,59,092,40,31,44,255,41,29,35,151,33*76
$GPGSV,3,2,11,18,25,010,36,12,24,062,36,30,16,216,39,22,06,345,33*79
$GPGSV,3,3,11,05,05,131,,14,04,323,28,06,01,264,*44
$GPRMC,161909.998,A,1801.3500,S,07015.5542,W,12.40,184.57,300411,,,A*5B
$GPGGA,161911.000,1801.3540,S,07015.5584,W,1,04,4.1,515.8,M,34.6,M,,0000*50
$GPGSA,M,3,21,25,31,29,,,,,,,,,8.1,4.1,7.0*38
$GPRMC,161911.000,A,1801.3540,S,07015.5584,W,14.38,200.15,300411,,,A*54
$GPGGA,161912.002,1801.3581,S,07015.5616,W,1,05,1.4,516.5,M,34.6,M,,0000*5B
$GPGSA,M,3,21,25,31,29,18,,,,,,,,2.8,1.4,2.4*33
$GPRMC,161912.002,A,1801.3581,S,07015.5616,W,15.76,213.33,300411,,,A*5D
$GPGGA,161913.001,1801.3622,S,07015.5660,W,1,05,1.4,514.5,M,34.6,M,,0000*50
$GPGSA,M,3,21,25,31,29,18,,,,,,,,2.8,1.4,2.4*33
$GPRMC,161913.001,A,1801.3622,S,07015.5660,W,17.52,212.94,300411,,,A*5C
$GPGGA,161913.995,1801.3683,S,07015.5720,W,1,05,1.4,515.2,M,34.6,M,,0000*5C
$GPGSA,M,3,21,25,31,29,18,,,,,,,,2.8,1.4,2.4*33
$GPRMC,161913.995,A,1801.3683,S,07015.5720,W,22.39,213.31,300411,,,A*53
$GPGGA,161915.000,1801.3739,S,07015.5754,W,1,05,1.4,515.8,M,34.6,M,,0000*56
$GPGSA,M,3,21,25,31,29,18,,,,,,,,2.8,1.4,2.4*33
$GPGSV,3,1,11,21,80,271,39,25,59,092,40,31,44,255,41,29,35,151,37*73
$GPGSV,3,2,11,18,25,010,35,12,24,062,35,30,16,216,40,22,06,345,28*7D
$GPGSV,3,3,11,05,05,131,,14,04,323,,06,01,264,*4E
$GPRMC,161915.000,A,1801.3739,S,07015.5754,W,23.92,212.37,300411,,,A*54
$GPGGA,161916.002,1801.3796,S,07015.5791,W,1,05,1.4,517.3,M,34.6,M,,0000*52
$GPGSA,M,3,21,25,31,29,18,,,,,,,,2.8,1.4,2.4*33
$GPRMC,161916.002,A,1801.3796,S,07015.5791,W,24.61,213.80,300411,,,A*5F
$GPGGA,161916.998,1801.3850,S,07015.5827,W,1,05,1.4,515.2,M,34.6,M,,0000*5C
$GPGSA,M,3,21,25,31,29,18,,,,,,,,2.8,1.4,2.4*33
$GPRMC,161916.998,A,1801.3850,S,07015.5827,W,24.08,213.38,300411,,,A*5E
$GPGGA,161918.003,1801.3908,S,07015.5883,W,1,05,1.4,515.9,M,34.6,M,,0000*50
$GPGSA,M,3,21,25,31,29,18,,,,,,,,2.8,1.4,2.4*33
$GPRMC,161918.003,A,1801.3908,S,07015.5883,W,24.16,212.51,300411,,,A*58
$GPGGA,161919.000,1801.3959,S,07015.5917,W,1,05,1.4,516.6,M,34.6,M,,0000*56
$GPGSA,M,3,21,25,31,29,18,,,,,,,,2.8,1.4,2.4*33
$GPRMC,161919.000,A,1801.3959,S,07015.5917,W,24.78,213.94,300411,,,A*52
$GPGGA,161919.998,1801.4016,S,07015.5948,W,1,05,1.4,517.3,M,34.6,M,,0000*55
$GPGSA,M,3,21,25,31,29,18,,,,,,,,2.8,1.4,2.4*33
$GPGSV,3,1,11,21,80,271,38,25,59,092,40,31,44,255,40,29,35,151,36*72
$GPGSV,3,2,11,18,25,010,36,12,24,062,37,30,16,216,39,22,06,345,36*7D
$GPGSV,3,3,11,05,05,131,28,14,04,323,30,06,01,264,24*41
$GPRMC,161919.998,A,1801.4016,S,07015.5948,W,25.28,215.30,300411,,,A*59
$GPGGA,161921.002,1801.4076,S,07015.5991,W,1,05,1.4,518.4,M,34.6,M,,0000*5E
$GPGSA,M,3,21,25,31,29,18,,,,,,,,2.8,1.4,2.4*33
$GPRMC,161921.002,A,1801.4076,S,07015.5991,W,25.08,214.98,300411,,,A*5B
$GPGGA,161921.999,1801.4136,S,07015.6026,W,1,05,1.4,517.3,M,34.6,M,,0000*5E
$GPGSA,M,3,21,25,31,29,18,,,,,,,,2.8,1.4,2.4*33
$GPRMC,161921.999,A,1801.4136,S,07015.6026,W,25.92,214.36,300411,,,A*54
$GPGGA,161922.999,1801.4199,S,07015.6079,W,1,05,1.4,519.6,M,34.6,M,,0000*59
$GPGSA,M,3,21,25,31,29,18,,,,,,,,2.8,1.4,2.4*33
$GPRMC,161922.999,A,1801.4199,S,07015.6079,W,25.53,213.46,300411,,,A*55
$GPGGA,161923.999,1801.4259,S,07015.6119,W,1,05,1.4,519.4,M,34.6,M,,0000*52
$GPGSA,M,3,21,25,31,29,18,,,,,,,,2.8,1.4,2.4*33
$GPRMC,161923.999,A,1801.4259,S,07015.6119,W,25.48,213.30,300411,,,A*57
$GPGGA,161925.000,1801.4317,S,07015.6158,W,1,05,1.4,520.0,M,34.6,M,,0000*5D
$GPGSA,M,3,21,25,31,29,18,,,,,,,,2.8,1.4,2.4*33
$GPGSV,3,1,11,21,80,271,38,25,59,092,39,31,44,255,39,29,35,151,35*71
$GPGSV,3,2,11,18,25,010,35,12,24,062,33,30,16,216,38,22,06,345,29*75
$GPGSV,3,3,11,05,05,131,28,14,04,323,24,06,01,264,*42
$GPRMC,161925.000,A,1801.4317,S,07015.6158,W,25.22,214.42,300411,,,A*58
$GPGGA,161925.997,1801.4378,S,07015.6198,W,1,05,1.4,520.0,M,34.6,M,,0000*5F
$GPGSA,M,3,21,25,31,29,18,,,,,,,,2.8,1.4,2.4*33
$GPRMC,161925.997,A,1801.4378,S,07015.6198,W,25.73,213.74,300411,,,A*5C
$GPGGA,161927.000,1801.4434,S,07015.6235,W,1,05,1.4,520.7,M,34.6,M,,0000*56
$GPGSA,M,3,21,25,31,29,18,,,,,,,,2.8,1.4,2.4*33
$GPRMC,161927.000,A,1801.4434,S,07015.6235,W,24.93,213.79,300411,,,A*50
$GPGGA,161927.999,1801.4491,S,07015.6270,W,1,05,1.4,521.3,M,34.6,M,,0000*54
$GPGSA,M,3,21,25,31,29,18,,,,,,,,2.8,1.4,2.4*33
$GPRMC,161927.999,A,1801.4491,S,07015.6270,W,25.37,215.87,300411,,,A*5F
$GPGGA,161929.002,1801.4553,S,07015.6314,W,1,05,1.4,520.3,M,34.6,M,,0000*5C
$GPGSA,M,3,21,25,31,29,18,,,,,,,,2.8,1.4,2.4*33
$GPRMC,161929.002,A,1801.4553,S,07015.6314,W,25.75,212.88,300411,,,A*58
$GPGGA,161930.001,1801.4613,S,07015.6355,W,1,05,1.4,519.1,M,34.6,M,,0000*5D
$GPGSA,M,3,21,25,31,29,18,,,,,,,,2.8,1.4,2.4*33
$GPGSV,3,1,11,21,80,261,38,25,59,089,39,31,44,257,40,29,35,150,37*75
$GPGSV,3,2,11,18,26,011,36,12,23,060,34,30,17,216,38,22,07,346,28*74
$GPGSV,3,3,11,05,04,132,,14,04,325,30,06,01,262,23*4E
$GPRMC,161930.001,A,1801.4613,S,07015.6355,W,24.21,212.43,300411,,,A*56
$GPGGA,161931.000,1801.4667,S,07015.6394,W,1,05,1.4,518.5,M,34.6,M,,0000*56
$GPGSA,M,3,21,25,31,29,18,,,,,,,,2.8,1.4,2.4*33
$GPRMC,161931.000,A,1801.4667,S,07015.6394,W,23.40,213.01,300411,,,A*5F
$GPGGA,161932.000,1801.4720,S,07015.6436,W,1,05,1.4,518.5,M,34.6,M,,0000*58
$GPGSA,M,3,21,25,31,29,18,,,,,,,,2.8,1.4,2.4*33
$GPRMC,161932.000,A,1801.4720,S,07015.6436,W,22.44,213.53,300411,,,A*53
$GPGGA,161932.998,1801.4775,S,07015.6470,W,1,05,1.4,518.2,M,34.6,M,,0000*55
$GPGSA,M,3,21,25,31,29,18,,,,,,,,2.8,1.4,2.4*33
$GPRMC,161932.998,A,1801.4775,S,07015.6470,W,23.35,213.56,300411,,,A*5B
$GPGGA,161934.000,1801.4833,S,07015.6511,W,1,05,1.4,516.6,M,34.6,M,,0000*5A
$GPGSA,M,3,21,25,31,29,18,,,,,,,,2.8,1.4,2.4*33
$GPRMC,161934.000,A,1801.4833,S,07015.6511,W,23.62,214.17,300411,,,A*5E
$GPGGA,161934.998,1801.4892,S,07015.6552,W,1,05,1.4,515.8,M,34.6,M,,0000*53
$GPGSA,M,3,21,25,31,29,18,,,,,,,,2.8,1.4,2.4*33
$GPGSV,3,1,11,21,80,261,38,25,59,089,40,31,44,257,41,29,35,150,37*7A
$GPGSV,3,2,11,18,26,011,36,12,23,060,33,30,17,216,39,22,07,346,*78
$GPGSV,3,3,11,05,04,132,24,14,04,325,30,06,01,262,38*42
$GPRMC,161934.998,A,1801.4892,S,07015.6552,W,23.87,213.50,300411,,,A*55
$GPGGA,161936.000,1801.4951,S,07015.6596,W,1,05,1.4,515.0,M,34.6,M,,0000*57
$GPGSA,M,3,21,25,31,29,18,,,,,,,,2.8,1.4,2.4*33
$GPRMC,161936.000,A,1801.4951,S,07015.6596,W,24.45,213.66,300411,,,A*55
$GPGGA,161937.000,1801.5012,S,07015.6639,W,1,05,1.4,513.0,M,34.6,M,,0000*59
$GPGSA,M,3,21,25,31,29,18,,,,,,,,2.8,1.4,2.4*33
$GPRMC,161937.000,A,1801.5012,S,07015.6639,W,24.61,212.95,300411,,,A*56
$GPGGA,161938.001,1801.5071,S,07015.6685,W,1,05,1.4,513.1,M,34.6,M,,0000*54
$GPGSA,M,3,21,25,31,29,18,,,,,,,,2.8,1.4,2.4*33
$GPRMC,161938.001,A,1801.5071,S,07015.6685,W,24.38,213.87,300411,,,A*54
$GPGGA,161939.001,1801.5130,S,07015.6725,W,1,05,1.4,513.1,M,34.6,M,,0000*5A
$GPGSA,M,3,21,25,31,29,18,,,,,,,,2.8,1.4,2.4*33
$GPRMC,161939.001,A,1801.5130,S,07015.6725,W,24.32,213.63,300411,,,A*5A
$GPGGA,161940.000,1801.5187,S,07015.6766,W,1,05,1.4,515.0,M,34.6,M,,0000*59
$GPGSA,M,3,21,25,31,29,18,,,,,,,,2.8,1.4,2.4*33
$GPGSV,3,1,11,21,80,261,38,25,59,089,40,31,44,257,41,29,35,150,36*7B
$GPGSV,3,2,11,18,26,011,36,12,23,060,35,30,17,216,37,22,07,346,*70
$GPGSV,3,3,11,05,04,132,28,14,04,325,,06,01,262,32*47
$GPRMC,161940.000,A,1801.5187,S,07015.6766,W,24.78,213.00,300411,,,A*55
$GPGGA,161941.000,1801.5245,S,07015.6804,W,1,05,1.4,515.2,M,34.6,M,,0000*5C
$GPGSA,M,3,21,25,31,29,18,,,,,,,,2.8,1.4,2.4*33
$GPRMC,161941.000,A,1801.5245,S,07015.6804,W,24.87,213.38,300411,,,A*59
$GPGGA,161942.002,1801.5301,S,07015.6844,W,1,05,1.4,515.4,M,34.6,M,,0000*5E
$GPGSA,M,3,21,25,31,29,18,,,,,,,,2.8,1.4,2.4*33
$GPRMC,161942.002,A,1801.5301,S,07015.6844,W,24.22,214.23,300411,,,A*5F
$GPGGA,161942.996,1801.5358,S,07015.6883,W,1,05,1.4,515.9,M,34.6,M,,0000*50
$GPGSA,M,3,21,25,31,29,18,,,,,,,,2.8,1.4,2.4*33
$GPRMC,161942.996,A,1801.5358,S,07015.6883,W,23.85,213.44,300411,,,A*50
$GPGGA,161944.000,1801.5414,S,07015.6919,W,1,05,1.4,514.3,M,34.6,M,,0000*56
$GPGSA,M,3,21,25,31,29,18,,,,,,,,2.8,1.4,2.4*33
$GPRMC,161944.000,A,1801.5414,S,07015.6919,W,23.57,213.62,300411,,,A*56
$GPGGA,161945.000,1801.5466,S,07015.6956,W,1,05,1.4,513.8,M,34.6,M,,0000*55
$GPGSA,M,3,21,25,31,29,18,,,,,,,,2.8,1.4,2.4*33
$GPGSV,3,1,11,21,80,261,38,25,59,089,39,31,44,257,40,29,35,150,37*75
$GPGSV,3,2,11,18,26,011,36,12,23,060,36,30,17,216,38,22,07,346,38*77
$GPGSV,3,3,11,05,04,132,30,14,04,325,37,06,01,262,*4B
$GPRMC,161945.000,A,1801.5466,S,07015.6956,W,23.73,213.16,300411,,,A*5C
$GPGGA,161946.002,1801.5520,S,07015.6989,W,1,05,1.4,515.3,M,34.6,M,,0000*58
$GPGSA,M,3,21,25,31,29,18,,,,,,,,2.8,1.4,2.4*33
$GPRMC,161946.002,A,1801.5520,S,07015.6989,W,23.11,211.69,300411,,,A*52
$GPGGA,161947.001,1801.5574,S,07015.7025,W,1,05,1.4,515.2,M,34.6,M,,0000*54
$GPGSA,M,3,21,25,31,29,18,,,,,,,,2.8,1.4,2.4*33
$GPRMC,161947.001,A,1801.5574,S,07015.7025,W,22.40,213.59,300411,,,A*5B
$GPGGA,161947.999,1801.5625,S,07015.7061,W,1,05,1.4,514.7,M,34.6,M,,0000*5F
$GPGSA,M,3,21,25,31,29,18,,,,,,,,2.8,1.4,2.4*33
$GPRMC,161947.999,A,1801.5625,S,07015.7061,W,21.48,214.09,300411,,,A*5D
$GPGGA,161948.997,1801.5674,S,07015.7095,W,1,05,1.4,514.0,M,34.6,M,,0000*56
$GPGSA,M,3,21,25,31,29,18,,,,,,,,2.8,1.4,2.4*33
$GPRMC,161948.997,A,1801.5674,S,07015.7095,W,21.46,213.15,300411,,,A*57
$GPGGA,161950.002,1801.5723,S,07015.7133,W,1,05,1.4,515.2,M,34.6,M,,0000*57
$GPGSA,M,3,21,25,31,29,18,,,,,,,,2.8,1.4,2.4*33
$GPGSV,3,1,11,21,80,261,38,25,59,089,39,31,44,257,40,29,35,150,36*74
$GPGSV,3,2,11,18,26,011,36,12,23,060,32,30,17,216,38,22,07,346,*78
$GPGSV,3,3,11,05,04,132,23,14,04,325,,06,01,262,23*4C
$GPRMC,161950.002,A,1801.5723,S,07015.7133,W,20.33,215.13,300411,,,A*56
$GPGGA,161950.998,1801.5768,S,07015.7166,W,1,05,1.4,516.0,M,34.6,M,,0000*53
$GPGSA,M,3,21,25,31,29,18,,,,,,,,2.8,1.4,2.4*33
$GPRMC,161950.998,A,1801.5768,S,07015.7166,W,19.10,214.46,300411,,,A*59
$GPGGA,161952.000,1801.5809,S,07015.7197,W,1,05,1.4,515.7,M,34.6,M,,0000*5B
$GPGSA,M,3,21,25,31,29,18,,,,,,,,2.8,1.4,2.4*33
$GPRMC,161952.000,A,1801.5809,S,07015.7197,W,18.44,216.07,300411,,,A*52
$GPGGA,161953.002,1801.5851,S,07015.7229,W,1,05,1.4,516.2,M,34.6,M,,0000*55
$GPGSA,M,3,21,25,31,29,18,,,,,,,,2.8,1.4,2.4*33
$GPRMC,161953.002,A,1801.5851,S,07015.7229,W,16.33,213.95,300411,,,A*5A
$GPGGA,161953.998,1801.5887,S,07015.7253,W,1,05,1.4,514.4,M,34.6,M,,0000*5D
$GPGSA,M,3,21,25,31,29,18,,,,,,,,2.8,1.4,2.4*33
$GPRMC,161953.998,A,1801.5887,S,07015.7253,W,16.46,215.23,300411,,,A*5F
$GPGGA,161955.005,1801.5925,S,07015.7281,W,1,05,1.4,514.8,M,34.6,M,,0000*5C
$GPGSA,M,3,21,25,31,29,18,,,,,,,,2.8,1.4,2.4*33
$GPGSV,3,1,11,21,80,261,38,25,59,089,39,31,44,257,41,29,35,150,36*75
$GPGSV,3,2,11,18,26,011,36,12,23,060,35,30,17,216,37,22,07,346,*70
$GPGSV,3,3,11,05,04,132,30,14,04,325,,06,01,262,22*4F
$GPRMC,161955.005,A,1801.5925,S,07015.7281,W,16.52,214.32,300411,,,A*56
$GPGGA,161955.997,1801.5963,S,07015.7307,W,1,05,1.4,515.4,M,34.6,M,,0000*5E
$GPGSA,M,3,21,25,31,29,18,,,,,,,,2.8,1.4,2.4*33
$GPRMC,161955.997,A,1801.5963,S,07015.7307,W,16.96,213.79,300411,,,A*59
$GPGGA,161956.998,1801.6004,S,07015.7332,W,1,05,1.4,515.3,M,34.6,M,,0000*58
$GPGSA,M,3,21,25,31,29,18,,,,,,,,2.8,1.4,2.4*33
$GPRMC,161956.998,A,1801.6004,S,07015.7332,W,17.34,209.80,300411,,,A*5C
$GPGGA,161958.005,1801.6045,S,07015.7362,W,1,05,1.4,515.9,M,34.6,M,,0000*51
$GPGSA,M,3,21,25,31,29,18,,,,,,,,2.8,1.4,2.4*33
$GPRMC,161958.005,A,1801.6045,S,07015.7362,W,16.74,213.77,300411,,,A*59
$GPGGA,161958.996,1801.6081,S,07015.7388,W,1,05,1.4,516.3,M,34.6,M,,0000*57
$GPGSA,M,3,21,25,31,29,18,,,,,,,,2.8,1.4,2.4*33
$GPRMC,161958.996,A,1801.6081,S,07015.7388,W,17.18,212.66,300411,,,A*5C
$GPGGA,161959.999,1801.6117,S,07015.7419,W,1,05,1.4,517.0,M,34.6,M,,0000*5A
$GPGSA,M,3,21,25,31,29,18,,,,,,,,2.8,1.4,2.4*33
$GPGSV,3,1,11,21,80,261,38,25,59,089,39,31,44,257,39,29,35,150,35*79
$GPGSV,3,2,11,18,26,011,35,12,23,060,34,30,17,216,39,22,07,346,*7C
$GPGSV,3,3,11,05,04,132,26,14,04,325,,06,01,262,*48
$GPRMC,161959.999,A,1801.6117,S,07015.7419,W,17.42,217.27,300411,,,A*5C
$GPGGA,162001.001,1801.6157,S,07015.7451,W,1,05,1.4,516.1,M,34.6,M,,0000*5D
$GPGSA,M,3,21,25,31,29,18,,,,,,,,2.8,1.4,2.4*33
$GPRMC,162001.001,A,1801.6157,S,07015.7451,W,17.64,212.81,300411,,,A*56
$GPGGA,162001.998,1801.6199,S,07015.7483,W,1,05,1.4,516.6,M,34.6,M,,0000*5E
$GPGSA,M,3,21,25,31,29,18,,,,,,,,2.8,1.4,2.4*33
$GPRMC,162001.998,A,1801.6199,S,07015.7483,W,18.69,214.16,300411,,,A*58
$GPGGA,162003.001,1801.6245,S,07015.7513,W,1,05,1.4,515.3,M,34.6,M,,0000*59
$GPGSA,M,3,21,25,31,29,18,,,,,,,,2.8,1.4,2.4*33
