$GPGGA,194746.005,1218.5611,S,07650.2502,W,1,07,1.2,38.4,M,9.1,M,,0000*54
$GPGSA,M,3,30,22,18,06,31,21,14,,,,,,1.8,1.2,1.4*39
$GPRMC,194746.005,A,1218.5611,S,07650.2502,W,21.16,139.23,150411,,,A*5B
$GPGGA,194746.994,1218.5657,S,07650.2463,W,1,07,1.2,37.6,M,9.1,M,,0000*5C
$GPGSA,M,3,30,22,18,06,31,21,14,,,,,,1.8,1.2,1.4*39
$GPRMC,194746.994,A,1218.5657,S,07650.2463,W,21.23,138.56,150411,,,A*5B
$GPGGA,194747.997,1218.5702,S,07650.2426,W,1,07,1.2,37.4,M,9.1,M,,0000*5C
$GPGSA,M,3,30,22,18,06,31,21,14,,,,,,1.8,1.2,1.4*39
$GPRMC,194747.997,A,1218.5702,S,07650.2426,W,21.37,138.76,150411,,,A*5E
$GPGGA,194749.006,1218.5749,S,07650.2382,W,1,07,1.2,37.7,M,9.1,M,,0000*56
$GPGSA,M,3,30,22,18,06,31,21,14,,,,,,1.8,1.2,1.4*39
$GPRMC,194749.006,A,1218.5749,S,07650.2382,W,22.14,139.35,150411,,,A*53
$GPGGA,194749.997,1218.5795,S,07650.2342,W,1,08,1.1,37.3,M,9.1,M,,0000*52
$GPGSA,M,3,30,22,16,18,06,31,21,14,,,,,1.8,1.1,1.4*3D
$GPGSV,3,1,12,30,76,232,31,22,71,048,36,16,53,213,23,18,51,119,37*74
$GPGSV,3,2,12,06,29,204,28,31,23,338,35,03,21,214,28,21,18,144,33*71
$GPGSV,3,3,12,14,13,023,37,25,09,034,32,29,07,086,24,19,02,236,*79
$GPRMC,194749.997,A,1218.5795,S,07650.2342,W,22.06,138.68,150411,,,A*55
$GPGGA,194751.005,1218.5843,S,07650.2302,W,1,06,1.7,38.0,M,9.1,M,,0000*5D
$GPGSA,M,3,30,22,18,31,21,14,,,,,,,2.3,1.7,1.5*33
$GPRMC,194751.005,A,1218.5843,S,07650.2302,W,21.98,141.64,150411,,,A*58
$GPGGA,194751.996,1218.5888,S,07650.2262,W,1,06,1.7,38.1,M,9.1,M,,0000*5F
$GPGSA,M,3,30,22,18,31,21,14,,,,,,,2.3,1.7,1.5*33
$GPRMC,194751.996,A,1218.5888,S,07650.2262,W,22.04,136.71,150411,,,A*59
$GPGGA,194753.001,1218.5935,S,07650.2218,W,1,06,1.7,38.6,M,9.1,M,,0000*57
$GPGSA,M,3,30,22,18,31,21,14,,,,,,,2.3,1.7,1.5*33
$GPRMC,194753.001,A,1218.5935,S,07650.2218,W,23.11,136.61,150411,,,A*52
$GPGGA,194754.001,1218.5982,S,07650.2175,W,1,06,1.7,38.6,M,9.1,M,,0000*54
$GPGSA,M,3,30,22,18,31,21,14,,,,,,,2.3,1.7,1.5*33
$GPRMC,194754.001,A,1218.5982,S,07650.2175,W,22.12,138.14,150411,,,A*5F
$GPGGA,194754.999,1218.6028,S,07650.2126,W,1,07,1.2,38.9,M,9.1,M,,0000*5B
$GPGSA,M,3,30,22,18,06,31,21,14,,,,,,1.8,1.2,1.4*39
$GPGSV,3,1,12,30,76,232,35,22,71,048,35,16,53,213,,18,51,119,35*70
$GPGSV,3,2,12,06,29,204,33,31,23,338,35,03,21,214,28,21,18,144,34*7C
$GPGSV,3,3,12,14,13,023,35,25,09,034,32,29,07,086,29,19,02,236,*76
$GPRMC,194754.999,A,1218.6028,S,07650.2126,W,22.44,136.33,150411,,,A*53
$GPGGA,194755.998,1218.6074,S,07650.2083,W,1,07,1.2,39.7,M,9.1,M,,0000*53
$GPGSA,M,3,30,22,18,06,31,21,14,,,,,,1.8,1.2,1.4*39
$GPRMC,194755.998,A,1218.6074,S,07650.2083,W,22.68,137.02,150411,,,A*59
$GPGGA,194757.000,1218.6119,S,07650.2038,W,1,06,1.5,40.6,M,9.1,M,,0000*5A
$GPGSA,M,3,30,22,18,06,21,14,,,,,,,2.1,1.5,1.5*37
$GPRMC,194757.000,A,1218.6119,S,07650.2038,W,22.51,139.30,150411,,,A*5C
$GPGGA,194758.002,1218.6166,S,07650.1992,W,1,07,1.2,40.9,M,9.1,M,,0000*5C
$GPGSA,M,3,30,22,18,06,31,21,14,,,,,,1.8,1.2,1.4*39
$GPRMC,194758.002,A,1218.6166,S,07650.1992,W,23.44,137.64,150411,,,A*59
$GPGGA,194758.999,1218.6214,S,07650.1951,W,1,07,1.2,41.0,M,9.1,M,,0000*56
$GPGSA,M,3,30,22,18,06,31,21,14,,,,,,1.8,1.2,1.4*39
$GPRMC,194758.999,A,1218.6214,S,07650.1951,W,22.55,139.99,150411,,,A*56
$GPGGA,194800.001,1218.6263,S,07650.1913,W,1,07,1.2,42.0,M,9.1,M,,0000*59
$GPGSA,M,3,30,22,18,06,31,21,14,,,,,,1.8,1.2,1.4*39
$GPGSV,3,1,12,30,76,232,30,22,71,048,33,16,53,213,,18,51,119,32*74
$GPGSV,3,2,12,06,29,204,27,31,23,338,34,03,21,214,27,21,18,144,33*70
$GPGSV,3,3,12,14,13,023,34,25,09,034,32,29,07,086,32,19,02,236,*7D
$GPRMC,194800.001,A,1218.6263,S,07650.1913,W,22.30,143.51,150411,,,A*50
$GPGGA,194801.001,1218.6312,S,07650.1873,W,1,07,1.4,42.6,M,9.1,M,,0000*58
$GPGSA,M,3,30,22,16,18,31,21,14,,,,,,2.0,1.4,1.5*34
$GPRMC,194801.001,A,1218.6312,S,07650.1873,W,22.22,144.69,150411,,,A*5E
$GPGGA,194802.000,1218.6363,S,07650.1830,W,1,06,1.7,43.2,M,9.1,M,,0000*5C
$GPGSA,M,3,30,22,18,31,21,14,,,,,,,2.3,1.7,1.5*33
$GPRMC,194802.000,A,1218.6363,S,07650.1830,W,22.73,143.29,150411,,,A*5A
$GPGGA,194803.000,1218.6417,S,07650.1792,W,1,07,1.2,42.8,M,9.1,M,,0000*51
$GPGSA,M,3,30,22,18,06,31,21,14,,,,,,1.8,1.2,1.4*39
$GPRMC,194803.000,A,1218.6417,S,07650.1792,W,23.51,142.61,150411,,,A*54
$GPGGA,194804.001,1218.6469,S,07650.1751,W,1,07,1.2,43.3,M,9.1,M,,0000*5B
$GPGSA,M,3,30,22,18,06,31,21,14,,,,,,1.8,1.2,1.4*39
$GPRMC,194804.001,A,1218.6469,S,07650.1751,W,23.29,143.89,150411,,,A*5C
$GPGGA,194805.001,1218.6523,S,07650.1709,W,1,07,1.2,43.3,M,9.1,M,,0000*58
$GPGSA,M,3,30,22,18,06,31,21,14,,,,,,1.8,1.2,1.4*39
$GPGSV,3,1,12,30,76,232,35,22,71,048,35,16,53,213,,18,51,119,34*71
$GPGSV,3,2,12,06,29,204,34,31,23,338,35,03,21,214,30,21,18,144,36*70
$GPGSV,3,3,12,14,13,023,39,25,09,034,30,29,07,086,36,19,02,236,19*7E
$GPRMC,194805.001,A,1218.6523,S,07650.1709,W,23.35,143.71,150411,,,A*55
$GPGGA,194806.003,1218.6576,S,07650.1670,W,1,06,1.7,43.7,M,9.1,M,,0000*56
$GPGSA,M,3,30,22,18,31,21,14,,,,,,,2.3,1.7,1.5*33
$GPRMC,194806.003,A,1218.6576,S,07650.1670,W,23.62,144.06,150411,,,A*5E
$GPGGA,194806.998,1218.6629,S,07650.1631,W,1,07,1.2,43.7,M,9.1,M,,0000*55
$GPGSA,M,3,30,22,18,06,31,21,14,,,,,,1.8,1.2,1.4*39
$GPRMC,194806.998,A,1218.6629,S,07650.1631,W,23.11,145.19,150411,,,A*52
$GPGGA,194808.005,1218.6680,S,07650.1596,W,1,07,1.2,44.7,M,9.1,M,,0000*5C
$GPGSA,M,3,30,22,18,06,31,21,14,,,,,,1.8,1.2,1.4*39
$GPRMC,194808.005,A,1218.6680,S,07650.1596,W,23.15,144.07,150411,,,A*56
$GPGGA,194808.994,1218.6733,S,07650.1557,W,1,07,1.2,44.8,M,9.1,M,,0000*56
$GPGSA,M,3,30,22,18,06,31,21,14,,,,,,1.8,1.2,1.4*39
$GPRMC,194808.994,A,1218.6733,S,07650.1557,W,23.46,144.97,150411,,,A*5C
$GPGGA,194809.999,1218.6783,S,07650.1519,W,1,07,1.2,45.3,M,9.1,M,,0000*51
$GPGSA,M,3,30,22,18,06,31,21,14,,,,,,1.8,1.2,1.4*39
$GPGSV,3,1,12,30,76,232,32,22,71,048,34,16,53,213,,18,51,119,31*72
$GPGSV,3,2,12,06,29,204,32,31,23,338,33,03,21,214,27,21,18,144,33*73
$GPGSV,3,3,12,14,13,023,35,25,09,034,33,29,07,086,34,19,02,236,35*7D
$GPRMC,194809.999,A,1218.6783,S,07650.1519,W,23.06,143.42,150411,,,A*5A
$GPGGA,194811.000,1218.6836,S,07650.1480,W,1,07,1.2,45.5,M,9.1,M,,0000*57
$GPGSA,M,3,30,22,18,06,31,21,14,,,,,,1.8,1.2,1.4*39
$GPRMC,194811.000,A,1218.6836,S,07650.1480,W,23.45,145.14,150411,,,A*58
$GPGGA,194812.004,1218.6890,S,07650.1444,W,1,07,1.2,45.6,M,9.1,M,,0000*57
$GPGSA,M,3,30,22,18,06,31,21,14,,,,,,1.8,1.2,1.4*39
$GPRMC,194812.004,A,1218.6890,S,07650.1444,W,23.23,145.13,150411,,,A*5C
$GPGGA,194813.000,1218.6943,S,07650.1404,W,1,07,1.2,45.4,M,9.1,M,,0000*5B
$GPGSA,M,3,30,22,18,06,31,21,14,,,,,,1.8,1.2,1.4*39
$GPRMC,194813.000,A,1218.6943,S,07650.1404,W,23.45,145.00,150411,,,A*50
$GPGGA,194813.997,1218.6996,S,07650.1369,W,1,07,1.2,46.0,M,9.1,M,,0000*5F
$GPGSA,M,3,30,22,18,06,31,21,14,,,,,,1.8,1.2,1.4*39
$GPRMC,194813.997,A,1218.6996,S,07650.1369,W,23.03,144.02,150411,,,A*52
$GPGGA,194815.000,1218.7047,S,07650.1330,W,1,07,1.2,46.2,M,9.1,M,,0000*54
$GPGSA,M,3,30,22,18,06,31,21,14,,,,,,1.8,1.2,1.4*39
$GPGSV,3,1,12,30,76,232,31,22,71,048,33,16,53,213,,18,51,119,31*76
$GPGSV,3,2,12,06,29,204,27,31,23,338,33,03,21,214,,21,18,144,33*72
$GPGSV,3,3,12,14,13,023,31,25,09,034,35,29,07,086,,19,02,236,25*79
$GPRMC,194815.000,A,1218.7047,S,07650.1330,W,23.47,143.68,150411,,,A*50
$GPGGA,194816.000,1218.7099,S,07650.1292,W,1,07,1.2,46.7,M,9.1,M,,0000*58
$GPGSA,M,3,30,22,18,06,31,21,14,,,,,,1.8,1.2,1.4*39
$GPRMC,194816.000,A,1218.7099,S,07650.1292,W,23.10,144.96,150411,,,A*5D
$GPGGA,194817.005,1218.7151,S,07650.1257,W,1,08,1.1,47.5,M,9.1,M,,0000*5F
$GPGSA,M,3,30,22,16,18,06,31,21,14,,,,,1.8,1.1,1.4*3D
$GPRMC,194817.005,A,1218.7151,S,07650.1257,W,23.47,146.92,150411,,,A*51
$GPGGA,194817.993,1218.7204,S,07650.1228,W,1,08,1.1,48.3,M,9.1,M,,0000*5B
$GPGSA,M,3,30,22,16,18,06,31,21,14,,,,,1.8,1.1,1.4*3D
$GPRMC,194817.993,A,1218.7204,S,07650.1228,W,23.36,146.79,150411,,,A*5F
$GPGGA,194819.004,1218.7260,S,07650.1190,W,1,07,1.2,48.4,M,9.1,M,,0000*5B
$GPGSA,M,3,30,22,18,06,31,21,14,,,,,,1.8,1.2,1.4*39
$GPRMC,194819.004,A,1218.7260,S,07650.1190,W,23.48,147.11,150411,,,A*52
$GPGGA,194819.999,1218.7313,S,07650.1153,W,1,08,1.1,47.9,M,9.1,M,,0000*52
$GPGSA,M,3,30,22,16,18,06,31,21,14,,,,,1.8,1.1,1.4*3D
$GPGSV,3,1,12,30,76,232,33,22,71,048,34,16,53,213,27,18,51,119,34*73
$GPGSV,3,2,12,06,29,204,32,31,23,338,34,03,21,214,19,21,18,144,35*7F
$GPGSV,3,3,12,14,13,023,36,25,09,034,31,29,07,086,26,19,02,236,22*79
$GPRMC,194819.999,A,1218.7313,S,07650.1153,W,23.35,142.86,150411,,,A*54
$GPGGA,194820.996,1218.7365,S,07650.1116,W,1,08,1.1,47.9,M,9.1,M,,0000*57
$GPGSA,M,3,30,22,16,18,06,31,21,14,,,,,1.8,1.1,1.4*3D
$GPRMC,194820.996,A,1218.7365,S,07650.1116,W,23.56,146.62,150411,,,A*5A
$GPGGA,194822.003,1218.7419,S,07650.1080,W,1,08,1.1,48.1,M,9.1,M,,0000*55
$GPGSA,M,3,30,22,16,18,06,31,21,14,,,,,1.8,1.1,1.4*3D
$GPRMC,194822.003,A,1218.7419,S,07650.1080,W,23.42,146.19,150411,,,A*56
$GPGGA,194823.000,1218.7471,S,07650.1043,W,1,07,1.2,48.6,M,9.1,M,,0000*5D
$GPGSA,M,3,30,22,18,06,31,21,14,,,,,,1.8,1.2,1.4*39
$GPRMC,194823.000,A,1218.7471,S,07650.1043,W,23.08,146.77,150411,,,A*53
$GPGGA,194823.999,1218.7525,S,07650.1006,W,1,08,1.1,47.7,M,9.1,M,,0000*57
$GPGSA,M,3,30,22,16,18,06,31,21,14,,,,,1.8,1.1,1.4*3D
$GPRMC,194823.999,A,1218.7525,S,07650.1006,W,23.49,147.40,150411,,,A*5B
$GPGGA,194825.002,1218.7580,S,07650.0974,W,1,07,1.4,47.1,M,9.1,M,,0000*54
$GPGSA,M,3,30,22,16,18,31,21,14,,,,,,2.0,1.4,1.5*34
$GPGSV,3,1,12,30,76,232,30,22,71,048,33,16,53,213,27,18,51,119,32*71
$GPGSV,3,2,12,06,29,204,,31,23,338,32,03,21,214,,21,18,144,33*76
$GPGSV,3,3,12,14,13,023,28,25,09,034,37,29,07,086,33,19,02,236,25*73
$GPRMC,194825.002,A,1218.7580,S,07650.0974,W,23.59,146.50,150411,,,A*55
$GPGGA,194825.999,1218.7633,S,07650.0938,W,1,08,1.1,47.7,M,9.1,M,,0000*50
$GPGSA,M,3,30,22,16,18,06,31,21,14,,,,,1.8,1.1,1.4*3D
$GPRMC,194825.999,A,1218.7633,S,07650.0938,W,23.51,146.47,150411,,,A*53
$GPGGA,194826.999,1218.7688,S,07650.0904,W,1,07,1.2,47.8,M,9.1,M,,0000*5F
$GPGSA,M,3,30,22,18,06,31,21,14,,,,,,1.8,1.2,1.4*39
$GPRMC,194826.999,A,1218.7688,S,07650.0904,W,23.56,147.21,150411,,,A*59
$GPGGA,194828.001,1218.7742,S,07650.0872,W,1,08,1.1,47.3,M,9.1,M,,0000*59
$GPGSA,M,3,30,22,16,18,06,31,21,14,,,,,1.8,1.1,1.4*3D
$GPRMC,194828.001,A,1218.7742,S,07650.0872,W,23.39,146.54,150411,,,A*52
$GPGGA,194829.002,1218.7792,S,07650.0828,W,1,08,1.1,47.6,M,9.1,M,,0000*5C
$GPGSA,M,3,30,22,16,18,06,31,21,14,,,,,1.8,1.1,1.4*3D
$GPRMC,194829.002,A,1218.7792,S,07650.0828,W,23.48,145.04,150411,,,A*52
$GPGGA,194829.999,1218.7844,S,07650.0791,W,1,08,1.1,47.2,M,9.1,M,,0000*5A
$GPGSA,M,3,30,22,16,18,06,31,21,14,,,,,1.8,1.1,1.4*3D
$GPGSV,3,1,12,30,76,232,30,22,71,048,34,16,53,213,25,18,51,119,34*72
$GPGSV,3,2,12,06,29,204,33,31,23,338,34,03,21,214,27,21,18,144,35*73
$GPGSV,3,3,12,14,13,023,34,25,09,034,37,29,07,086,34,19,02,236,*7E
$GPRMC,194829.999,A,1218.7844,S,07650.0791,W,23.29,145.27,150411,,,A*56
$GPGGA,194831.005,1218.7895,S,07650.0753,W,1,08,1.1,48.0,M,9.1,M,,0000*50
$GPGSA,M,3,30,22,16,18,06,31,21,14,,,,,1.8,1.1,1.4*3D
$GPRMC,194831.005,A,1218.7895,S,07650.0753,W,22.86,147.36,150411,,,A*57
$GPGGA,194831.997,1218.7949,S,07650.0719,W,1,07,1.2,47.8,M,9.1,M,,0000*57
$GPGSA,M,3,30,22,18,06,31,21,14,,,,,,1.8,1.2,1.4*39
$GPRMC,194831.997,A,1218.7949,S,07650.0719,W,23.09,146.46,150411,,,A*5B
$GPGGA,194832.997,1218.8002,S,07650.0684,W,1,06,1.7,47.5,M,9.1,M,,0000*51
$GPGSA,M,3,30,22,18,31,21,14,,,,,,,2.3,1.7,1.5*33
$GPRMC,194832.997,A,1218.8002,S,07650.0684,W,22.91,147.30,150411,,,A*54
$GPGGA,194834.003,1218.8055,S,07650.0644,W,1,07,1.2,48.2,M,9.1,M,,0000*51
$GPGSA,M,3,30,22,18,06,31,21,14,,,,,,1.8,1.2,1.4*39
$GPRMC,194834.003,A,1218.8055,S,07650.0644,W,23.62,143.88,150411,,,A*52
$GPGGA,194834.995,1218.8107,S,07650.0613,W,1,08,1.1,48.3,M,9.1,M,,0000*5E
$GPGSA,M,3,30,22,16,18,06,31,21,14,,,,,1.8,1.1,1.4*3D
$GPGSV,3,1,12,30,76,232,34,22,71,048,35,16,53,213,27,18,51,119,35*74
$GPGSV,3,2,12,06,29,204,30,31,23,338,35,03,21,214,26,21,18,144,35*70
$GPGSV,3,3,12,14,13,023,34,25,09,034,40,29,07,086,35,19,02,236,*7F
$GPRMC,194834.995,A,1218.8107,S,07650.0613,W,22.59,146.48,150411,,,A*50
$GPGGA,194836.005,1218.8159,S,07650.0576,W,1,07,1.2,48.4,M,9.1,M,,0000*5C
$GPGSA,M,3,30,22,18,06,31,21,14,,,,,,1.8,1.2,1.4*39
$GPRMC,194836.005,A,1218.8159,S,07650.0576,W,22.64,147.55,150411,,,A*5A
$GPGGA,194836.997,1218.8211,S,07650.0541,W,1,07,1.2,48.7,M,9.1,M,,0000*56
$GPGSA,M,3,30,22,18,06,31,21,14,,,,,,1.8,1.2,1.4*39
$GPRMC,194836.997,A,1218.8211,S,07650.0541,W,23.09,144.53,150411,,,A*5C
$GPGGA,194838.002,1218.8263,S,07650.0510,W,1,07,1.2,48.5,M,9.1,M,,0000*5E
$GPGSA,M,3,30,22,18,06,31,21,14,,,,,,1.8,1.2,1.4*39
$GPRMC,194838.002,A,1218.8263,S,07650.0510,W,22.89,147.08,150411,,,A*52
$GPGGA,194838.996,1218.8314,S,07650.0474,W,1,07,1.2,49.3,M,9.1,M,,0000*5F
$GPGSA,M,3,30,22,18,06,31,21,14,,,,,,1.8,1.2,1.4*39
$GPRMC,194838.996,A,1218.8314,S,07650.0474,W,22.79,144.92,150411,,,A*5B
$GPGGA,194840.004,1218.8366,S,07650.0438,W,1,07,1.2,49.7,M,9.1,M,,0000*5B
$GPGSA,M,3,30,22,18,06,31,21,14,,,,,,1.8,1.2,1.4*39
$GPGSV,3,1,12,30,76,232,30,22,71,048,31,16,53,213,,18,51,119,30*74
$GPGSV,3,2,12,06,29,204,27,31,23,338,31,03,21,214,,21,18,144,33*70
$GPGSV,3,3,12,14,13,023,30,25,09,034,37,29,07,086,35,19,02,236,*7B
$GPRMC,194840.004,A,1218.8366,S,07650.0438,W,23.34,146.63,150411,,,A*5F
$GPGGA,194840.996,1218.8425,S,07650.0408,W,1,08,1.1,48.8,M,9.1,M,,0000*58
$GPGSA,M,3,30,22,16,18,06,31,21,14,,,,,1.8,1.1,1.4*3D
$GPRMC,194840.996,A,1218.8425,S,07650.0408,W,23.23,147.72,150411,,,A*59
$GPGGA,194842.001,1218.8481,S,07650.0374,W,1,07,1.2,48.8,M,9.1,M,,0000*53
$GPGSA,M,3,30,22,18,06,31,21,14,,,,,,1.8,1.2,1.4*39
$GPRMC,194842.001,A,1218.8481,S,07650.0374,W,23.08,146.64,150411,,,A*51
$GPGGA,194843.005,1218.8535,S,07650.0341,W,1,08,1.1,48.9,M,9.1,M,,0000*53
$GPGSA,M,3,30,22,16,18,06,31,21,14,,,,,1.8,1.1,1.4*3D
$GPRMC,194843.005,A,1218.8535,S,07650.0341,W,23.27,145.94,150411,,,A*5D
$GPGGA,194843.999,1218.8587,S,07650.0303,W,1,08,1.1,48.8,M,9.1,M,,0000*51
$GPGSA,M,3,30,22,16,18,06,31,21,14,,,,,1.8,1.1,1.4*3D
$GPRMC,194843.999,A,1218.8587,S,07650.0303,W,22.90,142.34,150411,,,A*5E
$GPGGA,194845.001,1218.8640,S,07650.0266,W,1,07,1.2,48.7,M,9.1,M,,0000*56
$GPGSA,M,3,30,22,18,06,31,21,14,,,,,,1.8,1.2,1.4*39
$GPGSV,3,1,12,30,76,232,32,22,71,048,35,16,53,213,,18,51,119,35*77
$GPGSV,3,2,12,06,29,204,31,31,23,338,34,03,21,214,28,21,18,144,35*7E
$GPGSV,3,3,12,14,13,023,33,25,09,034,41,29,07,086,38,19,02,236,*74
$GPRMC,194845.001,A,1218.8640,S,07650.0266,W,23.74,143.40,150411,,,A*53
$GPGGA,194845.997,1218.8693,S,07650.0225,W,1,07,1.2,48.5,M,9.1,M,,0000*5B
$GPGSA,M,3,30,22,18,06,31,21,14,,,,,,1.8,1.2,1.4*39
$GPRMC,194845.997,A,1218.8693,S,07650.0225,W,23.27,146.05,150411,,,A*5E
$GPGGA,194847.003,1218.8747,S,07650.0190,W,1,07,1.2,48.2,M,9.1,M,,0000*5F
$GPGSA,M,3,30,22,18,06,31,21,14,,,,,,1.8,1.2,1.4*39
$GPRMC,194847.003,A,1218.8747,S,07650.0190,W,22.98,146.97,150411,,,A*53
$GPGGA,194847.997,1218.8801,S,07650.0153,W,1,07,1.2,48.7,M,9.1,M,,0000*5C
$GPGSA,M,3,30,22,18,06,31,21,14,,,,,,1.8,1.2,1.4*39
$GPRMC,194847.997,A,1218.8801,S,07650.0153,W,22.55,148.24,150411,,,A*52
$GPGGA,194848.999,1218.8853,S,07650.0116,W,1,07,1.2,48.9,M,9.1,M,,0000*55
$GPGSA,M,3,30,22,18,06,31,21,14,,,,,,1.8,1.2,1.4*39
$GPRMC,194848.999,A,1218.8853,S,07650.0116,W,22.75,145.04,150411,,,A*58
$GPGGA,194850.005,1218.8905,S,07650.0081,W,1,06,1.7,48.5,M,9.1,M,,0000*55
$GPGSA,M,3,30,22,18,31,21,14,,,,,,,2.3,1.7,1.5*33
$GPGSV,3,1,12,30,76,232,28,22,71,048,32,16,53,213,,18,51,119,28*77
$GPGSV,3,2,12,06,29,204,,31,23,338,29,03,21,214,,21,18,144,33*7C
$GPGSV,3,3,12,14,13,023,32,25,09,034,37,29,07,086,33,19,02,236,*7F
$GPRMC,194850.005,A,1218.8905,S,07650.0081,W,22.52,145.94,150411,,,A*5C
$GPGGA,194850.999,1218.8957,S,07650.0048,W,1,07,1.2,48.9,M,9.1,M,,0000*53
$GPGSA,M,3,30,22,18,06,31,21,14,,,,,,1.8,1.2,1.4*39
$GPRMC,194850.999,A,1218.8957,S,07650.0048,W,23.17,146.75,150411,,,A*5E
$GPGGA,194851.999,1218.9011,S,07650.0010,W,1,06,1.7,48.9,M,9.1,M,,0000*51
$GPGSA,M,3,30,22,18,31,21,14,,,,,,,2.3,1.7,1.5*33
$GPRMC,194851.999,A,1218.9011,S,07650.0010,W,23.45,145.10,150411,,,A*5F
$GPGGA,194852.997,1218.9064,S,07649.9971,W,1,08,1.1,48.9,M,9.1,M,,0000*59
$GPGSA,M,3,30,22,16,18,06,31,21,14,,,,,1.8,1.1,1.4*3D
$GPRMC,194852.997,A,1218.9064,S,07649.9971,W,23.07,145.00,150411,,,A*58
$GPGGA,194853.999,1218.9117,S,07649.9935,W,1,08,1.1,49.0,M,9.1,M,,0000*5B
$GPGSA,M,3,30,22,16,18,06,31,21,14,,,,,1.8,1.1,1.4*3D
$GPRMC,194853.999,A,1218.9117,S,07649.9935,W,23.02,144.78,150411,,,A*59
$GPGGA,194855.005,1218.9170,S,07649.9902,W,1,07,1.2,48.4,M,9.1,M,,0000*5D
$GPGSA,M,3,30,22,18,06,31,21,14,,,,,,1.8,1.2,1.4*39
$GPGSV,3,1,12,30,76,232,29,22,71,048,31,16,53,213,,18,51,119,27*7A
$GPGSV,3,2,12,06,29,204,26,31,23,338,29,03,21,214,25,21,18,144,33*7F
$GPGSV,3,3,12,14,13,023,31,25,09,034,,29,07,086,32,19,02,236,*79
$GPRMC,194855.005,A,1218.9170,S,07649.9902,W,23.16,146.80,150411,,,A*56
$GPGGA,194855.997,1218.9224,S,07649.9865,W,1,07,1.2,48.3,M,9.1,M,,0000*5A
$GPGSA,M,3,30,22,18,06,31,21,14,,,,,,1.8,1.2,1.4*39
$GPRMC,194855.997,A,1218.9224,S,07649.9865,W,23.14,146.59,150411,,,A*50
$GPGGA,194857.001,1218.9275,S,07649.9825,W,1,07,1.2,49.1,M,9.1,M,,0000*5D
$GPGSA,M,3,30,22,18,06,31,21,14,,,,,,1.8,1.2,1.4*39
$GPRMC,194857.001,A,1218.9275,S,07649.9825,W,23.05,146.31,150411,,,A*5A
$GPGGA,194858.000,1218.9328,S,07649.9789,W,1,07,1.2,49.0,M,9.1,M,,0000*52
$GPGSA,M,3,30,22,18,06,31,21,14,,,,,,1.8,1.2,1.4*39
$GPRMC,194858.000,A,1218.9328,S,07649.9789,W,23.24,147.25,150411,,,A*53
$GPGGA,194859.003,1218.9381,S,07649.9751,W,1,07,1.2,49.0,M,9.1,M,,0000*56
$GPGSA,M,3,30,22,18,06,31,21,14,,,,,,1.8,1.2,1.4*39
$GPRMC,194859.003,A,1218.9381,S,07649.9751,W,22.85,145.35,150411,,,A*5E
$GPGGA,194859.998,1218.9429,S,07649.9715,W,1,07,1.2,49.0,M,9.1,M,,0000*58
$GPGSA,M,3,30,22,18,06,31,21,14,,,,,,1.8,1.2,1.4*39
$GPGSV,3,1,12,30,76,232,30,22,71,048,35,16,53,213,,18,51,119,30*70
$GPGSV,3,2,12,06,29,204,29,31,23,338,33,03,21,214,25,21,18,144,36*7E
$GPGSV,3,3,12,14,13,023,33,25,09,034,38,29,07,086,36,19,02,236,*74
$GPRMC,194859.998,A,1218.9429,S,07649.9715,W,21.19,144.26,150411,,,A*55
$GPGGA,194900.998,1218.9480,S,07649.9689,W,1,07,1.2,47.8,M,9.1,M,,0000*54
$GPGSA,M,3,30,22,18,06,31,21,14,,,,,,1.8,1.2,1.4*39
$GPRMC,194900.998,A,1218.9480,S,07649.9689,W,20.49,147.97,150411,,,A*52
$GPGGA,194902.003,1218.9527,S,07649.9656,W,1,07,1.3,48.3,M,9.1,M,,0000*56
$GPGSA,M,3,30,22,16,06,31,21,14,,,,,,1.9,1.3,1.4*37
$GPRMC,194902.003,A,1218.9527,S,07649.9656,W,20.42,147.23,150411,,,A*51
$GPGGA,194903.000,1218.9575,S,07649.9628,W,1,07,1.2,47.9,M,9.1,M,,0000*5E
$GPGSA,M,3,30,22,18,06,31,21,14,,,,,,1.8,1.2,1.4*39
$GPRMC,194903.000,A,1218.9575,S,07649.9628,W,20.49,150.76,150411,,,A*50
$GPGGA,194904.007,1218.9624,S,07649.9597,W,1,07,1.2,48.6,M,9.1,M,,0000*5E
$GPGSA,M,3,30,22,18,06,31,21,14,,,,,,1.8,1.2,1.4*39
$GPRMC,194904.007,A,1218.9624,S,07649.9597,W,20.54,146.04,150411,,,A*5E
$GPGGA,194904.990,1218.9674,S,07649.9565,W,1,07,1.2,49.1,M,9.1,M,,0000*57
$GPGSA,M,3,30,22,18,06,31,21,14,,,,,,1.8,1.2,1.4*39
$GPGSV,3,1,12,30,76,232,28,22,71,048,29,16,53,213,,18,51,119,30*74
$GPGSV,3,2,12,06,29,204,28,31,23,338,30,03,21,214,,21,18,144,33*7E
$GPGSV,3,3,12,14,13,023,34,25,09,034,33,29,07,086,26,19,02,236,*79
$GPRMC,194904.990,A,1218.9674,S,07649.9565,W,21.44,147.49,150411,,,A*59
$GPGGA,194906.003,1218.9722,S,07649.9533,W,1,07,1.4,48.4,M,9.1,M,,0000*55
$GPGSA,M,3,30,22,16,18,31,21,14,,,,,,2.0,1.4,1.5*34
$GPRMC,194906.003,A,1218.9722,S,07649.9533,W,20.76,146.95,150411,,,A*59
$GPGGA,194906.998,1218.9773,S,07649.9503,W,1,07,1.2,47.8,M,9.1,M,,0000*5C
$GPGSA,M,3,30,22,18,06,31,21,14,,,,,,1.8,1.2,1.4*39
$GPRMC,194906.998,A,1218.9773,S,07649.9503,W,21.46,145.80,150411,,,A*50
$GPGGA,194907.998,1218.9824,S,07649.9469,W,1,07,1.2,47.8,M,9.1,M,,0000*5D
$GPGSA,M,3,30,22,18,06,31,21,14,,,,,,1.8,1.2,1.4*39
$GPRMC,194907.998,A,1218.9824,S,07649.9469,W,22.08,146.12,150411,,,A*50
$GPGGA,194909.006,1218.9878,S,07649.9436,W,1,07,1.2,46.9,M,9.1,M,,0000*5E
$GPGSA,M,3,30,22,18,06,31,21,14,,,,,,1.8,1.2,1.4*39
$GPRMC,194909.006,A,1218.9878,S,07649.9436,W,22.56,146.42,150411,,,A*5D
$GPGGA,194909.996,1218.9932,S,07649.9408,W,1,07,1.2,45.9,M,9.1,M,,0000*5F
$GPGSA,M,3,30,22,18,06,31,21,14,,,,,,1.8,1.2,1.4*39
$GPGSV,3,1,12,30,76,232,34,22,71,048,34,16,53,213,,18,51,119,31*74
$GPGSV,3,2,12,06,29,204,32,31,23,338,32,03,21,214,28,21,18,144,35*7B
$GPGSV,3,3,12,14,13,023,35,25,09,034,39,29,07,086,36,19,02,236,29*78
$GPRMC,194909.996,A,1218.9932,S,07649.9408,W,22.53,146.07,150411,,,A*5B
$GPGGA,194911.000,1218.9982,S,07649.9367,W,1,07,1.2,46.7,M,9.1,M,,0000*58
$GPGSA,M,3,30,22,18,06,31,21,14,,,,,,1.8,1.2,1.4*39
$GPRMC,194911.000,A,1218.9982,S,07649.9367,W,22.77,145.44,150411,,,A*53
$GPGGA,194911.998,1219.0035,S,07649.9333,W,1,08,1.1,46.8,M,9.1,M,,0000*5F
$GPGSA,M,3,30,22,16,18,06,31,21,14,,,,,1.8,1.1,1.4*3D
$GPRMC,194911.998,A,1219.0035,S,07649.9333,W,23.16,146.30,150411,,,A*51
$GPGGA,194913.001,1219.0088,S,07649.9293,W,1,08,1.1,47.3,M,9.1,M,,0000*53
$GPGSA,M,3,30,22,16,18,06,31,21,14,,,,,1.8,1.1,1.4*3D
$GPRMC,194913.001,A,1219.0088,S,07649.9293,W,22.76,147.56,150411,,,A*51
$GPGGA,194914.002,1219.0142,S,07649.9261,W,1,08,1.1,46.7,M,9.1,M,,0000*58
$GPGSA,M,3,30,22,16,18,06,31,21,14,,,,,1.8,1.1,1.4*3D
$GPRMC,194914.002,A,1219.0142,S,07649.9261,W,22.67,147.88,150411,,,A*5C
$GPGGA,194914.996,1219.0192,S,07649.9224,W,1,07,1.3,47.7,M,9.1,M,,0000*5C
$GPGSA,M,3,30,22,16,06,31,21,14,,,,,,1.9,1.3,1.4*37
$GPGSV,3,1,12,30,76,232,31,22,71,048,35,16,53,213,33,18,51,119,*72
$GPGSV,3,2,12,06,29,204,35,31,23,338,33,03,21,214,30,21,18,144,34*75
$GPGSV,3,3,12,14,13,023,25,25,09,034,28,29,07,086,,19,02,236,28*7D
$GPRMC,194914.996,A,1219.0192,S,07649.9224,W,22.24,147.15,150411,,,A*57
$GPGGA,194916.004,1219.0246,S,07649.9182,W,1,07,1.2,48.3,M,9.1,M,,0000*53
$GPGSA,M,3,30,22,18,06,31,21,14,,,,,,1.8,1.2,1.4*39
$GPRMC,194916.004,A,1219.0246,S,07649.9182,W,22.79,144.28,150411,,,A*57
$GPGGA,194917.001,1219.0298,S,07649.9146,W,1,06,1.3,47.6,M,9.1,M,,0000*56
$GPGSA,M,3,30,22,06,31,21,14,,,,,,,2.0,1.3,1.5*3B
$GPRMC,194917.001,A,1219.0298,S,07649.9146,W,22.99,146.19,150411,,,A*56
$GPGGA,194917.997,1219.0351,S,07649.9110,W,1,07,1.2,47.5,M,9.1,M,,0000*54
$GPGSA,M,3,30,22,18,06,31,21,14,,,,,,1.8,1.2,1.4*39
$GPRMC,194917.997,A,1219.0351,S,07649.9110,W,22.07,145.83,150411,,,A*50
$GPGGA,194919.000,1219.0400,S,07649.9070,W,1,07,1.2,48.3,M,9.1,M,,0000*50
$GPGSA,M,3,30,22,18,06,31,21,14,,,,,,1.8,1.2,1.4*39
$GPRMC,194919.000,A,1219.0400,S,07649.9070,W,22.30,145.18,150411,,,A*5B
$GPGGA,194920.003,1219.0448,S,07649.9035,W,1,07,1.2,48.2,M,9.1,M,,0000*55
$GPGSA,M,3,30,22,18,06,31,21,14,,,,,,1.8,1.2,1.4*39
$GPGSV,3,1,12,30,77,237,29,22,72,052,31,16,54,214,,18,50,121,26*7D
$GPGSV,3,2,12,06,30,203,26,31,23,340,27,03,22,213,,21,17,143,32*7B
$GPGSV,3,3,12,14,14,024,35,25,08,034,32,29,07,085,32,19,03,235,*7C
$GPRMC,194920.003,A,1219.0448,S,07649.9035,W,21.85,146.59,150411,,,A*54
$GPGGA,194920.999,1219.0499,S,07649.8999,W,1,07,1.2,48.4,M,9.1,M,,0000*5B
$GPGSA,M,3,30,22,18,06,31,21,14,,,,,,1.8,1.2,1.4*39
$GPRMC,194920.999,A,1219.0499,S,07649.8999,W,21.39,146.88,150411,,,A*57
$GPGGA,194922.001,1219.0552,S,07649.8959,W,1,07,1.2,48.9,M,9.1,M,,0000*56
$GPGSA,M,3,30,22,18,06,31,21,14,,,,,,1.8,1.2,1.4*39
$GPRMC,194922.001,A,1219.0552,S,07649.8959,W,22.00,145.67,150411,,,A*5C
$GPGGA,194923.004,1219.0603,S,07649.8925,W,1,07,1.2,48.7,M,9.1,M,,0000*50
$GPGSA,M,3,30,22,18,06,31,21,14,,,,,,1.8,1.2,1.4*39
$GPRMC,194923.004,A,1219.0603,S,07649.8925,W,22.07,144.77,150411,,,A*53
$GPGGA,194923.996,1219.0654,S,07649.8893,W,1,06,1.3,48.2,M,9.1,M,,0000*59
$GPGSA,M,3,30,22,06,31,21,14,,,,,,,2.0,1.3,1.5*3B
$GPRMC,194923.996,A,1219.0654,S,07649.8893,W,21.82,146.77,150411,,,A*53
$GPGGA,194925.003,1219.0703,S,07649.8859,W,1,07,1.2,48.5,M,9.1,M,,0000*58
$GPGSA,M,3,30,22,18,06,31,21,14,,,,,,1.8,1.2,1.4*39
$GPGSV,3,1,12,30,77,237,31,22,72,052,35,16,54,214,,18,50,121,29*7F
$GPGSV,3,2,12,06,30,203,32,31,23,340,32,03,22,213,28,21,17,143,35*77
$GPGSV,3,3,12,14,14,024,36,25,08,034,34,29,07,085,29,19,03,235,*73
$GPRMC,194925.003,A,1219.0703,S,07649.8859,W,21.53,146.98,150411,,,A*58
$GPGGA,194925.997,1219.0753,S,07649.8829,W,1,06,1.3,48.3,M,9.1,M,,0000*58
$GPGSA,M,3,30,22,06,31,21,14,,,,,,,2.0,1.3,1.5*3B
$GPRMC,194925.997,A,1219.0753,S,07649.8829,W,21.74,148.19,150411,,,A*5C
$GPGGA,194927.000,1219.0804,S,07649.8793,W,1,07,1.2,49.2,M,9.1,M,,0000*5E
$GPGSA,M,3,30,22,18,06,31,21,14,,,,,,1.8,1.2,1.4*39
$GPRMC,194927.000,A,1219.0804,S,07649.8793,W,22.28,147.58,150411,,,A*5A
$GPGGA,194928.007,1219.0857,S,07649.8763,W,1,07,1.2,48.2,M,9.1,M,,0000*5E
$GPGSA,M,3,30,22,18,06,31,21,14,,,,,,1.8,1.2,1.4*39
$GPRMC,194928.007,A,1219.0857,S,07649.8763,W,21.46,148.81,150411,,,A*5B
$GPGGA,194928.996,1219.0911,S,07649.8735,W,1,07,1.2,47.0,M,9.1,M,,0000*52
$GPGSA,M,3,30,22,18,06,31,21,14,,,,,,1.8,1.2,1.4*39
$GPRMC,194928.996,A,1219.0911,S,07649.8735,W,22.56,145.06,150411,,,A*5A
$GPGGA,194929.995,1219.0964,S,07649.8706,W,1,07,1.2,45.9,M,9.1,M,,0000*59
$GPGSA,M,3,30,22,18,06,31,21,14,,,,,,1.8,1.2,1.4*39
$GPGSV,3,1,12,30,77,237,33,22,72,052,35,16,54,214,,18,50,121,27*73
$GPGSV,3,2,12,06,30,203,32,31,23,340,35,03,22,213,32,21,17,143,35*7B
$GPGSV,3,3,12,14,14,024,34,25,08,034,37,29,07,085,26,19,03,235,30*7E
$GPRMC,194929.995,A,1219.0964,S,07649.8706,W,22.24,147.08,150411,,,A*53
$GPGGA,194931.003,1219.1016,S,07649.8670,W,1,07,1.2,45.9,M,9.1,M,,0000*5B
$GPGSA,M,3,30,22,18,06,31,21,14,,,,,,1.8,1.2,1.4*39
$GPRMC,194931.003,A,1219.1016,S,07649.8670,W,22.93,146.37,150411,,,A*50
$GPGGA,194931.997,1219.1070,S,07649.8634,W,1,06,1.3,45.8,M,9.1,M,,0000*5E
$GPGSA,M,3,30,22,06,31,21,14,,,,,,,2.0,1.3,1.5*3B
$GPRMC,194931.997,A,1219.1070,S,07649.8634,W,23.10,145.65,150411,,,A*5A
$GPGGA,194933.005,1219.1122,S,07649.8593,W,1,06,1.4,46.5,M,9.1,M,,0000*5F
$GPGSA,M,3,30,22,18,06,31,21,,,,,,,2.1,1.4,1.6*32
$GPRMC,194933.005,A,1219.1122,S,07649.8593,W,23.50,144.77,150411,,,A*54
$GPGGA,194933.995,1219.1176,S,07649.8557,W,1,07,1.2,46.0,M,9.1,M,,0000*54
$GPGSA,M,3,30,22,18,06,31,21,14,,,,,,1.8,1.2,1.4*39
$GPRMC,194933.995,A,1219.1176,S,07649.8557,W,23.03,147.33,150411,,,A*58
$GPGGA,194935.003,1219.1228,S,07649.8520,W,1,07,1.2,45.8,M,9.1,M,,0000*57
$GPGSA,M,3,30,22,18,06,31,21,14,,,,,,1.8,1.2,1.4*39
$GPGSV,3,1,12,30,77,237,28,22,72,052,31,16,54,214,,18,50,121,28*72
$GPGSV,3,2,12,06,30,203,28,31,23,340,29,03,22,213,26,21,17,143,33*7E
$GPGSV,3,3,12,14,14,024,31,25,08,034,38,29,07,085,32,19,03,235,28*78
$GPRMC,194935.003,A,1219.1228,S,07649.8520,W,22.47,146.45,150411,,,A*51
$GPGGA,194935.999,1219.1282,S,07649.8485,W,1,07,1.2,46.2,M,9.1,M,,0000*5A
$GPGSA,M,3,30,22,18,06,31,21,14,,,,,,1.8,1.2,1.4*39
$GPRMC,194935.999,A,1219.1282,S,07649.8485,W,22.65,146.80,150411,,,A*5C
$GPGGA,194937.003,1219.1335,S,07649.8451,W,1,07,1.2,46.8,M,9.1,M,,0000*5C
$GPGSA,M,3,30,22,18,06,31,21,14,,,,,,1.8,1.2,1.4*39
$GPRMC,194937.003,A,1219.1335,S,07649.8451,W,23.67,145.49,150411,,,A*55
$GPGGA,194937.993,1219.1389,S,07649.8410,W,1,07,1.2,47.1,M,9.1,M,,0000*56
$GPGSA,M,3,30,22,18,06,31,21,14,,,,,,1.8,1.2,1.4*39
$GPRMC,194937.993,A,1219.1389,S,07649.8410,W,23.37,145.28,150411,,,A*55
$GPGGA,194939.006,1219.1443,S,07649.8370,W,1,07,1.2,46.9,M,9.1,M,,0000*54
$GPGSA,M,3,30,22,18,06,31,21,14,,,,,,1.8,1.2,1.4*39
$GPRMC,194939.006,A,1219.1443,S,07649.8370,W,23.42,146.71,150411,,,A*53
$GPGGA,194939.998,1219.1496,S,07649.8338,W,1,07,1.2,46.9,M,9.1,M,,0000*5E
$GPGSA,M,3,30,22,18,06,31,21,14,,,,,,1.8,1.2,1.4*39
$GPGSV,3,1,12,30,77,237,33,22,72,052,35,16,54,214,,18,50,121,28*7C
$GPGSV,3,2,12,06,30,203,32,31,23,340,32,03,22,213,28,21,17,143,36*74
$GPGSV,3,3,12,14,14,024,36,25,08,034,36,29,07,085,33,19,03,235,32*7B
$GPRMC,194939.998,A,1219.1496,S,07649.8338,W,22.47,147.19,150411,,,A*52
$GPGGA,194941.005,1219.1549,S,07649.8298,W,1,07,1.4,47.6,M,9.1,M,,0000*5C
$GPGSA,M,3,30,22,16,18,31,21,14,,,,,,2.0,1.4,1.5*34
$GPRMC,194941.005,A,1219.1549,S,07649.8298,W,22.79,144.95,150411,,,A*52
$GPGGA,194941.996,1219.1600,S,07649.8258,W,1,08,1.1,47.0,M,9.1,M,,0000*51
$GPGSA,M,3,30,22,16,18,06,31,21,14,,,,,1.8,1.1,1.4*3D
$GPRMC,194941.996,A,1219.1600,S,07649.8258,W,22.84,142.34,150411,,,A*5C
$GPGGA,194943.002,1219.1652,S,07649.8222,W,1,06,1.3,47.2,M,9.1,M,,0000*53
$GPGSA,M,3,30,22,06,31,21,14,,,,,,,2.0,1.3,1.5*3B
$GPRMC,194943.002,A,1219.1652,S,07649.8222,W,22.20,144.82,150411,,,A*55
$GPGGA,194943.996,1219.1704,S,07649.8187,W,1,08,1.1,48.0,M,9.1,M,,0000*58
$GPGSA,M,3,30,22,16,18,06,31,21,14,,,,,1.8,1.1,1.4*3D
$GPRMC,194943.996,A,1219.1704,S,07649.8187,W,22.30,145.47,150411,,,A*56
$GPGGA,194944.999,1219.1755,S,07649.8151,W,1,07,1.2,48.6,M,9.1,M,,0000*55
$GPGSA,M,3,30,22,18,06,31,21,14,,,,,,1.8,1.2,1.4*39
$GPGSV,3,1,12,30,77,237,26,22,72,052,29,16,54,214,,18,50,121,27*7A
$GPGSV,3,2,12,06,30,203,30,31,23,340,30,03,22,213,27,21,17,143,32*7F
$GPGSV,3,3,12,14,14,024,31,25,08,034,37,29,07,085,28,19,03,235,28*7C
$GPRMC,194944.999,A,1219.1755,S,07649.8151,W,21.39,145.78,150411,,,A*57
$GPGGA,194946.004,1219.1804,S,07649.8114,W,1,07,1.2,48.6,M,9.1,M,,0000*50
$GPGSA,M,3,30,22,18,06,31,21,14,,,,,,1.8,1.2,1.4*39
$GPRMC,194946.004,A,1219.1804,S,07649.8114,W,22.44,144.71,150411,,,A*53
$GPGGA,194947.000,1219.1857,S,07649.8079,W,1,07,1.2,47.8,M,9.1,M,,0000*58
$GPGSA,M,3,30,22,18,06,31,21,14,,,,,,1.8,1.2,1.4*39
$GPRMC,194947.000,A,1219.1857,S,07649.8079,W,23.08,146.20,150411,,,A*55
$GPGGA,194947.999,1219.1911,S,07649.8042,W,1,07,1.2,47.7,M,9.1,M,,0000*55
$GPGSA,M,3,30,22,18,06,31,21,14,,,,,,1.8,1.2,1.4*39
$GPRMC,194947.999,A,1219.1911,S,07649.8042,W,23.23,145.11,150411,,,A*5F
$GPGGA,194948.998,1219.1964,S,07649.8005,W,1,07,1.2,48.4,M,9.1,M,,0000*56
$GPGSA,M,3,30,22,18,06,31,21,14,,,,,,1.8,1.2,1.4*39
$GPRMC,194948.998,A,1219.1964,S,07649.8005,W,23.48,144.45,150411,,,A*5D
$GPGGA,194950.001,1219.2018,S,07649.7964,W,1,07,1.2,49.1,M,9.1,M,,0000*52
$GPGSA,M,3,30,22,18,06,31,21,14,,,,,,1.8,1.2,1.4*39
$GPGSV,3,1,12,30,77,237,30,22,72,052,30,16,54,214,,18,50,121,30*73
$GPGSV,3,2,12,06,30,203,31,31,23,340,31,03,22,213,,21,17,143,33*7B
$GPGSV,3,3,12,14,14,024,30,25,08,034,37,29,07,085,33,19,03,235,*7D
$GPRMC,194950.001,A,1219.2018,S,07649.7964,W,23.49,146.30,150411,,,A*5C
$GPGGA,194951.000,1219.2072,S,07649.7923,W,1,07,1.2,49.6,M,9.1,M,,0000*5A
$GPGSA,M,3,30,22,18,06,31,21,14,,,,,,1.8,1.2,1.4*39
$GPRMC,194951.000,A,1219.2072,S,07649.7923,W,23.06,144.57,150411,,,A*5B
$GPGGA,194952.001,1219.2125,S,07649.7882,W,1,08,1.1,49.5,M,9.1,M,,0000*5E
$GPGSA,M,3,30,22,16,18,06,31,21,14,,,,,1.8,1.1,1.4*3D
$GPRMC,194952.001,A,1219.2125,S,07649.7882,W,23.26,146.66,150411,,,A*52
$GPGGA,194952.998,1219.2176,S,07649.7844,W,1,07,1.2,50.2,M,9.1,M,,0000*58
$GPGSA,M,3,30,22,18,06,31,21,14,,,,,,1.8,1.2,1.4*39
$GPRMC,194952.998,A,1219.2176,S,07649.7844,W,23.31,146.79,150411,,,A*5F
$GPGGA,194954.005,1219.2230,S,07649.7807,W,1,07,1.2,50.3,M,9.1,M,,0000*54
$GPGSA,M,3,30,22,18,06,31,21,14,,,,,,1.8,1.2,1.4*39
$GPRMC,194954.005,A,1219.2230,S,07649.7807,W,23.05,145.98,150411,,,A*59
$GPGGA,194954.998,1219.2284,S,07649.7767,W,1,07,1.2,51.0,M,9.1,M,,0000*5D
$GPGSA,M,3,30,22,18,06,31,21,14,,,,,,1.8,1.2,1.4*39
$GPGSV,3,1,12,30,77,237,33,22,72,052,35,16,54,214,,18,50,121,31*74
$GPGSV,3,2,12,06,30,203,32,31,23,340,34,03,22,213,31,21,17,143,35*79
$GPGSV,3,3,12,14,14,024,31,25,08,034,38,29,07,085,29,19,03,235,31*7A
$GPRMC,194954.998,A,1219.2284,S,07649.7767,W,23.95,145.26,150411,,,A*5E
$GPGGA,194956.000,1219.2340,S,07649.7727,W,1,07,1.2,51.2,M,9.1,M,,0000*58
$GPGSA,M,3,30,22,18,06,31,21,14,,,,,,1.8,1.2,1.4*39
$GPRMC,194956.000,A,1219.2340,S,07649.7727,W,23.82,145.34,150411,,,A*5C
$GPGGA,194957.006,1219.2395,S,07649.7691,W,1,07,1.2,51.5,M,9.1,M,,0000*5C
$GPGSA,M,3,30,22,18,06,31,21,14,,,,,,1.8,1.2,1.4*39
$GPRMC,194957.006,A,1219.2395,S,07649.7691,W,24.23,145.65,150411,,,A*57
$GPGGA,194957.998,1219.2451,S,07649.7652,W,1,07,1.2,51.4,M,9.1,M,,0000*53
$GPGSA,M,3,30,22,18,06,31,21,14,,,,,,1.8,1.2,1.4*39
$GPRMC,194957.998,A,1219.2451,S,07649.7652,W,24.17,145.65,150411,,,A*5E
$GPGGA,194958.997,1219.2507,S,07649.7616,W,1,07,1.2,50.6,M,9.1,M,,0000*52
$GPGSA,M,3,30,22,18,06,31,21,14,,,,,,1.8,1.2,1.4*39
$GPRMC,194958.997,A,1219.2507,S,07649.7616,W,23.88,145.92,150411,,,A*55
$GPGGA,194959.999,1219.2562,S,07649.7579,W,1,07,1.2,51.1,M,9.1,M,,0000*52
$GPGSA,M,3,30,22,18,06,31,21,14,,,,,,1.8,1.2,1.4*39
$GPGSV,3,1,12,30,77,237,30,22,72,052,32,16,54,214,,18,50,121,29*79
$GPGSV,3,2,12,06,30,203,31,31,23,340,29,03,22,213,28,21,17,143,32*79
$GPGSV,3,3,12,14,14,024,35,25,08,034,,29,07,085,34,19,03,235,30*78
$GPRMC,194959.999,A,1219.2562,S,07649.7579,W,23.66,146.68,150411,,,A*55
$GPGGA,195000.998,1219.2618,S,07649.7545,W,1,07,1.2,50.7,M,9.1,M,,0000*51
$GPGSA,M,3,30,22,18,06,31,21,14,,,,,,1.8,1.2,1.4*39
$GPRMC,195000.998,A,1219.2618,S,07649.7545,W,24.01,145.99,150411,,,A*5A
$GPGGA,195002.004,1219.2673,S,07649.7506,W,1,07,1.2,50.1,M,9.1,M,,0000*53
$GPGSA,M,3,30,22,18,06,31,21,14,,,,,,1.8,1.2,1.4*39
$GPRMC,195002.004,A,1219.2673,S,07649.7506,W,24.02,145.61,150411,,,A*5A
$GPGGA,195002.997,1219.2728,S,07649.7468,W,1,07,1.2,49.9,M,9.1,M,,0000*56
$GPGSA,M,3,30,22,18,06,31,21,14,,,,,,1.8,1.2,1.4*39
$GPRMC,195002.997,A,1219.2728,S,07649.7468,W,24.09,146.80,150411,,,A*58
$GPGGA,195004.029,1219.2786,S,07649.7429,W,0,00,,49.9,M,9.1,M,,0000*76
$GPGSA,M,1,,,,,,,,,,,,,,,*12
$GPRMC,195004.029,V,1219.2786,S,07649.7429,W,,,150411,,,N*7F
$GPGGA,195004.724,1219.2825,S,07649.7403,W,0,00,,49.8,M,9.1,M,,0000*73
$GPGSA,M,1,,,,,,,,,,,,,,,*12
$GPGSV,3,1,12,30,78,239,,22,72,053,,16,55,215,,18,50,121,*70
$GPGSV,3,2,12,06,30,202,,31,22,340,,21,16,143,,14,14,025,*7E
$GPGSV,3,3,12,25,07,034,,29,07,085,,03,22,213,,19,03,235,*70
$GPRMC,195004.724,V,1219.2825,S,07649.7403,W,,,150411,,,N*7B
$GPGGA,195005.000,1219.2840,S,07649.7393,W,0,00,,49.8,M,9.1,M,,0000*7E
$GPGSA,M,1,,,,,,,,,,,,,,,*12
$GPGSV,3,1,12,30,78,239,,22,72,053,,16,55,215,,18,50,121,*70
$GPGSV,3,2,12,06,30,202,,31,22,340,,21,16,143,,14,14,025,*7E
$GPGSV,3,3,12,25,07,034,,29,07,085,,03,22,213,,19,03,235,*70
$GPRMC,195005.000,V,1219.2840,S,07649.7393,W,,,150411,,,N*76
$GPGGA,195006.000,1219.2896,S,07649.7355,W,0,00,,49.8,M,9.1,M,,0000*7C
$GPGSA,M,1,,,,,,,,,,,,,,,*12
$GPRMC,195006.000,V,1219.2896,S,07649.7355,W,,,150411,,,N*74
$GPGGA,195007.000,1219.2947,S,07649.7325,W,1,05,2.5,51.7,M,9.1,M,,0000*5C
$GPGSA,M,3,18,31,30,22,21,,,,,,,,3.0,2.5,1.6*36
$GPRMC,195007.000,A,1219.2947,S,07649.7325,W,24.04,144.20,150411,,,A*56
$GPGGA,195008.000,1219.3002,S,07649.7299,W,1,05,2.5,55.1,M,9.1,M,,0000*5E
$GPGSA,M,3,18,31,30,22,21,,,,,,,,3.0,2.5,1.6*36
$GPRMC,195008.000,A,1219.3002,S,07649.7299,W,24.09,146.10,150411,,,A*5A
$GPGGA,195009.000,1219.3053,S,07649.7265,W,1,05,2.5,55.3,M,9.1,M,,0000*5A
$GPGSA,M,3,18,31,30,22,21,,,,,,,,3.0,2.5,1.6*36
$GPRMC,195009.000,A,1219.3053,S,07649.7265,W,23.97,145.77,150411,,,A*5E
$GPGGA,195010.000,1219.3109,S,07649.7227,W,1,05,2.5,55.5,M,9.1,M,,0000*5C
$GPGSA,M,3,18,31,30,22,21,,,,,,,,3.0,2.5,1.6*36
$GPGSV,3,1,12,30,78,239,31,22,72,053,34,16,55,215,,18,50,121,34*72
$GPGSV,3,2,12,06,30,202,,31,22,340,32,21,16,143,37,14,14,025,*7B
$GPGSV,3,3,12,25,07,034,45,29,07,085,39,03,22,213,26,19,03,235,29*74
$GPRMC,195010.000,A,1219.3109,S,07649.7227,W,23.94,145.47,150411,,,A*5E
$GPGGA,195011.000,1219.3160,S,07649.7190,W,1,05,2.5,54.3,M,9.1,M,,0000*5A
$GPGSA,M,3,18,31,30,22,21,,,,,,,,3.0,2.5,1.6*36
$GPRMC,195011.000,A,1219.3160,S,07649.7190,W,23.80,145.56,150411,,,A*5A
$GPGGA,195012.000,1219.3213,S,07649.7152,W,1,05,2.5,53.8,M,9.1,M,,0000*5C
$GPGSA,M,3,18,31,30,22,21,,,,,,,,3.0,2.5,1.6*36
$GPRMC,195012.000,A,1219.3213,S,07649.7152,W,23.66,146.02,150411,,,A*5A
$GPGGA,195013.000,1219.3268,S,07649.7114,W,1,05,2.5,53.8,M,9.1,M,,0000*53
$GPGSA,M,3,18,31,30,22,21,,,,,,,,3.0,2.5,1.6*36
$GPRMC,195013.000,A,1219.3268,S,07649.7114,W,23.50,146.55,150411,,,A*52
$GPGGA,195014.000,1219.3323,S,07649.7073,W,1,05,2.5,54.0,M,9.1,M,,0000*55
$GPGSA,M,3,18,31,30,22,21,,,,,,,,3.0,2.5,1.6*36
$GPRMC,195014.000,A,1219.3323,S,07649.7073,W,23.45,146.42,150411,,,A*59
$GPGGA,195015.000,1219.3378,S,07649.7035,W,1,05,2.5,54.2,M,9.1,M,,0000*5A
$GPGSA,M,3,18,31,30,22,21,,,,,,,,3.0,2.5,1.6*36
$GPGSV,3,1,12,30,78,239,31,22,72,053,34,16,55,215,,18,50,121,33*75
$GPGSV,3,2,12,06,30,202,,31,22,340,32,21,16,143,36,14,14,025,*7A
$GPGSV,3,3,12,25,07,034,42,29,07,085,29,03,22,213,26,19,03,235,*79
$GPRMC,195015.000,A,1219.3378,S,07649.7035,W,23.41,146.42,150411,,,A*50
$GPGGA,195016.000,1219.3431,S,07649.6997,W,1,06,1.6,54.1,M,9.1,M,,0000*53
$GPGSA,M,3,18,31,30,22,21,16,,,,,,,2.2,1.6,1.6*32
$GPRMC,195016.000,A,1219.3431,S,07649.6997,W,23.24,146.63,150411,,,A*59
$GPGGA,195017.000,1219.3483,S,07649.6959,W,1,08,1.1,54.2,M,9.1,M,,0000*53
$GPGSA,M,3,18,31,30,22,21,16,06,14,,,,,1.8,1.1,1.4*3D
$GPRMC,195017.000,A,1219.3483,S,07649.6959,W,23.31,146.28,150411,,,A*58
$GPGGA,195018.006,1219.3537,S,07649.6924,W,1,07,1.2,54.0,M,9.1,M,,0000*50
$GPGSA,M,3,30,22,18,06,31,21,14,,,,,,1.8,1.2,1.4*39
$GPRMC,195018.006,A,1219.3537,S,07649.6924,W,22.18,147.22,150411,,,A*54
$GPGGA,195018.995,1219.3588,S,07649.6887,W,1,07,1.2,53.9,M,9.1,M,,0000*51
$GPGSA,M,3,30,22,18,06,31,21,14,,,,,,1.8,1.2,1.4*39
$GPRMC,195018.995,A,1219.3588,S,07649.6887,W,23.00,144.93,150411,,,A*5A
$GPGGA,195019.999,1219.3643,S,07649.6852,W,1,07,1.2,53.8,M,9.1,M,,0000*51
$GPGSA,M,3,30,22,18,06,31,21,14,,,,,,1.8,1.2,1.4*39
$GPGSV,3,1,12,30,78,239,29,22,72,053,34,16,55,215,,18,50,121,33*7C
$GPGSV,3,2,12,06,30,202,32,31,22,340,33,03,22,213,28,21,16,143,35*77
$GPGSV,3,3,12,14,14,025,31,25,07,034,,29,07,085,35,19,03,235,30*73
$GPRMC,195019.999,A,1219.3643,S,07649.6852,W,23.14,145.69,150411,,,A*5A
$GPGGA,195021.003,1219.3697,S,07649.6813,W,1,07,1.2,53.9,M,9.1,M,,0000*5D
$GPGSA,M,3,30,22,18,06,31,21,14,,,,,,1.8,1.2,1.4*39
$GPRMC,195021.003,A,1219.3697,S,07649.6813,W,23.66,145.17,150411,,,A*5B
$GPGGA,195021.997,1219.3750,S,07649.6777,W,1,07,1.2,53.9,M,9.1,M,,0000*5E
$GPGSA,M,3,30,22,18,06,31,21,14,,,,,,1.8,1.2,1.4*39
$GPRMC,195021.997,A,1219.3750,S,07649.6777,W,23.09,146.47,150411,,,A*57
$GPGGA,195023.001,1219.3803,S,07649.6742,W,1,07,1.2,54.1,M,9.1,M,,0000*5A
$GPGSA,M,3,30,22,18,06,31,21,14,,,,,,1.8,1.2,1.4*39
$GPRMC,195023.001,A,1219.3803,S,07649.6742,W,22.45,146.12,150411,,,A*55
$GPGGA,195023.998,1219.3855,S,07649.6707,W,1,07,1.2,54.4,M,9.1,M,,0000*54
$GPGSA,M,3,30,22,18,06,31,21,14,,,,,,1.8,1.2,1.4*39
$GPRMC,195023.998,A,1219.3855,S,07649.6707,W,22.77,145.83,150411,,,A*54
$GPGGA,195025.004,1219.3906,S,07649.6668,W,1,07,1.2,54.6,M,9.1,M,,0000*53
$GPGSA,M,3,30,22,18,06,31,21,14,,,,,,1.8,1.2,1.4*39
$GPGSV,3,1,12,30,78,239,27,22,72,053,30,16,55,215,,18,50,121,32*77
$GPGSV,3,2,12,06,30,202,29,31,22,340,30,03,22,213,,21,16,143,34*75
$GPGSV,3,3,12,14,14,025,29,25,07,034,37,29,07,085,35,19,03,235,*7D
$GPRMC,195025.004,A,1219.3906,S,07649.6668,W,22.61,144.88,150411,,,A*5C
$GPGGA,195025.995,1219.3957,S,07649.6633,W,1,06,1.4,54.6,M,9.1,M,,0000*5F
$GPGSA,M,3,30,22,18,06,31,21,,,,,,,2.1,1.4,1.6*32
$GPRMC,195025.995,A,1219.3957,S,07649.6633,W,22.13,147.46,150411,,,A*53
$GPGGA,195027.006,1219.4010,S,07649.6600,W,1,07,1.2,54.6,M,9.1,M,,0000*54
$GPGSA,M,3,30,22,18,06,31,21,14,,,,,,1.8,1.2,1.4*39
$GPRMC,195027.006,A,1219.4010,S,07649.6600,W,22.34,148.52,150411,,,A*50
$GPGGA,195027.995,1219.4059,S,07649.6560,W,1,07,1.2,54.7,M,9.1,M,,0000*5E
$GPGSA,M,3,30,22,18,06,31,21,14,,,,,,1.8,1.2,1.4*39
$GPRMC,195027.995,A,1219.4059,S,07649.6560,W,21.70,143.66,150411,,,A*54
$GPGGA,195029.005,1219.4111,S,07649.6525,W,1,07,1.2,54.4,M,9.1,M,,0000*5F
$GPGSA,M,3,30,22,18,06,31,21,14,,,,,,1.8,1.2,1.4*39
$GPRMC,195029.005,A,1219.4111,S,07649.6525,W,22.21,145.99,150411,,,A*57
$GPGGA,195029.998,1219.4162,S,07649.6491,W,1,07,1.2,55.0,M,9.1,M,,0000*5D
$GPGSA,M,3,30,22,18,06,31,21,14,,,,,,1.8,1.2,1.4*39
$GPGSV,3,1,12,30,78,239,31,22,72,053,35,16,55,215,,18,50,121,33*74
$GPGSV,3,2,12,06,30,202,31,31,22,340,33,03,22,213,,21,16,143,35*7E
$GPGSV,3,3,12,14,14,025,22,25,07,034,37,29,07,085,,19,03,235,30*73
$GPRMC,195029.998,A,1219.4162,S,07649.6491,W,22.07,145.31,150411,,,A*56
$GPGGA,195031.003,1219.4211,S,07649.6450,W,1,07,1.3,54.8,M,9.1,M,,0000*5D
$GPGSA,M,3,30,22,16,18,06,31,21,,,,,,2.0,1.3,1.5*30
$GPRMC,195031.003,A,1219.4211,S,07649.6450,W,22.90,145.45,150411,,,A*53
$GPGGA,195031.999,1219.4265,S,07649.6417,W,1,07,1.2,54.5,M,9.1,M,,0000*5B
$GPGSA,M,3,30,22,18,06,31,21,14,,,,,,1.8,1.2,1.4*39
$GPRMC,195031.999,A,1219.4265,S,07649.6417,W,22.79,146.33,150411,,,A*5C
$GPGGA,195032.999,1219.4319,S,07649.6382,W,1,07,1.2,54.8,M,9.1,M,,0000*54
$GPGSA,M,3,30,22,18,06,31,21,14,,,,,,1.8,1.2,1.4*39
$GPRMC,195032.999,A,1219.4319,S,07649.6382,W,22.74,146.94,150411,,,A*5E
$GPGGA,195034.001,1219.4372,S,07649.6347,W,1,07,1.2,55.0,M,9.1,M,,0000*57
$GPGSA,M,3,30,22,18,06,31,21,14,,,,,,1.8,1.2,1.4*39
$GPRMC,195034.001,A,1219.4372,S,07649.6347,W,22.31,146.47,150411,,,A*5B
$GPGGA,195034.999,1219.4423,S,07649.6307,W,1,06,1.4,55.6,M,9.1,M,,0000*59
$GPGSA,M,3,30,22,18,06,31,21,,,,,,,2.1,1.4,1.6*32
$GPGSV,3,1,12,30,78,239,27,22,72,053,33,16,55,215,,18,50,121,27*70
$GPGSV,3,2,12,06,30,202,30,31,22,340,31,03,22,213,,21,16,143,33*7B
$GPGSV,3,3,12,14,14,025,,25,07,034,,29,07,085,,19,03,235,*74
$GPRMC,195034.999,A,1219.4423,S,07649.6307,W,22.66,143.70,150411,,,A*57
$GPGGA,195036.001,1219.4477,S,07649.6274,W,1,08,1.1,54.8,M,9.1,M,,0000*53
$GPGSA,M,3,30,22,16,18,06,31,21,14,,,,,1.8,1.1,1.4*3D
$GPRMC,195036.001,A,1219.4477,S,07649.6274,W,23.18,147.12,150411,,,A*51
$GPGGA,195036.999,1219.4531,S,07649.6238,W,1,07,1.2,55.0,M,9.1,M,,0000*55
$GPGSA,M,3,30,22,18,06,31,21,14,,,,,,1.8,1.2,1.4*39
$GPRMC,195036.999,A,1219.4531,S,07649.6238,W,22.82,146.80,150411,,,A*5A
$GPGGA,195037.999,1219.4585,S,07649.6201,W,1,07,1.3,54.7,M,9.1,M,,0000*56
$GPGSA,M,3,30,22,16,18,06,31,21,,,,,,2.0,1.3,1.5*30
$GPRMC,195037.999,A,1219.4585,S,07649.6201,W,23.16,147.01,150411,,,A*5A
$GPGGA,195038.998,1219.4641,S,07649.6165,W,1,07,1.2,54.6,M,9.1,M,,0000*52
$GPGSA,M,3,30,22,18,06,31,21,14,,,,,,1.8,1.2,1.4*39
$GPRMC,195038.998,A,1219.4641,S,07649.6165,W,23.83,146.77,150411,,,A*52
$GPGGA,195040.005,1219.4696,S,07649.6128,W,1,07,1.3,53.8,M,9.1,M,,0000*5B
$GPGSA,M,3,30,22,16,18,06,31,21,,,,,,2.0,1.3,1.5*30
$GPGSV,3,1,12,30,78,239,28,22,72,053,32,16,55,215,21,18,50,121,29*73
$GPGSV,3,2,12,06,30,202,29,31,22,340,28,03,22,213,,21,16,143,33*7B
$GPGSV,3,3,12,14,14,025,,25,07,034,,29,07,085,31,19,03,235,*76
$GPRMC,195040.005,A,1219.4696,S,07649.6128,W,23.79,146.60,150411,,,A*50
$GPGGA,195040.997,1219.4751,S,07649.6093,W,1,07,1.2,53.2,M,9.1,M,,0000*59
$GPGSA,M,3,30,22,18,06,31,21,14,,,,,,1.8,1.2,1.4*39
$GPRMC,195040.997,A,1219.4751,S,07649.6093,W,23.89,146.01,150411,,,A*51
$GPGGA,195042.000,1219.4807,S,07649.6054,W,1,07,1.2,53.2,M,9.1,M,,0000*5B
$GPGSA,M,3,30,22,18,06,31,21,14,,,,,,1.8,1.2,1.4*39
$GPRMC,195042.000,A,1219.4807,S,07649.6054,W,23.82,147.76,150411,,,A*59
$GPGGA,195042.999,1219.4864,S,07649.6015,W,1,07,1.2,52.7,M,9.1,M,,0000*56
$GPGSA,M,3,30,22,18,06,31,21,14,,,,,,1.8,1.2,1.4*39
$GPRMC,195042.999,A,1219.4864,S,07649.6015,W,24.55,145.81,150411,,,A*57
$GPGGA,195044.005,1219.4918,S,07649.5973,W,1,07,1.4,52.7,M,9.1,M,,0000*5A
$GPGSA,M,3,30,22,16,18,06,21,14,,,,,,2.0,1.4,1.5*30
$GPRMC,195044.005,A,1219.4918,S,07649.5973,W,23.25,146.29,150411,,,A*5C
$GPGGA,195044.997,1219.4973,S,07649.5943,W,1,08,1.1,52.6,M,9.1,M,,0000*5D
$GPGSA,M,3,30,22,16,18,06,31,21,14,,,,,1.8,1.1,1.4*3D
$GPGSV,3,1,12,30,78,239,30,22,72,053,34,16,55,215,26,18,50,121,34*77
$GPGSV,3,2,12,06,30,202,33,31,22,340,26,03,22,213,30,21,16,143,36*78
$GPGSV,3,3,12,14,14,025,33,25,07,034,34,29,07,085,32,19,03,235,*72
$GPRMC,195044.997,A,1219.4973,S,07649.5943,W,23.17,147.57,150411,,,A*59
$GPGGA,195046.000,1219.5026,S,07649.5907,W,1,05,4.3,52.8,M,9.1,M,,0000*54
$GPGSA,M,3,30,22,18,06,21,,,,,,,,7.3,4.3,5.9*3E
$GPRMC,195046.000,A,1219.5026,S,07649.5907,W,22.49,147.76,150411,,,A*5D
$GPGGA,195046.998,1219.5080,S,07649.5877,W,1,08,1.1,51.9,M,9.1,M,,0000*5E
$GPGSA,M,3,30,22,16,18,06,31,21,14,,,,,1.8,1.1,1.4*3D
$GPRMC,195046.998,A,1219.5080,S,07649.5877,W,21.98,146.75,150411,,,A*52
$GPGGA,195048.003,1219.5129,S,07649.5842,W,1,07,1.2,51.3,M,9.1,M,,0000*59
$GPGSA,M,3,30,22,18,06,31,21,14,,,,,,1.8,1.2,1.4*39
$GPRMC,195048.003,A,1219.5129,S,07649.5842,W,21.59,145.35,150411,,,A*59
$GPGGA,195049.000,1219.5174,S,07649.5808,W,1,08,1.1,50.1,M,9.1,M,,0000*52
$GPGSA,M,3,30,22,16,18,06,31,21,14,,,,,1.8,1.1,1.4*3D
$GPRMC,195049.000,A,1219.5174,S,07649.5808,W,20.60,143.41,150411,,,A*53
$GPGGA,195050.000,1219.5221,S,07649.5775,W,1,04,3.4,49.9,M,9.1,M,,0000*57
$GPGSA,M,3,30,22,21,14,,,,,,,,,4.3,3.4,2.6*3F
$GPGSV,3,1,12,30,78,239,28,22,72,053,34,16,55,215,,18,50,121,*7D
$GPGSV,3,2,12,06,30,202,,31,22,340,,03,22,213,31,21,16,143,33*78
$GPGSV,3,3,12,14,14,025,30,25,07,034,31,29,07,085,,19,03,235,31*77
$GPRMC,195050.000,A,1219.5221,S,07649.5775,W,20.27,145.61,150411,,,A*5A
$GPGGA,195051.005,1219.5272,S,07649.5741,W,1,07,1.2,49.6,M,9.1,M,,0000*5A
$GPGSA,M,3,30,22,18,06,31,21,14,,,,,,1.8,1.2,1.4*39
$GPRMC,195051.005,A,1219.5272,S,07649.5741,W,22.13,144.70,150411,,,A*5B
$GPGGA,195051.995,1219.5323,S,07649.5704,W,1,06,1.8,50.0,M,9.1,M,,0000*5B
$GPGSA,M,3,30,22,18,31,21,14,,,,,,,2.3,1.8,1.5*3C
$GPRMC,195051.995,A,1219.5323,S,07649.5704,W,22.54,145.19,150411,,,A*52
$GPGGA,195053.001,1219.5376,S,07649.5670,W,1,07,1.2,49.3,M,9.1,M,,0000*5F
$GPGSA,M,3,30,22,18,06,31,21,14,,,,,,1.8,1.2,1.4*39
$GPRMC,195053.001,A,1219.5376,S,07649.5670,W,22.03,145.65,150411,,,A*5F
$GPGGA,195053.999,1219.5429,S,07649.5635,W,1,06,1.5,48.4,M,9.1,M,,0000*5B
$GPGSA,M,3,30,22,18,06,21,14,,,,,,,2.1,1.5,1.5*37
$GPRMC,195053.999,A,1219.5429,S,07649.5635,W,23.28,144.63,150411,,,A*54
$GPGGA,195054.998,1219.5484,S,07649.5597,W,1,06,1.5,47.6,M,9.1,M,,0000*5C
$GPGSA,M,3,30,22,18,06,21,14,,,,,,,2.1,1.5,1.5*37
$GPGSV,3,1,12,30,78,239,31,22,72,053,35,16,55,215,,18,50,121,31*76
$GPGSV,3,2,12,06,30,202,30,31,22,340,,03,22,213,27,21,16,143,36*79
$GPGSV,3,3,12,14,14,025,35,25,07,034,30,29,07,085,38,19,03,235,27*7F
$GPRMC,195054.998,A,1219.5484,S,07649.5597,W,23.34,146.55,150411,,,A*54
$GPGGA,195056.003,1219.5539,S,07649.5562,W,1,05,1.6,47.6,M,9.1,M,,0000*58
$GPGSA,M,3,22,18,06,21,14,,,,,,,,2.3,1.6,1.7*37
$GPRMC,195056.003,A,1219.5539,S,07649.5562,W,23.26,148.22,150411,,,A*5D
$GPGGA,195056.999,1219.5593,S,07649.5523,W,1,07,1.2,48.2,M,9.1,M,,0000*5A
$GPGSA,M,3,30,22,18,06,31,21,14,,,,,,1.8,1.2,1.4*39
$GPRMC,195056.999,A,1219.5593,S,07649.5523,W,23.19,145.89,150411,,,A*52
$GPGGA,195058.004,1219.5646,S,07649.5482,W,1,07,1.2,47.9,M,9.1,M,,0000*5C
$GPGSA,M,3,30,22,18,06,31,21,14,,,,,,1.8,1.2,1.4*39
$GPRMC,195058.004,A,1219.5646,S,07649.5482,W,22.97,145.10,150411,,,A*57
$GPGGA,195058.996,1219.5698,S,07649.5441,W,1,07,1.2,47.9,M,9.1,M,,0000*52
$GPGSA,M,3,30,22,18,06,31,21,14,,,,,,1.8,1.2,1.4*39
$GPRMC,195058.996,A,1219.5698,S,07649.5441,W,22.70,147.26,150411,,,A*57
$GPGGA,195100.001,1219.5750,S,07649.5402,W,1,06,1.5,48.0,M,9.1,M,,0000*5B
$GPGSA,M,3,30,22,18,06,21,14,,,,,,,2.1,1.5,1.5*37
$GPGSV,3,1,12,30,78,239,31,22,72,053,35,16,55,215,,18,50,121,30*77
$GPGSV,3,2,12,06,30,202,32,31,22,340,,03,22,213,25,21,16,143,35*7A
$GPGSV,3,3,12,14,14,025,34,25,07,034,35,29,07,085,36,19,03,235,*70
$GPRMC,195100.001,A,1219.5750,S,07649.5402,W,22.36,146.14,150411,,,A*5C
$GPGGA,195100.998,1219.5803,S,07649.5369,W,1,07,1.2,47.7,M,9.1,M,,0000*5F
$GPGSA,M,3,30,22,18,06,31,21,14,,,,,,1.8,1.2,1.4*39
$GPRMC,195100.998,A,1219.5803,S,07649.5369,W,22.37,147.58,150411,,,A*5E
$GPGGA,195102.000,1219.5857,S,07649.5334,W,1,07,1.2,47.6,M,9.1,M,,0000*5D
$GPGSA,M,3,30,22,18,06,31,21,14,,,,,,1.8,1.2,1.4*39
$GPRMC,195102.000,A,1219.5857,S,07649.5334,W,22.19,146.96,150411,,,A*52
$GPGGA,195103.001,1219.5910,S,07649.5299,W,1,06,1.5,47.0,M,9.1,M,,0000*59
$GPGSA,M,3,30,22,18,06,21,14,,,,,,,2.1,1.5,1.5*37
$GPRMC,195103.001,A,1219.5910,S,07649.5299,W,22.88,146.34,150411,,,A*56
$GPGGA,195104.000,1219.5965,S,07649.5264,W,1,06,1.5,46.7,M,9.1,M,,0000*59
$GPGSA,M,3,30,22,18,06,21,14,,,,,,,2.1,1.5,1.5*37
$GPRMC,195104.000,A,1219.5965,S,07649.5264,W,23.30,147.01,150411,,,A*55
$GPGGA,195105.002,1219.6021,S,07649.5225,W,1,06,1.5,46.7,M,9.1,M,,0000*55
$GPGSA,M,3,30,22,18,06,21,14,,,,,,,2.1,1.5,1.5*37
$GPGSV,3,1,12,30,78,239,29,22,72,053,30,16,55,215,,18,50,121,28*72
$GPGSV,3,2,12,06,30,202,28,31,22,340,,03,22,213,26,21,16,143,33*74
$GPGSV,3,3,12,14,14,025,32,25,07,034,29,29,07,085,32,19,03,235,*7F
$GPRMC,195105.002,A,1219.6021,S,07649.5225,W,23.44,147.16,150411,,,A*5C
$GPGGA,195105.998,1219.6074,S,07649.5188,W,1,07,1.2,46.4,M,9.1,M,,0000*5E
$GPGSA,M,3,30,22,18,06,31,21,14,,,,,,1.8,1.2,1.4*39
$GPRMC,195105.998,A,1219.6074,S,07649.5188,W,22.92,146.06,150411,,,A*58
$GPGGA,195107.008,1219.6129,S,07649.5157,W,1,06,1.5,45.9,M,9.1,M,,0000*5F
$GPGSA,M,3,30,22,18,06,21,14,,,,,,,2.1,1.5,1.5*37
$GPRMC,195107.008,A,1219.6129,S,07649.5157,W,22.27,149.32,150411,,,A*57
$GPGGA,195107.995,1219.6182,S,07649.5128,W,1,08,1.1,46.1,M,9.1,M,,0000*5A
$GPGSA,M,3,30,22,16,18,06,31,21,14,,,,,1.8,1.1,1.4*3D
$GPRMC,195107.995,A,1219.6182,S,07649.5128,W,22.12,146.78,150411,,,A*54
$GPGGA,195108.999,1219.6237,S,07649.5095,W,1,07,1.2,46.2,M,9.1,M,,0000*5C
$GPGSA,M,3,30,22,18,06,31,21,14,,,,,,1.8,1.2,1.4*39
$GPRMC,195108.999,A,1219.6237,S,07649.5095,W,21.71,147.96,150411,,,A*5A
$GPGGA,195110.000,1219.6288,S,07649.5061,W,1,08,1.1,45.6,M,9.1,M,,0000*58
$GPGSA,M,3,30,22,16,18,06,31,21,14,,,,,1.8,1.1,1.4*3D
$GPGSV,3,1,12,30,78,239,31,22,72,053,36,16,55,215,22,18,50,121,31*75
$GPGSV,3,2,12,06,30,202,31,31,22,340,31,03,22,213,22,21,16,143,35*7C
$GPGSV,3,3,12,14,14,025,32,25,07,034,38,29,07,085,27,19,03,235,27*7E
$GPRMC,195110.000,A,1219.6288,S,07649.5061,W,22.19,148.16,150411,,,A*5F
$GPGGA,195111.001,1219.6339,S,07649.5025,W,1,07,1.2,44.9,M,9.1,M,,0000*51
$GPGSA,M,3,30,22,18,06,31,21,14,,,,,,1.8,1.2,1.4*39
$GPRMC,195111.001,A,1219.6339,S,07649.5025,W,22.04,145.86,150411,,,A*5C
$GPGGA,195111.999,1219.6390,S,07649.4993,W,1,08,1.1,44.5,M,9.1,M,,0000*5F
$GPGSA,M,3,30,22,16,18,06,31,21,14,,,,,1.8,1.1,1.4*3D
$GPRMC,195111.999,A,1219.6390,S,07649.4993,W,21.41,148.03,150411,,,A*50
$GPGGA,195113.001,1219.6441,S,07649.4956,W,1,07,1.2,43.8,M,9.1,M,,0000*51
$GPGSA,M,3,30,22,18,06,31,21,14,,,,,,1.8,1.2,1.4*39
$GPRMC,195113.001,A,1219.6441,S,07649.4956,W,21.79,145.13,150411,,,A*5F
$GPGGA,195113.999,1219.6490,S,07649.4918,W,1,07,1.2,43.9,M,9.1,M,,0000*5E
$GPGSA,M,3,30,22,18,06,31,21,14,,,,,,1.8,1.2,1.4*39
$GPRMC,195113.999,A,1219.6490,S,07649.4918,W,22.04,144.62,150411,,,A*5F
$GPGGA,195114.998,1219.6540,S,07649.4881,W,1,07,1.2,44.3,M,9.1,M,,0000*58
$GPGSA,M,3,30,22,18,06,31,21,14,,,,,,1.8,1.2,1.4*39
$GPGSV,3,1,12,30,78,239,30,22,72,053,34,16,55,215,,18,50,121,32*75
$GPGSV,3,2,12,06,30,202,34,31,22,340,30,03,22,213,27,21,16,143,36*7E
$GPGSV,3,3,12,14,14,025,36,25,07,034,35,29,07,085,33,19,03,235,27*72
$GPRMC,195114.998,A,1219.6540,S,07649.4881,W,21.77,146.53,150411,,,A*53
$GPGGA,195116.004,1219.6588,S,07649.4847,W,1,07,1.2,43.6,M,9.1,M,,0000*5A
$GPGSA,M,3,30,22,18,06,31,21,14,,,,,,1.8,1.2,1.4*39
$GPRMC,195116.004,A,1219.6588,S,07649.4847,W,21.79,146.47,150411,,,A*58
$GPGGA,195116.997,1219.6641,S,07649.4812,W,1,06,1.5,43.3,M,9.1,M,,0000*5C
$GPGSA,M,3,30,22,18,06,21,14,,,,,,,2.1,1.5,1.5*37
$GPRMC,195116.997,A,1219.6641,S,07649.4812,W,22.66,144.95,150411,,,A*5D
$GPGGA,195118.001,1219.6691,S,07649.4776,W,1,07,1.2,42.5,M,9.1,M,,0000*55
$GPGSA,M,3,30,22,18,06,31,21,14,,,,,,1.8,1.2,1.4*39
$GPRMC,195118.001,A,1219.6691,S,07649.4776,W,21.89,146.41,150411,,,A*5C
$GPGGA,195119.001,1219.6741,S,07649.4743,W,1,07,1.2,41.9,M,9.1,M,,0000*51
$GPGSA,M,3,30,22,18,06,31,21,14,,,,,,1.8,1.2,1.4*39
$GPRMC,195119.001,A,1219.6741,S,07649.4743,W,22.20,146.36,150411,,,A*57
$GPGGA,195120.007,1219.6795,S,07649.4706,W,1,06,1.5,41.3,M,9.1,M,,0000*59
$GPGSA,M,3,30,22,18,06,21,14,,,,,,,2.1,1.5,1.5*37
$GPGSV,3,1,12,30,78,239,28,22,72,053,31,16,55,215,,18,50,121,28*72
$GPGSV,3,2,12,06,30,202,30,31,22,340,,03,22,213,,21,16,143,32*78
$GPGSV,3,3,12,14,14,025,33,25,07,034,36,29,07,085,32,19,03,235,*70
$GPRMC,195120.007,A,1219.6795,S,07649.4706,W,22.35,144.24,150411,,,A*56
$GPGGA,195120.993,1219.6845,S,07649.4670,W,1,06,1.5,41.5,M,9.1,M,,0000*59
$GPGSA,M,3,30,22,18,06,21,14,,,,,,,2.1,1.5,1.5*37
$GPRMC,195120.993,A,1219.6845,S,07649.4670,W,22.05,145.70,150411,,,A*53
$GPGGA,195122.000,1219.6898,S,07649.4632,W,1,07,1.2,41.6,M,9.1,M,,0000*5B
$GPGSA,M,3,30,22,18,06,31,21,14,,,,,,1.8,1.2,1.4*39
$GPRMC,195122.000,A,1219.6898,S,07649.4632,W,22.26,145.66,150411,,,A*52
$GPGGA,195122.999,1219.6949,S,07649.4597,W,1,07,1.2,42.3,M,9.1,M,,0000*55
$GPGSA,M,3,30,22,18,06,31,21,14,,,,,,1.8,1.2,1.4*39
$GPRMC,195122.999,A,1219.6949,S,07649.4597,W,22.23,145.85,150411,,,A*52
$GPGGA,195124.002,1219.7000,S,07649.4561,W,1,06,1.5,42.2,M,9.1,M,,0000*53
$GPGSA,M,3,30,22,18,06,21,14,,,,,,,2.1,1.5,1.5*37
$GPRMC,195124.002,A,1219.7000,S,07649.4561,W,21.63,147.89,150411,,,A*5A
$GPGGA,195125.001,1219.7048,S,07649.4527,W,1,07,1.2,42.2,M,9.1,M,,0000*59
$GPGSA,M,3,30,22,18,06,31,21,14,,,,,,1.8,1.2,1.4*39
$GPGSV,3,1,12,30,78,239,32,22,72,053,35,16,55,215,,18,50,121,34*70
$GPGSV,3,2,12,06,30,202,28,31,22,340,33,03,22,213,27,21,16,143,34*72
$GPGSV,3,3,12,14,14,025,31,25,07,034,36,29,07,085,38,19,03,235,28*72
$GPRMC,195125.001,A,1219.7048,S,07649.4527,W,21.87,143.92,150411,,,A*52
$GPGGA,195126.000,1219.7100,S,07649.4493,W,1,05,1.8,42.4,M,9.1,M,,0000*56
$GPGSA,M,3,30,22,06,21,14,,,,,,,,2.5,1.8,1.7*35
$GPRMC,195126.000,A,1219.7100,S,07649.4493,W,22.68,148.15,150411,,,A*55
$GPGGA,195127.004,1219.7154,S,07649.4462,W,1,08,1.1,42.5,M,9.1,M,,0000*59
$GPGSA,M,3,30,22,16,18,06,31,21,14,,,,,1.8,1.1,1.4*3D
$GPRMC,195127.004,A,1219.7154,S,07649.4462,W,22.61,147.93,150411,,,A*57
$GPGGA,195127.998,1219.7206,S,07649.4427,W,1,07,1.2,42.3,M,9.1,M,,0000*5A
$GPGSA,M,3,30,22,18,06,31,21,14,,,,,,1.8,1.2,1.4*39
$GPRMC,195127.998,A,1219.7206,S,07649.4427,W,22.36,146.47,150411,,,A*54
$GPGGA,195129.000,1219.7258,S,07649.4391,W,1,07,1.2,42.1,M,9.1,M,,0000*5F
$GPGSA,M,3,30,22,18,06,31,21,14,,,,,,1.8,1.2,1.4*39
$GPRMC,195129.000,A,1219.7258,S,07649.4391,W,22.39,145.63,150411,,,A*59
$GPGGA,195129.998,1219.7310,S,07649.4354,W,1,07,1.2,42.3,M,9.1,M,,0000*51
$GPGSA,M,3,30,22,18,06,31,21,14,,,,,,1.8,1.2,1.4*39
$GPGSV,3,1,12,30,78,239,31,22,72,053,34,16,55,215,,18,50,121,33*75
$GPGSV,3,2,12,06,30,202,31,31,22,340,31,03,22,213,24,21,16,143,35*7A
$GPGSV,3,3,12,14,14,025,34,25,07,034,36,29,07,085,35,19,03,235,*70
$GPRMC,195129.998,A,1219.7310,S,07649.4354,W,23.06,146.28,150411,,,A*54
$GPGGA,195131.003,1219.7364,S,07649.4315,W,1,07,1.2,42.3,M,9.1,M,,0000*55
$GPGSA,M,3,30,22,18,06,31,21,14,,,,,,1.8,1.2,1.4*39
$GPRMC,195131.003,A,1219.7364,S,07649.4315,W,22.77,145.68,150411,,,A*50
$GPGGA,195131.996,1219.7415,S,07649.4283,W,1,07,1.2,42.1,M,9.1,M,,0000*5D
$GPGSA,M,3,30,22,18,06,31,21,14,,,,,,1.8,1.2,1.4*39
$GPRMC,195131.996,A,1219.7415,S,07649.4283,W,22.32,144.80,150411,,,A*5C
$GPGGA,195133.003,1219.7469,S,07649.4242,W,1,07,1.2,42.0,M,9.1,M,,0000*5D
$GPGSA,M,3,30,22,18,06,31,21,14,,,,,,1.8,1.2,1.4*39
$GPRMC,195133.003,A,1219.7469,S,07649.4242,W,23.26,145.32,150411,,,A*51
$GPGGA,195133.996,1219.7524,S,07649.4210,W,1,07,1.2,42.0,M,9.1,M,,0000*57
$GPGSA,M,3,30,22,18,06,31,21,14,,,,,,1.8,1.2,1.4*39
$GPRMC,195133.996,A,1219.7524,S,07649.4210,W,22.89,147.46,150411,,,A*5E
$GPGGA,195135.004,1219.7578,S,07649.4175,W,1,07,1.2,41.8,M,9.1,M,,0000*51
$GPGSA,M,3,30,22,18,06,31,21,14,,,,,,1.8,1.2,1.4*39
$GPGSV,3,1,12,30,78,239,27,22,72,053,32,16,55,215,,18,50,121,28*7E
$GPGSV,3,2,12,06,30,202,28,31,22,340,29,03,22,213,,21,16,143,34*7C
$GPGSV,3,3,12,14,14,025,29,25,07,034,27,29,07,085,30,19,03,235,*79
$GPRMC,195135.004,A,1219.7578,S,07649.4175,W,22.81,147.24,150411,,,A*5F
$GPGGA,195135.997,1219.7629,S,07649.4141,W,1,07,1.2,41.0,M,9.1,M,,0000*5A
$GPGSA,M,3,30,22,18,06,31,21,14,,,,,,1.8,1.2,1.4*39
$GPRMC,195135.997,A,1219.7629,S,07649.4141,W,22.98,145.05,150411,,,A*55
$GPGGA,195137.003,1219.7682,S,07649.4101,W,1,07,1.2,40.0,M,9.1,M,,0000*58
$GPGSA,M,3,30,22,18,06,31,21,14,,,,,,1.8,1.2,1.4*39
$GPRMC,195137.003,A,1219.7682,S,07649.4101,W,22.71,145.73,150411,,,A*50
$GPGGA,195137.994,1219.7733,S,07649.4070,W,1,07,1.2,39.8,M,9.1,M,,0000*55
$GPGSA,M,3,30,22,18,06,31,21,14,,,,,,1.8,1.2,1.4*39
$GPRMC,195137.994,A,1219.7733,S,07649.4070,W,22.90,144.75,150411,,,A*53
$GPGGA,195139.004,1219.7785,S,07649.4029,W,1,06,1.5,40.1,M,9.1,M,,0000*5B
$GPGSA,M,3,30,22,18,06,21,14,,,,,,,2.1,1.5,1.5*37
$GPRMC,195139.004,A,1219.7785,S,07649.4029,W,22.70,145.05,150411,,,A*54
$GPGGA,195140.004,1219.7836,S,07649.3996,W,1,07,1.2,40.8,M,9.1,M,,0000*57
$GPGSA,M,3,30,22,18,06,31,21,14,,,,,,1.8,1.2,1.4*39
$GPGSV,3,1,12,30,78,239,34,22,72,053,36,16,55,215,,18,50,121,32*73
$GPGSV,3,2,12,06,30,202,32,31,22,340,30,03,22,213,25,21,16,143,35*79
$GPGSV,3,3,12,14,14,025,35,25,07,034,33,29,07,085,32,19,03,235,*73
$GPRMC,195140.004,A,1219.7836,S,07649.3996,W,22.08,147.77,150411,,,A*5F
$GPGGA,195140.997,1219.7890,S,07649.3962,W,1,05,1.8,40.8,M,9.1,M,,0000*5B
$GPGSA,M,3,30,22,06,21,14,,,,,,,,2.5,1.8,1.7*35
$GPRMC,195140.997,A,1219.7890,S,07649.3962,W,23.22,145.29,150411,,,A*5B
$GPGGA,195142.003,1219.7942,S,07649.3930,W,1,07,1.2,40.0,M,9.1,M,,0000*54
$GPGSA,M,3,30,22,18,06,31,21,14,,,,,,1.8,1.2,1.4*39
$GPRMC,195142.003,A,1219.7942,S,07649.3930,W,22.23,146.66,150411,,,A*5C
$GPGGA,195142.995,1219.7994,S,07649.3897,W,1,07,1.2,39.4,M,9.1,M,,0000*5F
$GPGSA,M,3,30,22,18,06,31,21,14,,,,,,1.8,1.2,1.4*39
$GPRMC,195142.995,A,1219.7994,S,07649.3897,W,22.33,147.04,150411,,,A*59
$GPGGA,195143.999,1219.8046,S,07649.3866,W,1,07,1.2,38.8,M,9.1,M,,0000*58
$GPGSA,M,3,30,22,18,06,31,21,14,,,,,,1.8,1.2,1.4*39
$GPRMC,195143.999,A,1219.8046,S,07649.3866,W,21.20,148.53,150411,,,A*5F
$GPGGA,195145.007,1219.8095,S,07649.3833,W,1,07,1.2,39.5,M,9.1,M,,0000*52
$GPGSA,M,3,30,22,18,06,31,21,14,,,,,,1.8,1.2,1.4*39
$GPGSV,3,1,12,30,78,239,29,22,72,053,31,16,55,215,,18,50,121,29*72
$GPGSV,3,2,12,06,30,202,28,31,22,340,26,03,22,213,,21,16,143,32*75
$GPGSV,3,3,12,14,14,025,33,25,07,034,32,29,07,085,,19,03,235,*75
$GPRMC,195145.007,A,1219.8095,S,07649.3833,W,19.96,148.63,150411,,,A*5C
$GPGGA,195145.994,1219.8142,S,07649.3806,W,1,06,1.5,39.5,M,9.1,M,,0000*5A
$GPGSA,M,3,30,22,18,06,21,14,,,,,,,2.1,1.5,1.5*37
$GPRMC,195145.994,A,1219.8142,S,07649.3806,W,20.52,147.56,150411,,,A*59
$GPGGA,195146.999,1219.8191,S,07649.3768,W,1,06,1.5,40.1,M,9.1,M,,0000*57
$GPGSA,M,3,30,22,18,06,21,14,,,,,,,2.1,1.5,1.5*37
$GPRMC,195146.999,A,1219.8191,S,07649.3768,W,21.52,145.27,150411,,,A*5B
$GPGGA,195148.001,1219.8240,S,07649.3725,W,1,08,1.1,40.5,M,9.1,M,,0000*59
$GPGSA,M,3,30,22,16,18,06,31,21,14,,,,,1.8,1.1,1.4*3D
$GPRMC,195148.001,A,1219.8240,S,07649.3725,W,21.61,144.14,150411,,,A*5A
$GPGGA,195148.999,1219.8289,S,07649.3685,W,1,07,1.2,41.5,M,9.1,M,,0000*52
$GPGSA,M,3,30,22,18,06,31,21,14,,,,,,1.8,1.2,1.4*39
$GPRMC,195148.999,A,1219.8289,S,07649.3685,W,21.66,147.11,150411,,,A*5D
$GPGGA,195150.002,1219.8338,S,07649.3655,W,1,07,1.2,41.4,M,9.1,M,,0000*57
$GPGSA,M,3,30,22,18,06,31,21,14,,,,,,1.8,1.2,1.4*39
$GPGSV,3,1,12,30,78,239,29,22,72,053,31,16,55,215,,18,50,121,32*78
$GPGSV,3,2,12,06,30,202,28,31,22,340,27,03,22,213,,21,16,143,33*75
$GPGSV,3,3,12,14,14,025,30,25,07,034,33,29,07,085,34,19,03,235,*70
$GPRMC,195150.002,A,1219.8338,S,07649.3655,W,20.91,145.28,150411,,,A*58
$GPGGA,195151.000,1219.8385,S,07649.3618,W,1,07,1.2,41.6,M,9.1,M,,0000*59
$GPGSA,M,3,30,22,18,06,31,21,14,,,,,,1.8,1.2,1.4*39
$GPRMC,195151.000,A,1219.8385,S,07649.3618,W,21.58,144.14,150411,,,A*5E
$GPGGA,195151.999,1219.8437,S,07649.3582,W,1,07,1.2,40.9,M,9.1,M,,0000*50
$GPGSA,M,3,30,22,18,06,31,21,14,,,,,,1.8,1.2,1.4*39
$GPRMC,195151.999,A,1219.8437,S,07649.3582,W,21.80,147.21,150411,,,A*59
$GPGGA,195153.000,1219.8489,S,07649.3549,W,1,07,1.2,40.2,M,9.1,M,,0000*52
$GPGSA,M,3,30,22,18,06,31,21,14,,,,,,1.8,1.2,1.4*39
$GPRMC,195153.000,A,1219.8489,S,07649.3549,W,22.19,146.99,150411,,,A*51
$GPGGA,195153.999,1219.8542,S,07649.3513,W,1,07,1.2,40.4,M,9.1,M,,0000*54
$GPGSA,M,3,30,22,18,06,31,21,14,,,,,,1.8,1.2,1.4*39
$GPRMC,195153.999,A,1219.8542,S,07649.3513,W,23.09,146.19,150411,,,A*59
$GPGGA,195155.001,1219.8596,S,07649.3470,W,1,08,1.1,41.6,M,9.1,M,,0000*58
$GPGSA,M,3,30,22,16,18,06,31,21,14,,,,,1.8,1.1,1.4*3D
$GPGSV,3,1,12,30,78,239,29,22,72,053,34,16,55,215,26,18,50,121,31*7A
$GPGSV,3,2,12,06,30,202,33,31,22,340,34,03,22,213,28,21,16,143,34*70
$GPGSV,3,3,12,14,14,025,36,25,07,034,37,29,07,085,36,19,03,235,26*74
$GPRMC,195155.001,A,1219.8596,S,07649.3470,W,22.79,146.37,150411,,,A*50
$GPGGA,195156.004,1219.8649,S,07649.3436,W,1,08,1.1,40.8,M,9.1,M,,0000*52
$GPGSA,M,3,30,22,16,18,06,31,21,14,,,,,1.8,1.1,1.4*3D
$GPRMC,195156.004,A,1219.8649,S,07649.3436,W,22.77,146.93,150411,,,A*55
