$GPGGA,180326.000,1426.2825,S,07105.6133,W,1,07,1.1,3965.0,M,32.2,M,,0000*68
$GPGSA,M,3,18,21,30,22,25,31,29,,,,,,3.1,1.1,2.9*30
$GPRMC,180326.000,A,1426.2825,S,07105.6133,W,0.57,2.60,240411,,,A*63
$GPGGA,180326.999,1426.2822,S,07105.6131,W,1,07,1.1,3964.3,M,32.2,M,,0000*66
$GPGSA,M,3,18,21,30,22,25,31,29,,,,,,3.1,1.1,2.9*30
$GPGSV,3,1,12,18,58,049,35,21,47,166,34,30,45,211,34,22,40,000,38*79
$GPGSV,3,2,12,25,37,044,36,31,37,305,36,16,22,212,,29,21,115,34*74
$GPGSV,3,3,12,06,13,232,,14,05,354,,03,04,237,,12,00,040,*79
$GPRMC,180326.999,A,1426.2822,S,07105.6131,W,0.56,338.92,240411,,,A*69
$GPGGA,180328.001,1426.2823,S,07105.6130,W,1,07,1.1,3965.0,M,32.2,M,,0000*62
$GPGSA,M,3,18,21,30,22,25,31,29,,,,,,3.1,1.1,2.9*30
$GPRMC,180328.001,A,1426.2823,S,07105.6130,W,0.41,278.82,240411,,,A*6D
$GPGGA,180329.002,1426.2824,S,07105.6132,W,1,07,1.1,3966.0,M,32.2,M,,0000*66
$GPGSA,M,3,18,21,30,22,25,31,29,,,,,,3.1,1.1,2.9*30
$GPRMC,180329.002,A,1426.2824,S,07105.6132,W,0.14,185.36,240411,,,A*64
$GPGGA,180329.998,1426.2821,S,07105.6129,W,1,07,1.1,3966.2,M,32.2,M,,0000*61
$GPGSA,M,3,18,21,30,22,25,31,29,,,,,,3.1,1.1,2.9*30
$GPRMC,180329.998,A,1426.2821,S,07105.6129,W,0.30,266.88,240411,,,A*6C
$GPGGA,180331.018,1426.2823,S,07105.6130,W,1,07,1.1,3964.3,M,32.2,M,,0000*60
$GPGSA,M,3,18,21,30,22,25,31,29,,,,,,3.1,1.1,2.9*30
$GPRMC,180331.018,A,1426.2823,S,07105.6130,W,0.39,26.73,240411,,,A*55
$GPGGA,180331.983,1426.2820,S,07105.6127,W,1,07,1.1,3965.6,M,32.2,M,,0000*6A
$GPGSA,M,3,18,21,30,22,25,31,29,,,,,,3.1,1.1,2.9*30
$GPGSV,3,1,12,18,58,049,34,21,47,166,35,30,45,211,35,22,40,000,39*79
$GPGSV,3,2,12,25,37,044,37,31,37,305,36,16,22,212,,29,21,115,33*72
$GPGSV,3,3,12,06,13,232,,14,05,354,,03,04,237,,12,00,040,*79
$GPRMC,180331.983,A,1426.2820,S,07105.6127,W,0.14,319.82,240411,,,A*65
$GPGGA,180333.000,1426.2818,S,07105.6127,W,1,07,1.1,3965.1,M,32.2,M,,0000*66
$GPGSA,M,3,18,21,30,22,25,31,29,,,,,,3.1,1.1,2.9*30
$GPRMC,180333.000,A,1426.2818,S,07105.6127,W,0.36,275.03,240411,,,A*6C
$GPGGA,180334.000,1426.2818,S,07105.6127,W,1,07,1.1,3965.0,M,32.2,M,,0000*60
$GPGSA,M,3,18,21,30,22,25,31,29,,,,,,3.1,1.1,2.9*30
$GPRMC,180334.000,A,1426.2818,S,07105.6127,W,0.32,322.21,240411,,,A*6C
$GPGGA,180334.999,1426.2820,S,07105.6125,W,1,07,1.1,3966.4,M,32.2,M,,0000*67
$GPGSA,M,3,18,21,30,22,25,31,29,,,,,,3.1,1.1,2.9*30
$GPRMC,180334.999,A,1426.2820,S,07105.6125,W,0.28,352.02,240411,,,A*61
$GPGGA,180336.000,1426.2820,S,07105.6123,W,1,07,1.1,3968.9,M,32.2,M,,0000*69
$GPGSA,M,3,18,21,30,22,25,31,29,,,,,,3.1,1.1,2.9*30
$GPRMC,180336.000,A,1426.2820,S,07105.6123,W,0.40,359.65,240411,,,A*68
$GPGGA,180337.000,1426.2814,S,07105.6122,W,1,07,1.1,3970.7,M,32.2,M,,0000*69
$GPGSA,M,3,18,21,30,22,25,31,29,,,,,,3.1,1.1,2.9*30
$GPGSV,3,1,12,18,58,049,34,21,47,166,35,30,45,211,36,22,40,000,38*7B
$GPGSV,3,2,12,25,37,044,36,31,37,305,37,16,22,212,,29,21,115,31*70
$GPGSV,3,3,12,06,13,232,,14,05,354,,03,04,237,,12,00,040,*79
$GPRMC,180337.000,A,1426.2814,S,07105.6122,W,0.68,359.85,240411,,,A*6B
$GPGGA,180338.000,1426.2815,S,07105.6123,W,1,07,1.1,3970.9,M,32.2,M,,0000*68
$GPGSA,M,3,18,21,30,22,25,31,29,,,,,,3.1,1.1,2.9*30
$GPRMC,180338.000,A,1426.2815,S,07105.6123,W,0.30,19.15,240411,,,A*57
$GPGGA,180339.000,1426.2818,S,07105.6122,W,1,07,1.1,3974.4,M,32.2,M,,0000*6C
$GPGSA,M,3,18,21,30,22,25,31,29,,,,,,3.1,1.1,2.9*30
$GPRMC,180339.000,A,1426.2818,S,07105.6122,W,0.54,325.16,240411,,,A*67
$GPGGA,180340.001,1426.2816,S,07105.6121,W,1,07,1.1,3973.3,M,32.2,M,,0000*6E
$GPGSA,M,3,18,21,30,22,25,31,29,,,,,,3.1,1.1,2.9*30
$GPRMC,180340.001,A,1426.2816,S,07105.6121,W,0.17,333.92,240411,,,A*69
$GPGGA,180341.001,1426.2813,S,07105.6122,W,1,07,1.1,3972.0,M,32.2,M,,0000*6B
$GPGSA,M,3,18,21,30,22,25,31,29,,,,,,3.1,1.1,2.9*30
$GPRMC,180341.001,A,1426.2813,S,07105.6122,W,0.34,99.03,240411,,,A*54
$GPGGA,180342.000,1426.2815,S,07105.6122,W,1,07,1.1,3972.1,M,32.2,M,,0000*6E
$GPGSA,M,3,18,21,30,22,25,31,29,,,,,,3.1,1.1,2.9*30
$GPGSV,3,1,12,18,58,049,34,21,47,166,36,30,45,211,36,22,40,000,38*78
$GPGSV,3,2,12,25,37,044,37,31,37,305,36,16,22,212,,29,21,115,30*71
$GPGSV,3,3,12,06,13,232,,14,05,354,,03,04,237,,12,00,040,*79
$GPRMC,180342.000,A,1426.2815,S,07105.6122,W,0.66,302.03,240411,,,A*66
$GPGGA,180343.000,1426.2816,S,07105.6123,W,1,07,1.1,3972.9,M,32.2,M,,0000*65
$GPGSA,M,3,18,21,30,22,25,31,29,,,,,,3.1,1.1,2.9*30
$GPRMC,180343.000,A,1426.2816,S,07105.6123,W,0.47,325.62,240411,,,A*64
$GPGGA,180344.001,1426.2817,S,07105.6123,W,1,07,1.1,3970.9,M,32.2,M,,0000*60
$GPGSA,M,3,18,21,30,22,25,31,29,,,,,,3.1,1.1,2.9*30
$GPRMC,180344.001,A,1426.2817,S,07105.6123,W,0.32,271.58,240411,,,A*68
$GPGGA,180345.001,1426.2817,S,07105.6118,W,1,07,1.1,3971.6,M,32.2,M,,0000*67
$GPGSA,M,3,18,21,30,22,25,31,29,,,,,,3.1,1.1,2.9*30
$GPRMC,180345.001,A,1426.2817,S,07105.6118,W,0.54,265.13,240411,,,A*6B
$GPGGA,180346.001,1426.2819,S,07105.6117,W,1,07,1.1,3974.5,M,32.2,M,,0000*63
$GPGSA,M,3,18,21,30,22,25,31,29,,,,,,3.1,1.1,2.9*30
$GPRMC,180346.001,A,1426.2819,S,07105.6117,W,0.18,12.13,240411,,,A*53
$GPGGA,180347.000,1426.2819,S,07105.6116,W,1,07,1.1,3975.5,M,32.2,M,,0000*63
$GPGSA,M,3,18,21,30,22,25,31,29,,,,,,3.1,1.1,2.9*30
$GPGSV,3,1,12,18,58,049,35,21,47,166,36,30,45,211,35,22,40,000,38*7A
$GPGSV,3,2,12,25,37,044,38,31,37,305,36,16,22,212,,29,21,115,33*7D
$GPGSV,3,3,12,06,13,232,,14,05,354,,03,04,237,,12,00,040,*79
$GPRMC,180347.000,A,1426.2819,S,07105.6116,W,0.13,299.18,240411,,,A*63
$GPGGA,180348.001,1426.2819,S,07105.6116,W,1,07,1.1,3974.6,M,32.2,M,,0000*6F
$GPGSA,M,3,18,21,30,22,25,31,29,,,,,,3.1,1.1,2.9*30
$GPRMC,180348.001,A,1426.2819,S,07105.6116,W,0.31,219.50,240411,,,A*69
$GPGGA,180349.000,1426.2819,S,07105.6114,W,1,07,1.1,3973.9,M,32.2,M,,0000*65
$GPGSA,M,3,18,21,30,22,25,31,29,,,,,,3.1,1.1,2.9*30
$GPRMC,180349.000,A,1426.2819,S,07105.6114,W,0.15,73.96,240411,,,A*59
$GPGGA,180350.000,1426.2820,S,07105.6115,W,1,07,1.1,3972.8,M,32.2,M,,0000*66
$GPGSA,M,3,18,21,30,22,25,31,29,,,,,,3.1,1.1,2.9*30
$GPRMC,180350.000,A,1426.2820,S,07105.6115,W,0.21,82.49,240411,,,A*51
$GPGGA,180351.001,1426.2818,S,07105.6114,W,1,07,1.1,3971.7,M,32.2,M,,0000*60
$GPGSA,M,3,18,21,30,22,25,31,29,,,,,,3.1,1.1,2.9*30
$GPRMC,180351.001,A,1426.2818,S,07105.6114,W,0.28,19.97,240411,,,A*53
$GPGGA,180352.001,1426.2820,S,07105.6118,W,1,07,1.1,3969.0,M,32.2,M,,0000*6A
$GPGSA,M,3,18,21,30,22,25,31,29,,,,,,3.1,1.1,2.9*30
$GPGSV,3,1,12,18,58,049,35,21,47,166,36,30,45,211,36,22,40,000,38*79
$GPGSV,3,2,12,25,37,044,37,31,37,305,38,16,22,212,,29,21,115,33*7C
$GPGSV,3,3,12,06,13,232,,14,05,354,,03,04,237,,12,00,040,*79
$GPRMC,180352.001,A,1426.2820,S,07105.6118,W,0.36,229.78,240411,,,A*68
$GPGGA,180353.000,1426.2819,S,07105.6116,W,1,07,1.1,3971.7,M,32.2,M,,0000*60
$GPGSA,M,3,18,21,30,22,25,31,29,,,,,,3.1,1.1,2.9*30
$GPRMC,180353.000,A,1426.2819,S,07105.6116,W,0.43,38.68,240411,,,A*5D
$GPGGA,180354.000,1426.2822,S,07105.6115,W,1,07,1.1,3970.7,M,32.2,M,,0000*6D
$GPGSA,M,3,18,21,30,22,25,31,29,,,,,,3.1,1.1,2.9*30
$GPRMC,180354.000,A,1426.2822,S,07105.6115,W,0.53,105.73,240411,,,A*65
$GPGGA,180355.000,1426.2819,S,07105.6116,W,1,07,1.1,3970.1,M,32.2,M,,0000*61
$GPGSA,M,3,18,21,30,22,25,31,29,,,,,,3.1,1.1,2.9*30
$GPRMC,180355.000,A,1426.2819,S,07105.6116,W,0.33,43.71,240411,,,A*58
$GPGGA,180356.000,1426.2818,S,07105.6110,W,1,07,1.1,3970.9,M,32.2,M,,0000*6D
$GPGSA,M,3,18,21,30,22,25,31,29,,,,,,3.1,1.1,2.9*30
$GPRMC,180356.000,A,1426.2818,S,07105.6110,W,0.22,197.28,240411,,,A*68
$GPGGA,180357.001,1426.2823,S,07105.6112,W,1,07,1.1,3970.2,M,32.2,M,,0000*6C
$GPGSA,M,3,18,21,30,22,25,31,29,,,,,,3.1,1.1,2.9*30
$GPGSV,3,1,12,18,58,049,35,21,47,166,35,30,45,211,35,22,40,000,37*76
$GPGSV,3,2,12,25,37,044,36,31,37,305,37,16,22,212,,29,21,115,35*74
$GPGSV,3,3,12,06,13,232,,14,05,354,,03,04,237,,12,00,040,*79
$GPRMC,180357.001,A,1426.2823,S,07105.6112,W,0.08,227.97,240411,,,A*66
$GPGGA,180358.001,1426.2825,S,07105.6111,W,1,07,1.1,3969.9,M,32.2,M,,0000*65
$GPGSA,M,3,18,21,30,22,25,31,29,,,,,,3.1,1.1,2.9*30
$GPRMC,180358.001,A,1426.2825,S,07105.6111,W,0.09,196.65,240411,,,A*69
$GPGGA,180359.000,1426.2822,S,07105.6112,W,1,07,1.1,3971.4,M,32.2,M,,0000*65
$GPGSA,M,3,18,21,30,22,25,31,29,,,,,,3.1,1.1,2.9*30
$GPRMC,180359.000,A,1426.2822,S,07105.6112,W,0.24,220.20,240411,,,A*6D
$GPGGA,180400.000,1426.2827,S,07105.6108,W,1,07,1.1,3971.8,M,32.2,M,,0000*6C
$GPGSA,M,3,18,21,30,22,25,31,29,,,,,,3.1,1.1,2.9*30
$GPRMC,180400.000,A,1426.2827,S,07105.6108,W,0.17,201.16,240411,,,A*6E
$GPGGA,180401.000,1426.2825,S,07105.6108,W,1,07,1.1,3974.0,M,32.2,M,,0000*62
$GPGSA,M,3,18,21,30,22,25,31,29,,,,,,3.1,1.1,2.9*30
$GPRMC,180401.000,A,1426.2825,S,07105.6108,W,0.17,98.94,240411,,,A*55
$GPGGA,180402.000,1426.2824,S,07105.6110,W,1,07,1.1,3973.8,M,32.2,M,,0000*66
$GPGSA,M,3,18,21,30,22,25,31,29,,,,,,3.1,1.1,2.9*30
$GPGSV,3,1,12,18,58,049,36,21,47,166,36,30,45,211,37,22,40,000,39*7A
$GPGSV,3,2,12,25,37,044,37,31,37,305,37,16,22,212,,29,21,115,34*74
$GPGSV,3,3,12,06,13,232,,14,05,354,,03,04,237,,12,00,040,*79
$GPRMC,180402.000,A,1426.2824,S,07105.6110,W,0.58,298.68,240411,,,A*64
$GPGGA,180403.000,1426.2820,S,07105.6105,W,1,07,1.1,3974.3,M,32.2,M,,0000*6B
$GPGSA,M,3,18,21,30,22,25,31,29,,,,,,3.1,1.1,2.9*30
$GPRMC,180403.000,A,1426.2820,S,07105.6105,W,0.14,2.46,240411,,,A*60
$GPGGA,180404.000,1426.2822,S,07105.6105,W,1,07,1.1,3974.0,M,32.2,M,,0000*6D
$GPGSA,M,3,18,21,30,22,25,31,29,,,,,,3.1,1.1,2.9*30
$GPRMC,180404.000,A,1426.2822,S,07105.6105,W,0.58,9.74,240411,,,A*67
$GPGGA,180405.000,1426.2820,S,07105.6105,W,1,07,1.1,3973.2,M,32.2,M,,0000*6B
$GPGSA,M,3,18,21,30,22,25,31,29,,,,,,3.1,1.1,2.9*30
$GPRMC,180405.000,A,1426.2820,S,07105.6105,W,0.32,346.56,240411,,,A*60
$GPGGA,180405.999,1426.2820,S,07105.6105,W,1,07,1.1,3970.9,M,32.2,M,,0000*6A
$GPGSA,M,3,18,21,30,22,25,31,29,,,,,,3.1,1.1,2.9*30
$GPRMC,180405.999,A,1426.2820,S,07105.6105,W,0.12,301.16,240411,,,A*6C
$GPGGA,180407.000,1426.2821,S,07105.6104,W,1,07,1.1,3969.5,M,32.2,M,,0000*65
$GPGSA,M,3,18,21,30,22,25,31,29,,,,,,3.1,1.1,2.9*30
$GPGSV,3,1,12,18,58,049,36,21,47,166,36,30,45,211,37,22,40,000,38*7B
$GPGSV,3,2,12,25,37,044,37,31,37,305,37,16,22,212,,29,21,115,35*75
$GPGSV,3,3,12,06,13,232,,14,05,354,,03,04,237,,12,00,040,*79
$GPRMC,180407.000,A,1426.2821,S,07105.6104,W,0.25,78.46,240411,,,A*5B
$GPGGA,180408.000,1426.2821,S,07105.6104,W,1,07,1.1,3970.6,M,32.2,M,,0000*61
$GPGSA,M,3,18,21,30,22,25,31,29,,,,,,3.1,1.1,2.9*30
$GPRMC,180408.000,A,1426.2821,S,07105.6104,W,0.19,319.85,240411,,,A*60
$GPGGA,180409.000,1426.2822,S,07105.6105,W,1,07,1.1,3971.6,M,32.2,M,,0000*63
$GPGSA,M,3,18,21,30,22,25,31,29,,,,,,3.1,1.1,2.9*30
$GPRMC,180409.000,A,1426.2822,S,07105.6105,W,0.30,80.29,240411,,,A*5D
$GPGGA,180410.000,1426.2822,S,07105.6104,W,1,06,1.4,3975.0,M,32.2,M,,0000*6C
$GPGSA,M,3,18,21,30,22,25,31,,,,,,,5.6,1.4,5.5*34
$GPRMC,180410.000,A,1426.2822,S,07105.6104,W,0.22,142.08,240411,,,A*6B
$GPGGA,180411.000,1426.2823,S,07105.6102,W,1,07,1.1,3975.7,M,32.2,M,,0000*69
$GPGSA,M,3,18,21,30,22,25,31,29,,,,,,3.1,1.1,2.9*30
$GPRMC,180411.000,A,1426.2823,S,07105.6102,W,0.13,58.32,240411,,,A*5C
$GPGGA,180412.000,1426.2826,S,07105.6109,W,1,07,1.1,3974.8,M,32.2,M,,0000*6A
$GPGSA,M,3,18,21,30,22,25,31,29,,,,,,3.1,1.1,2.9*30
$GPGSV,3,1,12,18,58,049,34,21,47,166,31,30,45,211,36,22,40,000,38*7F
$GPGSV,3,2,12,25,37,044,38,31,37,305,37,16,22,212,,29,21,115,34*7B
$GPGSV,3,3,12,06,13,232,,14,05,354,,03,04,237,,12,00,040,*79
$GPRMC,180412.000,A,1426.2826,S,07105.6109,W,0.08,31.00,240411,,,A*55
$GPGGA,180413.000,1426.2826,S,07105.6111,W,1,07,1.1,3973.4,M,32.2,M,,0000*69
$GPGSA,M,3,18,21,30,22,25,31,29,,,,,,3.1,1.1,2.9*30
$GPRMC,180413.000,A,1426.2826,S,07105.6111,W,0.30,303.83,240411,,,A*6F
$GPGGA,180414.001,1426.2822,S,07105.6112,W,1,07,1.1,3973.1,M,32.2,M,,0000*6D
$GPGSA,M,3,18,21,30,22,25,31,29,,,,,,3.1,1.1,2.9*30
$GPRMC,180414.001,A,1426.2822,S,07105.6112,W,0.22,312.93,240411,,,A*6C
$GPGGA,180415.001,1426.2825,S,07105.6109,W,1,07,1.1,3974.0,M,32.2,M,,0000*67
$GPGSA,M,3,18,21,30,22,25,31,29,,,,,,3.1,1.1,2.9*30
$GPRMC,180415.001,A,1426.2825,S,07105.6109,W,0.23,269.51,240411,,,A*62
$GPGGA,180416.000,1426.2829,S,07105.6109,W,1,07,1.1,3974.8,M,32.2,M,,0000*61
$GPGSA,M,3,18,21,30,22,25,31,29,,,,,,3.1,1.1,2.9*30
$GPRMC,180416.000,A,1426.2829,S,07105.6109,W,0.15,66.23,240411,,,A*51
$GPGGA,180417.000,1426.2830,S,07105.6109,W,1,07,1.1,3973.9,M,32.2,M,,0000*6E
$GPGSA,M,3,18,21,30,22,25,31,29,,,,,,3.1,1.1,2.9*30
$GPGSV,3,1,12,18,58,049,35,21,47,166,35,30,45,211,36,22,40,000,39*7B
$GPGSV,3,2,12,25,37,044,38,31,37,305,37,16,22,212,,29,21,115,33*7C
$GPGSV,3,3,12,06,13,232,,14,05,354,,03,04,237,,12,00,040,*79
$GPRMC,180417.000,A,1426.2830,S,07105.6109,W,0.43,256.79,240411,,,A*65
$GPGGA,180418.001,1426.2825,S,07105.6109,W,1,07,1.1,3973.2,M,32.2,M,,0000*6F
$GPGSA,M,3,18,21,30,22,25,31,29,,,,,,3.1,1.1,2.9*30
$GPRMC,180418.001,A,1426.2825,S,07105.6109,W,0.13,351.63,240411,,,A*67
$GPGGA,180419.001,1426.2824,S,07105.6111,W,1,07,1.1,3974.3,M,32.2,M,,0000*60
$GPGSA,M,3,18,21,30,22,25,31,29,,,,,,3.1,1.1,2.9*30
$GPRMC,180419.001,A,1426.2824,S,07105.6111,W,0.01,115.88,240411,,,A*6A
$GPGGA,180420.001,1426.2823,S,07105.6110,W,1,07,1.1,3976.4,M,32.2,M,,0000*69
$GPGSA,M,3,18,21,30,22,25,31,29,,,,,,3.1,1.1,2.9*30
$GPRMC,180420.001,A,1426.2823,S,07105.6110,W,0.41,14.14,240411,,,A*57
$GPGGA,180421.001,1426.2822,S,07105.6110,W,1,07,1.1,3978.2,M,32.2,M,,0000*61
$GPGSA,M,3,18,21,30,22,25,31,29,,,,,,3.1,1.1,2.9*30
$GPRMC,180421.001,A,1426.2822,S,07105.6110,W,0.36,312.33,240411,,,A*67
$GPGGA,180422.000,1426.2818,S,07105.6112,W,1,07,1.1,3979.6,M,32.2,M,,0000*6D
$GPGSA,M,3,18,21,30,22,25,31,29,,,,,,3.1,1.1,2.9*30
$GPGSV,3,1,12,18,58,049,36,21,47,166,37,30,45,211,35,22,40,000,39*79
$GPGSV,3,2,12,25,37,044,37,31,37,305,37,16,22,212,,29,21,115,35*75
$GPGSV,3,3,12,06,13,232,,14,05,354,,03,04,237,,12,00,040,*79
$GPRMC,180422.000,A,1426.2818,S,07105.6112,W,0.35,283.66,240411,,,A*64
$GPGGA,180423.000,1426.2818,S,07105.6110,W,1,07,1.1,3981.7,M,32.2,M,,0000*68
$GPGSA,M,3,18,21,30,22,25,31,29,,,,,,3.1,1.1,2.9*30
$GPRMC,180423.000,A,1426.2818,S,07105.6110,W,0.29,13.90,240411,,,A*58
$GPGGA,180424.001,1426.2818,S,07105.6111,W,1,07,1.1,3980.2,M,32.2,M,,0000*6B
$GPGSA,M,3,18,21,30,22,25,31,29,,,,,,3.1,1.1,2.9*30
$GPRMC,180424.001,A,1426.2818,S,07105.6111,W,0.53,308.80,240411,,,A*6A
$GPGGA,180425.001,1426.2821,S,07105.6111,W,1,07,1.1,3981.7,M,32.2,M,,0000*64
$GPGSA,M,3,18,21,30,22,25,31,29,,,,,,3.1,1.1,2.9*30
$GPRMC,180425.001,A,1426.2821,S,07105.6111,W,0.25,52.24,240411,,,A*52
$GPGGA,180426.000,1426.2823,S,07105.6109,W,1,07,1.1,3983.1,M,32.2,M,,0000*69
$GPGSA,M,3,18,21,30,22,25,31,29,,,,,,3.1,1.1,2.9*30
$GPRMC,180426.000,A,1426.2823,S,07105.6109,W,0.14,212.90,240411,,,A*60
$GPGGA,180427.000,1426.2823,S,07105.6109,W,1,07,1.1,3986.1,M,32.2,M,,0000*6D
$GPGSA,M,3,18,21,30,22,25,31,29,,,,,,3.1,1.1,2.9*30
$GPGSV,3,1,12,18,58,049,34,21,47,166,39,30,45,211,36,22,40,000,40*78
$GPGSV,3,2,12,25,37,044,39,31,37,305,37,16,22,212,,29,21,115,34*7A
$GPGSV,3,3,12,06,13,232,,14,05,354,,03,04,237,,12,00,040,*79
$GPRMC,180427.000,A,1426.2823,S,07105.6109,W,0.14,279.18,240411,,,A*6C
$GPGGA,180428.000,1426.2827,S,07105.6105,W,1,07,1.1,3988.7,M,32.2,M,,0000*62
$GPGSA,M,3,18,21,30,22,25,31,29,,,,,,3.1,1.1,2.9*30
$GPRMC,180428.000,A,1426.2827,S,07105.6105,W,0.39,276.06,240411,,,A*64
$GPGGA,180429.000,1426.2826,S,07105.6103,W,1,07,1.1,3988.5,M,32.2,M,,0000*66
$GPGSA,M,3,18,21,30,22,25,31,29,,,,,,3.1,1.1,2.9*30
$GPRMC,180429.000,A,1426.2826,S,07105.6103,W,0.19,350.04,240411,,,A*67
$GPGGA,180430.025,1426.2826,S,07105.6103,W,0,00,,3988.8,M,32.2,M,,0000*4C
$GPGSA,M,1,,,,,,,,,,,,,,,*12
$GPRMC,180430.025,V,1426.2826,S,07105.6103,W,,,240411,,,N*7A
$GPGGA,180430.723,1426.2825,S,07105.6103,W,0,00,,3989.0,M,32.2,M,,0000*47
$GPGSA,M,1,,,,,,,,,,,,,,,*12
$GPRMC,180430.723,V,1426.2825,S,07105.6103,W,,,240411,,,N*78
$GPGGA,180431.000,1426.2825,S,07105.6103,W,0,00,,3989.1,M,32.2,M,,0000*41
$GPGSA,M,1,,,,,,,,,,,,,,,*12
$GPRMC,180431.000,V,1426.2825,S,07105.6103,W,,,240411,,,N*7F
$GPGGA,180432.000,1426.2825,S,07105.6103,W,0,00,,3989.5,M,32.2,M,,0000*46
$GPGSA,M,1,,,,,,,,,,,,,,,*12
$GPGSV,3,1,11,18,59,051,,30,46,211,,21,46,165,,22,42,000,*7C
$GPGSV,3,2,11,31,36,306,,25,36,043,,29,21,113,,14,05,355,*77
$GPGSV,3,3,11,16,23,212,,06,14,231,,03,04,237,*4C
$GPRMC,180432.000,V,1426.2825,S,07105.6103,W,,,240411,,,N*7C
$GPGGA,180433.000,1426.2821,S,07105.6106,W,1,06,1.4,3990.3,M,32.2,M,,0000*64
$GPGSA,M,3,18,30,21,22,31,25,,,,,,,5.6,1.4,5.4*35
$GPRMC,180433.000,A,1426.2821,S,07105.6106,W,0.16,227.52,240411,,,A*63
$GPGGA,180434.000,1426.2825,S,07105.6115,W,1,06,1.4,3988.3,M,32.2,M,,0000*6C
$GPGSA,M,3,18,30,21,22,31,25,,,,,,,5.6,1.4,5.4*35
$GPRMC,180434.000,A,1426.2825,S,07105.6115,W,0.05,16.61,240411,,,A*50
$GPGGA,180435.000,1426.2811,S,07105.6124,W,1,07,1.1,3986.0,M,32.2,M,,0000*61
$GPGSA,M,3,29,18,30,21,22,31,25,,,,,,3.0,1.1,2.9*31
$GPRMC,180435.000,A,1426.2811,S,07105.6124,W,0.06,12.98,240411,,,A*55
$GPGGA,180436.000,1426.2817,S,07105.6121,W,1,07,1.1,3985.0,M,32.2,M,,0000*62
$GPGSA,M,3,29,18,30,21,22,31,25,,,,,,3.0,1.1,2.8*30
$GPRMC,180436.000,A,1426.2817,S,07105.6121,W,0.04,32.44,240411,,,A*54
$GPGGA,180437.000,1426.2826,S,07105.6120,W,1,07,1.1,3985.4,M,32.2,M,,0000*64
$GPGSA,M,3,29,18,30,21,22,31,25,,,,,,3.0,1.1,2.8*30
$GPGSV,3,1,11,18,59,051,36,30,46,211,41,21,46,165,37,22,42,000,43*7F
$GPGSV,3,2,11,31,36,306,41,25,36,043,41,29,21,113,35,14,05,355,*71
$GPGSV,3,3,11,16,23,212,,06,14,231,,03,04,237,*4C
$GPRMC,180437.000,A,1426.2826,S,07105.6120,W,0.04,60.41,240411,,,A*54
$GPGGA,180438.000,1426.2836,S,07105.6120,W,1,07,1.1,3987.6,M,32.2,M,,0000*6A
$GPGSA,M,3,29,18,30,21,22,31,25,,,,,,3.0,1.1,2.8*30
$GPRMC,180438.000,A,1426.2836,S,07105.6120,W,0.04,62.57,240411,,,A*5F
$GPGGA,180439.000,1426.2835,S,07105.6117,W,1,07,1.1,3988.3,M,32.2,M,,0000*66
$GPGSA,M,3,29,18,30,21,22,31,25,,,,,,3.0,1.1,2.8*30
$GPRMC,180439.000,A,1426.2835,S,07105.6117,W,0.04,31.31,240411,,,A*5F
$GPGGA,180440.000,1426.2832,S,07105.6122,W,1,07,1.1,3989.7,M,32.2,M,,0000*6C
$GPGSA,M,3,29,18,30,21,22,31,25,,,,,,3.0,1.1,2.8*30
$GPRMC,180440.000,A,1426.2832,S,07105.6122,W,0.06,40.19,240411,,,A*5E
$GPGGA,180441.000,1426.2836,S,07105.6123,W,1,07,1.1,3987.5,M,32.2,M,,0000*64
$GPGSA,M,3,29,18,30,21,22,31,25,,,,,,3.0,1.1,2.8*30
$GPRMC,180441.000,A,1426.2836,S,07105.6123,W,0.02,170.87,240411,,,A*6B
$GPGGA,180442.000,1426.2837,S,07105.6123,W,1,07,1.1,3987.4,M,32.2,M,,0000*67
$GPGSA,M,3,29,18,30,21,22,31,25,,,,,,3.0,1.1,2.8*30
$GPGSV,3,1,11,18,59,051,36,30,46,211,39,21,46,165,34,22,42,000,42*72
$GPGSV,3,2,11,31,36,306,40,25,36,043,40,29,21,113,33,14,05,355,08*7F
$GPGSV,3,3,11,16,23,212,10,06,14,231,,03,04,237,*4D
$GPRMC,180442.000,A,1426.2837,S,07105.6123,W,0.05,295.36,240411,,,A*6C
$GPGGA,180443.000,1426.2838,S,07105.6123,W,1,07,1.1,3986.6,M,32.2,M,,0000*6A
$GPGSA,M,3,29,18,30,21,22,31,25,,,,,,3.0,1.1,2.8*30
$GPRMC,180443.000,A,1426.2838,S,07105.6123,W,0.08,236.36,240411,,,A*66
$GPGGA,180444.015,1426.2838,S,07105.6122,W,1,07,1.1,3985.5,M,32.2,M,,0000*68
$GPGSA,M,3,18,30,21,22,31,25,29,,,,,,3.0,1.1,2.8*30
$GPRMC,180444.015,A,1426.2838,S,07105.6122,W,0.08,303.08,240411,,,A*6E
$GPGGA,180444.984,1426.2839,S,07105.6122,W,1,07,1.1,3985.1,M,32.2,M,,0000*6C
$GPGSA,M,3,18,30,21,22,31,25,29,,,,,,3.0,1.1,2.8*30
$GPRMC,180444.984,A,1426.2839,S,07105.6122,W,0.51,230.78,240411,,,A*64
$GPGGA,180446.001,1426.2839,S,07105.6121,W,1,07,1.1,3984.3,M,32.2,M,,0000*6A
$GPGSA,M,3,18,30,21,22,31,25,29,,,,,,3.0,1.1,2.8*30
$GPRMC,180446.001,A,1426.2839,S,07105.6121,W,0.50,57.44,240411,,,A*5C
$GPGGA,180447.001,1426.2839,S,07105.6119,W,1,07,1.1,3984.9,M,32.2,M,,0000*6A
$GPGSA,M,3,18,30,21,22,31,25,29,,,,,,3.0,1.1,2.8*30
$GPGSV,3,1,11,18,59,051,34,30,46,211,35,21,46,165,35,22,42,000,38*70
$GPGSV,3,2,11,31,36,306,37,25,36,043,38,16,23,212,,29,21,113,32*7D
$GPGSV,3,3,11,06,14,231,,14,05,355,,03,05,236,*48
$GPRMC,180447.001,A,1426.2839,S,07105.6119,W,0.65,75.92,240411,,,A*5B
$GPGGA,180448.000,1426.2840,S,07105.6120,W,1,07,1.1,3984.2,M,32.2,M,,0000*6B
$GPGSA,M,3,18,30,21,22,31,25,29,,,,,,3.0,1.1,2.8*30
$GPRMC,180448.000,A,1426.2840,S,07105.6120,W,0.17,275.14,240411,,,A*68
$GPGGA,180448.999,1426.2841,S,07105.6120,W,1,07,1.1,3983.5,M,32.2,M,,0000*63
$GPGSA,M,3,18,30,21,22,31,25,29,,,,,,3.0,1.1,2.8*30
$GPRMC,180448.999,A,1426.2841,S,07105.6120,W,0.29,245.87,240411,,,A*64
$GPGGA,180450.000,1426.2841,S,07105.6119,W,1,07,1.1,3983.5,M,32.2,M,,0000*69
$GPGSA,M,3,18,30,21,22,31,25,29,,,,,,3.0,1.1,2.8*30
$GPRMC,180450.000,A,1426.2841,S,07105.6119,W,0.42,47.69,240411,,,A*53
$GPGGA,180451.000,1426.2841,S,07105.6120,W,1,07,1.1,3983.3,M,32.2,M,,0000*64
$GPGSA,M,3,18,30,21,22,31,25,29,,,,,,3.0,1.1,2.8*30
$GPRMC,180451.000,A,1426.2841,S,07105.6120,W,0.35,295.62,240411,,,A*6E
$GPGGA,180451.999,1426.2842,S,07105.6121,W,1,06,1.4,3984.2,M,32.2,M,,0000*6D
$GPGSA,M,3,18,30,21,22,31,25,,,,,,,5.5,1.4,5.3*31
$GPGSV,3,1,11,18,59,051,36,30,46,211,36,21,46,165,35,22,42,000,38*71
$GPGSV,3,2,11,31,36,306,36,25,36,043,37,16,23,212,,29,21,113,*72
$GPGSV,3,3,11,06,14,231,,14,05,355,,03,05,236,*48
$GPRMC,180451.999,A,1426.2842,S,07105.6121,W,0.38,277.74,240411,,,A*63
$GPGGA,180453.001,1426.2842,S,07105.6122,W,1,07,1.1,3983.5,M,32.2,M,,0000*60
$GPGSA,M,3,18,30,21,22,31,25,29,,,,,,3.0,1.1,2.8*30
$GPRMC,180453.001,A,1426.2842,S,07105.6122,W,0.56,247.83,240411,,,A*69
$GPGGA,180454.001,1426.2843,S,07105.6122,W,1,07,1.1,3982.6,M,32.2,M,,0000*64
$GPGSA,M,3,18,30,21,22,31,25,29,,,,,,3.0,1.1,2.8*30
$GPRMC,180454.001,A,1426.2843,S,07105.6122,W,0.09,274.37,240411,,,A*6A
$GPGGA,180455.001,1426.2839,S,07105.6122,W,1,07,1.1,3983.9,M,32.2,M,,0000*66
$GPGSA,M,3,18,30,21,22,31,25,29,,,,,,3.0,1.1,2.8*30
$GPRMC,180455.001,A,1426.2839,S,07105.6122,W,0.25,334.67,240411,,,A*68
$GPGGA,180456.001,1426.2841,S,07105.6122,W,1,07,1.1,3982.8,M,32.2,M,,0000*6A
$GPGSA,M,3,18,30,21,22,31,25,29,,,,,,3.0,1.1,2.8*30
$GPRMC,180456.001,A,1426.2841,S,07105.6122,W,0.33,0.73,240411,,,A*62
$GPGGA,180457.001,1426.2840,S,07105.6124,W,1,07,1.1,3983.6,M,32.2,M,,0000*63
$GPGSA,M,3,18,30,21,22,31,25,29,,,,,,3.0,1.1,2.8*30
$GPGSV,3,1,11,18,59,051,35,30,46,211,30,21,46,165,36,22,42,000,39*76
$GPGSV,3,2,11,31,36,306,38,25,36,043,39,16,23,212,,29,21,113,35*74
$GPGSV,3,3,11,06,14,231,,14,05,355,,03,05,236,*48
$GPRMC,180457.001,A,1426.2840,S,07105.6124,W,0.30,294.36,240411,,,A*69
$GPGGA,180458.002,1426.2837,S,07105.6122,W,1,07,1.1,3984.1,M,32.2,M,,0000*69
$GPGSA,M,3,18,30,21,22,31,25,29,,,,,,3.0,1.1,2.8*30
$GPRMC,180458.002,A,1426.2837,S,07105.6122,W,0.28,7.51,240411,,,A*63
$GPGGA,180459.000,1426.2836,S,07105.6123,W,1,07,1.1,3984.5,M,32.2,M,,0000*6E
$GPGSA,M,3,18,30,21,22,31,25,29,,,,,,3.0,1.1,2.8*30
$GPRMC,180459.000,A,1426.2836,S,07105.6123,W,0.25,334.79,240411,,,A*64
$GPGGA,180500.000,1426.2836,S,07105.6121,W,1,07,1.1,3983.7,M,32.2,M,,0000*64
$GPGSA,M,3,18,30,21,22,31,25,29,,,,,,3.0,1.1,2.8*30
$GPRMC,180500.000,A,1426.2836,S,07105.6121,W,0.24,78.10,240411,,,A*5E
$GPGGA,180501.001,1426.2836,S,07105.6123,W,1,07,1.1,3984.4,M,32.2,M,,0000*62
$GPGSA,M,3,18,30,21,22,31,25,29,,,,,,3.0,1.1,2.8*30
$GPRMC,180501.001,A,1426.2836,S,07105.6123,W,0.55,215.01,240411,,,A*63
$GPGGA,180502.000,1426.2836,S,07105.6123,W,1,07,1.1,3984.3,M,32.2,M,,0000*67
$GPGSA,M,3,18,30,21,22,31,25,29,,,,,,3.0,1.1,2.8*30
$GPGSV,3,1,11,18,59,051,35,30,46,211,37,21,46,165,31,22,42,000,39*76
$GPGSV,3,2,11,31,36,306,37,25,36,043,37,16,23,212,,29,21,113,34*74
$GPGSV,3,3,11,06,14,231,,14,05,355,,03,05,236,*48
$GPRMC,180502.000,A,1426.2836,S,07105.6123,W,0.45,269.03,240411,,,A*69
$GPGGA,180502.999,1426.2833,S,07105.6124,W,1,07,1.1,3987.9,M,32.2,M,,0000*65
$GPGSA,M,3,18,30,21,22,31,25,29,,,,,,3.0,1.1,2.8*30
$GPRMC,180502.999,A,1426.2833,S,07105.6124,W,0.51,355.19,240411,,,A*62
$GPGGA,180504.001,1426.2833,S,07105.6121,W,1,07,1.1,3989.5,M,32.2,M,,0000*6C
$GPGSA,M,3,18,30,21,22,31,25,29,,,,,,3.0,1.1,2.8*30
$GPRMC,180504.001,A,1426.2833,S,07105.6121,W,0.42,287.55,240411,,,A*6D
$GPGGA,180504.998,1426.2833,S,07105.6124,W,1,07,1.1,3991.0,M,32.2,M,,0000*6C
$GPGSA,M,3,18,30,21,22,31,25,29,,,,,,3.0,1.1,2.8*30
$GPRMC,180504.998,A,1426.2833,S,07105.6124,W,0.31,340.25,240411,,,A*68
$GPGGA,180506.003,1426.2833,S,07105.6126,W,1,07,1.1,3992.3,M,32.2,M,,0000*67
$GPGSA,M,3,18,30,21,22,31,25,29,,,,,,3.0,1.1,2.8*30
$GPRMC,180506.003,A,1426.2833,S,07105.6126,W,0.23,266.70,240411,,,A*65
$GPGGA,180506.999,1426.2832,S,07105.6128,W,1,07,1.1,3993.3,M,32.2,M,,0000*63
$GPGSA,M,3,18,30,21,22,31,25,29,,,,,,3.0,1.1,2.8*30
$GPGSV,3,1,11,18,59,051,36,30,46,211,37,21,46,165,35,22,42,000,39*71
$GPGSV,3,2,11,31,36,306,38,25,36,043,38,16,23,212,,29,21,113,35*75
$GPGSV,3,3,11,06,14,231,,14,05,355,,03,05,236,*48
$GPRMC,180506.999,A,1426.2832,S,07105.6128,W,0.15,296.35,240411,,,A*6B
$GPGGA,180508.000,1426.2831,S,07105.6127,W,1,07,1.1,3994.3,M,32.2,M,,0000*6F
$GPGSA,M,3,18,30,21,22,31,25,29,,,,,,3.0,1.1,2.8*30
$GPRMC,180508.000,A,1426.2831,S,07105.6127,W,0.39,351.81,240411,,,A*6B
$GPGGA,180509.000,1426.2831,S,07105.6129,W,1,07,1.1,3993.3,M,32.2,M,,0000*67
$GPGSA,M,3,18,30,21,22,31,25,29,,,,,,3.0,1.1,2.8*30
$GPRMC,180509.000,A,1426.2831,S,07105.6129,W,0.34,19.47,240411,,,A*5C
$GPGGA,180510.000,1426.2831,S,07105.6128,W,1,07,1.1,3992.4,M,32.2,M,,0000*68
$GPGSA,M,3,18,30,21,22,31,25,29,,,,,,3.0,1.1,2.8*30
$GPRMC,180510.000,A,1426.2831,S,07105.6128,W,0.45,340.71,240411,,,A*69
$GPGGA,180511.000,1426.2832,S,07105.6126,W,1,07,1.1,3990.9,M,32.2,M,,0000*6B
$GPGSA,M,3,18,30,21,22,31,25,29,,,,,,3.0,1.1,2.8*30
$GPRMC,180511.000,A,1426.2832,S,07105.6126,W,0.16,92.66,240411,,,A*59
$GPGGA,180512.000,1426.2837,S,07105.6123,W,1,07,1.1,3988.9,M,32.2,M,,0000*61
$GPGSA,M,3,18,30,21,22,31,25,29,,,,,,3.0,1.1,2.8*30
$GPGSV,3,1,11,18,59,052,36,30,46,211,38,21,45,165,33,22,42,000,44*72
$GPGSV,3,2,11,31,36,307,41,25,36,043,41,29,21,113,35,14,05,355,*70
$GPGSV,3,3,11,16,23,212,,06,14,230,,03,05,236,*4D
$GPRMC,180512.000,A,1426.2837,S,07105.6123,W,0.14,165.13,240411,,,A*63
$GPGGA,180513.000,1426.2839,S,07105.6124,W,1,07,1.1,3991.8,M,32.2,M,,0000*60
$GPGSA,M,3,18,30,21,22,31,25,29,,,,,,3.0,1.1,2.8*30
$GPRMC,180513.000,A,1426.2839,S,07105.6124,W,0.03,101.11,240411,,,A*6D
$GPGGA,180514.000,1426.2839,S,07105.6125,W,1,07,1.1,3993.3,M,32.2,M,,0000*6F
$GPGSA,M,3,18,30,21,22,31,25,29,,,,,,3.0,1.1,2.8*30
$GPRMC,180514.000,A,1426.2839,S,07105.6125,W,0.04,35.97,240411,,,A*54
$GPGGA,180515.000,1426.2838,S,07105.6123,W,1,07,1.1,3992.8,M,32.2,M,,0000*63
$GPGSA,M,3,18,30,21,22,31,25,29,,,,,,3.0,1.1,2.8*30
$GPRMC,180515.000,A,1426.2838,S,07105.6123,W,0.04,51.33,240411,,,A*5E
$GPGGA,180516.000,1426.2840,S,07105.6121,W,1,07,1.1,3992.9,M,32.2,M,,0000*6C
$GPGSA,M,3,18,30,21,22,31,25,29,,,,,,3.0,1.1,2.8*30
$GPRMC,180516.000,A,1426.2840,S,07105.6121,W,0.22,170.50,240411,,,A*63
$GPGGA,180517.000,1426.2841,S,07105.6122,W,1,07,1.1,3992.4,M,32.2,M,,0000*62
$GPGSA,M,3,18,30,21,22,31,25,29,,,,,,3.0,1.1,2.8*30
$GPGSV,3,1,11,18,59,052,36,30,46,211,33,21,45,165,29,22,42,000,43*75
$GPGSV,3,2,11,31,36,307,41,25,36,043,43,29,21,113,35,14,05,355,*72
$GPGSV,3,3,11,16,23,212,25,06,14,230,,03,05,236,*4A
$GPRMC,180517.000,A,1426.2841,S,07105.6122,W,0.09,193.78,240411,,,A*6E
$GPGGA,180518.000,1426.2841,S,07105.6122,W,1,07,1.1,3992.1,M,32.2,M,,0000*68
$GPGSA,M,3,18,30,21,22,31,25,29,,,,,,3.0,1.1,2.8*30
$GPRMC,180518.000,A,1426.2841,S,07105.6122,W,0.05,142.57,240411,,,A*6C
$GPGGA,180519.000,1426.2845,S,07105.6123,W,1,07,1.1,3991.9,M,32.2,M,,0000*67
$GPGSA,M,3,18,30,21,22,31,25,29,,,,,,3.0,1.1,2.8*30
$GPRMC,180519.000,A,1426.2845,S,07105.6123,W,0.06,128.07,240411,,,A*62
$GPGGA,180520.000,1426.2846,S,07105.6123,W,1,07,1.1,3991.5,M,32.2,M,,0000*62
$GPGSA,M,3,18,30,21,22,31,25,29,,,,,,3.0,1.1,2.8*30
$GPRMC,180520.000,A,1426.2846,S,07105.6123,W,0.01,50.76,240411,,,A*54
$GPGGA,180521.000,1426.2847,S,07105.6124,W,1,07,1.1,3991.3,M,32.2,M,,0000*63
$GPGSA,M,3,18,30,21,22,31,25,29,,,,,,3.0,1.1,2.8*30
$GPRMC,180521.000,A,1426.2847,S,07105.6124,W,0.03,68.27,240411,,,A*5E
$GPGGA,180522.000,1426.2849,S,07105.6125,W,1,07,1.1,3990.9,M,32.2,M,,0000*64
$GPGSA,M,3,18,30,21,22,31,25,29,,,,,,3.0,1.1,2.8*30
$GPGSV,3,1,11,18,59,052,38,30,46,211,34,21,45,165,35,22,42,000,37*72
$GPGSV,3,2,11,31,36,307,40,25,36,043,44,29,21,113,28,14,05,355,*78
$GPGSV,3,3,11,16,23,212,26,06,14,230,,03,05,236,*49
$GPRMC,180522.000,A,1426.2849,S,07105.6125,W,0.03,76.47,240411,,,A*5B
$GPGGA,180523.000,1426.2850,S,07105.6125,W,1,07,1.1,3990.5,M,32.2,M,,0000*61
$GPGSA,M,3,18,30,21,22,31,25,29,,,,,,3.0,1.1,2.8*30
$GPRMC,180523.000,A,1426.2850,S,07105.6125,W,0.02,74.98,240411,,,A*53
$GPGGA,180524.000,1426.2851,S,07105.6126,W,1,07,1.1,3990.2,M,32.2,M,,0000*63
$GPGSA,M,3,18,30,21,22,31,25,29,,,,,,3.0,1.1,2.8*30
$GPRMC,180524.000,A,1426.2851,S,07105.6126,W,0.03,53.92,240411,,,A*58
$GPGGA,180525.000,1426.2852,S,07105.6126,W,1,07,1.1,3989.8,M,32.2,M,,0000*63
$GPGSA,M,3,18,30,21,22,31,25,29,,,,,,3.0,1.1,2.8*30
$GPRMC,180525.000,A,1426.2852,S,07105.6126,W,0.03,76.93,240411,,,A*5C
$GPGGA,180526.000,1426.2853,S,07105.6127,W,1,07,1.1,3989.5,M,32.2,M,,0000*6D
$GPGSA,M,3,18,30,21,22,31,25,29,,,,,,3.0,1.1,2.8*30
$GPRMC,180526.000,A,1426.2853,S,07105.6127,W,0.04,49.58,240411,,,A*53
$GPGGA,180527.000,1426.2854,S,07105.6127,W,1,07,1.1,3989.2,M,32.2,M,,0000*6C
$GPGSA,M,3,18,30,21,22,31,25,29,,,,,,3.0,1.1,2.8*30
$GPGSV,3,1,11,18,59,052,39,30,46,211,35,21,45,165,35,22,42,000,37*72
$GPGSV,3,2,11,31,36,307,40,25,36,043,44,29,21,113,27,14,05,355,*77
$GPGSV,3,3,11,16,23,212,26,06,14,230,,03,05,236,*49
$GPRMC,180527.000,A,1426.2854,S,07105.6127,W,0.04,106.89,240411,,,A*63
$GPGGA,180528.000,1426.2855,S,07105.6128,W,1,07,1.1,3988.9,M,32.2,M,,0000*67
$GPGSA,M,3,18,30,21,22,31,25,29,,,,,,3.0,1.1,2.8*30
$GPRMC,180528.000,A,1426.2855,S,07105.6128,W,0.03,69.70,240411,,,A*5B
$GPGGA,180529.000,1426.2855,S,07105.6128,W,1,07,1.1,3988.7,M,32.2,M,,0000*68
$GPGSA,M,3,18,30,21,22,31,25,29,,,,,,3.0,1.1,2.8*30
$GPRMC,180529.000,A,1426.2855,S,07105.6128,W,0.04,75.90,240411,,,A*5E
$GPGGA,180530.000,1426.2856,S,07105.6128,W,1,07,1.1,3988.5,M,32.2,M,,0000*61
$GPGSA,M,3,18,30,21,22,31,25,29,,,,,,3.0,1.1,2.8*30
$GPRMC,180530.000,A,1426.2856,S,07105.6128,W,0.04,83.04,240411,,,A*51
$GPGGA,180531.000,1426.2857,S,07105.6129,W,1,07,1.1,3988.2,M,32.2,M,,0000*67
$GPGSA,M,3,18,30,21,22,31,25,29,,,,,,3.0,1.1,2.8*30
$GPRMC,180531.000,A,1426.2857,S,07105.6129,W,0.03,76.25,240411,,,A*5E
$GPGGA,180532.000,1426.2858,S,07105.6129,W,1,07,1.1,3988.0,M,32.2,M,,0000*69
$GPGSA,M,3,18,30,21,22,31,25,29,,,,,,3.0,1.1,2.8*30
$GPGSV,3,1,11,18,59,052,39,30,46,211,35,21,45,165,35,22,42,000,37*72
$GPGSV,3,2,11,31,36,307,40,25,36,043,44,29,21,113,28,14,05,355,*78
$GPGSV,3,3,11,16,23,212,26,06,14,230,,03,05,236,*49
$GPRMC,180532.000,A,1426.2858,S,07105.6129,W,0.04,69.55,240411,,,A*5C
$GPGGA,180533.000,1426.2858,S,07105.6129,W,1,07,1.1,3987.8,M,32.2,M,,0000*6F
$GPGSA,M,3,18,30,21,22,31,25,29,,,,,,3.0,1.1,2.8*30
$GPRMC,180533.000,A,1426.2858,S,07105.6129,W,0.04,50.19,240411,,,A*5F
$GPGGA,180534.000,1426.2858,S,07105.6129,W,1,07,1.1,3987.7,M,32.2,M,,0000*67
$GPGSA,M,3,18,30,21,22,31,25,29,,,,,,3.0,1.1,2.8*30
$GPRMC,180534.000,A,1426.2858,S,07105.6129,W,0.04,31.51,240411,,,A*53
$GPGGA,180535.001,1426.2857,S,07105.6129,W,1,07,1.1,3987.4,M,32.2,M,,0000*6B
$GPGSA,M,3,18,30,21,22,31,25,29,,,,,,3.0,1.1,2.8*30
$GPRMC,180535.001,A,1426.2857,S,07105.6129,W,0.41,352.93,240411,,,A*65
$GPGGA,180536.001,1426.2857,S,07105.6130,W,1,07,1.1,3987.1,M,32.2,M,,0000*65
$GPGSA,M,3,18,30,21,22,31,25,29,,,,,,3.0,1.1,2.8*30
$GPRMC,180536.001,A,1426.2857,S,07105.6130,W,0.54,24.53,240411,,,A*54
$GPGGA,180536.999,1426.2858,S,07105.6130,W,1,07,1.1,3987.0,M,32.2,M,,0000*63
$GPGSA,M,3,18,30,21,22,31,25,29,,,,,,3.0,1.1,2.8*30
$GPGSV,3,1,11,18,59,052,37,30,46,211,34,21,45,165,34,22,42,000,35*7E
$GPGSV,3,2,11,31,36,307,37,25,35,043,40,16,23,212,,29,21,113,28*7B
$GPGSV,3,3,11,06,14,230,,14,05,355,,03,05,236,*49
$GPRMC,180536.999,A,1426.2858,S,07105.6130,W,0.40,253.26,240411,,,A*66
$GPGGA,180538.002,1426.2858,S,07105.6131,W,1,07,1.1,3986.6,M,32.2,M,,0000*60
$GPGSA,M,3,18,30,21,22,31,25,29,,,,,,3.0,1.1,2.8*30
$GPRMC,180538.002,A,1426.2858,S,07105.6131,W,0.23,66.67,240411,,,A*56
$GPGGA,180538.999,1426.2857,S,07105.6128,W,1,07,1.1,3987.2,M,32.2,M,,0000*69
$GPGSA,M,3,18,30,21,22,31,25,29,,,,,,3.0,1.1,2.8*30
$GPRMC,180538.999,A,1426.2857,S,07105.6128,W,0.72,44.87,240411,,,A*50
$GPGGA,180540.000,1426.2858,S,07105.6126,W,1,06,1.3,3987.7,M,32.2,M,,0000*68
$GPGSA,M,3,18,30,21,22,31,25,,,,,,,5.4,1.3,5.2*36
$GPRMC,180540.000,A,1426.2858,S,07105.6126,W,0.62,119.67,240411,,,A*61
$GPGGA,180541.002,1426.2861,S,07105.6125,W,1,07,1.1,3989.0,M,32.2,M,,0000*68
$GPGSA,M,3,18,30,21,22,31,25,29,,,,,,3.0,1.1,2.8*30
$GPRMC,180541.002,A,1426.2861,S,07105.6125,W,0.78,210.80,240411,,,A*63
$GPGGA,180542.002,1426.2859,S,07105.6124,W,1,07,1.1,3988.8,M,32.2,M,,0000*68
$GPGSA,M,3,18,30,21,22,31,25,29,,,,,,3.0,1.1,2.8*30
$GPGSV,3,1,11,18,59,052,36,30,46,211,35,21,45,165,34,22,42,000,35*7E
$GPGSV,3,2,11,31,36,307,36,25,35,043,39,16,23,212,27,29,21,113,25*7C
$GPGSV,3,3,11,06,14,230,,14,05,355,,03,05,236,*49
$GPRMC,180542.002,A,1426.2859,S,07105.6124,W,0.29,71.18,240411,,,A*5A
$GPGGA,180542.996,1426.2860,S,07105.6124,W,1,06,1.3,3989.0,M,32.2,M,,0000*6C
$GPGSA,M,3,18,30,21,22,31,25,,,,,,,5.3,1.3,5.2*31
$GPRMC,180542.996,A,1426.2860,S,07105.6124,W,0.97,358.37,240411,,,A*64
$GPGGA,180544.002,1426.2861,S,07105.6122,W,1,06,1.3,3989.1,M,32.2,M,,0000*68
$GPGSA,M,3,18,30,21,22,31,25,,,,,,,5.3,1.3,5.2*31
$GPRMC,180544.002,A,1426.2861,S,07105.6122,W,0.22,94.53,240411,,,A*5E
$GPGGA,180545.000,1426.2860,S,07105.6123,W,1,06,1.3,3989.6,M,32.2,M,,0000*6C
$GPGSA,M,3,18,30,21,22,31,25,,,,,,,5.3,1.3,5.2*31
$GPRMC,180545.000,A,1426.2860,S,07105.6123,W,0.23,45.18,240411,,,A*5F
$GPGGA,180545.998,1426.2859,S,07105.6121,W,1,07,1.1,3989.7,M,32.2,M,,0000*6E
$GPGSA,M,3,18,30,21,22,31,25,29,,,,,,3.0,1.1,2.8*30
$GPRMC,180545.998,A,1426.2859,S,07105.6121,W,0.25,6.10,240411,,,A*66
$GPGGA,180547.000,1426.2857,S,07105.6122,W,1,07,1.1,3991.0,M,32.2,M,,0000*67
$GPGSA,M,3,18,30,21,22,31,25,29,,,,,,3.0,1.1,2.8*30
$GPGSV,3,1,11,18,59,052,37,30,46,211,36,21,45,165,35,22,42,000,34*7C
$GPGSV,3,2,11,31,36,307,36,25,35,043,39,16,23,212,29,29,21,113,27*70
$GPGSV,3,3,11,06,14,230,,14,05,355,,03,05,236,*49
$GPRMC,180547.000,A,1426.2857,S,07105.6122,W,0.29,40.65,240411,,,A*5D
$GPGGA,180548.003,1426.2857,S,07105.6121,W,1,07,1.1,3991.0,M,32.2,M,,0000*68
$GPGSA,M,3,18,30,21,22,31,25,29,,,,,,3.0,1.1,2.8*30
$GPRMC,180548.003,A,1426.2857,S,07105.6121,W,0.10,351.94,240411,,,A*65
$GPGGA,180548.997,1426.2855,S,07105.6121,W,1,07,1.1,3990.2,M,32.2,M,,0000*6D
$GPGSA,M,3,18,30,21,22,31,25,29,,,,,,3.0,1.1,2.8*30
$GPRMC,180548.997,A,1426.2855,S,07105.6121,W,0.46,19.88,240411,,,A*52
$GPGGA,180550.002,1426.2852,S,07105.6123,W,1,06,1.3,3990.5,M,32.2,M,,0000*60
$GPGSA,M,3,18,30,21,22,31,25,,,,,,,5.3,1.3,5.2*31
$GPRMC,180550.002,A,1426.2852,S,07105.6123,W,0.90,12.41,240411,,,A*5E
$GPGGA,180550.998,1426.2850,S,07105.6121,W,1,07,1.1,3990.5,M,32.2,M,,0000*69
$GPGSA,M,3,18,30,21,22,31,25,29,,,,,,3.0,1.1,2.8*30
$GPRMC,180550.998,A,1426.2850,S,07105.6121,W,0.49,2.70,240411,,,A*63
$GPGGA,180552.000,1426.2850,S,07105.6121,W,1,07,1.1,3988.5,M,32.2,M,,0000*6A
$GPGSA,M,3,18,30,21,22,31,25,29,,,,,,3.0,1.1,2.8*30
$GPGSV,3,1,11,18,59,052,37,30,46,211,35,21,45,165,36,22,42,000,35*7D
$GPGSV,3,2,11,31,36,307,39,25,35,043,39,16,23,212,29,29,21,113,26*7E
$GPGSV,3,3,11,06,14,230,,14,05,355,,03,05,236,*49
$GPRMC,180552.000,A,1426.2850,S,07105.6121,W,0.32,116.55,240411,,,A*66
$GPGGA,180553.000,1426.2850,S,07105.6122,W,1,07,1.1,3988.2,M,32.2,M,,0000*6F
$GPGSA,M,3,18,30,21,22,31,25,29,,,,,,3.0,1.1,2.8*30
$GPRMC,180553.000,A,1426.2850,S,07105.6122,W,0.30,346.57,240411,,,A*63
$GPGGA,180554.002,1426.2849,S,07105.6123,W,1,06,1.3,3987.7,M,32.2,M,,0000*6A
$GPGSA,M,3,18,30,21,22,31,25,,,,,,,5.3,1.3,5.1*32
$GPRMC,180554.002,A,1426.2849,S,07105.6123,W,0.22,324.37,240411,,,A*6E
$GPGGA,180554.999,1426.2851,S,07105.6122,W,1,07,1.1,3986.0,M,32.2,M,,0000*6C
$GPGSA,M,3,18,30,21,22,31,25,29,,,,,,3.0,1.1,2.8*30
$GPRMC,180554.999,A,1426.2851,S,07105.6122,W,0.24,76.46,240411,,,A*59
$GPGGA,180556.003,1426.2853,S,07105.6123,W,1,07,1.1,3985.4,M,32.2,M,,0000*60
$GPGSA,M,3,18,30,21,22,31,25,29,,,,,,3.0,1.1,2.8*30
$GPRMC,180556.003,A,1426.2853,S,07105.6123,W,0.59,58.90,240411,,,A*5F
$GPGGA,180556.997,1426.2850,S,07105.6125,W,1,07,1.1,3984.4,M,32.2,M,,0000*60
$GPGSA,M,3,18,30,21,22,31,25,29,,,,,,3.0,1.1,2.8*30
$GPGSV,3,1,11,18,59,052,36,30,46,211,36,21,45,165,35,22,42,000,32*7B
$GPGSV,3,2,11,31,36,307,36,25,35,043,40,16,23,212,28,29,21,113,28*70
$GPGSV,3,3,11,06,14,230,,14,05,355,,03,05,236,*49
$GPRMC,180556.997,A,1426.2850,S,07105.6125,W,0.21,291.57,240411,,,A*6D
$GPGGA,180558.000,1426.2850,S,07105.6125,W,1,07,1.1,3983.3,M,32.2,M,,0000*69
$GPGSA,M,3,18,30,21,22,31,25,29,,,,,,3.0,1.1,2.8*30
$GPRMC,180558.000,A,1426.2850,S,07105.6125,W,0.34,324.44,240411,,,A*6D
$GPGGA,180559.000,1426.2849,S,07105.6125,W,1,07,1.1,3982.4,M,32.2,M,,0000*66
$GPGSA,M,3,18,30,21,22,31,25,29,,,,,,3.0,1.1,2.8*30
$GPRMC,180559.000,A,1426.2849,S,07105.6125,W,0.37,52.89,240411,,,A*54
$GPGGA,180600.003,1426.2854,S,07105.6126,W,1,07,1.1,3982.1,M,32.2,M,,0000*60
$GPGSA,M,3,18,30,21,22,31,25,29,,,,,,3.0,1.1,2.8*30
$GPRMC,180600.003,A,1426.2854,S,07105.6126,W,0.35,137.67,240411,,,A*67
$GPGGA,180600.999,1426.2854,S,07105.6125,W,1,07,1.1,3981.4,M,32.2,M,,0000*6F
$GPGSA,M,3,18,30,21,22,31,25,29,,,,,,3.0,1.1,2.8*30
$GPRMC,180600.999,A,1426.2854,S,07105.6125,W,0.25,60.25,240411,,,A*5A
$GPGGA,180602.000,1426.2856,S,07105.6126,W,1,07,1.1,3980.7,M,32.2,M,,0000*67
$GPGSA,M,3,18,30,21,22,31,25,29,,,,,,3.0,1.1,2.8*30
$GPGSV,3,1,11,18,59,052,36,30,46,211,36,21,45,165,35,22,42,000,34*7D
$GPGSV,3,2,11,31,36,307,37,25,35,043,39,16,23,212,30,29,21,113,28*76
$GPGSV,3,3,11,06,14,230,,14,05,355,,03,05,236,*49
$GPRMC,180602.000,A,1426.2856,S,07105.6126,W,0.20,260.07,240411,,,A*67
$GPGGA,180602.999,1426.2857,S,07105.6127,W,1,07,1.1,3979.4,M,32.2,M,,0000*6B
$GPGSA,M,3,18,30,21,22,31,25,29,,,,,,3.0,1.1,2.8*30
$GPRMC,180602.999,A,1426.2857,S,07105.6127,W,0.68,356.62,240411,,,A*65
$GPGGA,180603.999,1426.2855,S,07105.6127,W,1,07,1.1,3978.1,M,32.2,M,,0000*6C
$GPGSA,M,3,18,30,21,22,31,25,29,,,,,,3.0,1.1,2.8*30
$GPRMC,180603.999,A,1426.2855,S,07105.6127,W,0.26,4.96,240411,,,A*63
$GPGGA,180604.999,1426.2858,S,07105.6127,W,1,07,1.1,3978.5,M,32.2,M,,0000*62
$GPGSA,M,3,18,30,21,22,31,25,29,,,,,,3.0,1.1,2.8*30
$GPRMC,180604.999,A,1426.2858,S,07105.6127,W,0.11,299.94,240411,,,A*69
$GPGGA,180605.999,1426.2859,S,07105.6126,W,1,07,1.1,3976.9,M,32.2,M,,0000*61
$GPGSA,M,3,18,30,21,22,31,25,29,,,,,,3.0,1.1,2.8*30
$GPRMC,180605.999,A,1426.2859,S,07105.6126,W,0.19,39.74,240411,,,A*56
$GPGGA,180606.999,1426.2857,S,07105.6124,W,1,07,1.1,3977.6,M,32.2,M,,0000*60
$GPGSA,M,3,18,30,21,22,31,25,29,,,,,,3.0,1.1,2.8*30
$GPGSV,3,1,11,18,59,052,36,30,46,211,35,21,45,165,35,22,42,000,34*7E
$GPGSV,3,2,11,31,36,307,37,25,35,043,39,16,23,212,27,29,21,113,29*71
$GPGSV,3,3,11,06,14,230,,14,05,355,,03,05,236,*49
$GPRMC,180606.999,A,1426.2857,S,07105.6124,W,0.53,330.62,240411,,,A*6A
$GPGGA,180607.999,1426.2858,S,07105.6126,W,1,07,1.1,3976.2,M,32.2,M,,0000*69
$GPGSA,M,3,18,30,21,22,31,25,29,,,,,,3.0,1.1,2.8*30
$GPRMC,180607.999,A,1426.2858,S,07105.6126,W,0.29,79.12,240411,,,A*52
$GPGGA,180609.000,1426.2857,S,07105.6126,W,1,07,1.1,3978.6,M,32.2,M,,0000*6B
$GPGSA,M,3,18,30,21,22,31,25,29,,,,,,3.0,1.1,2.8*30
$GPRMC,180609.000,A,1426.2857,S,07105.6126,W,0.23,293.01,240411,,,A*64
$GPGGA,180610.000,1426.2856,S,07105.6125,W,1,07,1.1,3977.6,M,32.2,M,,0000*6E
$GPGSA,M,3,18,30,21,22,31,25,29,,,,,,3.0,1.1,2.8*30
$GPRMC,180610.000,A,1426.2856,S,07105.6125,W,0.40,1.57,240411,,,A*61
$GPGGA,180610.999,1426.2855,S,07105.6128,W,1,07,1.1,3976.5,M,32.2,M,,0000*6B
$GPGSA,M,3,18,30,21,22,31,25,29,,,,,,3.0,1.1,2.8*30
$GPRMC,180610.999,A,1426.2855,S,07105.6128,W,0.11,10.94,240411,,,A*5D
$GPGGA,180611.996,1426.2856,S,07105.6127,W,1,07,1.1,3974.9,M,32.2,M,,0000*67
$GPGSA,M,3,18,30,21,22,31,25,29,,,,,,3.0,1.1,2.8*30
$GPGSV,3,1,11,18,59,052,36,30,46,211,33,21,45,165,34,22,42,000,35*78
$GPGSV,3,2,11,31,36,307,36,25,35,043,39,16,23,212,31,29,21,113,27*79
$GPGSV,3,3,11,06,14,230,,14,05,355,,03,05,236,*49
$GPRMC,180611.996,A,1426.2856,S,07105.6127,W,0.48,7.18,240411,,,A*61
$GPGGA,180613.000,1426.2855,S,07105.6129,W,1,07,1.1,3972.0,M,32.2,M,,0000*61
$GPGSA,M,3,18,30,21,22,31,25,29,,,,,,3.0,1.1,2.8*30
$GPRMC,180613.000,A,1426.2855,S,07105.6129,W,0.16,10.32,240411,,,A*5D
$GPGGA,180614.004,1426.2854,S,07105.6128,W,1,07,1.1,3971.5,M,32.2,M,,0000*64
$GPGSA,M,3,18,30,21,22,31,25,29,,,,,,3.0,1.1,2.8*30
$GPRMC,180614.004,A,1426.2854,S,07105.6128,W,0.41,9.27,240411,,,A*60
$GPGGA,180614.997,1426.2855,S,07105.6127,W,1,07,1.1,3970.7,M,32.2,M,,0000*6A
$GPGSA,M,3,18,30,21,22,31,25,29,,,,,,3.0,1.1,2.8*30
$GPRMC,180614.997,A,1426.2855,S,07105.6127,W,0.27,133.43,240411,,,A*67
$GPGGA,180616.002,1426.2854,S,07105.6126,W,1,06,1.3,3970.9,M,32.2,M,,0000*60
$GPGSA,M,3,18,30,21,22,31,25,,,,,,,5.3,1.3,5.1*32
$GPRMC,180616.002,A,1426.2854,S,07105.6126,W,0.39,120.39,240411,,,A*60
$GPGGA,180617.000,1426.2854,S,07105.6127,W,1,06,1.3,3969.9,M,32.2,M,,0000*6A
$GPGSA,M,3,18,30,21,22,31,25,,,,,,,5.2,1.3,5.1*33
$GPGSV,3,1,11,18,59,052,36,30,46,211,35,21,45,165,33,22,42,000,34*78
$GPGSV,3,2,11,31,36,307,36,25,35,043,39,16,23,212,30,29,21,113,*7D
$GPGSV,3,3,11,06,14,230,,14,05,355,,03,05,236,*49
$GPRMC,180617.000,A,1426.2854,S,07105.6127,W,0.33,343.32,240411,,,A*64
$GPGGA,180617.997,1426.2855,S,07105.6126,W,1,07,1.1,3971.7,M,32.2,M,,0000*69
$GPGSA,M,3,18,30,21,22,31,25,29,,,,,,3.0,1.1,2.8*30
$GPRMC,180617.997,A,1426.2855,S,07105.6126,W,0.41,353.84,240411,,,A*6A
$GPGGA,180619.000,1426.2851,S,07105.6128,W,1,07,1.1,3970.7,M,32.2,M,,0000*6B
$GPGSA,M,3,18,30,21,22,31,25,29,,,,,,3.0,1.1,2.8*30
$GPRMC,180619.000,A,1426.2851,S,07105.6128,W,0.47,329.73,240411,,,A*6A
$GPGGA,180620.001,1426.2853,S,07105.6127,W,1,07,1.1,3969.5,M,32.2,M,,0000*67
$GPGSA,M,3,18,30,21,22,31,25,29,,,,,,3.0,1.1,2.8*30
$GPRMC,180620.001,A,1426.2853,S,07105.6127,W,0.46,16.66,240411,,,A*56
$GPGGA,180621.001,1426.2852,S,07105.6129,W,1,07,1.1,3968.9,M,32.2,M,,0000*64
$GPGSA,M,3,18,30,21,22,31,25,29,,,,,,3.0,1.1,2.8*30
$GPRMC,180621.001,A,1426.2852,S,07105.6129,W,0.55,53.83,240411,,,A*50
$GPGGA,180622.000,1426.2854,S,07105.6126,W,1,07,1.1,3969.9,M,32.2,M,,0000*6E
$GPGSA,M,3,18,30,21,22,31,25,29,,,,,,3.0,1.1,2.8*30
$GPGSV,3,1,11,18,59,052,36,30,46,211,35,21,45,165,33,22,42,000,35*79
$GPGSV,3,2,11,31,36,307,37,25,35,043,40,16,23,212,31,29,21,113,26*77
$GPGSV,3,3,11,06,14,230,,14,05,355,,03,05,236,*49
$GPRMC,180622.000,A,1426.2854,S,07105.6126,W,0.39,329.54,240411,,,A*65
$GPGGA,180623.001,1426.2852,S,07105.6127,W,1,07,1.1,3969.0,M,32.2,M,,0000*60
$GPGSA,M,3,18,30,21,22,31,25,29,,,,,,3.0,1.1,2.8*30
$GPRMC,180623.001,A,1426.2852,S,07105.6127,W,0.21,16.59,240411,,,A*59
$GPGGA,180624.000,1426.2849,S,07105.6129,W,1,07,1.1,3971.0,M,32.2,M,,0000*6B
$GPGSA,M,3,18,30,21,22,31,25,29,,,,,,3.0,1.1,2.8*30
$GPRMC,180624.000,A,1426.2849,S,07105.6129,W,0.44,315.72,240411,,,A*61
$GPGGA,180625.001,1426.2848,S,07105.6134,W,1,07,1.1,3968.7,M,32.2,M,,0000*69
$GPGSA,M,3,18,30,21,22,31,25,29,,,,,,3.0,1.1,2.8*30
$GPRMC,180625.001,A,1426.2848,S,07105.6134,W,0.37,15.89,240411,,,A*5F
$GPGGA,180626.002,1426.2846,S,07105.6135,W,1,06,1.3,3969.8,M,32.2,M,,0000*6B
$GPGSA,M,3,18,30,21,22,31,25,,,,,,,5.2,1.3,5.0*32
$GPRMC,180626.002,A,1426.2846,S,07105.6135,W,0.33,16.25,240411,,,A*51
$GPGGA,180627.001,1426.2847,S,07105.6135,W,1,07,1.1,3970.3,M,32.2,M,,0000*68
$GPGSA,M,3,18,30,21,22,31,25,29,,,,,,3.0,1.1,2.8*30
$GPGSV,3,1,11,18,59,052,36,30,46,211,34,21,45,165,34,22,42,000,35*7F
$GPGSV,3,2,11,31,36,307,38,25,35,043,39,16,23,212,31,29,21,113,27*77
$GPGSV,3,3,11,06,14,230,,14,05,355,,03,05,236,*49
$GPRMC,180627.001,A,1426.2847,S,07105.6135,W,0.16,210.15,240411,,,A*62
$GPGGA,180627.998,1426.2849,S,07105.6132,W,1,07,1.1,3970.4,M,32.2,M,,0000*6F
$GPGSA,M,3,18,30,21,22,31,25,29,,,,,,3.0,1.1,2.8*30
$GPRMC,180627.998,A,1426.2849,S,07105.6132,W,0.11,350.49,240411,,,A*69
$GPGGA,180629.000,1426.2853,S,07105.6131,W,1,07,1.1,3969.3,M,32.2,M,,0000*6E
$GPGSA,M,3,18,30,21,22,31,25,29,,,,,,3.0,1.1,2.8*30
$GPRMC,180629.000,A,1426.2853,S,07105.6131,W,0.11,115.17,240411,,,A*6F
$GPGGA,180630.000,1426.2856,S,07105.6132,W,1,07,1.1,3968.7,M,32.2,M,,0000*65
$GPGSA,M,3,18,30,21,22,31,25,29,,,,,,3.0,1.1,2.8*30
$GPRMC,180630.000,A,1426.2856,S,07105.6132,W,0.17,98.94,240411,,,A*58
$GPGGA,180631.003,1426.2859,S,07105.6132,W,1,07,1.1,3968.3,M,32.2,M,,0000*6C
$GPGSA,M,3,18,30,21,22,31,25,29,,,,,,3.0,1.1,2.8*30
$GPRMC,180631.003,A,1426.2859,S,07105.6132,W,0.46,340.94,240411,,,A*67
$GPGGA,180632.000,1426.2861,S,07105.6135,W,1,07,1.1,3967.2,M,32.2,M,,0000*6E
$GPGSA,M,3,18,30,21,22,31,25,29,,,,,,3.0,1.1,2.8*30
$GPGSV,3,1,11,18,59,052,36,30,46,211,34,21,45,165,34,22,42,000,35*7F
$GPGSV,3,2,11,31,36,307,38,25,35,043,39,16,23,212,32,29,21,113,29*7A
$GPGSV,3,3,11,06,14,230,,14,05,355,,03,05,236,*49
$GPRMC,180632.000,A,1426.2861,S,07105.6135,W,0.51,332.01,240411,,,A*64
$GPGGA,180633.000,1426.2863,S,07105.6138,W,1,07,1.1,3964.7,M,32.2,M,,0000*66
$GPGSA,M,3,18,30,21,22,31,25,29,,,,,,3.0,1.1,2.8*30
$GPRMC,180633.000,A,1426.2863,S,07105.6138,W,0.05,296.61,240411,,,A*62
$GPGGA,180634.000,1426.2860,S,07105.6137,W,1,07,1.1,3962.3,M,32.2,M,,0000*6F
$GPGSA,M,3,18,30,21,22,31,25,29,,,,,,3.0,1.1,2.8*30
$GPRMC,180634.000,A,1426.2860,S,07105.6137,W,0.30,55.92,240411,,,A*5E
$GPGGA,180635.000,1426.2864,S,07105.6135,W,1,07,1.1,3960.8,M,32.2,M,,0000*61
$GPGSA,M,3,18,30,21,22,31,25,29,,,,,,3.0,1.1,2.8*30
$GPRMC,180635.000,A,1426.2864,S,07105.6135,W,0.39,336.82,240411,,,A*67
$GPGGA,180636.001,1426.2864,S,07105.6137,W,1,07,1.1,3960.1,M,32.2,M,,0000*68
$GPGSA,M,3,18,30,21,22,31,25,29,,,,,,3.0,1.1,2.8*30
$GPRMC,180636.001,A,1426.2864,S,07105.6137,W,0.21,42.04,240411,,,A*50
$GPGGA,180637.001,1426.2864,S,07105.6139,W,1,07,1.1,3958.8,M,32.2,M,,0000*65
$GPGSA,M,3,18,30,21,22,31,25,29,,,,,,3.0,1.1,2.8*30
$GPGSV,3,1,11,18,59,052,36,30,46,211,34,21,45,165,34,22,42,000,36*7C
$GPGSV,3,2,11,31,36,307,37,25,35,043,39,16,23,212,31,29,21,113,29*76
$GPGSV,3,3,11,06,14,230,,14,05,355,,03,05,236,*49
$GPRMC,180637.001,A,1426.2864,S,07105.6139,W,0.44,325.47,240411,,,A*69
$GPGGA,180638.000,1426.2865,S,07105.6138,W,1,07,1.1,3958.8,M,32.2,M,,0000*6B
$GPGSA,M,3,18,30,21,22,31,25,29,,,,,,3.0,1.1,2.8*30
$GPRMC,180638.000,A,1426.2865,S,07105.6138,W,0.24,25.77,240411,,,A*51
$GPGGA,180639.001,1426.2866,S,07105.6138,W,1,07,1.1,3959.6,M,32.2,M,,0000*67
$GPGSA,M,3,18,30,21,22,31,25,29,,,,,,3.0,1.1,2.8*30
$GPRMC,180639.001,A,1426.2866,S,07105.6138,W,0.49,88.87,240411,,,A*51
$GPGGA,180640.001,1426.2868,S,07105.6138,W,1,07,1.1,3957.9,M,32.2,M,,0000*66
$GPGSA,M,3,18,30,21,22,31,25,29,,,,,,3.0,1.1,2.8*30
$GPRMC,180640.001,A,1426.2868,S,07105.6138,W,0.16,236.53,240411,,,A*65
$GPGGA,180641.000,1426.2866,S,07105.6140,W,1,07,1.1,3956.3,M,32.2,M,,0000*6C
$GPGSA,M,3,18,30,21,22,31,25,29,,,,,,3.0,1.1,2.8*30
$GPRMC,180641.000,A,1426.2866,S,07105.6140,W,0.30,355.55,240411,,,A*62
$GPGGA,180642.001,1426.2866,S,07105.6141,W,1,07,1.1,3954.9,M,32.2,M,,0000*67
$GPGSA,M,3,18,30,21,22,31,25,29,,,,,,3.0,1.1,2.8*30
$GPGSV,3,1,11,18,59,052,36,30,46,211,35,21,45,165,35,22,42,000,35*7F
$GPGSV,3,2,11,31,36,307,37,25,35,043,38,16,23,212,32,29,21,113,29*74
$GPGSV,3,3,11,06,14,230,,14,05,355,,03,05,236,*49
$GPRMC,180642.001,A,1426.2866,S,07105.6141,W,0.32,3.12,240411,,,A*60
$GPGGA,180643.000,1426.2869,S,07105.6141,W,1,07,1.1,3952.3,M,32.2,M,,0000*64
$GPGSA,M,3,18,30,21,22,31,25,29,,,,,,3.0,1.1,2.8*30
$GPRMC,180643.000,A,1426.2869,S,07105.6141,W,0.66,20.64,240411,,,A*5E
$GPGGA,180643.999,1426.2870,S,07105.6141,W,1,06,1.3,3952.5,M,32.2,M,,0000*60
$GPGSA,M,3,18,30,21,22,31,25,,,,,,,5.2,1.3,5.0*32
$GPRMC,180643.999,A,1426.2870,S,07105.6141,W,0.27,339.53,240411,,,A*65
$GPGGA,180645.001,1426.2872,S,07105.6141,W,1,07,1.1,3949.3,M,32.2,M,,0000*63
$GPGSA,M,3,18,30,21,22,31,25,29,,,,,,3.0,1.1,2.8*30
$GPRMC,180645.001,A,1426.2872,S,07105.6141,W,0.33,30.78,240411,,,A*5F
$GPGGA,180646.001,1426.2871,S,07105.6142,W,1,07,1.1,3948.0,M,32.2,M,,0000*62
$GPGSA,M,3,18,30,21,22,31,25,29,,,,,,3.0,1.1,2.8*30
$GPRMC,180646.001,A,1426.2871,S,07105.6142,W,0.76,352.27,240411,,,A*60
$GPGGA,180647.001,1426.2874,S,07105.6140,W,1,07,1.1,3949.7,M,32.2,M,,0000*62
$GPGSA,M,3,18,30,21,22,31,25,29,,,,,,3.0,1.1,2.8*30
$GPGSV,3,1,11,18,59,052,36,30,46,211,34,21,45,165,34,22,42,000,35*7F
$GPGSV,3,2,11,31,36,307,37,25,35,043,39,16,23,212,33,29,21,113,28*75
$GPGSV,3,3,11,06,14,230,,14,05,355,,03,05,236,*49
$GPRMC,180647.001,A,1426.2874,S,07105.6140,W,0.28,314.54,240411,,,A*6B
$GPGGA,180648.001,1426.2871,S,07105.6141,W,1,07,1.1,3951.3,M,32.2,M,,0000*64
$GPGSA,M,3,18,30,21,22,31,25,29,,,,,,3.0,1.1,2.8*30
$GPRMC,180648.001,A,1426.2871,S,07105.6141,W,0.23,57.07,240411,,,A*59
$GPGGA,180649.003,1426.2877,S,07105.6142,W,1,07,1.1,3947.8,M,32.2,M,,0000*6E
$GPGSA,M,3,18,30,21,22,31,25,29,,,,,,3.0,1.1,2.8*30
$GPRMC,180649.003,A,1426.2877,S,07105.6142,W,0.29,164.10,240411,,,A*62
$GPGGA,180649.998,1426.2876,S,07105.6137,W,1,07,1.1,3950.0,M,32.2,M,,0000*68
$GPGSA,M,3,18,30,21,22,31,25,29,,,,,,3.0,1.1,2.8*30
$GPRMC,180649.998,A,1426.2876,S,07105.6137,W,0.20,94.42,240411,,,A*5A
$GPGGA,180651.000,1426.2875,S,07105.6137,W,1,07,1.1,3948.3,M,32.2,M,,0000*60
$GPGSA,M,3,18,30,21,22,31,25,29,,,,,,3.0,1.1,2.8*30
$GPRMC,180651.000,A,1426.2875,S,07105.6137,W,0.25,37.02,240411,,,A*50
$GPGGA,180651.996,1426.2877,S,07105.6135,W,1,07,1.1,3947.5,M,32.2,M,,0000*6F
$GPGSA,M,3,18,30,21,22,31,25,29,,,,,,3.0,1.1,2.8*30
$GPGSV,3,1,11,18,59,052,35,30,46,211,34,21,45,165,34,22,42,000,35*7C
$GPGSV,3,2,11,31,36,307,37,25,35,043,39,16,23,212,33,29,21,113,29*74
$GPGSV,3,3,11,06,14,230,,14,05,355,,03,05,236,*49
$GPRMC,180651.996,A,1426.2877,S,07105.6135,W,0.45,119.73,240411,,,A*6B
$GPGGA,180653.000,1426.2876,S,07105.6137,W,1,07,1.1,3949.1,M,32.2,M,,0000*62
$GPGSA,M,3,18,30,21,22,31,25,29,,,,,,3.0,1.1,2.8*30
$GPRMC,180653.000,A,1426.2876,S,07105.6137,W,0.32,290.25,240411,,,A*6D
$GPGGA,180654.000,1426.2877,S,07105.6140,W,1,07,1.1,3946.3,M,32.2,M,,0000*69
$GPGSA,M,3,18,30,21,22,31,25,29,,,,,,3.0,1.1,2.8*30
$GPRMC,180654.000,A,1426.2877,S,07105.6140,W,0.58,351.98,240411,,,A*6D
$GPGGA,180655.000,1426.2875,S,07105.6140,W,1,07,1.1,3947.8,M,32.2,M,,0000*60
$GPGSA,M,3,18,30,21,22,31,25,29,,,,,,3.0,1.1,2.8*30
$GPRMC,180655.000,A,1426.2875,S,07105.6140,W,0.29,25.46,240411,,,A*5B
$GPGGA,180656.000,1426.2872,S,07105.6142,W,1,07,1.1,3948.0,M,32.2,M,,0000*61
$GPGSA,M,3,18,30,21,22,31,25,29,,,,,,3.0,1.1,2.8*30
$GPRMC,180656.000,A,1426.2872,S,07105.6142,W,0.38,18.59,240411,,,A*5D
$GPGGA,180657.001,1426.2871,S,07105.6142,W,1,07,1.1,3949.6,M,32.2,M,,0000*65
$GPGSA,M,3,18,30,21,22,31,25,29,,,,,,3.0,1.1,2.8*30
$GPGSV,3,1,11,18,59,052,37,30,46,211,33,21,45,165,33,22,42,000,31*7A
$GPGSV,3,2,11,31,36,307,38,25,35,043,38,16,23,212,31,29,21,113,30*70
$GPGSV,3,3,11,06,14,230,,14,05,355,,03,05,236,*49
$GPRMC,180657.001,A,1426.2871,S,07105.6142,W,0.43,44.72,240411,,,A*52
$GPGGA,180658.000,1426.2869,S,07105.6142,W,1,07,1.1,3949.1,M,32.2,M,,0000*65
$GPGSA,M,3,18,30,21,22,31,25,29,,,,,,3.0,1.1,2.8*30
$GPRMC,180658.000,A,1426.2869,S,07105.6142,W,0.23,352.44,240411,,,A*62
$GPGGA,180659.001,1426.2868,S,07105.6142,W,1,07,1.1,3951.0,M,32.2,M,,0000*6C
$GPGSA,M,3,18,30,21,22,31,25,29,,,,,,3.0,1.1,2.8*30
$GPRMC,180659.001,A,1426.2868,S,07105.6142,W,0.58,16.89,240411,,,A*5D
$GPGGA,180700.000,1426.2866,S,07105.6142,W,1,07,1.1,3950.5,M,32.2,M,,0000*6A
$GPGSA,M,3,18,30,21,22,31,25,29,,,,,,3.0,1.1,2.8*30
$GPRMC,180700.000,A,1426.2866,S,07105.6142,W,0.61,28.38,240411,,,A*52
$GPGGA,180701.001,1426.2863,S,07105.6145,W,1,07,1.1,3951.2,M,32.2,M,,0000*6E
$GPGSA,M,3,18,30,21,22,31,25,29,,,,,,3.0,1.1,2.8*30
$GPRMC,180701.001,A,1426.2863,S,07105.6145,W,0.31,345.07,240411,,,A*61
$GPGGA,180702.001,1426.2864,S,07105.6142,W,1,07,1.1,3949.5,M,32.2,M,,0000*63
$GPGSA,M,3,18,30,21,22,31,25,29,,,,,,3.0,1.1,2.8*30
$GPGSV,3,1,11,18,59,052,36,30,46,211,34,21,45,165,35,22,42,000,36*7D
$GPGSV,3,2,11,31,36,307,38,25,35,043,39,16,23,212,34,29,21,113,29*7C
$GPGSV,3,3,11,06,14,230,,14,05,355,,03,05,236,*49
$GPRMC,180702.001,A,1426.2864,S,07105.6142,W,0.13,8.36,240411,,,A*6A
$GPGGA,180703.002,1426.2865,S,07105.6141,W,1,07,1.1,3952.5,M,32.2,M,,0000*69
$GPGSA,M,3,18,30,21,22,31,25,29,,,,,,3.0,1.1,2.8*30
$GPRMC,180703.002,A,1426.2865,S,07105.6141,W,0.27,315.93,240411,,,A*6D
$GPGGA,180704.000,1426.2867,S,07105.6141,W,1,07,1.1,3952.0,M,32.2,M,,0000*6B
$GPGSA,M,3,18,30,21,22,31,25,29,,,,,,3.0,1.1,2.8*30
$GPRMC,180704.000,A,1426.2867,S,07105.6141,W,0.12,302.83,240411,,,A*6B
$GPGGA,180704.998,1426.2868,S,07105.6140,W,1,07,1.1,3951.5,M,32.2,M,,0000*6B
$GPGSA,M,3,18,30,21,22,31,25,29,,,,,,3.0,1.1,2.8*30
$GPRMC,180704.998,A,1426.2868,S,07105.6140,W,0.05,35.41,240411,,,A*52
$GPGGA,180706.000,1426.2867,S,07105.6142,W,1,07,1.1,3951.5,M,32.2,M,,0000*6C
$GPGSA,M,3,18,30,21,22,31,25,29,,,,,,3.0,1.1,2.8*30
$GPRMC,180706.000,A,1426.2867,S,07105.6142,W,0.42,279.42,240411,,,A*6F
$GPGGA,180707.001,1426.2866,S,07105.6145,W,1,07,1.1,3951.8,M,32.2,M,,0000*67
$GPGSA,M,3,18,30,21,22,31,25,29,,,,,,3.0,1.1,2.8*30
$GPGSV,3,1,11,18,59,052,36,30,46,211,33,21,45,165,31,22,42,000,34*7C
$GPGSV,3,2,11,31,36,307,37,25,35,043,39,16,23,212,33,29,21,113,29*74
$GPGSV,3,3,11,06,14,230,,14,05,355,,03,05,236,*49
$GPRMC,180707.001,A,1426.2866,S,07105.6145,W,0.46,308.78,240411,,,A*63
$GPGGA,180708.001,1426.2867,S,07105.6145,W,1,07,1.1,3948.6,M,32.2,M,,0000*6F
$GPGSA,M,3,18,30,21,22,31,25,29,,,,,,3.0,1.1,2.8*30
$GPRMC,180708.001,A,1426.2867,S,07105.6145,W,0.77,10.52,240411,,,A*5D
$GPGGA,180709.001,1426.2869,S,07105.6143,W,1,07,1.1,3947.3,M,32.2,M,,0000*6C
$GPGSA,M,3,18,30,21,22,31,25,29,,,,,,3.0,1.1,2.8*30
$GPRMC,180709.001,A,1426.2869,S,07105.6143,W,0.43,14.95,240411,,,A*5C
$GPGGA,180710.001,1426.2868,S,07105.6144,W,1,07,1.1,3948.3,M,32.2,M,,0000*6D
$GPGSA,M,3,18,30,21,22,31,25,29,,,,,,3.0,1.1,2.8*30
$GPRMC,180710.001,A,1426.2868,S,07105.6144,W,0.29,333.23,240411,,,A*65
$GPGGA,180711.003,1426.2867,S,07105.6147,W,1,07,1.1,3946.0,M,32.2,M,,0000*6F
$GPGSA,M,3,18,30,21,22,31,25,29,,,,,,3.0,1.1,2.8*30
$GPRMC,180711.003,A,1426.2867,S,07105.6147,W,0.66,17.91,240411,,,A*5D
$GPGGA,180712.000,1426.2869,S,07105.6147,W,1,07,1.1,3943.9,M,32.2,M,,0000*6D
$GPGSA,M,3,18,30,21,22,31,25,29,,,,,,3.0,1.1,2.8*30
$GPGSV,3,1,11,18,59,052,36,30,46,211,33,21,45,165,32,22,42,000,35*7E
$GPGSV,3,2,11,31,36,307,36,25,35,043,39,16,23,212,33,29,21,113,28*74
$GPGSV,3,3,11,06,14,230,,14,05,355,,03,05,236,*49
$GPRMC,180712.000,A,1426.2869,S,07105.6147,W,0.12,117.56,240411,,,A*6A
$GPGGA,180712.996,1426.2872,S,07105.6146,W,1,07,1.1,3943.0,M,32.2,M,,0000*69
$GPGSA,M,3,18,30,21,22,31,25,29,,,,,,3.0,1.1,2.8*30
$GPRMC,180712.996,A,1426.2872,S,07105.6146,W,0.66,353.72,240411,,,A*60
$GPGGA,180714.002,1426.2872,S,07105.6147,W,1,06,1.3,3943.0,M,32.2,M,,0000*69
$GPGSA,M,3,18,30,21,22,31,25,,,,,,,5.1,1.3,4.9*39
$GPRMC,180714.002,A,1426.2872,S,07105.6147,W,0.20,325.00,240411,,,A*65
$GPGGA,180715.002,1426.2872,S,07105.6147,W,1,07,1.1,3941.4,M,32.2,M,,0000*6D
$GPGSA,M,3,18,30,21,22,31,25,29,,,,,,3.0,1.1,2.8*30
$GPRMC,180715.002,A,1426.2872,S,07105.6147,W,0.17,198.76,240411,,,A*65
$GPGGA,180715.997,1426.2874,S,07105.6147,W,1,07,1.1,3941.6,M,32.2,M,,0000*6C
$GPGSA,M,3,18,30,21,22,31,25,29,,,,,,3.0,1.1,2.8*30
$GPRMC,180715.997,A,1426.2874,S,07105.6147,W,0.21,322.15,240411,,,A*65
$GPGGA,180717.005,1426.2874,S,07105.6145,W,1,07,1.1,3943.6,M,32.2,M,,0000*6C
$GPGSA,M,3,18,30,21,22,31,25,29,,,,,,3.0,1.1,2.8*30
$GPGSV,3,1,11,18,59,052,36,30,46,211,33,21,45,165,32,22,42,000,34*7F
$GPGSV,3,2,11,31,36,307,38,25,35,043,40,16,23,212,34,29,21,113,29*72
$GPGSV,3,3,11,06,14,230,,14,05,355,,03,05,236,*49
$GPRMC,180717.005,A,1426.2874,S,07105.6145,W,0.33,10.11,240411,,,A*52
$GPGGA,180717.998,1426.2874,S,07105.6145,W,1,07,1.1,3945.3,M,32.2,M,,0000*62
$GPGSA,M,3,18,30,21,22,31,25,29,,,,,,3.0,1.1,2.8*30
$GPRMC,180717.998,A,1426.2874,S,07105.6145,W,0.11,175.13,240411,,,A*6F
$GPGGA,180719.012,1426.2876,S,07105.6144,W,1,07,1.1,3948.7,M,32.2,M,,0000*6D
$GPGSA,M,3,18,30,21,22,31,25,29,,,,,,3.0,1.1,2.8*30
$GPRMC,180719.012,A,1426.2876,S,07105.6144,W,0.20,297.30,240411,,,A*65
$GPGGA,180719.989,1426.2878,S,07105.6144,W,1,07,1.1,3950.8,M,32.2,M,,0000*6E
$GPGSA,M,3,18,30,21,22,31,25,29,,,,,,3.0,1.1,2.8*30
$GPRMC,180719.989,A,1426.2878,S,07105.6144,W,0.09,333.97,240411,,,A*69
$GPGGA,180721.000,1426.2877,S,07105.6142,W,1,07,1.1,3952.3,M,32.2,M,,0000*6D
$GPGSA,M,3,18,30,21,22,31,25,29,,,,,,3.0,1.1,2.8*30
$GPRMC,180721.000,A,1426.2877,S,07105.6142,W,0.19,192.91,240411,,,A*6D
$GPGGA,180721.995,1426.2879,S,07105.6142,W,1,07,1.1,3952.8,M,32.2,M,,0000*6D
$GPGSA,M,3,18,30,21,22,31,25,29,,,,,,3.0,1.1,2.8*30
$GPGSV,3,1,11,18,59,052,36,30,46,211,33,21,45,165,31,22,42,000,34*7C
$GPGSV,3,2,11,31,36,307,37,25,35,043,39,16,23,212,33,29,21,113,27*7A
$GPGSV,3,3,11,06,14,230,,14,05,355,,03,05,236,*49
$GPRMC,180721.995,A,1426.2879,S,07105.6142,W,0.40,49.77,240411,,,A*55
$GPGGA,180723.000,1426.2877,S,07105.6143,W,1,07,1.1,3954.5,M,32.2,M,,0000*6E
$GPGSA,M,3,18,30,21,22,31,25,29,,,,,,3.0,1.1,2.8*30
$GPRMC,180723.000,A,1426.2877,S,07105.6143,W,0.28,19.91,240411,,,A*5E
$GPGGA,180724.005,1426.2878,S,07105.6143,W,1,07,1.1,3957.6,M,32.2,M,,0000*63
$GPGSA,M,3,18,30,21,22,31,25,29,,,,,,3.0,1.1,2.8*30
$GPRMC,180724.005,A,1426.2878,S,07105.6143,W,0.61,353.46,240411,,,A*69
$GPGGA,180724.997,1426.2877,S,07105.6141,W,1,07,1.1,3958.3,M,32.2,M,,0000*66
$GPGSA,M,3,18,30,21,22,31,25,29,,,,,,3.0,1.1,2.8*30
$GPRMC,180724.997,A,1426.2877,S,07105.6141,W,0.17,344.35,240411,,,A*65
$GPGGA,180726.018,1426.2875,S,07105.6140,W,1,07,1.1,3961.9,M,32.2,M,,0000*69
$GPGSA,M,3,18,30,21,22,31,25,29,,,,,,3.0,1.1,2.8*30
$GPRMC,180726.018,A,1426.2875,S,07105.6140,W,0.53,11.01,240411,,,A*5E
$GPGGA,180726.983,1426.2875,S,07105.6141,W,1,07,1.1,3961.0,M,32.2,M,,0000*6A
$GPGSA,M,3,18,30,21,22,31,25,29,,,,,,3.0,1.1,2.8*30
$GPGSV,3,1,11,18,59,052,36,30,46,211,33,21,45,165,34,22,42,000,35*78
$GPGSV,3,2,11,31,36,307,37,25,35,043,39,16,23,212,34,29,21,113,28*72
$GPGSV,3,3,11,06,14,230,,14,05,355,,03,05,236,*49
$GPRMC,180726.983,A,1426.2875,S,07105.6141,W,0.07,295.90,240411,,,A*63
$GPGGA,180727.997,1426.2873,S,07105.6140,W,1,07,1.1,3963.4,M,32.2,M,,0000*6F
$GPGSA,M,3,18,30,21,22,31,25,29,,,,,,3.0,1.1,2.8*30
$GPRMC,180727.997,A,1426.2873,S,07105.6140,W,0.27,20.64,240411,,,A*55
$GPGGA,180729.000,1426.2873,S,07105.6139,W,1,07,1.1,3961.4,M,32.2,M,,0000*6A
$GPGSA,M,3,18,30,21,22,31,25,29,,,,,,3.0,1.1,2.8*30
$GPRMC,180729.000,A,1426.2873,S,07105.6139,W,0.35,264.49,240411,,,A*6C
$GPGGA,180730.002,1426.2871,S,07105.6140,W,1,07,1.1,3961.8,M,32.2,M,,0000*60
$GPGSA,M,3,18,30,21,22,31,25,29,,,,,,3.0,1.1,2.8*30
$GPRMC,180730.002,A,1426.2871,S,07105.6140,W,0.43,339.53,240411,,,A*69
$GPGGA,180730.999,1426.2874,S,07105.6134,W,1,07,1.1,3963.6,M,32.2,M,,0000*61
$GPGSA,M,3,18,30,21,22,31,25,29,,,,,,3.0,1.1,2.8*30
$GPRMC,180730.999,A,1426.2874,S,07105.6134,W,0.36,96.42,240411,,,A*50
$GPGGA,180731.999,1426.2876,S,07105.6137,W,1,07,1.1,3964.3,M,32.2,M,,0000*63
$GPGSA,M,3,18,30,21,22,31,25,29,,,,,,3.0,1.1,2.8*30
$GPGSV,3,1,11,18,59,052,35,30,46,211,35,21,45,165,33,22,42,000,30*7F
$GPGSV,3,2,11,31,36,307,38,25,35,043,39,16,23,212,28,29,21,113,29*71
$GPGSV,3,3,11,06,14,230,,14,05,355,,03,05,236,*49
$GPRMC,180731.999,A,1426.2876,S,07105.6137,W,0.14,243.62,240411,,,A*68
$GPGGA,180733.001,1426.2874,S,07105.6137,W,1,07,1.1,3963.7,M,32.2,M,,0000*68
$GPGSA,M,3,18,30,21,22,31,25,29,,,,,,3.0,1.1,2.8*30
$GPRMC,180733.001,A,1426.2874,S,07105.6137,W,0.46,314.78,240411,,,A*6F
$GPGGA,180734.003,1426.2872,S,07105.6134,W,1,07,1.1,3964.5,M,32.2,M,,0000*6D
$GPGSA,M,3,18,30,21,22,31,25,29,,,,,,3.0,1.1,2.8*30
$GPRMC,180734.003,A,1426.2872,S,07105.6134,W,0.38,42.17,240411,,,A*5F
$GPGGA,180734.998,1426.2871,S,07105.6133,W,1,07,1.1,3962.9,M,32.2,M,,0000*68
$GPGSA,M,3,18,30,21,22,31,25,29,,,,,,3.0,1.1,2.8*30
$GPRMC,180734.998,A,1426.2871,S,07105.6133,W,0.36,9.32,240411,,,A*66
$GPGGA,180736.002,1426.2870,S,07105.6138,W,1,07,1.1,3963.0,M,32.2,M,,0000*62
$GPGSA,M,3,18,30,21,22,31,25,29,,,,,,3.0,1.1,2.8*30
$GPRMC,180736.002,A,1426.2870,S,07105.6138,W,0.49,243.43,240411,,,A*66
$GPGGA,180736.999,1426.2870,S,07105.6138,W,1,07,1.1,3961.3,M,32.2,M,,0000*68
$GPGSA,M,3,18,30,21,22,31,25,29,,,,,,3.0,1.1,2.8*30
$GPGSV,3,1,11,18,59,052,35,30,46,211,36,21,45,165,31,22,42,000,33*7D
$GPGSV,3,2,11,31,36,307,38,25,35,043,37,16,23,212,,29,21,113,31*7C
$GPGSV,3,3,11,06,14,230,,14,05,355,,03,05,236,*49
$GPRMC,180736.999,A,1426.2870,S,07105.6138,W,0.19,0.34,240411,,,A*6D
