$GPGGA,163430.000,1332.7872,S,07245.0943,W,1,05,1.8,3093.3,M,27.3,M,,0000*63
$GPGSA,M,3,31,29,21,25,12,,,,,,,,3.3,1.8,2.8*33
$GPGSV,3,1,12,21,80,297,32,25,55,119,45,31,41,237,33,29,32,160,37*79
$GPGSV,3,2,12,12,27,075,38,14,12,316,,09,05,023,,18,23,007,40*70
$GPGSV,3,3,12,30,08,218,,22,06,342,,05,03,125,,06,00,271,*7B
$GPRMC,163430.000,A,1332.7872,S,07245.0943,W,22.53,151.70,210411,,,A*52
$GPGGA,163430.996,1332.7929,S,07245.0912,W,1,05,1.8,3092.7,M,27.3,M,,0000*6B
$GPGSA,M,3,21,25,31,29,12,,,,,,,,3.3,1.8,2.8*33
$GPRMC,163430.996,A,1332.7929,S,07245.0912,W,23.44,151.32,210411,,,A*5E
$GPGGA,163432.003,1332.7988,S,07245.0880,W,1,05,1.8,3092.4,M,27.3,M,,0000*6E
$GPGSA,M,3,21,25,31,29,12,,,,,,,,3.3,1.8,2.8*33
$GPRMC,163432.003,A,1332.7988,S,07245.0880,W,23.65,152.58,210411,,,A*54
$GPGGA,163433.001,1332.8045,S,07245.0850,W,1,05,1.7,3092.5,M,27.3,M,,0000*69
$GPGSA,M,3,21,25,31,29,12,,,,,,,,3.3,1.7,2.8*3C
$GPRMC,163433.001,A,1332.8045,S,07245.0850,W,20.95,154.60,210411,,,A*5C
$GPGGA,163433.998,1332.8098,S,07245.0824,W,1,05,1.7,3091.4,M,27.3,M,,0000*61
$GPGSA,M,3,21,25,31,29,12,,,,,,,,3.3,1.7,2.8*3C
$GPRMC,163433.998,A,1332.8098,S,07245.0824,W,21.14,154.99,210411,,,A*58
$GPGGA,163435.001,1332.8156,S,07245.0797,W,1,05,1.7,3091.2,M,27.3,M,,0000*6C
$GPGSA,M,3,21,25,31,29,12,,,,,,,,3.3,1.7,2.8*3C
$GPGSV,3,1,12,21,80,297,31,25,55,119,38,31,41,237,36,29,32,160,31*73
$GPGSV,3,2,12,12,27,075,37,18,23,007,33,14,12,316,,30,08,218,*76
$GPGSV,3,3,12,22,06,342,,09,05,023,,05,03,125,,06,00,271,*76
$GPRMC,163435.001,A,1332.8156,S,07245.0797,W,21.32,156.88,210411,,,A*55
$GPGGA,163435.998,1332.8212,S,07245.0772,W,1,04,2.7,3090.9,M,27.3,M,,0000*65
$GPGSA,M,3,21,25,31,12,,,,,,,,,3.9,2.7,2.8*3E
$GPRMC,163435.998,A,1332.8212,S,07245.0772,W,21.63,157.90,210411,,,A*58
$GPGGA,163437.003,1332.8269,S,07245.0753,W,1,05,1.7,3089.8,M,27.3,M,,0000*68
$GPGSA,M,3,21,25,31,29,12,,,,,,,,3.3,1.7,2.8*3C
$GPRMC,163437.003,A,1332.8269,S,07245.0753,W,21.65,160.22,210411,,,A*55
$GPGGA,163437.997,1332.8315,S,07245.0752,W,1,05,1.7,3088.2,M,27.3,M,,0000*6C
$GPGSA,M,3,21,25,31,29,12,,,,,,,,3.3,1.7,2.8*3C
$GPRMC,163437.997,A,1332.8315,S,07245.0752,W,20.70,167.21,210411,,,A*5B
$GPGGA,163439.003,1332.8357,S,07245.0768,W,1,05,1.7,3086.7,M,27.3,M,,0000*62
$GPGSA,M,3,21,25,31,29,12,,,,,,,,3.3,1.7,2.8*3C
$GPRMC,163439.003,A,1332.8357,S,07245.0768,W,18.69,176.12,210411,,,A*5D
$GPGGA,163440.000,1332.8372,S,07245.0830,W,1,05,1.7,3085.2,M,27.3,M,,0000*6C
$GPGSA,M,3,21,25,31,29,12,,,,,,,,3.3,1.7,2.8*3C
$GPGSV,3,1,12,21,80,297,31,25,55,119,33,31,41,237,31,29,32,160,35*7B
$GPGSV,3,2,12,12,27,075,32,18,23,007,30,14,12,316,,30,08,218,*70
$GPGSV,3,3,12,22,06,342,,09,05,023,,05,03,125,,06,00,271,*76
$GPRMC,163440.000,A,1332.8372,S,07245.0830,W,15.16,198.47,210411,,,A*50
$GPGGA,163441.002,1332.8412,S,07245.0843,W,0,00,,3084.5,M,27.3,M,,0000*40
$GPGSA,M,1,,,,,,,,,,,,,,,*12
$GPRMC,163441.002,V,1332.8412,S,07245.0843,W,,,210411,,,N*7E
$GPGGA,163442.000,1332.8452,S,07245.0857,W,0,00,,3083.8,M,27.3,M,,0000*4A
$GPGSA,M,1,,,,,,,,,,,,,,,*12
$GPRMC,163442.000,V,1332.8452,S,07245.0857,W,,,210411,,,N*7E
$GPGGA,163443.000,1332.8492,S,07245.0871,W,0,00,,3083.0,M,27.3,M,,0000*4B
$GPGSA,M,1,,,,,,,,,,,,,,,*12
$GPRMC,163443.000,V,1332.8492,S,07245.0871,W,,,210411,,,N*77
$GPGGA,163444.000,1332.8430,S,07245.1135,W,1,04,2.1,3082.1,M,27.3,M,,0000*64
$GPGSA,M,3,31,29,12,21,,,,,,,,,4.3,2.1,3.7*37
$GPRMC,163444.000,A,1332.8430,S,07245.1135,W,24.51,249.16,210411,,,A*52
$GPGGA,163445.000,1332.8456,S,07245.1216,W,1,05,1.7,3084.0,M,27.3,M,,0000*64
$GPGSA,M,3,31,29,12,21,25,,,,,,,,3.3,1.7,2.8*3C
$GPGSV,3,1,12,21,80,296,35,25,55,118,41,31,41,237,36,29,32,160,37*7F
$GPGSV,3,2,12,12,27,075,36,14,12,316,,09,05,023,,18,23,007,32*7B
$GPGSV,3,3,12,30,08,218,36,22,06,342,,05,03,125,,06,00,270,*7F
$GPRMC,163445.000,A,1332.8456,S,07245.1216,W,23.65,240.28,210411,,,A*55
$GPGGA,163446.000,1332.8494,S,07245.1276,W,1,05,1.7,3086.0,M,27.3,M,,0000*6D
$GPGSA,M,3,31,29,12,21,25,,,,,,,,3.3,1.7,2.8*3C
$GPRMC,163446.000,A,1332.8494,S,07245.1276,W,23.73,236.29,210411,,,A*59
$GPGGA,163447.000,1332.8528,S,07245.1332,W,1,05,1.7,3084.4,M,27.3,M,,0000*6D
$GPGSA,M,3,31,29,12,21,25,,,,,,,,3.3,1.7,2.8*3C
$GPRMC,163447.000,A,1332.8528,S,07245.1332,W,22.97,236.14,210411,,,A*5A
$GPGGA,163448.000,1332.8554,S,07245.1390,W,1,05,1.7,3082.9,M,27.3,M,,0000*6A
$GPGSA,M,3,31,29,12,21,25,,,,,,,,3.3,1.7,2.8*3C
$GPRMC,163448.000,A,1332.8554,S,07245.1390,W,22.21,240.84,210411,,,A*53
$GPGGA,163449.000,1332.8582,S,07245.1449,W,1,05,1.7,3083.0,M,27.3,M,,0000*6B
$GPGSA,M,3,31,29,12,21,25,,,,,,,,3.3,1.7,2.8*3C
$GPRMC,163449.000,A,1332.8582,S,07245.1449,W,22.33,248.13,210411,,,A*5F
$GPGGA,163450.000,1332.8600,S,07245.1510,W,1,05,1.7,3082.7,M,27.3,M,,0000*61
$GPGSA,M,3,31,29,12,21,25,,,,,,,,3.3,1.7,2.8*3C
$GPGSV,3,1,12,21,80,296,32,25,55,118,39,31,41,237,36,29,32,160,40*77
$GPGSV,3,2,12,12,27,075,35,14,12,316,,09,05,023,,18,23,007,*79
$GPGSV,3,3,12,30,08,218,29,22,06,342,,05,03,125,,06,00,270,*71
$GPRMC,163450.000,A,1332.8600,S,07245.1510,W,22.38,253.77,210411,,,A*50
$GPGGA,163451.000,1332.8613,S,07245.1574,W,1,05,1.7,3082.8,M,27.3,M,,0000*6F
$GPGSA,M,3,31,29,12,21,25,,,,,,,,3.3,1.7,2.8*3C
$GPRMC,163451.000,A,1332.8613,S,07245.1574,W,23.36,259.77,210411,,,A*54
$GPGGA,163452.000,1332.8618,S,07245.1645,W,1,05,1.7,3081.3,M,27.3,M,,0000*6E
$GPGSA,M,3,31,29,12,21,25,,,,,,,,3.3,1.7,2.8*3C
$GPRMC,163452.000,A,1332.8618,S,07245.1645,W,24.36,263.30,210411,,,A*50
$GPGGA,163453.000,1332.8625,S,07245.1715,W,1,05,1.7,3079.0,M,27.3,M,,0000*61
$GPGSA,M,3,31,29,12,21,25,,,,,,,,3.3,1.7,2.8*3C
$GPRMC,163453.000,A,1332.8625,S,07245.1715,W,23.98,262.49,210411,,,A*57
$GPGGA,163454.000,1332.8633,S,07245.1785,W,1,05,1.7,3077.7,M,27.3,M,,0000*61
$GPGSA,M,3,31,29,12,21,25,,,,,,,,3.3,1.7,2.8*3C
$GPRMC,163454.000,A,1332.8633,S,07245.1785,W,24.52,262.31,210411,,,A*50
$GPGGA,163455.002,1332.8645,S,07245.1853,W,1,05,1.7,3077.0,M,27.3,M,,0000*60
$GPGSA,M,3,21,25,31,29,12,,,,,,,,3.3,1.7,2.8*3C
$GPGSV,3,1,12,21,80,296,32,25,55,118,37,31,41,237,36,29,32,160,38*76
$GPGSV,3,2,12,12,27,075,35,18,23,007,,14,12,316,,30,08,218,*74
$GPGSV,3,3,12,22,06,342,,09,05,023,,05,03,125,,06,00,270,*77
$GPRMC,163455.002,A,1332.8645,S,07245.1853,W,23.71,256.97,210411,,,A*5B
$GPGGA,163455.998,1332.8663,S,07245.1917,W,1,05,1.7,3076.4,M,27.3,M,,0000*6A
$GPGSA,M,3,21,25,31,29,12,,,,,,,,3.3,1.7,2.8*3C
$GPRMC,163455.998,A,1332.8663,S,07245.1917,W,23.92,253.52,210411,,,A*55
$GPGGA,163457.003,1332.8680,S,07245.1982,W,1,05,1.7,3075.8,M,27.3,M,,0000*6D
$GPGSA,M,3,21,25,31,29,12,,,,,,,,3.3,1.7,2.8*3C
$GPRMC,163457.003,A,1332.8680,S,07245.1982,W,23.75,254.03,210411,,,A*57
$GPGGA,163457.997,1332.8703,S,07245.2047,W,1,05,1.7,3075.7,M,27.3,M,,0000*6F
$GPGSA,M,3,21,25,31,29,12,,,,,,,,3.3,1.7,2.8*3C
$GPRMC,163457.997,A,1332.8703,S,07245.2047,W,24.06,250.61,210411,,,A*59
$GPGGA,163459.001,1332.8726,S,07245.2111,W,1,05,1.7,3075.3,M,27.3,M,,0000*66
$GPGSA,M,3,21,25,31,29,12,,,,,,,,3.3,1.7,2.8*3C
$GPRMC,163459.001,A,1332.8726,S,07245.2111,W,24.51,249.63,210411,,,A*5C
$GPGGA,163459.998,1332.8749,S,07245.2178,W,1,05,1.7,3075.0,M,27.3,M,,0000*6A
$GPGSA,M,3,21,25,31,29,12,,,,,,,,3.3,1.7,2.8*3C
$GPGSV,3,1,12,21,80,296,30,25,55,118,36,31,41,237,35,29,32,160,39*77
$GPGSV,3,2,12,12,27,075,37,18,23,007,,14,12,316,,30,08,218,*76
$GPGSV,3,3,12,22,06,342,,09,05,023,,05,03,125,,06,00,270,*77
$GPRMC,163459.998,A,1332.8749,S,07245.2178,W,24.66,252.64,210411,,,A*5A
$GPGGA,163501.004,1332.8756,S,07245.2249,W,1,05,1.7,3073.6,M,27.3,M,,0000*65
$GPGSA,M,3,21,25,31,29,12,,,,,,,,3.3,1.7,2.8*3C
$GPRMC,163501.004,A,1332.8756,S,07245.2249,W,24.88,259.70,210411,,,A*5B
$GPGGA,163501.997,1332.8759,S,07245.2318,W,1,05,1.7,3072.8,M,27.3,M,,0000*63
$GPGSA,M,3,21,25,31,29,12,,,,,,,,3.3,1.7,2.8*3C
$GPRMC,163501.997,A,1332.8759,S,07245.2318,W,24.38,266.00,210411,,,A*52
$GPGGA,163503.001,1332.8767,S,07245.2385,W,1,05,1.7,3072.8,M,27.3,M,,0000*6E
$GPGSA,M,3,21,25,31,29,12,,,,,,,,3.3,1.7,2.8*3C
$GPRMC,163503.001,A,1332.8767,S,07245.2385,W,23.57,262.52,210411,,,A*52
$GPGGA,163504.004,1332.8776,S,07245.2457,W,1,05,1.7,3071.6,M,27.3,M,,0000*69
$GPGSA,M,3,21,25,31,29,12,,,,,,,,3.3,1.7,2.8*3C
$GPRMC,163504.004,A,1332.8776,S,07245.2457,W,25.30,261.94,210411,,,A*56
$GPGGA,163504.996,1332.8789,S,07245.2528,W,1,04,2.9,3072.2,M,27.3,M,,0000*69
$GPGSA,M,3,21,25,29,12,,,,,,,,,5.2,2.9,4.3*39
$GPGSV,3,1,12,21,80,296,28,25,55,118,32,31,41,237,,29,32,160,36*73
$GPGSV,3,2,12,12,27,075,32,18,23,007,,14,12,316,,30,08,218,*73
$GPGSV,3,3,12,22,06,342,,09,05,023,,05,03,125,,06,00,270,*77
$GPRMC,163504.996,A,1332.8789,S,07245.2528,W,25.37,257.97,210411,,,A*5C
$GPGGA,163506.003,1332.8811,S,07245.2599,W,1,05,1.7,3071.8,M,27.3,M,,0000*6F
$GPGSA,M,3,21,25,31,29,12,,,,,,,,3.3,1.7,2.8*3C
$GPRMC,163506.003,A,1332.8811,S,07245.2599,W,26.10,253.42,210411,,,A*55
$GPGGA,163506.999,1332.8831,S,07245.2676,W,1,05,1.7,3070.9,M,27.3,M,,0000*65
$GPGSA,M,3,21,25,31,29,12,,,,,,,,3.3,1.7,2.8*3C
$GPRMC,163506.999,A,1332.8831,S,07245.2676,W,27.02,253.10,210411,,,A*5A
$GPGGA,163507.997,1332.8852,S,07245.2749,W,1,05,1.7,3069.6,M,27.3,M,,0000*65
$GPGSA,M,3,21,25,31,29,12,,,,,,,,3.3,1.7,2.8*3C
$GPRMC,163507.997,A,1332.8852,S,07245.2749,W,26.30,250.29,210411,,,A*54
$GPGGA,163509.001,1332.8871,S,07245.2818,W,1,05,1.7,3069.6,M,27.3,M,,0000*67
$GPGSA,M,3,21,25,31,29,12,,,,,,,,3.3,1.7,2.8*3C
$GPRMC,163509.001,A,1332.8871,S,07245.2818,W,25.44,251.98,210411,,,A*5D
$GPGGA,163509.998,1332.8892,S,07245.2892,W,1,04,2.7,3068.5,M,27.3,M,,0000*61
$GPGSA,M,3,21,25,31,12,,,,,,,,,3.9,2.7,2.8*3E
$GPGSV,3,1,12,21,80,296,31,25,55,118,32,31,41,237,34,29,32,160,*79
$GPGSV,3,2,12,12,27,075,35,18,23,007,,14,12,316,,30,08,218,*74
$GPGSV,3,3,12,22,06,342,,09,05,023,,05,03,125,,06,00,270,*77
$GPRMC,163509.998,A,1332.8892,S,07245.2892,W,26.26,252.64,210411,,,A*5C
$GPGGA,163511.002,1332.8909,S,07245.2965,W,1,05,1.7,3067.2,M,27.3,M,,0000*62
$GPGSA,M,3,21,25,31,29,12,,,,,,,,3.3,1.7,2.8*3C
$GPRMC,163511.002,A,1332.8909,S,07245.2965,W,26.13,255.58,210411,,,A*5B
$GPGGA,163511.999,1332.8923,S,07245.3045,W,1,05,1.7,3066.7,M,27.3,M,,0000*6F
$GPGSA,M,3,21,25,31,29,12,,,,,,,,3.3,1.7,2.8*3C
$GPRMC,163511.999,A,1332.8923,S,07245.3045,W,27.19,259.05,210411,,,A*5D
$GPGGA,163512.996,1332.8934,S,07245.3123,W,1,04,1.9,3065.1,M,27.3,M,,0000*6E
$GPGSA,M,3,25,31,29,12,,,,,,,,,4.3,1.9,3.9*36
$GPRMC,163512.996,A,1332.8934,S,07245.3123,W,26.63,259.41,210411,,,A*5A
$GPGGA,163514.002,1332.8952,S,07245.3193,W,1,05,1.7,3064.9,M,27.3,M,,0000*61
$GPGSA,M,3,21,25,31,29,12,,,,,,,,3.3,1.7,2.8*3C
$GPRMC,163514.002,A,1332.8952,S,07245.3193,W,26.02,254.25,210411,,,A*5B
$GPGGA,163514.999,1332.8976,S,07245.3263,W,1,05,1.7,3065.5,M,27.3,M,,0000*6D
$GPGSA,M,3,21,25,31,29,12,,,,,,,,3.3,1.7,2.8*3C
$GPGSV,3,1,12,21,80,296,31,25,55,118,36,31,41,237,36,29,32,160,38*74
$GPGSV,3,2,12,12,27,075,35,18,23,007,,14,12,316,,30,08,218,*74
$GPGSV,3,3,12,22,06,342,,09,05,023,,05,03,125,,06,00,270,*77
$GPRMC,163514.999,A,1332.8976,S,07245.3263,W,27.18,254.11,210411,,,A*57
$GPGGA,163516.003,1332.8994,S,07245.3342,W,1,05,1.7,3064.7,M,27.3,M,,0000*68
$GPGSA,M,3,21,25,31,29,12,,,,,,,,3.3,1.7,2.8*3C
$GPRMC,163516.003,A,1332.8994,S,07245.3342,W,27.71,253.64,210411,,,A*5B
$GPGGA,163516.998,1332.9019,S,07245.3418,W,1,05,1.7,3065.1,M,27.3,M,,0000*61
$GPGSA,M,3,21,25,31,29,12,,,,,,,,3.3,1.7,2.8*3C
$GPRMC,163516.998,A,1332.9019,S,07245.3418,W,27.22,249.44,210411,,,A*5A
$GPGGA,163518.001,1332.9047,S,07245.3487,W,1,05,1.7,3063.1,M,27.3,M,,0000*6D
$GPGSA,M,3,21,25,31,29,12,,,,,,,,3.3,1.7,2.8*3C
$GPRMC,163518.001,A,1332.9047,S,07245.3487,W,26.58,245.56,210411,,,A*53
$GPGGA,163519.000,1332.9081,S,07245.3560,W,1,05,1.7,3061.6,M,27.3,M,,0000*6A
$GPGSA,M,3,21,25,31,29,12,,,,,,,,3.3,1.7,2.8*3C
$GPRMC,163519.000,A,1332.9081,S,07245.3560,W,27.36,243.96,210411,,,A*52
$GPGGA,163520.000,1332.9116,S,07245.3633,W,1,05,1.7,3060.9,M,27.3,M,,0000*64
$GPGSA,M,3,21,25,31,29,12,,,,,,,,3.3,1.7,2.8*3C
$GPGSV,3,1,12,21,80,296,32,25,55,118,35,31,41,237,33,29,32,160,37*7E
$GPGSV,3,2,12,12,27,075,34,18,23,007,,14,12,316,,30,08,218,*75
$GPGSV,3,3,12,22,06,342,,09,05,023,,05,03,125,,06,00,270,*77
$GPRMC,163520.000,A,1332.9116,S,07245.3633,W,27.73,242.08,210411,,,A*55
$GPGGA,163521.000,1332.9159,S,07245.3701,W,1,05,1.7,3062.0,M,27.3,M,,0000*65
$GPGSA,M,3,21,25,31,29,12,,,,,,,,3.3,1.7,2.8*3C
$GPRMC,163521.000,A,1332.9159,S,07245.3701,W,27.69,240.18,210411,,,A*57
$GPGGA,163521.998,1332.9204,S,07245.3773,W,1,05,1.7,3061.9,M,27.3,M,,0000*69
$GPGSA,M,3,21,25,31,29,12,,,,,,,,3.3,1.7,2.8*3C
$GPRMC,163521.998,A,1332.9204,S,07245.3773,W,28.06,238.11,210411,,,A*51
$GPGGA,163523.002,1332.9248,S,07245.3839,W,1,05,1.7,3061.8,M,27.3,M,,0000*69
$GPGSA,M,3,21,25,31,29,12,,,,,,,,3.3,1.7,2.8*3C
$GPRMC,163523.002,A,1332.9248,S,07245.3839,W,27.14,235.17,210411,,,A*57
$GPGGA,163523.999,1332.9289,S,07245.3908,W,1,05,1.7,3059.5,M,27.3,M,,0000*6A
$GPGSA,M,3,21,25,31,29,12,,,,,,,,3.3,1.7,2.8*3C
$GPRMC,163523.999,A,1332.9289,S,07245.3908,W,26.63,234.52,210411,,,A*53
$GPGGA,163524.999,1332.9328,S,07245.3971,W,1,05,1.7,3058.6,M,27.3,M,,0000*6B
$GPGSA,M,3,21,25,31,29,12,,,,,,,,3.3,1.7,2.8*3C
$GPGSV,3,1,12,21,80,296,35,25,55,118,34,31,41,237,37,29,32,160,38*73
$GPGSV,3,2,12,12,27,075,21,18,23,007,,14,12,316,,30,08,218,*71
$GPGSV,3,3,12,22,06,342,,09,05,023,,05,03,125,,06,00,270,*77
$GPRMC,163524.999,A,1332.9328,S,07245.3971,W,26.16,234.25,210411,,,A*52
$GPGGA,163525.997,1332.9375,S,07245.4029,W,1,04,2.1,3058.1,M,27.3,M,,0000*6C
$GPGSA,M,3,21,25,31,29,,,,,,,,,2.3,2.1,1.0*30
$GPRMC,163525.997,A,1332.9375,S,07245.4029,W,25.82,233.33,210411,,,A*58
$GPGGA,163527.001,1332.9423,S,07245.4085,W,1,05,1.7,3057.9,M,27.3,M,,0000*69
$GPGSA,M,3,21,25,31,29,12,,,,,,,,3.3,1.7,2.8*3C
$GPRMC,163527.001,A,1332.9423,S,07245.4085,W,27.16,229.53,210411,,,A*5C
$GPGGA,163528.001,1332.9471,S,07245.4141,W,1,05,1.7,3054.9,M,27.3,M,,0000*6B
$GPGSA,M,3,21,25,31,29,12,,,,,,,,3.3,1.7,2.8*3C
$GPRMC,163528.001,A,1332.9471,S,07245.4141,W,27.10,229.27,210411,,,A*58
$GPGGA,163529.000,1332.9517,S,07245.4200,W,1,05,1.7,3054.7,M,27.3,M,,0000*62
$GPGSA,M,3,21,25,31,29,12,,,,,,,,3.3,1.7,2.8*3C
$GPRMC,163529.000,A,1332.9517,S,07245.4200,W,26.58,227.33,210411,,,A*59
$GPGGA,163529.997,1332.9561,S,07245.4258,W,1,05,1.7,3054.7,M,27.3,M,,0000*69
$GPGSA,M,3,21,25,31,29,12,,,,,,,,3.3,1.7,2.8*3C
$GPGSV,3,1,12,21,80,296,32,25,55,118,37,31,41,237,39,29,32,160,38*79
$GPGSV,3,2,12,12,27,075,33,18,23,007,,14,12,316,,30,08,218,*72
$GPGSV,3,3,12,22,06,342,,09,05,023,,05,03,125,,06,00,270,*77
$GPRMC,163529.997,A,1332.9561,S,07245.4258,W,25.86,228.65,210411,,,A*5E
$GPGGA,163531.004,1332.9612,S,07245.4315,W,1,05,1.7,3054.5,M,27.3,M,,0000*6E
$GPGSA,M,3,21,25,31,29,12,,,,,,,,3.3,1.7,2.8*3C
$GPRMC,163531.004,A,1332.9612,S,07245.4315,W,26.24,227.40,210411,,,A*58
$GPGGA,163531.998,1332.9667,S,07245.4365,W,1,05,1.7,3055.2,M,27.3,M,,0000*61
$GPGSA,M,3,21,25,31,29,12,,,,,,,,3.3,1.7,2.8*3C
$GPRMC,163531.998,A,1332.9667,S,07245.4365,W,24.24,225.20,210411,,,A*57
$GPGGA,163532.999,1332.9718,S,07245.4398,W,1,05,1.7,3054.5,M,27.3,M,,0000*6E
$GPGSA,M,3,21,25,31,29,12,,,,,,,,3.3,1.7,2.8*3C
$GPRMC,163532.999,A,1332.9718,S,07245.4398,W,22.61,218.34,210411,,,A*52
$GPGGA,163533.999,1332.9755,S,07245.4433,W,1,05,1.7,3056.6,M,27.3,M,,0000*61
$GPGSA,M,3,21,25,31,29,12,,,,,,,,3.3,1.7,2.8*3C
$GPRMC,163533.999,A,1332.9755,S,07245.4433,W,20.12,220.15,210411,,,A*52
$GPGGA,163535.000,1332.9798,S,07245.4471,W,1,05,1.7,3056.1,M,27.3,M,,0000*6E
$GPGSA,M,3,21,25,31,29,12,,,,,,,,3.3,1.7,2.8*3C
$GPGSV,3,1,12,21,80,296,30,25,55,118,36,31,41,237,30,29,32,160,33*78
$GPGSV,3,2,12,12,27,075,33,18,23,007,,14,12,316,,30,08,218,*72
$GPGSV,3,3,12,22,06,342,,09,05,023,,05,03,125,,06,00,270,*77
$GPRMC,163535.000,A,1332.9798,S,07245.4471,W,20.07,221.76,210411,,,A*5A
$GPGGA,163536.001,1332.9839,S,07245.4505,W,1,05,1.7,3055.0,M,27.3,M,,0000*68
$GPGSA,M,3,21,25,31,29,12,,,,,,,,3.3,1.7,2.8*3C
$GPRMC,163536.001,A,1332.9839,S,07245.4505,W,20.68,224.81,210411,,,A*5A
$GPGGA,163536.997,1332.9883,S,07245.4546,W,1,04,2.9,3055.6,M,27.3,M,,0000*62
$GPGSA,M,3,21,25,29,12,,,,,,,,,5.2,2.9,4.3*39
$GPRMC,163536.997,A,1332.9883,S,07245.4546,W,20.83,225.32,210411,,,A*56
$GPGGA,163538.003,1332.9915,S,07245.4590,W,1,04,1.9,3051.4,M,27.3,M,,0000*68
$GPGSA,M,3,25,31,29,12,,,,,,,,,4.3,1.9,3.9*36
$GPRMC,163538.003,A,1332.9915,S,07245.4590,W,19.76,226.22,210411,,,A*5B
$GPGGA,163538.997,1332.9912,S,07245.4634,W,1,04,2.1,3053.5,M,27.3,M,,0000*6E
$GPGSA,M,3,21,25,31,29,,,,,,,,,2.3,2.1,1.0*30
$GPRMC,163538.997,A,1332.9912,S,07245.4634,W,16.33,235.13,210411,,,A*5B
$GPGGA,163540.000,1332.9868,S,07245.4686,W,1,04,2.1,3056.1,M,27.3,M,,0000*62
$GPGSA,M,3,21,25,31,29,,,,,,,,,2.3,2.1,1.0*30
$GPGSV,3,1,12,21,80,293,33,25,55,117,43,31,41,238,40,29,32,159,36*74
$GPGSV,3,2,12,12,27,074,,14,12,317,,09,04,023,,18,23,008,*71
$GPGSV,3,3,12,30,08,218,,22,06,342,,05,03,126,,06,00,270,*79
$GPRMC,163540.000,A,1332.9868,S,07245.4686,W,14.22,259.75,210411,,,A*5E
$GPGGA,163541.000,1332.9771,S,07245.4753,W,1,04,2.1,3056.6,M,27.3,M,,0000*6A
$GPGSA,M,3,21,25,31,29,,,,,,,,,2.3,2.1,1.0*30
$GPRMC,163541.000,A,1332.9771,S,07245.4753,W,16.66,292.43,210411,,,A*51
$GPGGA,163542.000,1332.9760,S,07245.4795,W,1,04,2.1,3056.6,M,27.3,M,,0000*63
$GPGSA,M,3,21,25,31,29,,,,,,,,,2.3,2.1,1.0*30
$GPRMC,163542.000,A,1332.9760,S,07245.4795,W,17.30,292.02,210411,,,A*5F
$GPGGA,163543.000,1332.9748,S,07245.4844,W,1,04,2.1,3056.1,M,27.3,M,,0000*6C
$GPGSA,M,3,21,25,31,29,,,,,,,,,2.3,2.1,1.0*30
$GPRMC,163543.000,A,1332.9748,S,07245.4844,W,16.41,283.75,210411,,,A*50
$GPGGA,163544.000,1332.9746,S,07245.4900,W,1,04,2.1,3054.4,M,27.3,M,,0000*63
$GPGSA,M,3,21,25,31,29,,,,,,,,,2.3,2.1,1.0*30
$GPRMC,163544.000,A,1332.9746,S,07245.4900,W,18.04,275.80,210411,,,A*54
$GPGGA,163545.000,1332.9748,S,07245.4953,W,1,05,1.7,3054.2,M,27.3,M,,0000*68
$GPGSA,M,3,21,25,31,29,12,,,,,,,,3.3,1.7,2.8*3C
$GPGSV,3,1,12,21,80,293,31,25,55,117,40,31,41,238,33,29,32,159,43*73
$GPGSV,3,2,12,12,27,074,37,14,12,317,,09,04,023,,18,23,008,*75
$GPGSV,3,3,12,30,08,218,,22,06,342,,05,03,126,,06,00,270,*79
$GPRMC,163545.000,A,1332.9748,S,07245.4953,W,18.36,266.21,210411,,,A*55
$GPGGA,163546.000,1332.9745,S,07245.5006,W,1,05,1.7,3051.6,M,27.3,M,,0000*6F
$GPGSA,M,3,21,25,31,29,12,,,,,,,,3.3,1.7,2.8*3C
$GPRMC,163546.000,A,1332.9745,S,07245.5006,W,18.42,263.61,210411,,,A*51
$GPGGA,163547.000,1332.9754,S,07245.5057,W,1,05,1.7,3051.8,M,27.3,M,,0000*64
$GPGSA,M,3,21,25,31,29,12,,,,,,,,3.3,1.7,2.8*3C
$GPRMC,163547.000,A,1332.9754,S,07245.5057,W,17.72,258.98,210411,,,A*56
$GPGGA,163548.000,1332.9766,S,07245.5108,W,1,05,1.7,3051.6,M,27.3,M,,0000*6F
$GPGSA,M,3,21,25,31,29,12,,,,,,,,3.3,1.7,2.8*3C
$GPRMC,163548.000,A,1332.9766,S,07245.5108,W,17.98,257.14,210411,,,A*5C
$GPGGA,163549.000,1332.9775,S,07245.5159,W,1,05,1.7,3050.8,M,27.3,M,,0000*67
$GPGSA,M,3,21,25,31,29,12,,,,,,,,3.3,1.7,2.8*3C
$GPRMC,163549.000,A,1332.9775,S,07245.5159,W,18.52,259.18,210411,,,A*50
$GPGGA,163550.000,1332.9781,S,07245.5212,W,1,05,1.7,3049.1,M,27.3,M,,0000*69
$GPGSA,M,3,21,25,31,29,12,,,,,,,,3.3,1.7,2.8*3C
$GPGSV,3,1,12,21,80,293,31,25,55,117,41,31,41,238,38,29,32,159,42*78
$GPGSV,3,2,12,12,27,074,35,14,12,317,,09,04,023,,18,23,008,*77
$GPGSV,3,3,12,30,08,218,,22,06,342,,05,03,126,,06,00,270,*79
$GPRMC,163550.000,A,1332.9781,S,07245.5212,W,18.76,258.96,210411,,,A*5E
$GPGGA,163551.000,1332.9796,S,07245.5265,W,1,05,1.7,3049.3,M,27.3,M,,0000*6C
$GPGSA,M,3,21,25,31,29,12,,,,,,,,3.3,1.7,2.8*3C
$GPRMC,163551.000,A,1332.9796,S,07245.5265,W,18.82,253.68,210411,,,A*58
$GPGGA,163551.997,1332.9811,S,07245.5316,W,1,05,1.7,3048.9,M,27.3,M,,0000*65
$GPGSA,M,3,21,25,31,29,12,,,,,,,,3.3,1.7,2.8*3C
$GPRMC,163551.997,A,1332.9811,S,07245.5316,W,17.74,252.70,210411,,,A*54
$GPGGA,163553.004,1332.9830,S,07245.5361,W,1,05,1.7,3048.2,M,27.3,M,,0000*6C
$GPGSA,M,3,21,25,31,29,12,,,,,,,,3.3,1.7,2.8*3C
$GPRMC,163553.004,A,1332.9830,S,07245.5361,W,17.06,245.53,210411,,,A*54
$GPGGA,163553.994,1332.9857,S,07245.5406,W,1,05,1.7,3048.4,M,27.3,M,,0000*6D
$GPGSA,M,3,21,25,31,29,12,,,,,,,,3.3,1.7,2.8*3C
$GPRMC,163553.994,A,1332.9857,S,07245.5406,W,18.42,239.80,210411,,,A*59
$GPGGA,163555.003,1332.9886,S,07245.5455,W,1,05,1.7,3048.0,M,27.3,M,,0000*62
$GPGSA,M,3,21,25,31,29,12,,,,,,,,3.3,1.7,2.8*3C
$GPGSV,3,1,12,21,80,293,32,25,55,117,39,31,41,238,34,29,32,159,28*74
$GPGSV,3,2,12,12,27,074,34,18,23,008,,14,12,317,,30,08,218,*7A
$GPGSV,3,3,12,22,06,342,,09,04,023,,05,03,126,,06,00,270,*75
$GPRMC,163555.003,A,1332.9886,S,07245.5455,W,19.64,238.42,210411,,,A*58
$GPGGA,163556.000,1332.9916,S,07245.5498,W,1,04,2.8,3048.7,M,27.3,M,,0000*61
$GPGSA,M,3,21,25,31,12,,,,,,,,,3.9,2.8,2.8*31
$GPRMC,163556.000,A,1332.9916,S,07245.5498,W,18.57,237.03,210411,,,A*5A
$GPGGA,163557.000,1332.9952,S,07245.5526,W,1,04,2.8,3049.7,M,27.3,M,,0000*65
$GPGSA,M,3,21,25,31,12,,,,,,,,,3.9,2.8,2.8*31
$GPRMC,163557.000,A,1332.9952,S,07245.5526,W,16.20,231.26,210411,,,A*50
$GPGGA,163558.000,1333.0034,S,07245.5486,W,1,04,2.8,3052.7,M,27.3,M,,0000*6A
$GPGSA,M,3,21,25,31,12,,,,,,,,,4.0,2.8,2.8*3F
$GPRMC,163558.000,A,1333.0034,S,07245.5486,W,15.71,192.92,210411,,,A*57
$GPGGA,163559.000,1333.0099,S,07245.5475,W,1,05,1.7,3052.6,M,27.3,M,,0000*6C
$GPGSA,M,3,21,25,31,12,29,,,,,,,,3.3,1.7,2.8*3C
$GPRMC,163559.000,A,1333.0099,S,07245.5475,W,16.46,190.90,210411,,,A*5A
$GPGGA,163600.000,1333.0145,S,07245.5495,W,1,05,1.7,3051.6,M,27.3,M,,0000*6E
$GPGSA,M,3,21,25,31,12,29,,,,,,,,3.3,1.7,2.8*3C
$GPGSV,3,1,12,21,81,292,34,25,55,117,42,31,41,238,38,29,32,159,38*73
$GPGSV,3,2,12,12,27,074,35,14,12,317,,09,04,023,,18,23,008,21*74
$GPGSV,3,3,12,30,08,218,,22,06,342,,05,03,126,,06,00,270,*79
$GPRMC,163600.000,A,1333.0145,S,07245.5495,W,16.18,200.95,210411,,,A*5F
$GPGGA,163601.000,1333.0176,S,07245.5530,W,1,05,1.7,3050.4,M,27.3,M,,0000*62
$GPGSA,M,3,21,25,31,12,29,,,,,,,,3.3,1.7,2.8*3C
$GPRMC,163601.000,A,1333.0176,S,07245.5530,W,14.65,211.81,210411,,,A*5D
$GPGGA,163602.000,1333.0200,S,07245.5567,W,1,05,1.7,3049.5,M,27.3,M,,0000*68
$GPGSA,M,3,21,25,31,12,29,,,,,,,,3.3,1.7,2.8*3C
$GPRMC,163602.000,A,1333.0200,S,07245.5567,W,12.99,224.02,210411,,,A*56
$GPGGA,163603.000,1333.0215,S,07245.5611,W,1,05,1.7,3048.1,M,27.3,M,,0000*6A
$GPGSA,M,3,21,25,31,12,29,,,,,,,,3.3,1.7,2.8*3C
$GPRMC,163603.000,A,1333.0215,S,07245.5611,W,12.43,241.84,210411,,,A*5B
$GPGGA,163604.000,1333.0209,S,07245.5674,W,1,05,1.7,3046.8,M,27.3,M,,0000*64
$GPGSA,M,3,21,25,31,12,29,,,,,,,,3.3,1.7,2.8*3C
$GPRMC,163604.000,A,1333.0209,S,07245.5674,W,14.77,265.48,210411,,,A*55
$GPGGA,163605.000,1333.0194,S,07245.5743,W,1,05,1.7,3046.8,M,27.3,M,,0000*67
$GPGSA,M,3,21,25,31,12,29,,,,,,,,3.3,1.7,2.8*3C
$GPGSV,3,1,12,21,81,292,31,25,55,117,36,31,41,238,31,29,32,159,37*73
$GPGSV,3,2,12,12,27,074,37,14,12,317,,09,04,023,,18,23,008,*75
$GPGSV,3,3,12,30,08,218,,22,06,342,,05,03,126,,06,00,270,*79
$GPRMC,163605.000,A,1333.0194,S,07245.5743,W,18.92,276.22,210411,,,A*5F
$GPGGA,163606.000,1333.0179,S,07245.5812,W,1,05,1.7,3047.3,M,27.3,M,,0000*66
$GPGSA,M,3,21,25,31,12,29,,,,,,,,3.3,1.7,2.8*3C
$GPRMC,163606.000,A,1333.0179,S,07245.5812,W,22.29,279.15,210411,,,A*56
$GPGGA,163607.000,1333.0165,S,07245.5877,W,1,05,1.7,3048.0,M,27.3,M,,0000*65
$GPGSA,M,3,21,25,31,12,29,,,,,,,,3.3,1.7,2.8*3C
$GPRMC,163607.000,A,1333.0165,S,07245.5877,W,23.50,278.77,210411,,,A*53
$GPGGA,163608.000,1333.0152,S,07245.5942,W,1,05,1.7,3048.5,M,27.3,M,,0000*6C
$GPGSA,M,3,21,25,31,12,29,,,,,,,,3.3,1.7,2.8*3C
$GPRMC,163608.000,A,1333.0152,S,07245.5942,W,23.82,279.72,210411,,,A*54
$GPGGA,163608.998,1333.0139,S,07245.6010,W,1,04,2.1,3048.4,M,27.3,M,,0000*61
$GPGSA,M,3,21,25,31,29,,,,,,,,,2.3,2.1,1.0*30
$GPRMC,163608.998,A,1333.0139,S,07245.6010,W,24.38,280.69,210411,,,A*56
$GPGGA,163610.001,1333.0120,S,07245.6077,W,1,04,2.1,3047.8,M,27.3,M,,0000*6B
$GPGSA,M,3,21,25,31,29,,,,,,,,,2.3,2.1,1.0*30
$GPGSV,3,1,12,21,81,292,32,25,55,117,36,31,41,238,33,29,32,159,30*75
$GPGSV,3,2,12,12,27,074,,18,23,008,,14,12,317,,30,08,218,*7D
$GPGSV,3,3,12,22,06,342,,09,04,023,,05,03,126,,06,00,270,*75
$GPRMC,163610.001,A,1333.0120,S,07245.6077,W,23.54,286.83,210411,,,A*50
$GPGGA,163610.999,1333.0097,S,07245.6144,W,1,04,2.1,3047.2,M,27.3,M,,0000*65
$GPGSA,M,3,21,25,31,29,,,,,,,,,2.3,2.1,1.0*30
$GPRMC,163610.999,A,1333.0097,S,07245.6144,W,24.18,289.58,210411,,,A*52
$GPGGA,163612.006,1333.0074,S,07245.6209,W,0,00,,3047.0,M,27.3,M,,0000*45
$GPGSA,M,1,,,,,,,,,,,,,,,*12
$GPRMC,163612.006,V,1333.0074,S,07245.6209,W,,,210411,,,N*71
$GPGGA,163613.000,1333.0052,S,07245.6274,W,0,00,,3046.8,M,27.3,M,,0000*45
$GPGSA,M,1,,,,,,,,,,,,,,,*12
$GPRMC,163613.000,V,1333.0052,S,07245.6274,W,,,210411,,,N*78
$GPGGA,163614.000,1333.0029,S,07245.6339,W,0,00,,3046.6,M,27.3,M,,0000*48
$GPGSA,M,1,,,,,,,,,,,,,,,*12
$GPRMC,163614.000,V,1333.0029,S,07245.6339,W,,,210411,,,N*7B
$GPGGA,163615.000,1332.9981,S,07245.6404,W,1,04,2.1,3047.0,M,27.3,M,,0000*6C
$GPGSA,M,3,21,25,31,29,,,,,,,,,2.3,2.1,1.0*30
$GPGSV,3,1,12,21,81,292,33,25,55,117,34,31,41,238,44,29,32,159,36*70
$GPGSV,3,2,12,12,27,074,,14,12,317,,09,04,023,,18,23,008,*71
$GPGSV,3,3,12,30,08,218,,22,06,342,,05,03,126,,06,00,270,*79
$GPRMC,163615.000,A,1332.9981,S,07245.6404,W,25.00,296.33,210411,,,A*52
$GPGGA,163616.000,1332.9954,S,07245.6448,W,1,04,2.1,3047.2,M,27.3,M,,0000*6D
$GPGSA,M,3,21,25,31,29,,,,,,,,,2.3,2.1,1.0*30
$GPRMC,163616.000,A,1332.9954,S,07245.6448,W,22.21,299.12,210411,,,A*59
$GPGGA,163617.000,1332.9911,S,07245.6471,W,1,04,2.1,3046.9,M,27.3,M,,0000*6D
$GPGSA,M,3,21,25,31,29,,,,,,,,,2.3,2.1,1.0*30
$GPRMC,163617.000,A,1332.9911,S,07245.6471,W,19.22,311.98,210411,,,A*5B
$GPGGA,163618.000,1332.9877,S,07245.6499,W,1,04,2.1,3047.1,M,27.3,M,,0000*6C
$GPGSA,M,3,21,25,31,29,,,,,,,,,2.3,2.1,1.0*30
$GPRMC,163618.000,A,1332.9877,S,07245.6499,W,17.76,311.20,210411,,,A*5F
$GPGGA,163619.000,1332.9867,S,07245.6529,W,1,04,2.1,3047.0,M,27.3,M,,0000*67
$GPGSA,M,3,21,25,31,29,,,,,,,,,2.3,2.1,1.0*30
$GPRMC,163619.000,A,1332.9867,S,07245.6529,W,14.98,300.07,210411,,,A*53
$GPGGA,163620.000,1332.9867,S,07245.6570,W,1,04,2.1,3047.0,M,27.3,M,,0000*61
$GPGSA,M,3,21,25,31,29,,,,,,,,,2.3,2.1,1.0*30
$GPGSV,3,1,12,21,81,292,30,25,55,117,37,31,41,238,35,29,32,159,39*79
$GPGSV,3,2,12,12,27,074,,14,12,317,,09,04,023,,18,23,008,25*76
$GPGSV,3,3,12,30,08,218,,22,06,342,,05,03,126,,06,00,270,*79
$GPRMC,163620.000,A,1332.9867,S,07245.6570,W,16.30,283.69,210411,,,A*57
$GPGGA,163621.000,1332.9875,S,07245.6608,W,1,05,1.7,3045.5,M,27.3,M,,0000*6C
$GPGSA,M,3,21,25,31,29,12,,,,,,,,3.3,1.7,2.8*3C
$GPRMC,163621.000,A,1332.9875,S,07245.6608,W,14.21,268.98,210411,,,A*50
$GPGGA,163622.000,1332.9883,S,07245.6640,W,1,04,2.9,3041.7,M,27.3,M,,0000*60
$GPGSA,M,3,21,25,29,12,,,,,,,,,5.2,2.9,4.3*39
$GPRMC,163622.000,A,1332.9883,S,07245.6640,W,13.13,251.47,210411,,,A*58
$GPGGA,163623.000,1332.9904,S,07245.6661,W,1,04,2.9,3038.2,M,27.3,M,,0000*67
$GPGSA,M,3,21,25,29,12,,,,,,,,,5.2,2.9,4.3*39
$GPRMC,163623.000,A,1332.9904,S,07245.6661,W,11.73,232.41,210411,,,A*53
$GPGGA,163624.000,1332.9949,S,07245.6674,W,1,04,2.9,3036.9,M,27.3,M,,0000*68
$GPGSA,M,3,21,25,29,12,,,,,,,,,5.2,2.9,4.3*39
$GPRMC,163624.000,A,1332.9949,S,07245.6674,W,13.97,209.72,210411,,,A*59
$GPGGA,163625.000,1332.9995,S,07245.6677,W,1,04,2.9,3036.0,M,27.3,M,,0000*62
$GPGSA,M,3,21,25,29,12,,,,,,,,,5.2,2.9,4.3*39
$GPGSV,3,1,12,21,81,292,33,25,55,117,44,31,41,238,15,29,32,159,33*76
$GPGSV,3,2,12,12,27,074,36,14,12,317,,09,04,023,,18,23,008,31*76
$GPGSV,3,3,12,30,08,218,,22,06,342,,05,03,126,,06,00,270,*79
$GPRMC,163625.000,A,1332.9995,S,07245.6677,W,16.13,195.14,210411,,,A*55
$GPGGA,163626.000,1333.0048,S,07245.6675,W,1,04,2.9,3035.8,M,27.3,M,,0000*69
$GPGSA,M,3,21,25,29,12,,,,,,,,,5.2,2.9,4.3*39
$GPRMC,163626.000,A,1333.0048,S,07245.6675,W,17.43,185.14,210411,,,A*50
$GPGGA,163626.999,1333.0096,S,07245.6678,W,1,04,2.9,3034.8,M,27.3,M,,0000*6F
$GPGSA,M,3,21,25,29,12,,,,,,,,,5.2,2.9,4.3*39
$GPRMC,163626.999,A,1333.0096,S,07245.6678,W,16.20,181.82,210411,,,A*58
$GPGGA,163628.001,1333.0142,S,07245.6679,W,1,04,2.9,3033.6,M,27.3,M,,0000*69
$GPGSA,M,3,21,25,29,12,,,,,,,,,5.2,2.9,4.3*39
$GPRMC,163628.001,A,1333.0142,S,07245.6679,W,15.73,180.17,210411,,,A*5F
$GPGGA,163629.003,1333.0186,S,07245.6677,W,1,04,2.9,3032.0,M,27.3,M,,0000*6B
$GPGSA,M,3,21,25,29,12,,,,,,,,,5.2,2.9,4.3*39
$GPRMC,163629.003,A,1333.0186,S,07245.6677,W,15.16,177.52,210411,,,A*50
$GPGGA,163630.000,1333.0228,S,07245.6665,W,1,04,2.9,3031.2,M,27.3,M,,0000*65
$GPGSA,M,3,21,25,29,12,,,,,,,,,5.2,2.9,4.3*39
$GPGSV,3,1,12,21,81,292,31,25,55,117,38,31,41,238,,29,32,159,29*70
$GPGSV,3,2,12,12,27,074,37,18,23,008,34,14,12,317,,30,08,218,*7E
$GPGSV,3,3,12,22,06,342,,09,04,023,,05,03,126,,06,00,270,*75
$GPRMC,163630.000,A,1333.0228,S,07245.6665,W,14.27,167.96,210411,,,A*55
$GPGGA,163631.002,1333.0267,S,07245.6656,W,0,00,,3030.5,M,27.3,M,,0000*4B
$GPGSA,M,1,,,,,,,,,,,,,,,*12
$GPRMC,163631.002,V,1333.0267,S,07245.6656,W,,,210411,,,N*7A
$GPGGA,163632.000,1333.0306,S,07245.6648,W,0,00,,3029.7,M,27.3,M,,0000*49
$GPGSA,M,1,,,,,,,,,,,,,,,*12
$GPRMC,163632.000,V,1333.0306,S,07245.6648,W,,,210411,,,N*72
$GPGGA,163633.000,1333.0345,S,07245.6639,W,0,00,,3029.0,M,27.3,M,,0000*4E
$GPGSA,M,1,,,,,,,,,,,,,,,*12
$GPRMC,163633.000,V,1333.0345,S,07245.6639,W,,,210411,,,N*72
$GPGGA,163634.000,1333.0384,S,07245.6631,W,0,00,,3028.3,M,27.3,M,,0000*4E
$GPGSA,M,1,,,,,,,,,,,,,,,*12
$GPRMC,163634.000,V,1333.0384,S,07245.6631,W,,,210411,,,N*70
$GPGGA,163635.000,1333.0502,S,07245.6384,W,1,05,1.7,3028.6,M,27.3,M,,0000*65
$GPGSA,M,3,21,25,12,31,29,,,,,,,,3.3,1.7,2.8*3C
$GPGSV,3,1,12,21,81,291,33,25,55,117,38,31,41,238,23,29,32,159,27*7E
$GPGSV,3,2,12,12,27,074,35,14,12,317,,09,04,023,,18,24,008,32*71
$GPGSV,3,3,12,30,08,218,,22,06,342,,05,03,126,,06,00,270,*79
$GPRMC,163635.000,A,1333.0502,S,07245.6384,W,26.48,130.64,210411,,,A*52
$GPGGA,163636.000,1333.0534,S,07245.6319,W,1,05,1.7,3030.5,M,27.3,M,,0000*6D
$GPGSA,M,3,21,25,12,31,29,,,,,,,,3.3,1.7,2.8*3C
$GPRMC,163636.000,A,1333.0534,S,07245.6319,W,23.08,131.04,210411,,,A*56
$GPGGA,163637.000,1333.0572,S,07245.6272,W,1,05,1.7,3031.0,M,27.3,M,,0000*66
$GPGSA,M,3,21,25,12,31,29,,,,,,,,3.3,1.7,2.8*3C
$GPRMC,163637.000,A,1333.0572,S,07245.6272,W,20.56,130.49,210411,,,A*59
$GPGGA,163638.000,1333.0612,S,07245.6228,W,1,05,1.7,3031.7,M,27.3,M,,0000*64
$GPGSA,M,3,21,25,12,31,29,,,,,,,,3.3,1.7,2.8*3C
$GPRMC,163638.000,A,1333.0612,S,07245.6228,W,18.48,137.36,210411,,,A*57
$GPGGA,163639.000,1333.0653,S,07245.6202,W,1,05,1.7,3031.0,M,27.3,M,,0000*6F
$GPGSA,M,3,21,25,12,31,29,,,,,,,,3.3,1.7,2.8*3C
$GPRMC,163639.000,A,1333.0653,S,07245.6202,W,18.27,145.33,210411,,,A*52
$GPGGA,163640.000,1333.0692,S,07245.6189,W,1,05,1.7,3029.7,M,27.3,M,,0000*62
$GPGSA,M,3,21,25,12,31,29,,,,,,,,3.3,1.7,2.8*3C
$GPGSV,3,1,12,21,81,291,35,25,55,117,47,31,41,238,35,29,32,159,37*76
$GPGSV,3,2,12,12,27,074,38,14,12,317,,09,04,023,,18,24,008,39*77
$GPGSV,3,3,12,30,08,218,,22,06,342,,05,03,126,,06,00,270,*79
$GPRMC,163640.000,A,1333.0692,S,07245.6189,W,17.37,157.46,210411,,,A*5E
$GPGGA,163641.000,1333.0732,S,07245.6183,W,1,04,3.0,3030.2,M,27.3,M,,0000*6B
$GPGSA,M,3,21,25,12,29,,,,,,,,,5.2,3.0,4.3*31
$GPRMC,163641.000,A,1333.0732,S,07245.6183,W,15.36,168.05,210411,,,A*56
$GPGGA,163642.000,1333.0768,S,07245.6196,W,1,05,1.7,3029.9,M,27.3,M,,0000*64
$GPGSA,M,3,21,25,12,31,29,,,,,,,,3.3,1.7,2.8*3C
$GPRMC,163642.000,A,1333.0768,S,07245.6196,W,13.37,184.56,210411,,,A*5D
$GPGGA,163643.000,1333.0804,S,07245.6245,W,1,05,1.7,3029.1,M,27.3,M,,0000*65
$GPGSA,M,3,21,25,12,31,29,,,,,,,,3.3,1.7,2.8*3C
$GPRMC,163643.000,A,1333.0804,S,07245.6245,W,15.98,213.84,210411,,,A*55
$GPGGA,163644.000,1333.0843,S,07245.6290,W,1,05,1.7,3029.5,M,27.3,M,,0000*6D
$GPGSA,M,3,21,25,12,31,29,,,,,,,,3.3,1.7,2.8*3C
$GPRMC,163644.000,A,1333.0843,S,07245.6290,W,17.72,223.69,210411,,,A*5F
$GPGGA,163645.000,1333.0884,S,07245.6333,W,1,05,1.7,3029.8,M,27.3,M,,0000*62
$GPGSA,M,3,21,25,12,31,29,,,,,,,,3.3,1.7,2.8*3C
$GPGSV,3,1,12,21,81,290,27,25,55,117,46,31,41,238,42,29,32,159,40*75
$GPGSV,3,2,12,12,27,074,29,18,24,008,28,14,12,317,,30,08,218,*7B
$GPGSV,3,3,12,22,06,342,,09,04,023,,05,03,126,,06,00,270,*75
$GPRMC,163645.000,A,1333.0884,S,07245.6333,W,19.00,225.21,210411,,,A*5C
$GPGGA,163646.000,1333.0925,S,07245.6376,W,1,05,1.7,3029.8,M,27.3,M,,0000*6A
$GPGSA,M,3,21,25,12,31,29,,,,,,,,3.3,1.7,2.8*3C
$GPRMC,163646.000,A,1333.0925,S,07245.6376,W,20.03,226.07,210411,,,A*5A
$GPGGA,163647.000,1333.0967,S,07245.6421,W,1,05,1.7,3029.9,M,27.3,M,,0000*69
$GPGSA,M,3,21,25,12,31,29,,,,,,,,3.3,1.7,2.7*33
$GPRMC,163647.000,A,1333.0967,S,07245.6421,W,21.18,225.73,210411,,,A*53
$GPGGA,163648.000,1333.1012,S,07245.6467,W,1,05,1.7,3029.8,M,27.3,M,,0000*6F
$GPGSA,M,3,21,25,12,31,29,,,,,,,,3.3,1.7,2.7*33
$GPRMC,163648.000,A,1333.1012,S,07245.6467,W,22.32,225.29,210411,,,A*50
$GPGGA,163648.997,1333.1055,S,07245.6513,W,1,04,1.9,3029.3,M,27.3,M,,0000*6D
$GPGSA,M,3,25,31,29,12,,,,,,,,,4.3,1.9,3.8*37
$GPRMC,163648.997,A,1333.1055,S,07245.6513,W,22.53,225.84,210411,,,A*56
$GPGGA,163650.003,1333.1098,S,07245.6564,W,1,05,1.7,3028.3,M,27.3,M,,0000*6F
$GPGSA,M,3,21,25,31,29,12,,,,,,,,3.3,1.7,2.7*33
$GPGSV,3,1,12,21,81,290,28,25,55,117,39,31,41,238,36,29,32,159,36*70
$GPGSV,3,2,12,12,27,074,32,18,24,008,,14,12,317,,30,08,218,*7B
$GPGSV,3,3,12,22,06,342,,09,04,023,,05,03,126,,06,00,270,*75
$GPRMC,163650.003,A,1333.1098,S,07245.6564,W,23.82,227.51,210411,,,A*5D
$GPGGA,163650.997,1333.1141,S,07245.6617,W,1,05,1.7,3027.9,M,27.3,M,,0000*6C
$GPGSA,M,3,21,25,31,29,12,,,,,,,,3.3,1.7,2.7*33
$GPRMC,163650.997,A,1333.1141,S,07245.6617,W,24.94,228.59,210411,,,A*5C
$GPGGA,163652.003,1333.1187,S,07245.6673,W,1,05,1.7,3027.6,M,27.3,M,,0000*6D
$GPGSA,M,3,21,25,31,29,12,,,,,,,,3.3,1.7,2.7*33
$GPRMC,163652.003,A,1333.1187,S,07245.6673,W,26.05,230.80,210411,,,A*55
$GPGGA,163652.997,1333.1228,S,07245.6732,W,1,05,1.7,3027.5,M,27.3,M,,0000*68
$GPGSA,M,3,21,25,31,29,12,,,,,,,,3.3,1.7,2.7*33
$GPRMC,163652.997,A,1333.1228,S,07245.6732,W,25.41,233.82,210411,,,A*51
$GPGGA,163654.000,1333.1271,S,07245.6790,W,1,05,1.7,3027.6,M,27.3,M,,0000*6E
$GPGSA,M,3,21,25,31,29,12,,,,,,,,3.3,1.7,2.7*33
$GPRMC,163654.000,A,1333.1271,S,07245.6790,W,25.25,235.85,210411,,,A*57
$GPGGA,163654.998,1333.1305,S,07245.6853,W,1,05,1.7,3027.2,M,27.3,M,,0000*60
$GPGSA,M,3,21,25,31,29,12,,,,,,,,3.3,1.7,2.7*33
$GPGSV,3,1,12,21,81,290,28,25,55,117,37,31,41,238,35,29,32,159,37*7C
$GPGSV,3,2,12,12,27,074,33,18,24,008,35,14,12,317,,30,08,218,*7C
$GPGSV,3,3,12,22,06,342,,09,04,023,,05,03,126,,06,00,270,*75
$GPRMC,163654.998,A,1333.1305,S,07245.6853,W,25.34,238.80,210411,,,A*55
$GPGGA,163656.003,1333.1341,S,07245.6915,W,1,05,1.7,3026.4,M,27.3,M,,0000*6D
$GPGSA,M,3,21,25,31,29,12,,,,,,,,3.3,1.7,2.7*33
$GPRMC,163656.003,A,1333.1341,S,07245.6915,W,24.86,240.39,210411,,,A*5A
$GPGGA,163656.997,1333.1362,S,07245.6980,W,1,05,1.7,3026.1,M,27.3,M,,0000*61
$GPGSA,M,3,21,25,31,29,12,,,,,,,,3.3,1.7,2.7*33
$GPRMC,163656.997,A,1333.1362,S,07245.6980,W,24.16,246.84,210411,,,A*5A
$GPGGA,163658.002,1333.1383,S,07245.7019,W,1,05,1.7,3025.5,M,27.3,M,,0000*6A
$GPGSA,M,3,21,25,31,29,12,,,,,,,,3.3,1.7,2.7*33
$GPRMC,163658.002,A,1333.1383,S,07245.7019,W,21.00,245.75,210411,,,A*59
$GPGGA,163658.998,1333.1396,S,07245.7090,W,1,05,1.7,3025.8,M,27.3,M,,0000*68
$GPGSA,M,3,21,25,31,29,12,,,,,,,,3.3,1.7,2.7*33
$GPRMC,163658.998,A,1333.1396,S,07245.7090,W,22.46,250.60,210411,,,A*57
$GPGGA,163700.003,1333.1408,S,07245.7166,W,1,05,1.7,3024.4,M,27.3,M,,0000*6A
$GPGSA,M,3,21,25,31,29,12,,,,,,,,3.3,1.7,2.7*33
$GPGSV,3,1,12,21,81,290,28,25,55,117,36,31,41,238,31,29,32,159,38*76
$GPGSV,3,2,12,12,27,074,32,18,24,008,36,14,12,317,,30,08,218,*7E
$GPGSV,3,3,12,22,06,342,,09,04,023,,05,03,126,,06,00,270,*75
$GPRMC,163700.003,A,1333.1408,S,07245.7166,W,23.60,258.14,210411,,,A*56
$GPGGA,163700.996,1333.1410,S,07245.7263,W,1,05,1.7,3023.9,M,27.3,M,,0000*6A
$GPGSA,M,3,21,25,31,29,12,,,,,,,,3.3,1.7,2.7*33
$GPRMC,163700.996,A,1333.1410,S,07245.7263,W,26.54,261.07,210411,,,A*56
$GPGGA,163702.002,1333.1411,S,07245.7349,W,1,05,1.7,3022.6,M,27.3,M,,0000*6A
$GPGSA,M,3,21,25,31,29,12,,,,,,,,3.3,1.7,2.7*33
$GPRMC,163702.002,A,1333.1411,S,07245.7349,W,26.42,259.94,210411,,,A*5E
$GPGGA,163702.998,1333.1425,S,07245.7434,W,1,05,1.7,3021.8,M,27.3,M,,0000*67
$GPGSA,M,3,21,25,31,29,12,,,,,,,,3.3,1.7,2.7*33
$GPRMC,163702.998,A,1333.1425,S,07245.7434,W,27.00,258.86,210411,,,A*5B
$GPGGA,163704.002,1333.1442,S,07245.7510,W,1,05,1.7,3023.8,M,27.3,M,,0000*6F
$GPGSA,M,3,21,25,31,29,12,,,,,,,,3.3,1.7,2.7*33
$GPRMC,163704.002,A,1333.1442,S,07245.7510,W,25.43,258.03,210411,,,A*59
$GPGGA,163704.999,1333.1448,S,07245.7593,W,1,05,1.7,3022.6,M,27.3,M,,0000*6A
$GPGSA,M,3,21,25,31,29,12,,,,,,,,3.3,1.7,2.7*33
$GPGSV,3,1,12,21,81,290,28,25,55,117,36,31,41,238,33,29,32,159,38*74
$GPGSV,3,2,12,12,27,074,35,18,24,008,26,14,12,317,,30,08,218,*78
$GPGSV,3,3,12,22,06,342,,09,04,023,,05,03,126,,06,00,270,*75
$GPRMC,163704.999,A,1333.1448,S,07245.7593,W,26.24,255.59,210411,,,A*53
$GPGGA,163706.003,1333.1470,S,07245.7667,W,1,05,1.7,3021.8,M,27.3,M,,0000*6C
$GPGSA,M,3,21,25,31,29,12,,,,,,,,3.3,1.7,2.7*33
$GPRMC,163706.003,A,1333.1470,S,07245.7667,W,26.96,251.54,210411,,,A*58
$GPGGA,163706.999,1333.1490,S,07245.7748,W,1,05,1.7,3020.5,M,27.3,M,,0000*68
$GPGSA,M,3,21,25,31,29,12,,,,,,,,3.3,1.7,2.7*33
$GPRMC,163706.999,A,1333.1490,S,07245.7748,W,26.34,249.63,210411,,,A*55
$GPGGA,163707.998,1333.1523,S,07245.7810,W,1,05,1.7,3021.2,M,27.3,M,,0000*65
$GPGSA,M,3,21,25,31,29,12,,,,,,,,3.2,1.7,2.7*32
$GPRMC,163707.998,A,1333.1523,S,07245.7810,W,25.56,244.95,210411,,,A*5D
$GPGGA,163709.002,1333.1556,S,07245.7872,W,1,04,2.1,3021.4,M,27.3,M,,0000*65
$GPGSA,M,3,21,25,31,29,,,,,,,,,2.4,2.1,1.0*37
$GPRMC,163709.002,A,1333.1556,S,07245.7872,W,25.53,243.11,210411,,,A*51
$GPGGA,163709.998,1333.1592,S,07245.7938,W,1,05,1.7,3020.0,M,27.3,M,,0000*69
$GPGSA,M,3,21,25,31,29,12,,,,,,,,3.2,1.7,2.7*32
$GPGSV,3,1,12,21,81,290,33,25,55,117,33,31,41,238,39,29,32,159,37*7E
$GPGSV,3,2,12,12,27,074,27,18,24,008,,14,12,317,,30,08,218,*7F
$GPGSV,3,3,12,22,06,342,,09,04,023,,05,03,126,,06,00,270,*75
$GPRMC,163709.998,A,1333.1592,S,07245.7938,W,25.60,240.01,210411,,,A*5E
$GPGGA,163711.001,1333.1637,S,07245.7986,W,1,04,2.1,3021.2,M,27.3,M,,0000*67
$GPGSA,M,3,21,25,31,29,,,,,,,,,2.4,2.1,1.0*37
$GPRMC,163711.001,A,1333.1637,S,07245.7986,W,24.10,235.73,210411,,,A*56
$GPGGA,163711.998,1333.1676,S,07245.8038,W,1,05,1.7,3019.3,M,27.3,M,,0000*66
$GPGSA,M,3,21,25,31,29,12,,,,,,,,3.2,1.7,2.7*32
$GPRMC,163711.998,A,1333.1676,S,07245.8038,W,23.92,230.54,210411,,,A*54
$GPGGA,163713.003,1333.1726,S,07245.8087,W,1,05,1.7,3016.2,M,27.3,M,,0000*61
$GPGSA,M,3,21,25,31,29,12,,,,,,,,3.2,1.7,2.7*32
$GPRMC,163713.003,A,1333.1726,S,07245.8087,W,24.43,224.25,210411,,,A*55
$GPGGA,163713.995,1333.1781,S,07245.8137,W,1,05,1.7,3017.1,M,27.3,M,,0000*62
$GPGSA,M,3,21,25,31,29,12,,,,,,,,3.2,1.7,2.7*32
$GPRMC,163713.995,A,1333.1781,S,07245.8137,W,24.20,220.89,210411,,,A*53
$GPGGA,163715.004,1333.1841,S,07245.8179,W,1,05,1.7,3016.0,M,27.3,M,,0000*6C
$GPGSA,M,3,21,25,31,29,12,,,,,,,,3.2,1.7,2.7*32
$GPGSV,3,1,12,21,81,290,29,25,55,117,37,31,41,238,38,29,32,159,36*71
$GPGSV,3,2,12,12,27,074,29,18,24,008,,14,12,317,,30,08,218,*71
$GPGSV,3,3,12,22,06,342,,09,04,023,,05,03,126,,06,00,270,*75
$GPRMC,163715.004,A,1333.1841,S,07245.8179,W,26.75,220.29,210411,,,A*55
$GPGGA,163715.998,1333.1895,S,07245.8230,W,1,04,2.1,3016.5,M,27.3,M,,0000*66
$GPGSA,M,3,21,25,31,29,,,,,,,,,2.4,2.1,1.0*37
$GPRMC,163715.998,A,1333.1895,S,07245.8230,W,27.24,220.07,210411,,,A*57
$GPGGA,163717.002,1333.1959,S,07245.8277,W,1,05,1.7,3017.3,M,27.3,M,,0000*6F
$GPGSA,M,3,21,25,31,29,12,,,,,,,,3.2,1.7,2.7*32
$GPRMC,163717.002,A,1333.1959,S,07245.8277,W,26.28,222.30,210411,,,A*56
$GPGGA,163717.998,1333.2007,S,07245.8325,W,1,05,1.7,3016.3,M,27.3,M,,0000*63
$GPGSA,M,3,21,25,31,29,12,,,,,,,,3.2,1.7,2.7*32
$GPRMC,163717.998,A,1333.2007,S,07245.8325,W,26.83,224.79,210411,,,A*51
$GPGGA,163719.002,1333.2058,S,07245.8383,W,1,05,1.7,3014.5,M,27.3,M,,0000*65
$GPGSA,M,3,21,25,31,29,12,,,,,,,,3.2,1.7,2.7*32
$GPRMC,163719.002,A,1333.2058,S,07245.8383,W,27.14,227.17,210411,,,A*57
$GPGGA,163720.001,1333.2113,S,07245.8438,W,1,05,1.7,3015.6,M,27.3,M,,0000*67
$GPGSA,M,3,21,25,31,29,12,,,,,,,,3.2,1.7,2.7*32
$GPGSV,3,1,12,21,81,290,31,25,55,117,35,31,41,238,39,29,32,159,36*7B
$GPGSV,3,2,12,12,27,074,32,18,24,008,,14,12,317,,30,08,218,*7B
$GPGSV,3,3,12,22,06,342,,09,04,023,,05,03,126,,06,00,270,*75
$GPRMC,163720.001,A,1333.2113,S,07245.8438,W,27.39,224.37,210411,,,A*59
$GPGGA,163720.996,1333.2164,S,07245.8495,W,1,04,3.0,3013.7,M,27.3,M,,0000*64
$GPGSA,M,3,21,25,29,12,,,,,,,,,5.2,3.0,4.2*30
$GPRMC,163720.996,A,1333.2164,S,07245.8495,W,27.25,224.18,210411,,,A*59
$GPGGA,163722.000,1333.2230,S,07245.8541,W,1,05,1.7,3013.1,M,27.3,M,,0000*68
$GPGSA,M,3,21,25,31,29,12,,,,,,,,3.2,1.7,2.7*32
$GPRMC,163722.000,A,1333.2230,S,07245.8541,W,27.21,219.69,210411,,,A*5B
$GPGGA,163723.000,1333.2281,S,07245.8592,W,1,05,1.7,3013.2,M,27.3,M,,0000*6E
$GPGSA,M,3,21,25,31,29,12,,,,,,,,3.2,1.7,2.7*32
$GPRMC,163723.000,A,1333.2281,S,07245.8592,W,27.52,220.64,210411,,,A*5D
$GPGGA,163724.002,1333.2345,S,07245.8645,W,1,05,1.7,3011.0,M,27.3,M,,0000*6B
$GPGSA,M,3,21,25,31,29,12,,,,,,,,3.2,1.7,2.7*32
$GPRMC,163724.002,A,1333.2345,S,07245.8645,W,26.05,219.72,210411,,,A*56
$GPGGA,163724.997,1333.2403,S,07245.8694,W,1,05,1.7,3010.5,M,27.3,M,,0000*63
$GPGSA,M,3,21,25,31,29,12,,,,,,,,3.2,1.7,2.7*32
$GPGSV,3,1,12,21,81,290,35,25,55,117,39,31,41,238,34,29,32,159,34*7C
$GPGSV,3,2,12,12,27,074,36,18,24,008,36,14,12,317,,30,08,218,*7A
$GPGSV,3,3,12,22,06,342,,09,04,023,,05,03,126,,06,00,270,*75
$GPRMC,163724.997,A,1333.2403,S,07245.8694,W,26.87,219.40,210411,,,A*51
$GPGGA,163726.003,1333.2474,S,07245.8743,W,1,05,1.7,3010.8,M,27.3,M,,0000*63
$GPGSA,M,3,21,25,31,29,12,,,,,,,,3.2,1.7,2.7*32
$GPRMC,163726.003,A,1333.2474,S,07245.8743,W,28.17,218.59,210411,,,A*52
$GPGGA,163726.998,1333.2543,S,07245.8786,W,1,05,1.7,3009.4,M,27.3,M,,0000*60
$GPGSA,M,3,21,25,31,29,12,,,,,,,,3.2,1.7,2.7*32
$GPRMC,163726.998,A,1333.2543,S,07245.8786,W,27.84,215.06,210411,,,A*57
$GPGGA,163728.000,1333.2606,S,07245.8832,W,1,05,1.7,3007.9,M,27.3,M,,0000*67
$GPGSA,M,3,21,25,31,29,12,,,,,,,,3.2,1.7,2.7*32
$GPRMC,163728.000,A,1333.2606,S,07245.8832,W,27.47,214.25,210411,,,A*5C
$GPGGA,163729.005,1333.2668,S,07245.8874,W,1,04,2.9,3006.4,M,27.3,M,,0000*69
$GPGSA,M,3,21,25,31,12,,,,,,,,,4.0,2.9,2.8*3E
$GPRMC,163729.005,A,1333.2668,S,07245.8874,W,27.82,213.17,210411,,,A*5D
$GPGGA,163729.997,1333.2737,S,07245.8909,W,1,04,2.9,3005.1,M,27.3,M,,0000*6D
$GPGSA,M,3,21,25,31,12,,,,,,,,,4.0,2.9,2.8*3E
$GPGSV,3,1,12,21,81,288,31,25,55,116,39,31,42,239,22,29,32,159,*72
$GPGSV,3,2,12,12,27,073,29,14,12,318,,09,04,023,,18,24,008,33*75
$GPGSV,3,3,12,30,09,217,,22,06,343,,05,03,126,,06,00,269,*7E
$GPRMC,163729.997,A,1333.2737,S,07245.8909,W,27.73,209.15,210411,,,A*58
$GPGGA,163731.000,1333.2814,S,07245.8933,W,1,04,2.9,3003.2,M,27.3,M,,0000*61
$GPGSA,M,3,21,25,31,12,,,,,,,,,4.0,2.9,2.8*3E
$GPRMC,163731.000,A,1333.2814,S,07245.8933,W,28.12,204.24,210411,,,A*56
$GPGGA,163732.000,1333.2908,S,07245.8927,W,1,04,2.9,3004.7,M,27.3,M,,0000*69
$GPGSA,M,3,21,25,31,12,,,,,,,,,4.0,2.9,2.8*3E
$GPRMC,163732.000,A,1333.2908,S,07245.8927,W,28.18,199.86,210411,,,A*59
$GPGGA,163733.000,1333.2983,S,07245.8944,W,1,05,1.7,3005.1,M,27.3,M,,0000*65
$GPGSA,M,3,21,25,31,12,29,,,,,,,,3.2,1.7,2.7*32
$GPRMC,163733.000,A,1333.2983,S,07245.8944,W,27.27,199.05,210411,,,A*56
$GPGGA,163734.000,1333.3053,S,07245.8970,W,1,05,1.7,3004.8,M,27.3,M,,0000*68
$GPGSA,M,3,21,25,31,12,29,,,,,,,,3.2,1.7,2.7*32
$GPRMC,163734.000,A,1333.3053,S,07245.8970,W,27.17,199.20,210411,,,A*57
$GPGGA,163735.000,1333.3116,S,07245.9000,W,1,05,1.7,3003.7,M,27.3,M,,0000*6E
$GPGSA,M,3,21,25,31,12,29,,,,,,,,3.2,1.7,2.7*32
$GPGSV,3,1,12,21,81,288,33,25,55,116,47,31,42,239,28,29,32,159,24*75
$GPGSV,3,2,12,12,27,073,33,14,12,318,,09,04,023,,18,24,008,32*7F
$GPGSV,3,3,12,30,09,217,,22,06,343,,05,03,126,,06,00,269,*7E
$GPRMC,163735.000,A,1333.3116,S,07245.9000,W,27.12,199.94,210411,,,A*53
$GPGGA,163736.000,1333.3181,S,07245.9022,W,1,05,1.7,3003.6,M,27.3,M,,0000*62
$GPGSA,M,3,21,25,31,12,29,,,,,,,,3.2,1.7,2.7*32
$GPRMC,163736.000,A,1333.3181,S,07245.9022,W,26.36,199.31,210411,,,A*56
$GPGGA,163737.000,1333.3254,S,07245.9050,W,1,05,1.7,3002.2,M,27.3,M,,0000*68
$GPGSA,M,3,21,25,31,12,29,,,,,,,,3.2,1.7,2.7*32
$GPRMC,163737.000,A,1333.3254,S,07245.9050,W,25.98,199.50,210411,,,A*59
$GPGGA,163738.000,1333.3329,S,07245.9080,W,1,05,1.7,2999.9,M,27.3,M,,0000*60
$GPGSA,M,3,21,25,31,12,29,,,,,,,,3.2,1.7,2.7*32
$GPRMC,163738.000,A,1333.3329,S,07245.9080,W,25.50,201.90,210411,,,A*5A
$GPGGA,163739.000,1333.3397,S,07245.9108,W,1,05,1.7,2998.7,M,27.3,M,,0000*6A
$GPGSA,M,3,21,25,31,12,29,,,,,,,,3.2,1.7,2.7*32
$GPRMC,163739.000,A,1333.3397,S,07245.9108,W,24.99,205.48,210411,,,A*5A
$GPGGA,163740.000,1333.3461,S,07245.9137,W,1,05,1.7,2998.9,M,27.3,M,,0000*68
$GPGSA,M,3,21,25,31,12,29,,,,,,,,3.2,1.7,2.7*32
$GPGSV,3,1,12,21,81,288,33,25,55,116,45,31,42,239,34,29,32,159,34*7B
$GPGSV,3,2,12,12,27,073,35,14,12,318,,09,04,023,,18,24,008,37*7C
$GPGSV,3,3,12,30,09,217,,22,06,343,,05,03,126,,06,00,269,*7E
$GPRMC,163740.000,A,1333.3461,S,07245.9137,W,24.62,210.55,210411,,,A*5A
$GPGGA,163741.000,1333.3524,S,07245.9176,W,1,05,1.7,2999.0,M,27.3,M,,0000*64
$GPGSA,M,3,21,25,31,12,29,,,,,,,,3.2,1.7,2.7*32
$GPRMC,163741.000,A,1333.3524,S,07245.9176,W,25.44,215.91,210411,,,A*56
$GPGGA,163742.000,1333.3574,S,07245.9224,W,1,05,1.7,2999.1,M,27.3,M,,0000*67
$GPGSA,M,3,21,25,31,12,29,,,,,,,,3.2,1.7,2.7*32
$GPRMC,163742.000,A,1333.3574,S,07245.9224,W,24.35,226.83,210411,,,A*50
$GPGGA,163743.000,1333.3619,S,07245.9280,W,1,05,1.7,2998.7,M,27.3,M,,0000*67
$GPGSA,M,3,21,25,31,12,29,,,,,,,,3.2,1.7,2.7*32
$GPRMC,163743.000,A,1333.3619,S,07245.9280,W,24.90,234.76,210411,,,A*51
$GPGGA,163744.000,1333.3655,S,07245.9344,W,1,05,1.7,2998.2,M,27.3,M,,0000*64
$GPGSA,M,3,21,25,31,12,29,,,,,,,,3.2,1.7,2.7*32
$GPRMC,163744.000,A,1333.3655,S,07245.9344,W,26.33,240.23,210411,,,A*5F
$GPGGA,163745.000,1333.3690,S,07245.9414,W,1,05,1.7,2997.8,M,27.3,M,,0000*6B
$GPGSA,M,3,21,25,31,12,29,,,,,,,,3.2,1.7,2.7*32
$GPGSV,3,1,12,21,81,288,32,25,55,116,32,31,42,239,38,29,32,159,33*71
$GPGSV,3,2,12,12,27,073,35,14,12,318,,09,04,023,,18,24,008,24*7E
$GPGSV,3,3,12,30,09,217,,22,06,343,,05,03,126,,06,00,269,*7E
$GPRMC,163745.000,A,1333.3690,S,07245.9414,W,27.39,244.65,210411,,,A*58
$GPGGA,163746.000,1333.3721,S,07245.9487,W,1,05,1.7,2997.9,M,27.3,M,,0000*68
$GPGSA,M,3,21,25,31,12,29,,,,,,,,3.2,1.7,2.7*32
$GPRMC,163746.000,A,1333.3721,S,07245.9487,W,28.01,248.23,210411,,,A*50
$GPGGA,163747.000,1333.3752,S,07245.9564,W,1,05,1.7,2997.9,M,27.3,M,,0000*61
$GPGSA,M,3,21,25,31,12,29,,,,,,,,3.2,1.7,2.7*32
$GPRMC,163747.000,A,1333.3752,S,07245.9564,W,28.77,248.87,210411,,,A*56
$GPGGA,163748.000,1333.3781,S,07245.9643,W,1,05,1.7,2997.5,M,27.3,M,,0000*6A
$GPGSA,M,3,21,25,31,12,29,,,,,,,,3.2,1.7,2.7*32
$GPRMC,163748.000,A,1333.3781,S,07245.9643,W,29.35,249.46,210411,,,A*5A
$GPGGA,163749.000,1333.3810,S,07245.9722,W,1,05,1.7,2997.1,M,27.3,M,,0000*6E
$GPGSA,M,3,21,25,31,12,29,,,,,,,,3.2,1.7,2.7*32
$GPRMC,163749.000,A,1333.3810,S,07245.9722,W,29.23,249.46,210411,,,A*5D
$GPGGA,163749.997,1333.3839,S,07245.9798,W,1,05,1.7,2996.4,M,27.3,M,,0000*67
$GPGSA,M,3,21,25,31,29,12,,,,,,,,3.2,1.7,2.7*32
$GPGSV,3,1,12,21,81,288,32,25,55,116,37,31,42,239,35,29,32,159,33*79
$GPGSV,3,2,12,12,27,073,36,18,24,008,,14,12,318,,30,09,217,*79
$GPGSV,3,3,12,22,06,343,,09,04,023,,05,03,126,,06,00,269,*7C
$GPRMC,163749.997,A,1333.3839,S,07245.9798,W,28.25,246.67,210411,,,A*5B
$GPGGA,163751.002,1333.3871,S,07245.9872,W,1,05,1.7,2996.4,M,27.3,M,,0000*6C
$GPGSA,M,3,21,25,31,29,12,,,,,,,,3.2,1.7,2.7*32
$GPRMC,163751.002,A,1333.3871,S,07245.9872,W,27.84,247.69,210411,,,A*5B
$GPGGA,163752.000,1333.3902,S,07245.9943,W,1,05,1.7,2996.5,M,27.3,M,,0000*6A
$GPGSA,M,3,21,25,31,29,12,,,,,,,,3.2,1.7,2.7*32
$GPRMC,163752.000,A,1333.3902,S,07245.9943,W,27.06,247.95,210411,,,A*55
$GPGGA,163753.000,1333.3923,S,07246.0009,W,1,05,1.7,2996.3,M,27.3,M,,0000*63
$GPGSA,M,3,21,25,31,29,12,,,,,,,,3.2,1.7,2.7*32
$GPRMC,163753.000,A,1333.3923,S,07246.0009,W,24.07,251.01,210411,,,A*52
$GPGGA,163754.005,1333.3949,S,07246.0073,W,1,05,1.7,2995.2,M,27.3,M,,0000*62
$GPGSA,M,3,21,25,31,29,12,,,,,,,,3.2,1.7,2.7*32
$GPRMC,163754.005,A,1333.3949,S,07246.0073,W,24.47,246.83,210411,,,A*59
$GPGGA,163754.992,1333.3978,S,07246.0134,W,1,04,2.1,2995.1,M,27.3,M,,0000*62
$GPGSA,M,3,21,25,31,29,,,,,,,,,2.4,2.1,1.0*37
$GPGSV,3,1,12,21,81,288,33,25,55,116,36,31,42,239,34,29,32,159,37*7C
$GPGSV,3,2,12,12,27,073,,18,24,008,,14,12,318,,30,09,217,*7C
$GPGSV,3,3,12,22,06,343,,09,04,023,,05,03,126,,06,00,269,*7C
$GPRMC,163754.992,A,1333.3978,S,07246.0134,W,24.82,244.43,210411,,,A*59
$GPGGA,163756.001,1333.4015,S,07246.0176,W,1,05,1.7,2994.3,M,27.3,M,,0000*67
$GPGSA,M,3,21,25,31,29,12,,,,,,,,3.2,1.7,2.7*32
$GPRMC,163756.001,A,1333.4015,S,07246.0176,W,21.78,240.72,210411,,,A*5D
$GPGGA,163757.000,1333.4055,S,07246.0195,W,1,05,1.7,2993.8,M,27.3,M,,0000*62
$GPGSA,M,3,21,25,31,29,12,,,,,,,,3.2,1.7,2.7*32
$GPRMC,163757.000,A,1333.4055,S,07246.0195,W,18.40,232.65,210411,,,A*56
$GPGGA,163758.000,1333.4105,S,07246.0197,W,1,05,1.7,2993.9,M,27.3,M,,0000*6A
$GPGSA,M,3,21,25,31,29,12,,,,,,,,3.2,1.7,2.7*32
$GPRMC,163758.000,A,1333.4105,S,07246.0197,W,16.94,218.90,210411,,,A*5A
$GPGGA,163758.999,1333.4177,S,07246.0158,W,1,05,1.7,2995.0,M,27.3,M,,0000*6A
$GPGSA,M,3,21,25,31,29,12,,,,,,,,3.2,1.7,2.7*32
$GPRMC,163758.999,A,1333.4177,S,07246.0158,W,16.50,194.33,210411,,,A*53
$GPGGA,163800.000,1333.4217,S,07246.0185,W,1,05,1.7,2996.3,M,27.3,M,,0000*64
$GPGSA,M,3,21,25,31,29,12,,,,,,,,3.2,1.7,2.7*32
$GPGSV,3,1,12,21,81,288,31,25,55,116,39,31,42,239,30,29,32,159,36*74
$GPGSV,3,2,12,12,27,073,35,18,24,008,,14,12,318,,30,09,217,*7A
$GPGSV,3,3,12,22,06,343,,09,04,023,,05,03,126,,06,00,269,*7C
$GPRMC,163800.000,A,1333.4217,S,07246.0185,W,16.16,199.01,210411,,,A*53
$GPGGA,163800.997,1333.4285,S,07246.0133,W,1,05,1.7,2995.7,M,27.3,M,,0000*62
$GPGSA,M,3,21,25,31,29,12,,,,,,,,3.2,1.7,2.7*32
$GPRMC,163800.997,A,1333.4285,S,07246.0133,W,16.95,177.41,210411,,,A*5D
$GPGGA,163802.001,1333.4355,S,07246.0082,W,1,05,1.7,2996.9,M,27.3,M,,0000*6C
$GPGSA,M,3,21,25,31,29,12,,,,,,,,3.2,1.7,2.7*32
$GPRMC,163802.001,A,1333.4355,S,07246.0082,W,19.05,164.74,210411,,,A*5C
$GPGGA,163802.998,1333.4408,S,07246.0023,W,1,05,1.7,2996.7,M,27.3,M,,0000*6F
$GPGSA,M,3,21,25,31,29,12,,,,,,,,3.2,1.7,2.7*32
$GPRMC,163802.998,A,1333.4408,S,07246.0023,W,20.22,152.65,210411,,,A*5B
$GPGGA,163804.005,1333.4457,S,07245.9989,W,1,04,2.1,2996.6,M,27.3,M,,0000*68
$GPGSA,M,3,21,25,31,29,,,,,,,,,2.4,2.1,1.0*37
$GPRMC,163804.005,A,1333.4457,S,07245.9989,W,20.07,150.03,210411,,,A*5C
$GPGGA,163804.997,1333.4446,S,07245.9908,W,1,05,1.7,2996.8,M,27.3,M,,0000*69
$GPGSA,M,3,21,25,31,29,12,,,,,,,,3.2,1.7,2.7*32
$GPGSV,3,1,12,21,81,288,31,25,55,116,34,31,42,239,34,29,32,159,36*7D
$GPGSV,3,2,12,12,27,073,28,18,24,008,34,14,12,318,,30,09,217,*71
$GPGSV,3,3,12,22,06,343,,09,04,023,,05,03,126,,06,00,269,*7C
$GPRMC,163804.997,A,1333.4446,S,07245.9908,W,19.00,128.02,210411,,,A*54
$GPGGA,163806.001,1333.4479,S,07245.9865,W,0,00,,2996.8,M,27.3,M,,0000*47
$GPGSA,M,1,,,,,,,,,,,,,,,*12
$GPRMC,163806.001,V,1333.4479,S,07245.9865,W,,,210411,,,N*7F
$GPGGA,163807.000,1333.4511,S,07245.9823,W,0,00,,2996.7,M,27.3,M,,0000*45
$GPGSA,M,1,,,,,,,,,,,,,,,*12
$GPRMC,163807.000,V,1333.4511,S,07245.9823,W,,,210411,,,N*72
$GPGGA,163808.000,1333.4544,S,07245.9780,W,0,00,,2996.7,M,27.3,M,,0000*4C
$GPGSA,M,1,,,,,,,,,,,,,,,*12
$GPRMC,163808.000,V,1333.4544,S,07245.9780,W,,,210411,,,N*7B
$GPGGA,163809.000,1333.4391,S,07245.9625,W,1,04,2.9,2998.4,M,27.3,M,,0000*60
$GPGSA,M,3,21,31,12,25,,,,,,,,,4.0,2.9,2.8*3E
$GPRMC,163809.000,A,1333.4391,S,07245.9625,W,20.06,86.80,210411,,,A*60
$GPGGA,163810.000,1333.4324,S,07245.9579,W,1,04,2.9,2996.0,M,27.3,M,,0000*66
$GPGSA,M,3,21,31,12,25,,,,,,,,,4.0,2.9,2.8*3E
$GPGSV,3,1,12,21,81,286,35,25,55,115,30,31,42,239,35,29,32,158,*75
$GPGSV,3,2,12,12,26,073,30,14,12,318,,09,03,023,,18,24,008,34*7C
$GPGSV,3,3,12,30,09,217,,22,07,343,,05,02,127,,06,00,269,*7F
$GPRMC,163810.000,A,1333.4324,S,07245.9579,W,21.70,70.87,210411,,,A*62
$GPGGA,163811.000,1333.4293,S,07245.9526,W,1,04,2.9,2998.1,M,27.3,M,,0000*6F
$GPGSA,M,3,21,31,12,25,,,,,,,,,4.0,2.9,2.8*3E
$GPRMC,163811.000,A,1333.4293,S,07245.9526,W,22.47,71.56,210411,,,A*6E
$GPGGA,163812.000,1333.4240,S,07245.9471,W,1,05,1.7,2995.9,M,27.3,M,,0000*68
$GPGSA,M,3,21,29,31,12,25,,,,,,,,3.2,1.7,2.7*32
$GPRMC,163812.000,A,1333.4240,S,07245.9471,W,22.74,70.50,210411,,,A*67
$GPGGA,163813.000,1333.4213,S,07245.9408,W,1,05,1.7,2995.5,M,27.3,M,,0000*6D
$GPGSA,M,3,21,29,31,12,25,,,,,,,,3.2,1.7,2.7*32
$GPRMC,163813.000,A,1333.4213,S,07245.9408,W,22.96,68.59,210411,,,A*62
$GPGGA,163814.000,1333.4197,S,07245.9348,W,1,04,2.1,2994.7,M,27.3,M,,0000*61
$GPGSA,M,3,21,29,31,12,,,,,,,,,4.1,2.1,3.6*34
$GPRMC,163814.000,A,1333.4197,S,07245.9348,W,23.45,72.11,210411,,,A*61
$GPGGA,163815.000,1333.4197,S,07245.9275,W,1,05,1.7,2995.6,M,27.3,M,,0000*6B
$GPGSA,M,3,21,29,31,12,25,,,,,,,,3.2,1.7,2.7*32
$GPGSV,3,1,12,21,81,286,35,25,55,115,29,31,42,239,27,29,32,158,26*7A
$GPGSV,3,2,12,12,26,073,31,14,12,318,,09,03,023,,18,24,008,36*7F
$GPGSV,3,3,12,30,09,217,,22,07,343,,05,02,127,,06,00,269,*7F
$GPRMC,163815.000,A,1333.4197,S,07245.9275,W,23.83,79.93,210411,,,A*64
$GPGGA,163816.000,1333.4195,S,07245.9209,W,1,05,1.7,2994.8,M,27.3,M,,0000*6E
$GPGSA,M,3,21,29,31,12,25,,,,,,,,3.2,1.7,2.7*32
$GPRMC,163816.000,A,1333.4195,S,07245.9209,W,24.92,85.94,210411,,,A*6D
$GPGGA,163817.000,1333.4193,S,07245.9138,W,1,05,1.7,2995.3,M,27.3,M,,0000*62
$GPGSA,M,3,21,29,31,12,25,,,,,,,,3.2,1.7,2.7*32
$GPRMC,163817.000,A,1333.4193,S,07245.9138,W,24.95,84.99,210411,,,A*60
$GPGGA,163818.000,1333.4185,S,07245.9069,W,1,05,1.7,2995.0,M,27.3,M,,0000*6C
$GPGSA,M,3,21,29,31,12,25,,,,,,,,3.2,1.7,2.7*32
$GPRMC,163818.000,A,1333.4185,S,07245.9069,W,25.00,83.85,210411,,,A*6A
$GPGGA,163819.000,1333.4179,S,07245.8999,W,1,05,1.7,2994.5,M,27.3,M,,0000*6D
$GPGSA,M,3,21,29,31,12,25,,,,,,,,3.2,1.7,2.7*32
$GPRMC,163819.000,A,1333.4179,S,07245.8999,W,25.37,84.36,210411,,,A*64
$GPGGA,163820.000,1333.4173,S,07245.8928,W,1,05,1.7,2994.2,M,27.3,M,,0000*60
$GPGSA,M,3,21,29,31,12,25,,,,,,,,3.2,1.7,2.7*32
$GPGSV,3,1,12,21,81,286,35,25,55,115,33,31,42,239,28,29,32,158,36*7F
$GPGSV,3,2,12,12,26,073,32,14,12,318,,09,03,023,,18,24,008,36*7C
$GPGSV,3,3,12,30,09,217,,22,07,343,,05,02,127,,06,00,269,*7F
$GPRMC,163820.000,A,1333.4173,S,07245.8928,W,25.61,83.86,210411,,,A*61
$GPGGA,163821.000,1333.4166,S,07245.8856,W,1,05,1.7,2993.7,M,27.3,M,,0000*6F
$GPGSA,M,3,21,29,31,12,25,,,,,,,,3.2,1.7,2.7*32
$GPRMC,163821.000,A,1333.4166,S,07245.8856,W,25.75,83.64,210411,,,A*65
$GPGGA,163822.000,1333.4159,S,07245.8783,W,1,05,1.7,2993.6,M,27.3,M,,0000*66
$GPGSA,M,3,21,29,31,12,25,,,,,,,,3.2,1.7,2.7*32
$GPRMC,163822.000,A,1333.4159,S,07245.8783,W,25.92,83.57,210411,,,A*64
$GPGGA,163823.000,1333.4151,S,07245.8711,W,1,05,1.7,2992.9,M,27.3,M,,0000*6A
$GPGSA,M,3,21,29,31,12,25,,,,,,,,3.2,1.7,2.7*32
$GPRMC,163823.000,A,1333.4151,S,07245.8711,W,25.94,83.08,210411,,,A*6A
$GPGGA,163824.000,1333.4141,S,07245.8639,W,1,05,1.7,2992.3,M,27.3,M,,0000*6D
$GPGSA,M,3,21,29,31,12,25,,,,,,,,3.2,1.7,2.7*32
$GPRMC,163824.000,A,1333.4141,S,07245.8639,W,25.89,81.64,210411,,,A*63
$GPGGA,163825.000,1333.4125,S,07245.8567,W,1,05,1.7,2991.3,M,27.3,M,,0000*65
$GPGSA,M,3,21,29,31,12,25,,,,,,,,3.2,1.7,2.7*32
$GPGSV,3,1,12,21,81,286,35,25,55,115,32,31,42,239,31,29,32,158,28*79
$GPGSV,3,2,12,12,26,073,32,14,12,318,,09,03,023,,18,24,008,37*7D
$GPGSV,3,3,12,30,09,217,,22,07,343,,05,02,127,,06,00,269,*7F
$GPRMC,163825.000,A,1333.4125,S,07245.8567,W,26.25,79.35,210411,,,A*6E
$GPGGA,163826.002,1333.4109,S,07245.8496,W,1,04,2.1,2991.0,M,27.3,M,,0000*62
$GPGSA,M,3,21,31,29,12,,,,,,,,,4.1,2.1,3.5*37
$GPRMC,163826.002,A,1333.4109,S,07245.8496,W,25.46,74.87,210411,,,A*6C
$GPGGA,163827.001,1333.4089,S,07245.8426,W,1,04,2.1,2990.9,M,27.3,M,,0000*6A
$GPGSA,M,3,21,31,29,12,,,,,,,,,4.1,2.1,3.5*37
$GPRMC,163827.001,A,1333.4089,S,07245.8426,W,25.36,72.83,210411,,,A*69
$GPGGA,163828.000,1333.4068,S,07245.8357,W,0,00,,2990.7,M,27.3,M,,0000*4C
$GPGSA,M,1,,,,,,,,,,,,,,,*12
$GPRMC,163828.000,V,1333.4068,S,07245.8357,W,,,210411,,,N*7D
$GPGGA,163829.000,1333.4059,S,07245.8278,W,1,04,2.9,2992.0,M,27.3,M,,0000*66
$GPGSA,M,3,21,31,12,25,,,,,,,,,4.0,2.9,2.8*3E
$GPRMC,163829.000,A,1333.4059,S,07245.8278,W,26.15,78.29,210411,,,A*6E
$GPGGA,163830.000,1333.4042,S,07245.8213,W,1,04,2.9,2991.0,M,27.3,M,,0000*6A
$GPGSA,M,3,21,31,12,25,,,,,,,,,4.0,2.9,2.8*3E
$GPGSV,3,1,12,21,81,284,33,25,55,115,31,31,42,239,35,29,32,158,10*71
$GPGSV,3,2,12,12,26,073,30,14,12,318,,09,03,023,,18,24,009,35*7C
$GPGSV,3,3,12,30,09,217,,22,07,343,,05,02,127,,06,00,269,*7F
$GPRMC,163830.000,A,1333.4042,S,07245.8213,W,23.39,79.38,210411,,,A*6B
$GPGGA,163831.000,1333.4037,S,07245.8158,W,1,04,2.9,2991.0,M,27.3,M,,0000*65
$GPGSA,M,3,21,31,12,25,,,,,,,,,4.0,2.9,2.8*3E
$GPRMC,163831.000,A,1333.4037,S,07245.8158,W,20.70,83.89,210411,,,A*65
$GPGGA,163832.000,1333.4068,S,07245.8097,W,1,05,1.7,2991.5,M,27.3,M,,0000*67
$GPGSA,M,3,21,31,29,12,25,,,,,,,,3.2,1.7,2.7*32
$GPRMC,163832.000,A,1333.4068,S,07245.8097,W,20.68,101.11,210411,,,A*5D
$GPGGA,163833.000,1333.4075,S,07245.8043,W,1,05,1.7,2991.2,M,27.3,M,,0000*64
$GPGSA,M,3,21,31,29,12,25,,,,,,,,3.2,1.7,2.7*32
$GPRMC,163833.000,A,1333.4075,S,07245.8043,W,19.39,99.79,210411,,,A*69
$GPGGA,163834.000,1333.4077,S,07245.7993,W,1,05,1.7,2990.6,M,27.3,M,,0000*6F
$GPGSA,M,3,21,31,29,12,25,,,,,,,,3.2,1.7,2.7*32
$GPRMC,163834.000,A,1333.4077,S,07245.7993,W,18.88,90.78,210411,,,A*64
$GPGGA,163835.000,1333.4073,S,07245.7944,W,1,05,1.7,2992.3,M,27.3,M,,0000*67
$GPGSA,M,3,21,31,29,12,25,,,,,,,,3.2,1.7,2.7*32
$GPGSV,3,1,12,21,81,284,34,25,55,115,35,31,42,239,28,29,32,158,37*7B
$GPGSV,3,2,12,12,26,073,31,14,12,318,,09,03,023,,18,24,009,39*71
$GPGSV,3,3,12,30,09,217,,22,07,343,,05,02,127,,06,00,269,*7F
$GPRMC,163835.000,A,1333.4073,S,07245.7944,W,17.71,82.22,210411,,,A*6E
$GPGGA,163836.000,1333.4055,S,07245.7896,W,1,05,1.7,2991.9,M,27.3,M,,0000*67
$GPGSA,M,3,21,31,29,12,25,,,,,,,,3.2,1.7,2.7*32
$GPRMC,163836.000,A,1333.4055,S,07245.7896,W,17.17,71.08,210411,,,A*63
$GPGGA,163837.000,1333.4014,S,07245.7847,W,1,05,1.7,2992.5,M,27.3,M,,0000*60
$GPGSA,M,3,21,31,29,12,25,,,,,,,,3.2,1.7,2.7*32
$GPRMC,163837.000,A,1333.4014,S,07245.7847,W,19.60,57.01,210411,,,A*68
$GPGGA,163838.000,1333.3963,S,07245.7801,W,1,05,1.7,2993.2,M,27.3,M,,0000*65
$GPGSA,M,3,21,31,29,12,25,,,,,,,,3.2,1.7,2.7*32
$GPRMC,163838.000,A,1333.3963,S,07245.7801,W,21.67,46.33,210411,,,A*66
$GPGGA,163839.000,1333.3911,S,07245.7771,W,1,05,1.7,2993.1,M,27.3,M,,0000*6A
$GPGSA,M,3,21,31,29,12,25,,,,,,,,3.2,1.7,2.7*32
$GPRMC,163839.000,A,1333.3911,S,07245.7771,W,20.08,34.78,210411,,,A*68
$GPGGA,163840.000,1333.3858,S,07245.7743,W,1,05,1.7,2995.5,M,27.3,M,,0000*6B
$GPGSA,M,3,21,31,29,12,25,,,,,,,,3.2,1.7,2.7*32
$GPGSV,3,1,12,21,81,284,34,25,55,115,37,31,42,239,33,29,32,158,28*7D
$GPGSV,3,2,12,12,26,073,17,14,12,318,,09,03,023,,18,24,009,32*7E
$GPGSV,3,3,12,30,09,217,,22,07,343,,05,02,127,,06,00,269,*7F
$GPRMC,163840.000,A,1333.3858,S,07245.7743,W,20.28,27.76,210411,,,A*65
$GPGGA,163841.000,1333.3809,S,07245.7721,W,1,05,1.7,2997.1,M,27.3,M,,0000*6C
$GPGSA,M,3,21,31,29,12,25,,,,,,,,3.2,1.7,2.7*32
$GPRMC,163841.000,A,1333.3809,S,07245.7721,W,20.51,26.46,210411,,,A*68
$GPGGA,163842.000,1333.3755,S,07245.7694,W,1,05,1.7,2999.2,M,27.3,M,,0000*6B
$GPGSA,M,3,21,31,29,12,25,,,,,,,,3.2,1.7,2.7*32
$GPRMC,163842.000,A,1333.3755,S,07245.7694,W,22.13,30.24,210411,,,A*65
$GPGGA,163843.000,1333.3690,S,07245.7660,W,1,04,3.0,3001.0,M,27.3,M,,0000*66
$GPGSA,M,3,21,29,12,25,,,,,,,,,5.1,3.0,4.2*33
$GPRMC,163843.000,A,1333.3690,S,07245.7660,W,23.13,31.98,210411,,,A*60
$GPGGA,163844.000,1333.3632,S,07245.7621,W,1,05,1.7,3001.8,M,27.3,M,,0000*60
$GPGSA,M,3,21,31,29,12,25,,,,,,,,3.2,1.7,2.7*32
$GPRMC,163844.000,A,1333.3632,S,07245.7621,W,24.06,35.94,210411,,,A*61
$GPGGA,163845.000,1333.3575,S,07245.7581,W,1,04,3.0,3000.8,M,27.3,M,,0000*6D
$GPGSA,M,3,21,31,12,25,,,,,,,,,4.1,3.0,2.8*37
$GPGSV,3,1,12,21,81,284,35,25,55,115,30,31,42,239,32,29,32,158,07*77
$GPGSV,3,2,12,12,26,073,31,14,12,318,,09,03,023,,18,24,009,31*79
$GPGSV,3,3,12,30,09,217,,22,07,343,,05,02,127,,06,00,269,*7F
$GPRMC,163845.000,A,1333.3575,S,07245.7581,W,24.25,37.23,210411,,,A*66
$GPGGA,163846.000,1333.3524,S,07245.7528,W,1,04,3.0,3001.0,M,27.3,M,,0000*60
