$GPGGA,222624.002,1445.7333,S,07436.9085,W,1,09,0.9,3222.6,M,20.4,M,,0000*60
$GPGSA,M,3,06,19,32,14,16,22,11,24,30,,,,1.7,0.9,1.5*3D
$GPRMC,222624.002,A,1445.7333,S,07436.9085,W,21.38,23.92,170411,,,A*63
$GPGGA,222624.996,1445.7283,S,07436.9065,W,1,10,0.9,3224.5,M,20.4,M,,0000*6D
$GPGSA,M,3,03,06,19,32,14,16,22,11,24,30,,,1.5,0.9,1.3*3A
$GPRMC,222624.996,A,1445.7283,S,07436.9065,W,21.27,20.08,170411,,,A*6D
$GPGGA,222626.000,1445.7230,S,07436.9045,W,1,10,0.9,3225.6,M,20.4,M,,0000*61
$GPGSA,M,3,03,06,19,32,14,16,22,11,24,30,,,1.5,0.9,1.3*3A
$GPRMC,222626.000,A,1445.7230,S,07436.9045,W,21.84,20.08,170411,,,A*6A
$GPGGA,222627.001,1445.7173,S,07436.9020,W,1,10,0.9,3225.5,M,20.4,M,,0000*65
$GPGSA,M,3,03,06,19,32,14,16,22,11,24,30,,,1.5,0.9,1.3*3A
$GPRMC,222627.001,A,1445.7173,S,07436.9020,W,21.98,20.28,170411,,,A*62
$GPGGA,222628.000,1445.7118,S,07436.9001,W,1,10,0.9,3226.5,M,20.4,M,,0000*66
$GPGSA,M,3,03,06,19,32,14,16,22,11,24,30,,,1.5,0.9,1.3*3A
$GPGSV,3,1,12,03,84,104,24,06,67,064,36,19,55,194,39,32,44,293,38*78
$GPGSV,3,2,12,14,38,106,36,16,29,350,37,22,21,145,34,11,20,225,38*71
$GPGSV,3,3,12,20,19,298,,24,16,238,30,30,15,006,35,31,04,038,*72
$GPRMC,222628.000,A,1445.7118,S,07436.9001,W,22.35,20.09,170411,,,A*65
$GPGGA,222629.001,1445.7058,S,07436.8977,W,1,09,0.9,3226.0,M,20.4,M,,0000*67
$GPGSA,M,3,06,19,32,14,16,22,11,24,30,,,,1.7,0.9,1.5*3D
$GPRMC,222629.001,A,1445.7058,S,07436.8977,W,22.05,20.24,170411,,,A*65
$GPGGA,222630.000,1445.7000,S,07436.8952,W,1,10,0.9,3226.0,M,20.4,M,,0000*6C
$GPGSA,M,3,03,06,19,32,14,16,22,11,24,30,,,1.5,0.9,1.3*3A
$GPRMC,222630.000,A,1445.7000,S,07436.8952,W,22.43,20.62,170411,,,A*66
$GPGGA,222630.999,1445.6940,S,07436.8930,W,1,10,0.9,3226.3,M,20.4,M,,0000*6E
$GPGSA,M,3,03,06,19,32,14,16,22,11,24,30,,,1.5,0.9,1.3*3A
$GPRMC,222630.999,A,1445.6940,S,07436.8930,W,22.39,20.99,170411,,,A*6E
$GPGGA,222631.999,1445.6879,S,07436.8905,W,1,10,0.9,3225.5,M,20.4,M,,0000*67
$GPGSA,M,3,03,06,19,32,14,16,22,11,24,30,,,1.5,0.9,1.3*3A
$GPRMC,222631.999,A,1445.6879,S,07436.8905,W,22.58,20.72,170411,,,A*60
$GPGGA,222632.999,1445.6821,S,07436.8880,W,1,10,0.9,3225.9,M,20.4,M,,0000*69
$GPGSA,M,3,03,06,19,32,14,16,22,11,24,30,,,1.5,0.9,1.3*3A
$GPGSV,3,1,12,03,84,104,29,06,67,064,36,19,55,194,40,32,44,293,37*74
$GPGSV,3,2,12,14,38,106,35,16,29,350,32,22,21,145,31,11,20,225,38*72
$GPGSV,3,3,12,20,19,298,,24,16,238,37,30,15,006,31,31,04,038,*71
$GPRMC,222632.999,A,1445.6821,S,07436.8880,W,22.59,21.62,170411,,,A*63
$GPGGA,222633.998,1445.6764,S,07436.8854,W,1,10,0.9,3227.0,M,20.4,M,,0000*65
$GPGSA,M,3,03,06,19,32,14,16,22,11,24,30,,,1.5,0.9,1.3*3A
$GPRMC,222633.998,A,1445.6764,S,07436.8854,W,22.32,22.25,170411,,,A*69
$GPGGA,222635.000,1445.6707,S,07436.8831,W,1,10,0.9,3228.5,M,20.4,M,,0000*67
$GPGSA,M,3,03,06,19,32,14,16,22,11,24,30,,,1.5,0.9,1.3*3A
$GPRMC,222635.000,A,1445.6707,S,07436.8831,W,22.31,21.35,170411,,,A*60
$GPGGA,222636.000,1445.6649,S,07436.8806,W,1,10,0.9,3228.7,M,20.4,M,,0000*69
$GPGSA,M,3,03,06,19,32,14,16,22,11,24,30,,,1.5,0.9,1.3*3A
$GPRMC,222636.000,A,1445.6649,S,07436.8806,W,22.26,22.32,170411,,,A*6E
$GPGGA,222637.001,1445.6590,S,07436.8786,W,1,10,0.9,3229.4,M,20.4,M,,0000*6B
$GPGSA,M,3,03,06,19,32,14,16,22,11,24,30,,,1.5,0.9,1.3*3A
$GPRMC,222637.001,A,1445.6590,S,07436.8786,W,22.10,20.46,170411,,,A*6A
$GPGGA,222638.003,1445.6531,S,07436.8766,W,1,10,0.9,3229.9,M,20.4,M,,0000*6E
$GPGSA,M,3,03,06,19,32,14,16,22,11,24,30,,,1.5,0.9,1.3*3A
$GPGSV,3,1,12,03,84,104,33,06,67,064,35,19,55,194,40,32,44,293,37*7C
$GPGSV,3,2,12,14,38,106,37,16,29,350,32,22,21,145,33,11,20,225,40*7D
$GPGSV,3,3,12,20,19,298,,24,16,238,38,30,15,006,31,31,04,038,*7E
$GPRMC,222638.003,A,1445.6531,S,07436.8766,W,21.67,21.65,170411,,,A*61
$GPGGA,222638.999,1445.6475,S,07436.8741,W,1,09,1.0,3230.0,M,20.4,M,,0000*61
$GPGSA,M,3,03,06,19,32,14,16,22,11,24,,,,1.8,1.0,1.5*3A
$GPRMC,222638.999,A,1445.6475,S,07436.8741,W,21.91,23.84,170411,,,A*6B
$GPGGA,222639.999,1445.6419,S,07436.8715,W,1,09,1.0,3230.7,M,20.4,M,,0000*6C
$GPGSA,M,3,03,06,19,32,14,16,22,11,24,,,,1.8,1.0,1.5*3A
$GPRMC,222639.999,A,1445.6419,S,07436.8715,W,21.69,25.33,170411,,,A*6C
$GPGGA,222640.997,1445.6367,S,07436.8687,W,1,08,1.6,3231.1,M,20.4,M,,0000*68
$GPGSA,M,3,03,06,19,32,14,22,11,24,,,,,2.7,1.6,2.1*30
$GPRMC,222640.997,A,1445.6367,S,07436.8687,W,21.07,28.39,170411,,,A*67
$GPGGA,222642.000,1445.6316,S,07436.8657,W,1,08,1.6,3231.7,M,20.4,M,,0000*60
$GPGSA,M,3,03,06,19,32,14,22,11,24,,,,,2.7,1.6,2.1*30
$GPRMC,222642.000,A,1445.6316,S,07436.8657,W,21.28,30.17,170411,,,A*61
$GPGGA,222643.001,1445.6266,S,07436.8625,W,1,09,1.0,3232.9,M,20.4,M,,0000*69
$GPGSA,M,3,03,06,19,32,14,16,22,11,24,,,,1.8,1.0,1.5*3A
$GPGSV,3,1,12,03,84,104,36,06,67,064,39,19,55,194,39,32,44,293,37*7B
$GPGSV,3,2,12,14,38,106,33,16,29,350,31,22,21,145,31,11,20,225,38*77
$GPGSV,3,3,12,20,19,298,,24,16,238,36,30,15,006,,31,04,038,*72
$GPRMC,222643.001,A,1445.6266,S,07436.8625,W,20.95,34.02,170411,,,A*65
$GPGGA,222644.000,1445.6220,S,07436.8590,W,1,09,1.0,3233.1,M,20.4,M,,0000*69
$GPGSA,M,3,03,06,19,32,14,16,22,11,24,,,,1.8,1.0,1.5*3A
$GPRMC,222644.000,A,1445.6220,S,07436.8590,W,20.89,36.14,170411,,,A*64
$GPGGA,222645.001,1445.6175,S,07436.8557,W,1,09,1.0,3234.2,M,20.4,M,,0000*65
$GPGSA,M,3,03,06,19,32,14,16,22,11,24,,,,1.8,1.0,1.5*3A
$GPRMC,222645.001,A,1445.6175,S,07436.8557,W,20.61,39.57,170411,,,A*62
$GPGGA,222645.999,1445.6134,S,07436.8516,W,1,09,1.0,3234.4,M,20.4,M,,0000*6B
$GPGSA,M,3,03,06,19,32,14,16,22,11,24,,,,1.8,1.0,1.5*3A
$GPRMC,222645.999,A,1445.6134,S,07436.8516,W,20.70,43.03,170411,,,A*66
$GPGGA,222646.999,1445.6092,S,07436.8474,W,1,09,1.0,3234.9,M,20.4,M,,0000*6D
$GPGSA,M,3,03,06,19,32,14,16,22,11,24,,,,1.8,1.0,1.5*3A
$GPRMC,222646.999,A,1445.6092,S,07436.8474,W,20.58,45.60,170411,,,A*64
$GPGGA,222647.999,1445.6053,S,07436.8431,W,1,09,1.0,3235.5,M,20.4,M,,0000*6D
$GPGSA,M,3,03,06,19,32,14,16,22,11,24,,,,1.8,1.0,1.5*3A
$GPGSV,3,1,12,03,84,104,38,06,67,064,39,19,55,194,39,32,44,293,37*75
$GPGSV,3,2,12,14,38,106,39,16,29,350,32,22,21,145,35,11,20,225,37*75
$GPGSV,3,3,12,20,19,298,,24,16,238,38,30,15,006,,31,04,038,*7C
$GPRMC,222647.999,A,1445.6053,S,07436.8431,W,20.65,47.30,170411,,,A*60
$GPGGA,222649.000,1445.6014,S,07436.8386,W,1,09,1.0,3236.3,M,20.4,M,,0000*67
$GPGSA,M,3,03,06,19,32,14,16,22,11,24,,,,1.8,1.0,1.5*3A
$GPRMC,222649.000,A,1445.6014,S,07436.8386,W,20.64,49.18,170411,,,A*6A
$GPGGA,222649.999,1445.5975,S,07436.8343,W,1,09,1.0,3237.8,M,20.4,M,,0000*60
$GPGSA,M,3,03,06,19,32,14,16,22,11,24,,,,1.8,1.0,1.5*3A
$GPRMC,222649.999,A,1445.5975,S,07436.8343,W,20.81,51.70,170411,,,A*6B
$GPGGA,222650.998,1445.5939,S,07436.8296,W,1,09,1.0,3238.0,M,20.4,M,,0000*6F
$GPGSA,M,3,03,06,19,32,14,16,22,11,24,,,,1.8,1.0,1.5*3A
$GPRMC,222650.998,A,1445.5939,S,07436.8296,W,20.60,54.01,170411,,,A*6F
$GPGGA,222652.000,1445.5908,S,07436.8248,W,1,09,1.0,3239.3,M,20.4,M,,0000*66
$GPGSA,M,3,03,06,19,32,14,16,22,11,24,,,,1.8,1.0,1.5*3A
$GPRMC,222652.000,A,1445.5908,S,07436.8248,W,20.44,59.32,170411,,,A*6F
$GPGGA,222652.999,1445.5881,S,07436.8195,W,1,08,1.6,3240.3,M,20.4,M,,0000*65
$GPGSA,M,3,03,06,19,32,14,22,11,24,,,,,2.7,1.6,2.1*30
$GPGSV,3,1,12,03,84,104,38,06,67,064,39,19,55,194,40,32,44,293,41*7A
$GPGSV,3,2,12,14,38,106,40,16,29,350,,22,21,145,34,11,20,225,40*7B
$GPGSV,3,3,12,20,19,298,,24,16,238,40,30,15,006,,31,04,038,*73
$GPRMC,222652.999,A,1445.5881,S,07436.8195,W,19.91,65.81,170411,,,A*60
$GPGGA,222654.000,1445.5859,S,07436.8141,W,1,09,1.0,3240.8,M,20.4,M,,0000*6A
$GPGSA,M,3,03,06,19,32,14,16,22,11,24,,,,1.8,1.0,1.5*3A
$GPRMC,222654.000,A,1445.5859,S,07436.8141,W,19.89,69.78,170411,,,A*60
$GPGGA,222654.998,1445.5839,S,07436.8087,W,1,09,1.0,3241.8,M,20.4,M,,0000*6E
$GPGSA,M,3,03,06,19,32,14,16,22,11,24,,,,1.8,1.0,1.5*3A
$GPRMC,222654.998,A,1445.5839,S,07436.8087,W,19.54,72.33,170411,,,A*60
$GPGGA,222656.000,1445.5823,S,07436.8034,W,1,09,1.0,3243.0,M,20.4,M,,0000*6D
$GPGSA,M,3,03,06,19,32,14,16,22,11,24,,,,1.8,1.0,1.5*3A
$GPRMC,222656.000,A,1445.5823,S,07436.8034,W,18.93,75.94,170411,,,A*69
$GPGGA,222657.002,1445.5811,S,07436.7979,W,1,09,1.0,3243.5,M,20.4,M,,0000*65
$GPGSA,M,3,03,06,19,32,14,16,22,11,24,,,,1.8,1.0,1.5*3A
$GPRMC,222657.002,A,1445.5811,S,07436.7979,W,20.09,74.86,170411,,,A*6E
$GPGGA,222657.998,1445.5802,S,07436.7924,W,1,09,1.0,3243.8,M,20.4,M,,0000*68
$GPGSA,M,3,03,06,19,32,14,16,22,11,24,,,,1.8,1.0,1.5*3A
$GPGSV,3,1,12,03,84,104,39,06,67,064,36,19,55,194,40,32,44,293,40*75
$GPGSV,3,2,12,14,38,106,39,16,29,350,29,22,21,145,38,11,20,225,37*72
$GPGSV,3,3,12,20,19,298,38,24,16,238,37,30,15,006,,31,04,038,*78
$GPRMC,222657.998,A,1445.5802,S,07436.7924,W,19.22,80.71,170411,,,A*6E
$GPGGA,222659.002,1445.5791,S,07436.7872,W,1,08,1.0,3243.9,M,20.4,M,,0000*6B
$GPGSA,M,3,03,06,19,32,14,16,22,24,,,,,1.9,1.0,1.6*38
$GPRMC,222659.002,A,1445.5791,S,07436.7872,W,18.60,83.02,170411,,,A*6D
$GPGGA,222700.000,1445.5785,S,07436.7820,W,1,08,1.6,3243.5,M,20.4,M,,0000*6C
$GPGSA,M,3,03,06,19,32,14,22,11,24,,,,,2.7,1.6,2.1*30
$GPRMC,222700.000,A,1445.5785,S,07436.7820,W,18.31,83.55,170411,,,A*66
$GPGGA,222700.998,1445.5777,S,07436.7770,W,1,09,1.0,3243.8,M,20.4,M,,0000*69
$GPGSA,M,3,03,06,19,32,14,16,22,11,24,,,,1.8,1.0,1.5*3A
$GPRMC,222700.998,A,1445.5777,S,07436.7770,W,18.20,80.53,170411,,,A*6C
$GPGGA,222702.002,1445.5769,S,07436.7719,W,1,08,1.6,3244.2,M,20.4,M,,0000*6B
$GPGSA,M,3,03,06,19,32,14,22,11,24,,,,,2.7,1.6,2.1*30
$GPRMC,222702.002,A,1445.5769,S,07436.7719,W,18.10,79.15,170411,,,A*63
$GPGGA,222702.998,1445.5758,S,07436.7669,W,1,09,1.0,3244.2,M,20.4,M,,0000*62
$GPGSA,M,3,03,06,19,32,14,16,22,11,24,,,,1.8,1.0,1.5*3A
$GPGSV,3,1,12,03,84,104,39,06,67,064,38,19,55,194,40,32,44,293,41*7A
$GPGSV,3,2,12,14,38,106,38,16,29,350,31,22,21,145,36,11,20,225,39*7A
$GPGSV,3,3,12,20,19,298,38,24,16,238,38,30,15,006,,31,04,038,*77
$GPRMC,222702.998,A,1445.5758,S,07436.7669,W,17.84,79.34,170411,,,A*6C
$GPGGA,222704.000,1445.5746,S,07436.7618,W,1,09,1.0,3243.2,M,20.4,M,,0000*62
$GPGSA,M,3,03,06,19,32,14,16,22,11,24,,,,1.8,1.0,1.5*3A
$GPRMC,222704.000,A,1445.5746,S,07436.7618,W,17.41,77.94,170411,,,A*66
$GPGGA,222705.000,1445.5735,S,07436.7572,W,1,09,1.0,3244.5,M,20.4,M,,0000*68
$GPGSA,M,3,03,06,19,32,14,16,22,11,24,,,,1.8,1.0,1.5*3A
$GPRMC,222705.000,A,1445.5735,S,07436.7572,W,16.87,76.40,170411,,,A*6F
$GPGGA,222706.000,1445.5722,S,07436.7524,W,1,09,1.0,3244.0,M,20.4,M,,0000*6B
$GPGSA,M,3,03,06,19,32,14,16,22,11,24,,,,1.8,1.0,1.5*3A
$GPRMC,222706.000,A,1445.5722,S,07436.7524,W,16.63,75.51,170411,,,A*60
$GPGGA,222707.004,1445.5710,S,07436.7479,W,1,09,1.0,3244.4,M,20.4,M,,0000*62
$GPGSA,M,3,03,06,19,32,14,16,22,11,24,,,,1.8,1.0,1.5*3A
$GPRMC,222707.004,A,1445.5710,S,07436.7479,W,15.85,71.65,170411,,,A*65
$GPGGA,222708.000,1445.5694,S,07436.7441,W,1,09,1.0,3246.0,M,20.4,M,,0000*69
$GPGSA,M,3,03,06,19,32,14,16,22,11,24,,,,1.8,1.0,1.5*3A
$GPGSV,3,1,12,03,84,104,37,06,67,064,39,19,55,194,41,32,44,293,39*7B
$GPGSV,3,2,12,14,38,106,35,16,29,350,35,22,21,145,35,11,20,225,39*70
$GPGSV,3,3,12,20,19,298,37,24,16,238,39,30,15,006,,31,04,038,*79
$GPRMC,222708.000,A,1445.5694,S,07436.7441,W,15.35,70.69,170411,,,A*6E
$GPGGA,222708.999,1445.5680,S,07436.7398,W,1,09,1.0,3245.2,M,20.4,M,,0000*67
$GPGSA,M,3,03,06,19,32,14,16,22,11,24,,,,1.8,1.0,1.5*3A
$GPRMC,222708.999,A,1445.5680,S,07436.7398,W,14.58,70.24,170411,,,A*62
$GPGGA,222710.002,1445.5667,S,07436.7360,W,1,09,1.0,3245.6,M,20.4,M,,0000*6F
$GPGSA,M,3,03,06,19,32,14,16,22,11,24,,,,1.8,1.0,1.5*3A
$GPRMC,222710.002,A,1445.5667,S,07436.7360,W,14.51,71.54,170411,,,A*61
$GPGGA,222710.998,1445.5653,S,07436.7319,W,1,09,1.0,3244.5,M,20.4,M,,0000*6E
$GPGSA,M,3,03,06,19,32,14,16,22,11,24,,,,1.8,1.0,1.5*3A
$GPRMC,222710.998,A,1445.5653,S,07436.7319,W,14.66,69.09,170411,,,A*67
$GPGGA,222711.999,1445.5638,S,07436.7282,W,1,09,1.0,3244.9,M,20.4,M,,0000*6C
$GPGSA,M,3,03,06,19,32,14,16,22,11,24,,,,1.8,1.0,1.5*3A
$GPRMC,222711.999,A,1445.5638,S,07436.7282,W,14.62,68.45,170411,,,A*64
$GPGGA,222712.999,1445.5623,S,07436.7243,W,1,09,1.0,3245.6,M,20.4,M,,0000*66
$GPGSA,M,3,03,06,19,32,14,16,22,11,24,,,,1.8,1.0,1.5*3A
$GPGSV,3,1,12,03,84,104,38,06,67,064,38,19,55,194,40,32,44,293,40*7A
$GPGSV,3,2,12,14,38,106,36,16,29,350,35,22,21,145,28,11,20,225,39*7F
$GPGSV,3,3,12,20,19,298,37,24,16,238,40,30,15,006,,31,04,038,*77
$GPRMC,222712.999,A,1445.5623,S,07436.7243,W,14.53,67.81,170411,,,A*65
$GPGGA,222714.000,1445.5608,S,07436.7204,W,1,09,1.0,3246.4,M,20.4,M,,0000*62
$GPGSA,M,3,03,06,19,32,14,16,22,11,24,,,,1.8,1.0,1.5*3A
$GPRMC,222714.000,A,1445.5608,S,07436.7204,W,14.51,67.68,170411,,,A*65
$GPGGA,222714.999,1445.5594,S,07436.7166,W,1,09,1.0,3246.9,M,20.4,M,,0000*67
$GPGSA,M,3,03,06,19,32,14,16,22,11,24,,,,1.8,1.0,1.5*3A
$GPRMC,222714.999,A,1445.5594,S,07436.7166,W,14.44,70.16,170411,,,A*66
$GPGGA,222715.999,1445.5582,S,07436.7128,W,1,09,1.0,3247.5,M,20.4,M,,0000*66
$GPGSA,M,3,03,06,19,32,14,16,22,11,24,,,,1.8,1.0,1.5*3A
$GPRMC,222715.999,A,1445.5582,S,07436.7128,W,14.02,69.48,170411,,,A*6B
$GPGGA,222716.999,1445.5571,S,07436.7089,W,1,09,1.0,3247.9,M,20.4,M,,0000*6F
$GPGSA,M,3,03,06,19,32,14,16,22,11,24,,,,1.8,1.0,1.5*3A
$GPRMC,222716.999,A,1445.5571,S,07436.7089,W,13.96,73.34,170411,,,A*64
$GPGGA,222718.000,1445.5561,S,07436.7050,W,1,09,1.0,3249.3,M,20.4,M,,0000*69
$GPGSA,M,3,03,06,19,32,14,16,22,11,24,,,,1.8,1.0,1.5*3A
$GPGSV,3,1,12,03,84,104,37,06,67,064,37,19,55,194,40,32,44,293,40*7A
$GPGSV,3,2,12,14,38,106,36,16,29,350,35,22,21,145,32,11,20,225,39*74
$GPGSV,3,3,12,20,19,298,37,24,16,238,39,30,15,006,,31,04,038,*79
$GPRMC,222718.000,A,1445.5561,S,07436.7050,W,14.26,76.07,170411,,,A*6F
$GPGGA,222719.000,1445.5551,S,07436.7011,W,1,09,1.0,3250.0,M,20.4,M,,0000*65
$GPGSA,M,3,03,06,19,32,14,16,22,11,24,,,,1.8,1.0,1.5*3A
$GPRMC,222719.000,A,1445.5551,S,07436.7011,W,14.35,76.07,170411,,,A*6A
$GPGGA,222719.999,1445.5540,S,07436.6974,W,1,09,1.0,3251.2,M,20.4,M,,0000*64
$GPGSA,M,3,03,06,19,32,14,16,22,11,24,,,,1.8,1.0,1.5*3A
$GPRMC,222719.999,A,1445.5540,S,07436.6974,W,14.03,76.00,170411,,,A*6A
$GPGGA,222720.999,1445.5532,S,07436.6933,W,1,09,1.0,3251.1,M,20.4,M,,0000*6B
$GPGSA,M,3,03,06,19,32,14,16,22,11,24,,,,1.8,1.0,1.5*3A
$GPRMC,222720.999,A,1445.5532,S,07436.6933,W,14.05,78.83,170411,,,A*65
$GPGGA,222721.999,1445.5523,S,07436.6893,W,1,09,1.0,3251.8,M,20.4,M,,0000*68
$GPGSA,M,3,03,06,19,32,14,16,22,11,24,,,,1.8,1.0,1.5*3A
$GPRMC,222721.999,A,1445.5523,S,07436.6893,W,13.82,80.93,170411,,,A*61
$GPGGA,222722.999,1445.5518,S,07436.6853,W,1,09,1.0,3251.9,M,20.4,M,,0000*6E
$GPGSA,M,3,03,06,19,32,14,16,22,11,24,,,,1.8,1.0,1.5*3A
$GPGSV,3,1,12,03,84,104,38,06,67,064,37,19,55,194,38,32,44,293,41*7B
$GPGSV,3,2,12,14,38,106,38,16,29,350,35,22,21,145,36,11,20,225,37*70
$GPGSV,3,3,12,20,19,298,36,24,16,238,37,30,15,006,,31,04,038,*76
$GPRMC,222722.999,A,1445.5518,S,07436.6853,W,13.62,84.31,170411,,,A*64
$GPGGA,222723.995,1445.5516,S,07436.6816,W,1,09,1.0,3253.2,M,20.4,M,,0000*65
$GPGSA,M,3,03,06,19,32,14,16,22,11,24,,,,1.8,1.0,1.5*3A
$GPRMC,222723.995,A,1445.5516,S,07436.6816,W,13.88,84.34,170411,,,A*67
$GPGGA,222725.001,1445.5512,S,07436.6775,W,1,09,1.0,3253.5,M,20.4,M,,0000*6E
$GPGSA,M,3,03,06,19,32,14,16,22,11,24,,,,1.8,1.0,1.5*3A
$GPRMC,222725.001,A,1445.5512,S,07436.6775,W,13.51,87.04,170411,,,A*6F
$GPGGA,222725.999,1445.5510,S,07436.6738,W,1,09,1.0,3254.8,M,20.4,M,,0000*67
$GPGSA,M,3,03,06,19,32,14,16,22,11,24,,,,1.8,1.0,1.5*3A
$GPRMC,222725.999,A,1445.5510,S,07436.6738,W,13.31,87.55,170411,,,A*6E
$GPGGA,222726.999,1445.5508,S,07436.6701,W,1,09,1.0,3255.6,M,20.4,M,,0000*68
$GPGSA,M,3,03,06,19,32,14,16,22,11,24,,,,1.8,1.0,1.5*3A
$GPRMC,222726.999,A,1445.5508,S,07436.6701,W,12.83,90.42,170411,,,A*66
$GPGGA,222727.999,1445.5511,S,07436.6665,W,1,09,1.0,3256.4,M,20.4,M,,0000*63
$GPGSA,M,3,03,06,19,32,14,16,22,11,24,,,,1.8,1.0,1.5*3A
$GPGSV,3,1,12,03,84,104,38,06,67,064,36,19,55,194,37,32,44,293,37*74
$GPGSV,3,2,12,14,38,106,36,16,29,350,36,22,21,145,39,11,20,225,36*73
$GPGSV,3,3,12,20,19,298,36,24,16,238,35,30,15,006,,31,04,038,*74
$GPRMC,222727.999,A,1445.5511,S,07436.6665,W,12.98,93.15,170411,,,A*67
$GPGGA,222728.999,1445.5511,S,07436.6627,W,1,09,1.0,3255.8,M,20.4,M,,0000*65
$GPGSA,M,3,03,06,19,32,14,16,22,11,24,,,,1.8,1.0,1.5*3A
$GPRMC,222728.999,A,1445.5511,S,07436.6627,W,12.64,93.32,170411,,,A*68
$GPGGA,222729.999,1445.5512,S,07436.6592,W,1,09,1.0,3256.0,M,20.4,M,,0000*61
$GPGSA,M,3,03,06,19,32,14,16,22,11,24,,,,1.8,1.0,1.5*3A
$GPRMC,222729.999,A,1445.5512,S,07436.6592,W,11.82,95.03,170411,,,A*68
$GPGGA,222731.001,1445.5518,S,07436.6558,W,1,08,1.1,3257.0,M,20.4,M,,0000*6D
$GPGSA,M,3,03,06,19,32,16,22,11,24,,,,,1.9,1.1,1.6*3C
$GPRMC,222731.001,A,1445.5518,S,07436.6558,W,12.55,100.21,170411,,,A*51
$GPGGA,222732.000,1445.5522,S,07436.6522,W,1,08,1.1,3256.4,M,20.4,M,,0000*6E
$GPGSA,M,3,03,06,19,32,16,22,11,24,,,,,1.9,1.1,1.6*3C
$GPRMC,222732.000,A,1445.5522,S,07436.6522,W,12.38,101.15,170411,,,A*5A
$GPGGA,222733.000,1445.5530,S,07436.6488,W,1,08,1.1,3257.0,M,20.4,M,,0000*68
$GPGSA,M,3,03,06,19,32,16,22,11,24,,,,,1.9,1.1,1.6*3C
$GPGSV,3,1,12,03,84,104,38,06,67,064,37,19,55,194,39,32,44,293,41*7A
$GPGSV,3,2,12,14,38,106,,16,29,350,34,22,21,145,38,11,20,225,31*72
$GPGSV,3,3,12,20,19,298,38,24,16,238,36,30,15,006,,31,04,038,*79
$GPRMC,222733.000,A,1445.5530,S,07436.6488,W,12.15,104.37,170411,,,A*53
$GPGGA,222734.000,1445.5538,S,07436.6456,W,1,08,1.1,3257.7,M,20.4,M,,0000*63
$GPGSA,M,3,03,06,19,32,16,22,11,24,,,,,1.9,1.1,1.6*3C
$GPRMC,222734.000,A,1445.5538,S,07436.6456,W,12.12,105.48,170411,,,A*51
$GPGGA,222735.004,1445.5548,S,07436.6424,W,1,08,1.1,3258.8,M,20.4,M,,0000*64
$GPGSA,M,3,03,06,19,32,16,11,22,24,,,,,1.9,1.1,1.6*3C
$GPRMC,222735.004,A,1445.5548,S,07436.6424,W,12.07,105.58,170411,,,A*53
$GPGGA,222735.996,1445.5556,S,07436.6393,W,1,08,1.1,3259.1,M,20.4,M,,0000*6A
$GPGSA,M,3,03,06,19,32,16,11,22,24,,,,,1.9,1.1,1.6*3C
$GPRMC,222735.996,A,1445.5556,S,07436.6393,W,11.51,109.33,170411,,,A*54
$GPGGA,222736.998,1445.5567,S,07436.6363,W,1,09,1.0,3259.9,M,20.4,M,,0000*62
$GPGSA,M,3,03,06,19,32,14,16,11,22,24,,,,1.8,1.0,1.5*3A
$GPRMC,222736.998,A,1445.5567,S,07436.6363,W,10.89,108.53,170411,,,A*57
$GPGGA,222738.001,1445.5577,S,07436.6333,W,1,09,1.0,3259.9,M,20.4,M,,0000*61
$GPGSA,M,3,03,06,19,32,14,16,11,22,24,,,,1.8,1.0,1.5*3A
$GPGSV,3,1,12,03,84,088,38,06,66,060,37,19,57,193,38,32,45,291,40*7C
$GPGSV,3,2,12,14,38,108,27,16,28,350,33,11,21,224,29,22,20,145,40*78
$GPGSV,3,3,12,20,20,297,36,24,17,236,37,30,14,006,,31,04,039,*7C
$GPRMC,222738.001,A,1445.5577,S,07436.6333,W,11.40,107.97,170411,,,A*57
$GPGGA,222739.008,1445.5591,S,07436.6303,W,1,09,1.0,3261.2,M,20.4,M,,0000*62
$GPGSA,M,3,03,06,19,32,14,16,11,22,24,,,,1.8,1.0,1.5*3A
$GPRMC,222739.008,A,1445.5591,S,07436.6303,W,12.07,107.83,170411,,,A*51
$GPGGA,222739.991,1445.5602,S,07436.6271,W,1,09,1.0,3262.3,M,20.4,M,,0000*64
$GPGSA,M,3,03,06,19,32,14,16,11,22,24,,,,1.8,1.0,1.5*3A
$GPRMC,222739.991,A,1445.5602,S,07436.6271,W,12.77,108.12,170411,,,A*55
$GPGGA,222741.000,1445.5615,S,07436.6235,W,1,09,1.0,3263.2,M,20.4,M,,0000*6C
$GPGSA,M,3,03,06,19,32,14,16,11,22,24,,,,1.8,1.0,1.5*3A
$GPRMC,222741.000,A,1445.5615,S,07436.6235,W,13.31,107.05,170411,,,A*57
$GPGGA,222742.003,1445.5624,S,07436.6200,W,1,08,1.0,3262.8,M,20.4,M,,0000*62
$GPGSA,M,3,03,06,19,32,14,16,22,24,,,,,1.9,1.0,1.5*3B
$GPRMC,222742.003,A,1445.5624,S,07436.6200,W,13.86,108.23,170411,,,A*54
$GPGGA,222743.000,1445.5637,S,07436.6164,W,1,09,1.0,3263.5,M,20.4,M,,0000*6E
$GPGSA,M,3,03,06,19,32,14,16,11,22,24,,,,1.8,1.0,1.5*3A
$GPGSV,3,1,12,03,84,088,39,06,66,060,36,19,57,193,38,32,45,291,41*7D
$GPGSV,3,2,12,14,38,108,27,16,28,350,35,11,21,224,30,22,20,145,39*78
$GPGSV,3,3,12,20,20,297,36,24,17,236,36,30,14,006,,31,04,039,*7D
$GPRMC,222743.000,A,1445.5637,S,07436.6164,W,14.80,108.11,170411,,,A*55
$GPGGA,222744.001,1445.5651,S,07436.6122,W,1,09,1.0,3265.0,M,20.4,M,,0000*69
$GPGSA,M,3,03,06,19,32,14,16,11,22,24,,,,1.8,1.0,1.5*3A
$GPRMC,222744.001,A,1445.5651,S,07436.6122,W,15.27,106.61,170411,,,A*54
$GPGGA,222744.996,1445.5663,S,07436.6082,W,1,07,1.2,3264.7,M,20.4,M,,0000*6E
$GPGSA,M,3,03,06,19,32,16,22,24,,,,,,2.0,1.2,1.6*35
$GPRMC,222744.996,A,1445.5663,S,07436.6082,W,14.74,108.53,170411,,,A*51
$GPGGA,222746.002,1445.5675,S,07436.6038,W,1,08,1.1,3265.5,M,20.4,M,,0000*61
$GPGSA,M,3,03,06,19,32,16,11,22,24,,,,,1.9,1.1,1.6*3C
$GPRMC,222746.002,A,1445.5675,S,07436.6038,W,16.14,102.85,170411,,,A*54
$GPGGA,222747.002,1445.5684,S,07436.5994,W,1,09,1.0,3265.4,M,20.4,M,,0000*63
$GPGSA,M,3,03,06,19,32,14,16,11,22,24,,,,1.8,1.0,1.5*3A
$GPRMC,222747.002,A,1445.5684,S,07436.5994,W,15.88,100.94,170411,,,A*53
$GPGGA,222747.998,1445.5692,S,07436.5948,W,1,08,1.6,3265.8,M,20.4,M,,0000*64
$GPGSA,M,3,03,06,19,32,14,11,22,24,,,,,2.7,1.6,2.2*33
$GPGSV,3,1,12,03,84,088,39,06,66,060,35,19,57,193,39,32,45,291,41*7F
$GPGSV,3,2,12,14,38,108,31,16,28,350,,11,21,224,35,22,20,145,39*7C
$GPGSV,3,3,12,20,20,297,38,24,17,236,38,30,14,006,,31,04,039,*7D
$GPRMC,222747.998,A,1445.5692,S,07436.5948,W,16.42,97.61,170411,,,A*6F
$GPGGA,222749.000,1445.5697,S,07436.5902,W,1,08,1.6,3265.7,M,20.4,M,,0000*66
$GPGSA,M,3,03,06,19,32,14,11,22,24,,,,,2.7,1.6,2.2*33
$GPRMC,222749.000,A,1445.5697,S,07436.5902,W,16.49,94.93,170411,,,A*67
$GPGGA,222750.001,1445.5700,S,07436.5853,W,1,08,1.6,3265.7,M,20.4,M,,0000*65
$GPGSA,M,3,03,06,19,32,14,11,22,24,,,,,2.7,1.6,2.2*33
$GPRMC,222750.001,A,1445.5700,S,07436.5853,W,17.26,90.93,170411,,,A*68
$GPGGA,222751.001,1445.5699,S,07436.5804,W,1,09,1.0,3266.4,M,20.4,M,,0000*60
$GPGSA,M,3,03,06,19,32,14,16,11,22,24,,,,1.8,1.0,1.5*3A
$GPRMC,222751.001,A,1445.5699,S,07436.5804,W,17.74,89.75,170411,,,A*6D
$GPGGA,222752.000,1445.5700,S,07436.5753,W,1,09,1.0,3267.1,M,20.4,M,,0000*6A
$GPGSA,M,3,03,06,19,32,14,16,11,22,24,,,,1.8,1.0,1.5*3A
$GPRMC,222752.000,A,1445.5700,S,07436.5753,W,17.59,88.38,170411,,,A*64
$GPGGA,222752.999,1445.5697,S,07436.5702,W,1,09,1.0,3267.4,M,20.4,M,,0000*6D
$GPGSA,M,3,03,06,19,32,14,16,11,22,24,,,,1.8,1.0,1.5*3A
$GPGSV,3,1,12,03,84,088,39,06,66,060,36,19,57,193,37,32,45,291,37*73
$GPGSV,3,2,12,14,38,108,40,16,28,350,39,11,21,224,36,22,20,145,39*73
$GPGSV,3,3,12,20,20,297,37,24,17,236,37,30,14,006,,31,04,039,*7D
$GPRMC,222752.999,A,1445.5697,S,07436.5702,W,18.01,88.16,170411,,,A*68
$GPGGA,222754.000,1445.5695,S,07436.5651,W,1,09,1.0,3268.5,M,20.4,M,,0000*69
$GPGSA,M,3,03,06,19,32,14,16,11,22,24,,,,1.8,1.0,1.5*3A
$GPRMC,222754.000,A,1445.5695,S,07436.5651,W,17.83,87.28,170411,,,A*65
$GPGGA,222754.999,1445.5696,S,07436.5601,W,1,08,1.1,3269.7,M,20.4,M,,0000*65
$GPGSA,M,3,03,06,19,14,16,11,22,24,,,,,1.9,1.1,1.6*38
$GPRMC,222754.999,A,1445.5696,S,07436.5601,W,17.94,87.64,170411,,,A*64
$GPGGA,222755.997,1445.5692,S,07436.5549,W,1,08,1.6,3270.2,M,20.4,M,,0000*6B
$GPGSA,M,3,03,06,19,32,14,11,22,24,,,,,2.7,1.6,2.2*33
$GPRMC,222755.997,A,1445.5692,S,07436.5549,W,17.75,87.57,170411,,,A*6F
$GPGGA,222757.003,1445.5690,S,07436.5495,W,1,08,1.6,3270.2,M,20.4,M,,0000*6F
$GPGSA,M,3,03,06,19,32,14,11,22,24,,,,,2.7,1.6,2.2*33
$GPRMC,222757.003,A,1445.5690,S,07436.5495,W,17.65,86.03,170411,,,A*6A
$GPGGA,222757.998,1445.5688,S,07436.5445,W,1,08,1.6,3270.1,M,20.4,M,,0000*63
$GPGSA,M,3,03,06,19,32,14,11,22,24,,,,,2.7,1.6,2.2*33
$GPGSV,3,1,12,03,84,088,39,06,66,060,36,19,57,193,38,32,45,291,38*73
$GPGSV,3,2,12,14,38,108,38,16,28,350,,11,21,224,36,22,20,145,40*78
$GPGSV,3,3,12,20,20,297,36,24,17,236,37,30,14,006,,31,04,039,*7C
$GPRMC,222757.998,A,1445.5688,S,07436.5445,W,17.76,88.06,170411,,,A*6C
$GPGGA,222758.997,1445.5683,S,07436.5393,W,1,09,1.0,3271.4,M,20.4,M,,0000*67
$GPGSA,M,3,03,06,19,32,14,16,11,22,24,,,,1.8,1.0,1.5*3A
$GPRMC,222758.997,A,1445.5683,S,07436.5393,W,17.79,80.70,170411,,,A*6D
$GPGGA,222800.001,1445.5672,S,07436.5342,W,1,09,1.0,3271.8,M,20.4,M,,0000*6D
$GPGSA,M,3,03,06,19,32,14,16,11,22,24,,,,1.8,1.0,1.5*3A
$GPRMC,222800.001,A,1445.5672,S,07436.5342,W,17.75,74.81,170411,,,A*62
$GPGGA,222800.999,1445.5658,S,07436.5293,W,1,09,1.0,3273.6,M,20.4,M,,0000*6C
$GPGSA,M,3,03,06,19,32,14,16,11,22,24,,,,1.8,1.0,1.5*3A
$GPRMC,222800.999,A,1445.5658,S,07436.5293,W,18.24,68.72,170411,,,A*65
$GPGGA,222802.002,1445.5638,S,07436.5246,W,1,10,0.9,3274.0,M,20.4,M,,0000*6A
$GPGSA,M,3,03,06,19,32,14,16,11,22,24,30,,,1.5,0.9,1.3*3A
$GPRMC,222802.002,A,1445.5638,S,07436.5246,W,18.87,63.61,170411,,,A*62
$GPGGA,222802.999,1445.5611,S,07436.5198,W,1,10,0.9,3274.1,M,20.4,M,,0000*6B
$GPGSA,M,3,03,06,19,32,14,16,11,22,24,30,,,1.5,0.9,1.2*3B
$GPGSV,3,1,12,03,84,088,36,06,66,060,39,19,57,193,40,32,45,291,40*73
$GPGSV,3,2,12,14,38,108,40,16,28,350,35,11,21,224,40,22,20,145,37*70
$GPGSV,3,3,12,20,20,297,,24,17,236,37,30,14,006,27,31,04,039,28*76
$GPRMC,222802.999,A,1445.5611,S,07436.5198,W,19.22,57.11,170411,,,A*6C
$GPGGA,222803.999,1445.5580,S,07436.5153,W,1,09,1.0,3274.0,M,20.4,M,,0000*67
$GPGSA,M,3,03,06,19,32,14,16,11,22,24,,,,1.8,1.0,1.5*3A
$GPRMC,222803.999,A,1445.5580,S,07436.5153,W,19.35,50.31,170411,,,A*62
$GPGGA,222804.999,1445.5544,S,07436.5110,W,1,10,0.9,3275.3,M,20.4,M,,0000*6D
$GPGSA,M,3,03,06,19,32,14,16,11,22,24,30,,,1.5,0.9,1.2*3B
$GPRMC,222804.999,A,1445.5544,S,07436.5110,W,20.28,47.94,170411,,,A*65
$GPGGA,222806.000,1445.5505,S,07436.5068,W,1,10,0.9,3275.8,M,20.4,M,,0000*66
$GPGSA,M,3,03,06,19,32,14,16,11,22,24,30,,,1.5,0.9,1.2*3B
$GPRMC,222806.000,A,1445.5505,S,07436.5068,W,20.57,45.30,170411,,,A*61
$GPGGA,222807.000,1445.5463,S,07436.5026,W,1,10,0.9,3275.6,M,20.4,M,,0000*62
$GPGSA,M,3,03,06,19,32,14,16,11,22,24,30,,,1.5,0.9,1.2*3B
$GPRMC,222807.000,A,1445.5463,S,07436.5026,W,21.02,44.62,170411,,,A*6C
$GPGGA,222808.000,1445.5424,S,07436.4985,W,1,10,0.9,3276.4,M,20.4,M,,0000*6E
$GPGSA,M,3,03,06,19,32,14,16,11,22,24,30,,,1.5,0.9,1.2*3B
$GPGSV,3,1,12,03,84,088,34,06,66,060,39,19,57,193,39,32,45,291,39*71
$GPGSV,3,2,12,14,38,108,37,16,28,350,34,11,21,224,29,22,20,145,37*7E
$GPGSV,3,3,12,20,20,297,37,24,17,236,38,30,14,006,31,31,04,039,36*75
$GPRMC,222808.000,A,1445.5424,S,07436.4985,W,21.50,44.99,170411,,,A*62
$GPGGA,222809.000,1445.5380,S,07436.4941,W,1,10,0.9,3276.6,M,20.4,M,,0000*6C
$GPGSA,M,3,03,06,19,32,14,16,11,22,24,30,,,1.5,0.9,1.2*3B
$GPRMC,222809.000,A,1445.5380,S,07436.4941,W,21.78,43.97,170411,,,A*61
$GPGGA,222810.001,1445.5337,S,07436.4898,W,1,10,0.9,3277.0,M,20.4,M,,0000*6B
$GPGSA,M,3,03,06,19,32,14,16,11,22,24,30,,,1.5,0.9,1.2*3B
$GPRMC,222810.001,A,1445.5337,S,07436.4898,W,21.69,43.43,170411,,,A*68
$GPGGA,222810.995,1445.5294,S,07436.4858,W,1,10,0.9,3278.2,M,20.4,M,,0000*66
$GPGSA,M,3,03,06,19,32,14,16,11,22,24,30,,,1.5,0.9,1.2*3B
$GPRMC,222810.995,A,1445.5294,S,07436.4858,W,22.19,44.23,170411,,,A*6D
$GPGGA,222812.004,1445.5248,S,07436.4810,W,1,10,0.9,3278.1,M,20.4,M,,0000*6B
$GPGSA,M,3,03,06,19,32,14,16,11,22,24,30,,,1.5,0.9,1.2*3B
$GPRMC,222812.004,A,1445.5248,S,07436.4810,W,22.42,42.20,170411,,,A*68
$GPGGA,222813.001,1445.5201,S,07436.4766,W,1,10,0.8,3278.2,M,20.4,M,,0000*6E
$GPGSA,M,3,03,06,19,32,14,16,11,22,24,30,,,1.5,0.8,1.2*3A
$GPGSV,3,1,12,03,84,088,36,06,66,060,38,19,57,193,40,32,45,291,39*7C
$GPGSV,3,2,12,14,38,108,36,16,28,350,35,11,21,224,29,22,20,145,37*7E
$GPGSV,3,3,12,20,20,297,37,24,17,236,39,30,14,006,28,31,04,039,37*7D
$GPRMC,222813.001,A,1445.5201,S,07436.4766,W,22.49,44.00,170411,,,A*60
$GPGGA,222813.997,1445.5155,S,07436.4720,W,1,10,0.8,3277.7,M,20.4,M,,0000*62
$GPGSA,M,3,03,06,19,32,14,16,11,22,24,30,,,1.5,0.8,1.2*3A
$GPRMC,222813.997,A,1445.5155,S,07436.4720,W,22.40,44.13,170411,,,A*6D
$GPGGA,222815.000,1445.5105,S,07436.4674,W,1,10,0.8,3277.6,M,20.4,M,,0000*67
$GPGSA,M,3,03,06,19,32,14,16,11,22,24,30,,,1.5,0.8,1.2*3A
$GPRMC,222815.000,A,1445.5105,S,07436.4674,W,23.28,41.65,170411,,,A*62
$GPGGA,222816.004,1445.5056,S,07436.4628,W,1,10,0.8,3278.1,M,20.4,M,,0000*66
$GPGSA,M,3,03,06,19,32,14,16,11,22,24,30,,,1.5,0.8,1.2*3A
$GPRMC,222816.004,A,1445.5056,S,07436.4628,W,23.70,42.12,170411,,,A*65
$GPGGA,222816.996,1445.5008,S,07436.4582,W,1,10,0.8,3278.5,M,20.4,M,,0000*68
$GPGSA,M,3,03,06,19,32,14,16,11,22,24,30,,,1.5,0.8,1.2*3A
$GPRMC,222816.996,A,1445.5008,S,07436.4582,W,23.41,43.85,170411,,,A*62
$GPGGA,222818.000,1445.4958,S,07436.4536,W,1,10,0.8,3278.6,M,20.4,M,,0000*61
$GPGSA,M,3,03,06,19,32,14,16,11,22,24,30,,,1.5,0.8,1.2*3A
$GPGSV,3,1,12,03,84,088,36,06,66,060,40,19,57,193,40,32,45,291,39*73
$GPGSV,3,2,12,14,38,108,37,16,28,350,35,11,21,224,29,22,20,145,37*7F
$GPGSV,3,3,12,20,20,297,35,24,17,236,40,30,14,006,27,31,04,039,37*7E
$GPRMC,222818.000,A,1445.4958,S,07436.4536,W,23.96,43.14,170411,,,A*6A
$GPGGA,222819.000,1445.4909,S,07436.4490,W,1,10,0.8,3278.8,M,20.4,M,,0000*67
$GPGSA,M,3,03,06,19,32,14,16,11,22,24,30,,,1.5,0.8,1.2*3A
$GPRMC,222819.000,A,1445.4909,S,07436.4490,W,23.46,42.83,170411,,,A*60
$GPGGA,222820.006,1445.4856,S,07436.4442,W,1,10,0.8,3278.6,M,20.4,M,,0000*61
$GPGSA,M,3,03,06,19,32,14,16,11,22,24,30,,,1.5,0.8,1.2*3A
$GPRMC,222820.006,A,1445.4856,S,07436.4442,W,24.85,42.52,170411,,,A*6C
$GPGGA,222820.994,1445.4805,S,07436.4395,W,1,10,0.8,3279.1,M,20.4,M,,0000*6E
$GPGSA,M,3,03,06,19,32,14,16,11,22,24,30,,,1.5,0.8,1.2*3A
$GPRMC,222820.994,A,1445.4805,S,07436.4395,W,24.52,43.67,170411,,,A*68
$GPGGA,222822.001,1445.4754,S,07436.4347,W,1,10,0.8,3278.7,M,20.4,M,,0000*6A
$GPGSA,M,3,03,06,19,32,14,16,11,22,24,30,,,1.5,0.8,1.2*3A
$GPRMC,222822.001,A,1445.4754,S,07436.4347,W,24.93,42.94,170411,,,A*6B
$GPGGA,222822.999,1445.4702,S,07436.4300,W,1,10,0.8,3278.4,M,20.4,M,,0000*61
$GPGSA,M,3,03,06,19,32,14,16,11,22,24,30,,,1.5,0.8,1.2*3A
$GPGSV,3,1,12,03,84,088,34,06,66,060,37,19,57,193,40,32,45,291,37*7F
$GPGSV,3,2,12,14,38,108,38,16,28,350,35,11,21,224,30,22,20,145,38*77
$GPGSV,3,3,12,20,20,297,35,24,17,236,38,30,14,006,29,31,04,039,36*7E
$GPRMC,222822.999,A,1445.4702,S,07436.4300,W,24.43,44.12,170411,,,A*66
$GPGGA,222823.999,1445.4651,S,07436.4252,W,1,10,0.8,3278.8,M,20.4,M,,0000*6D
$GPGSA,M,3,03,06,19,32,14,16,11,22,24,30,,,1.5,0.8,1.2*3A
$GPRMC,222823.999,A,1445.4651,S,07436.4252,W,24.50,42.23,170411,,,A*60
$GPGGA,222825.000,1445.4599,S,07436.4203,W,1,10,0.8,3278.9,M,20.4,M,,0000*60
$GPGSA,M,3,03,06,19,32,14,16,11,22,24,30,,,1.5,0.8,1.2*3A
$GPRMC,222825.000,A,1445.4599,S,07436.4203,W,24.73,44.25,170411,,,A*6D
$GPGGA,222825.999,1445.4548,S,07436.4154,W,1,10,0.8,3279.6,M,20.4,M,,0000*6A
$GPGSA,M,3,03,06,19,32,14,16,11,22,24,30,,,1.5,0.8,1.2*3A
$GPRMC,222825.999,A,1445.4548,S,07436.4154,W,24.58,43.05,170411,,,A*65
$GPGGA,222827.002,1445.4497,S,07436.4103,W,1,09,1.0,3279.1,M,20.4,M,,0000*64
$GPGSA,M,3,03,06,19,32,14,16,11,22,24,,,,1.8,1.0,1.5*3A
$GPRMC,222827.002,A,1445.4497,S,07436.4103,W,25.24,44.25,170411,,,A*62
$GPGGA,222827.999,1445.4446,S,07436.4053,W,1,10,0.8,3278.9,M,20.4,M,,0000*6F
$GPGSA,M,3,03,06,19,32,14,16,11,22,24,30,,,1.5,0.8,1.2*3A
$GPGSV,3,1,12,03,84,088,36,06,66,060,39,19,57,193,40,32,45,291,37*73
$GPGSV,3,2,12,14,38,108,36,16,28,350,31,11,21,224,31,22,20,145,37*73
$GPGSV,3,3,12,20,20,297,37,24,17,236,37,30,14,006,31,31,04,039,36*7A
$GPRMC,222827.999,A,1445.4446,S,07436.4053,W,25.02,44.42,170411,,,A*64
$GPGGA,222829.000,1445.4396,S,07436.4001,W,1,10,0.8,3278.8,M,20.4,M,,0000*64
$GPGSA,M,3,03,06,19,32,14,16,11,22,24,30,,,1.5,0.8,1.2*3A
$GPRMC,222829.000,A,1445.4396,S,07436.4001,W,24.52,45.55,170411,,,A*6D
$GPGGA,222829.999,1445.4347,S,07436.3947,W,1,10,0.8,3278.9,M,20.4,M,,0000*6C
$GPGSA,M,3,03,06,19,32,14,16,11,22,24,30,,,1.5,0.8,1.2*3A
$GPRMC,222829.999,A,1445.4347,S,07436.3947,W,24.80,46.78,170411,,,A*67
$GPGGA,222830.999,1445.4300,S,07436.3893,W,1,10,0.8,3278.5,M,20.4,M,,0000*63
$GPGSA,M,3,03,06,19,32,14,16,11,22,24,30,,,1.5,0.8,1.2*3A
$GPRMC,222830.999,A,1445.4300,S,07436.3893,W,25.20,47.39,170411,,,A*6B
$GPGGA,222832.000,1445.4253,S,07436.3839,W,1,10,0.8,3278.7,M,20.4,M,,0000*6D
$GPGSA,M,3,03,06,19,32,14,16,11,22,24,30,,,1.5,0.8,1.2*3A
$GPRMC,222832.000,A,1445.4253,S,07436.3839,W,25.16,48.90,170411,,,A*6E
$GPGGA,222832.999,1445.4209,S,07436.3783,W,1,09,1.0,3279.4,M,20.4,M,,0000*66
$GPGSA,M,3,03,06,19,32,14,16,11,22,24,,,,1.8,1.0,1.5*3A
$GPGSV,3,1,12,03,84,088,37,06,66,060,38,19,57,193,41,32,45,291,39*7C
$GPGSV,3,2,12,14,38,108,39,16,28,350,35,11,21,224,38,22,20,145,36*70
$GPGSV,3,3,12,20,20,297,32,24,17,236,37,30,14,006,,31,04,039,35*7E
$GPRMC,222832.999,A,1445.4209,S,07436.3783,W,24.22,51.64,170411,,,A*63
$GPGGA,222833.999,1445.4166,S,07436.3726,W,1,09,1.0,3278.8,M,20.4,M,,0000*6F
$GPGSA,M,3,03,06,19,32,14,16,11,22,24,,,,1.8,1.0,1.5*3A
$GPRMC,222833.999,A,1445.4166,S,07436.3726,W,25.53,53.19,170411,,,A*68
$GPGGA,222834.999,1445.4128,S,07436.3666,W,1,09,1.0,3279.5,M,20.4,M,,0000*6B
$GPGSA,M,3,03,06,19,32,14,16,11,22,24,,,,1.8,1.0,1.5*3A
$GPRMC,222834.999,A,1445.4128,S,07436.3666,W,25.04,54.95,170411,,,A*61
$GPGGA,222836.001,1445.4087,S,07436.3607,W,1,09,1.0,3279.5,M,20.4,M,,0000*62
$GPGSA,M,3,03,06,19,32,14,16,11,22,24,,,,1.8,1.0,1.5*3A
$GPRMC,222836.001,A,1445.4087,S,07436.3607,W,24.62,55.95,170411,,,A*68
$GPGGA,222837.000,1445.4048,S,07436.3549,W,1,09,1.0,3279.2,M,20.4,M,,0000*6F
$GPGSA,M,3,03,06,19,32,14,16,11,22,24,,,,1.8,1.0,1.5*3A
$GPRMC,222837.000,A,1445.4048,S,07436.3549,W,24.94,55.59,170411,,,A*6B
$GPGGA,222837.998,1445.4011,S,07436.3489,W,1,09,1.0,3279.0,M,20.4,M,,0000*64
$GPGSA,M,3,03,06,19,32,14,16,11,22,24,,,,1.8,1.0,1.5*3A
$GPRMC,222837.998,A,1445.4011,S,07436.3489,W,24.34,55.13,170411,,,A*66
$GPGGA,222839.000,1445.3972,S,07436.3428,W,1,10,0.8,3278.8,M,20.4,M,,0000*6A
$GPGSA,M,3,03,06,19,32,14,16,11,22,24,30,,,1.5,0.8,1.2*3A
$GPRMC,222839.000,A,1445.3972,S,07436.3428,W,24.49,55.59,170411,,,A*64
$GPGGA,222840.002,1445.3931,S,07436.3368,W,1,09,1.0,3278.7,M,20.4,M,,0000*6C
$GPGSA,M,3,03,06,19,32,14,16,11,22,24,,,,1.8,1.0,1.5*3A
$GPRMC,222840.002,A,1445.3931,S,07436.3368,W,24.76,56.13,170411,,,A*6D
$GPGGA,222840.998,1445.3891,S,07436.3310,W,1,09,1.0,3278.6,M,20.4,M,,0000*63
$GPGSA,M,3,03,06,19,32,14,16,11,22,24,,,,1.8,1.0,1.5*3A
$GPRMC,222840.998,A,1445.3891,S,07436.3310,W,24.57,55.60,170411,,,A*67
$GPGGA,222842.000,1445.3852,S,07436.3252,W,1,09,1.0,3279.4,M,20.4,M,,0000*62
$GPGSA,M,3,03,06,19,32,14,16,11,22,24,,,,1.8,1.0,1.5*3A
$GPRMC,222842.000,A,1445.3852,S,07436.3252,W,24.31,55.46,170411,,,A*61
$GPGGA,222843.003,1445.3814,S,07436.3194,W,1,09,1.0,3280.2,M,20.4,M,,0000*6B
$GPGSA,M,3,03,06,19,32,14,16,11,22,24,,,,1.8,1.0,1.5*3A
$GPGSV,3,1,12,03,84,088,37,06,66,060,39,19,57,193,39,32,45,291,40*7C
$GPGSV,3,2,12,14,38,108,40,16,28,350,30,11,21,224,40,22,20,145,39*7B
$GPGSV,3,3,12,20,20,297,35,24,17,236,38,30,14,006,,31,04,039,*70
$GPRMC,222843.003,A,1445.3814,S,07436.3194,W,24.30,55.65,170411,,,A*68
$GPGGA,222843.999,1445.3774,S,07436.3136,W,1,09,1.0,3280.5,M,20.4,M,,0000*67
$GPGSA,M,3,03,06,19,32,14,16,11,22,24,,,,1.8,1.0,1.5*3A
$GPRMC,222843.999,A,1445.3774,S,07436.3136,W,24.44,54.57,170411,,,A*60
$GPGGA,222844.997,1445.3734,S,07436.3082,W,1,10,0.8,3281.6,M,20.4,M,,0000*67
$GPGSA,M,3,03,06,19,32,14,16,11,22,24,30,,,1.5,0.8,1.2*3A
$GPRMC,222844.997,A,1445.3734,S,07436.3082,W,24.03,54.85,170411,,,A*6F
$GPGGA,222845.999,1445.3694,S,07436.3024,W,1,09,1.0,3281.5,M,20.4,M,,0000*6D
$GPGSA,M,3,03,06,19,32,14,16,11,22,24,,,,1.8,1.0,1.5*3A
$GPRMC,222845.999,A,1445.3694,S,07436.3024,W,24.06,53.76,170411,,,A*69
$GPGGA,222847.000,1445.3656,S,07436.2969,W,1,09,1.0,3282.4,M,20.4,M,,0000*6B
$GPGSA,M,3,03,06,19,32,14,16,11,22,24,,,,1.8,1.0,1.5*3A
$GPRMC,222847.000,A,1445.3656,S,07436.2969,W,24.43,53.61,170411,,,A*6A
$GPGGA,222848.003,1445.3614,S,07436.2911,W,1,09,1.0,3281.6,M,20.4,M,,0000*6F
$GPGSA,M,3,03,06,19,32,14,16,11,22,24,,,,1.8,1.0,1.5*3A
$GPGSV,3,1,12,03,84,088,37,06,66,060,38,19,57,193,40,32,45,291,39*7D
$GPGSV,3,2,12,14,38,108,40,16,28,350,35,11,21,224,40,22,20,145,40*70
$GPGSV,3,3,12,20,20,297,34,24,17,236,37,30,14,006,,31,04,039,*7E
$GPRMC,222848.003,A,1445.3614,S,07436.2911,W,23.86,54.86,170411,,,A*6F
$GPGGA,222848.998,1445.3576,S,07436.2855,W,1,09,1.0,3281.6,M,20.4,M,,0000*62
$GPGSA,M,3,03,06,19,32,14,16,11,22,24,,,,1.8,1.0,1.5*3A
$GPRMC,222848.998,A,1445.3576,S,07436.2855,W,23.71,55.73,170411,,,A*61
$GPGGA,222849.998,1445.3540,S,07436.2799,W,1,09,1.0,3282.2,M,20.4,M,,0000*6E
$GPGSA,M,3,03,06,19,32,14,16,11,22,24,,,,1.8,1.0,1.5*3A
$GPRMC,222849.998,A,1445.3540,S,07436.2799,W,23.35,57.03,170411,,,A*6F
$GPGGA,222850.999,1445.3502,S,07436.2744,W,1,10,0.8,3281.4,M,20.4,M,,0000*65
$GPGSA,M,3,03,06,19,32,14,16,11,22,24,30,,,1.5,0.8,1.2*3A
$GPRMC,222850.999,A,1445.3502,S,07436.2744,W,24.24,55.15,170411,,,A*62
$GPGGA,222852.000,1445.3465,S,07436.2689,W,1,10,0.8,3281.5,M,20.4,M,,0000*6F
$GPGSA,M,3,03,06,19,32,14,16,11,22,24,30,,,1.5,0.8,1.2*3A
$GPRMC,222852.000,A,1445.3465,S,07436.2689,W,23.31,55.75,170411,,,A*6C
$GPGGA,222853.003,1445.3428,S,07436.2634,W,1,09,1.0,3281.4,M,20.4,M,,0000*62
$GPGSA,M,3,03,06,19,32,14,16,11,22,24,,,,1.8,1.0,1.5*3A
$GPGSV,3,1,12,03,84,088,38,06,66,060,39,19,57,193,40,32,45,291,40*7D
$GPGSV,3,2,12,14,38,108,39,16,28,350,34,11,21,224,39,22,20,145,39*7F
$GPGSV,3,3,12,20,20,297,37,24,17,236,38,30,14,006,,31,04,039,*72
$GPRMC,222853.003,A,1445.3428,S,07436.2634,W,22.77,55.50,170411,,,A*65
$GPGGA,222854.000,1445.3393,S,07436.2580,W,1,09,1.0,3281.3,M,20.4,M,,0000*6A
$GPGSA,M,3,03,06,19,32,14,16,11,22,24,,,,1.8,1.0,1.5*3A
$GPRMC,222854.000,A,1445.3393,S,07436.2580,W,22.14,55.70,170411,,,A*6D
$GPGGA,222855.000,1445.3358,S,07436.2526,W,1,10,0.8,3280.7,M,20.4,M,,0000*64
$GPGSA,M,3,03,06,19,32,14,16,11,22,24,30,,,1.5,0.8,1.2*3A
$GPRMC,222855.000,A,1445.3358,S,07436.2526,W,22.05,57.80,170411,,,A*6A
$GPGGA,222855.999,1445.3324,S,07436.2472,W,1,09,1.0,3280.8,M,20.4,M,,0000*68
$GPGSA,M,3,03,06,19,32,14,16,11,22,24,,,,1.8,1.0,1.5*3A
$GPRMC,222855.999,A,1445.3324,S,07436.2472,W,22.26,55.28,170411,,,A*69
$GPGGA,222856.999,1445.3282,S,07436.2420,W,1,09,1.0,3280.5,M,20.4,M,,0000*6C
$GPGSA,M,3,03,06,19,32,14,16,11,22,24,,,,1.8,1.0,1.5*3A
$GPRMC,222856.999,A,1445.3282,S,07436.2420,W,21.72,53.73,170411,,,A*6A
$GPGGA,222857.999,1445.3247,S,07436.2370,W,1,09,1.0,3280.4,M,20.4,M,,0000*67
$GPGSA,M,3,03,06,19,32,14,16,11,22,24,,,,1.8,1.0,1.5*3A
$GPGSV,3,1,12,03,84,088,37,06,66,060,38,19,57,193,40,32,45,291,39*7D
$GPGSV,3,2,12,14,38,108,40,16,28,350,34,11,21,224,40,22,20,145,39*7F
$GPGSV,3,3,12,20,20,297,36,24,17,236,38,30,14,006,,31,04,039,30*70
$GPRMC,222857.999,A,1445.3247,S,07436.2370,W,21.44,55.28,170411,,,A*6D
$GPGGA,222858.999,1445.3215,S,07436.2321,W,1,10,0.8,3281.1,M,20.4,M,,0000*6E
$GPGSA,M,3,03,06,19,32,14,16,11,22,24,30,,,1.5,0.8,1.2*3A
$GPRMC,222858.999,A,1445.3215,S,07436.2321,W,21.10,55.65,170411,,,A*69
$GPGGA,222859.999,1445.3182,S,07436.2271,W,1,10,0.8,3281.2,M,20.4,M,,0000*65
$GPGSA,M,3,03,06,19,32,14,16,11,22,24,30,,,1.5,0.8,1.2*3A
$GPRMC,222859.999,A,1445.3182,S,07436.2271,W,21.10,55.18,170411,,,A*6B
$GPGGA,222900.999,1445.3149,S,07436.2222,W,1,10,0.8,3281.9,M,20.4,M,,0000*62
$GPGSA,M,3,03,06,19,32,14,16,11,22,24,30,,,1.5,0.8,1.2*3A
$GPRMC,222900.999,A,1445.3149,S,07436.2222,W,21.09,54.98,170411,,,A*66
$GPGGA,222901.998,1445.3116,S,07436.2173,W,1,09,1.0,3281.7,M,20.4,M,,0000*60
$GPGSA,M,3,03,06,19,32,14,16,11,22,24,,,,1.8,1.0,1.5*3A
$GPRMC,222901.998,A,1445.3116,S,07436.2173,W,21.00,55.51,170411,,,A*66
$GPGGA,222903.000,1445.3083,S,07436.2119,W,1,09,1.0,3281.6,M,20.4,M,,0000*6A
$GPGSA,M,3,03,06,19,32,14,16,11,22,24,,,,1.8,1.0,1.5*3A
$GPGSV,3,1,12,03,84,088,36,06,66,060,37,19,57,193,40,32,45,291,40*7D
$GPGSV,3,2,12,14,38,108,40,16,28,350,30,11,21,224,40,22,20,145,39*7B
$GPGSV,3,3,12,20,20,297,36,24,17,236,37,30,14,006,,31,04,039,23*7D
$GPRMC,222903.000,A,1445.3083,S,07436.2119,W,21.39,55.54,170411,,,A*62
$GPGGA,222904.000,1445.3049,S,07436.2068,W,1,10,0.8,3281.4,M,20.4,M,,0000*6F
$GPGSA,M,3,03,06,19,32,14,16,11,22,24,30,,,1.5,0.8,1.2*3A
$GPRMC,222904.000,A,1445.3049,S,07436.2068,W,21.38,56.38,170411,,,A*6C
$GPGGA,222905.001,1445.3016,S,07436.2019,W,1,10,0.8,3282.8,M,20.4,M,,0000*6C
$GPGSA,M,3,03,06,19,32,14,16,11,22,24,30,,,1.5,0.8,1.2*3A
$GPRMC,222905.001,A,1445.3016,S,07436.2019,W,21.84,53.89,170411,,,A*68
$GPGGA,222905.999,1445.2982,S,07436.1967,W,1,10,0.8,3282.3,M,20.4,M,,0000*69
$GPGSA,M,3,03,06,19,32,14,16,11,22,24,30,,,1.5,0.8,1.2*3A
$GPRMC,222905.999,A,1445.2982,S,07436.1967,W,21.19,55.71,170411,,,A*63
$GPGGA,222906.998,1445.2951,S,07436.1918,W,1,09,1.0,3283.3,M,20.4,M,,0000*6D
$GPGSA,M,3,03,06,19,32,14,16,11,22,24,,,,1.8,1.0,1.5*3A
$GPRMC,222906.998,A,1445.2951,S,07436.1918,W,20.93,54.12,170411,,,A*60
$GPGGA,222908.001,1445.2916,S,07436.1869,W,1,09,1.0,3282.9,M,20.4,M,,0000*65
$GPGSA,M,3,03,06,19,32,14,16,11,22,24,,,,1.8,1.0,1.5*3A
$GPGSV,3,1,12,03,84,088,36,06,66,060,40,19,57,193,39,32,45,291,36*72
$GPGSV,3,2,12,14,38,108,38,16,28,350,32,11,21,224,38,22,20,145,35*75
$GPGSV,3,3,12,20,20,297,27,24,17,236,36,30,14,006,,31,04,039,33*7D
$GPRMC,222908.001,A,1445.2916,S,07436.1869,W,20.19,52.72,170411,,,A*61
$GPGGA,222909.000,1445.2881,S,07436.1824,W,1,10,0.8,3283.7,M,20.4,M,,0000*6D
$GPGSA,M,3,03,06,19,32,14,16,11,22,24,30,,,1.5,0.8,1.2*3A
$GPRMC,222909.000,A,1445.2881,S,07436.1824,W,20.49,49.54,170411,,,A*6C
$GPGGA,222910.000,1445.2843,S,07436.1781,W,1,09,1.0,3283.6,M,20.4,M,,0000*6B
$GPGSA,M,3,03,06,19,32,14,16,11,22,24,,,,1.8,1.0,1.5*3A
$GPRMC,222910.000,A,1445.2843,S,07436.1781,W,20.23,46.39,170411,,,A*62
$GPGGA,222910.999,1445.2801,S,07436.1741,W,1,09,1.0,3283.6,M,20.4,M,,0000*68
$GPGSA,M,3,03,06,19,32,14,16,11,22,24,,,,1.8,1.0,1.5*3A
$GPRMC,222910.999,A,1445.2801,S,07436.1741,W,20.34,41.50,170411,,,A*6F
$GPGGA,222912.001,1445.2757,S,07436.1705,W,1,10,0.8,3283.5,M,20.4,M,,0000*6C
$GPGSA,M,3,03,06,19,32,14,16,11,22,24,30,,,1.5,0.8,1.2*3A
$GPRMC,222912.001,A,1445.2757,S,07436.1705,W,20.37,36.07,170411,,,A*68
$GPGGA,222913.001,1445.2709,S,07436.1672,W,1,10,0.8,3283.6,M,20.4,M,,0000*64
$GPGSA,M,3,03,06,19,32,14,16,11,22,24,30,,,1.5,0.8,1.2*3A
$GPGSV,3,1,12,03,84,088,32,06,66,060,36,19,57,193,39,32,45,291,36*77
$GPGSV,3,2,12,14,38,108,36,16,28,350,33,11,21,224,39,22,20,145,37*79
$GPGSV,3,3,12,20,20,297,30,24,17,236,37,30,14,006,36,31,04,039,39*75
$GPRMC,222913.001,A,1445.2709,S,07436.1672,W,20.10,31.24,170411,,,A*60
$GPGGA,222914.001,1445.2662,S,07436.1643,W,1,10,0.8,3284.6,M,20.4,M,,0000*6A
$GPGSA,M,3,03,06,19,32,14,16,11,22,24,30,,,1.5,0.8,1.2*3A
$GPRMC,222914.001,A,1445.2662,S,07436.1643,W,20.00,27.98,170411,,,A*68
$GPGGA,222914.999,1445.2611,S,07436.1619,W,1,10,0.8,3284.7,M,20.4,M,,0000*68
$GPGSA,M,3,03,06,19,32,14,16,11,22,24,30,,,1.5,0.8,1.2*3A
$GPRMC,222914.999,A,1445.2611,S,07436.1619,W,20.18,23.24,170411,,,A*61
$GPGGA,222916.002,1445.2561,S,07436.1596,W,1,09,1.0,3285.4,M,20.4,M,,0000*62
$GPGSA,M,3,03,06,19,32,14,16,11,22,24,,,,1.8,1.0,1.5*3A
$GPRMC,222916.002,A,1445.2561,S,07436.1596,W,20.28,21.99,170411,,,A*6F
$GPGGA,222916.998,1445.2508,S,07436.1572,W,1,08,1.6,3285.4,M,20.4,M,,0000*6A
$GPGSA,M,3,03,06,19,32,14,11,22,24,,,,,2.7,1.6,2.2*33
$GPRMC,222916.998,A,1445.2508,S,07436.1572,W,20.70,23.83,170411,,,A*64
$GPGGA,222918.002,1445.2458,S,07436.1547,W,1,10,0.8,3285.2,M,20.4,M,,0000*6C
$GPGSA,M,3,03,06,19,32,14,16,11,22,24,30,,,1.5,0.8,1.2*3A
$GPGSV,3,1,12,03,84,088,31,06,66,060,36,19,57,193,41,32,45,291,37*7A
$GPGSV,3,2,12,14,38,108,36,16,28,350,25,11,21,224,37,22,20,145,35*72
$GPGSV,3,3,12,20,20,297,29,24,17,236,37,30,14,006,29,31,04,039,37*7D
$GPRMC,222918.002,A,1445.2458,S,07436.1547,W,19.92,24.83,170411,,,A*63
$GPGGA,222918.997,1445.2412,S,07436.1521,W,1,09,1.0,3286.3,M,20.4,M,,0000*64
$GPGSA,M,3,03,06,19,32,14,16,11,22,24,,,,1.8,1.0,1.5*3A
$GPRMC,222918.997,A,1445.2412,S,07436.1521,W,20.14,24.53,170411,,,A*61
$GPGGA,222920.000,1445.2359,S,07436.1496,W,1,09,1.0,3286.7,M,20.4,M,,0000*69
$GPGSA,M,3,03,06,19,32,14,16,11,22,24,,,,1.8,1.0,1.5*3A
$GPRMC,222920.000,A,1445.2359,S,07436.1496,W,20.58,23.05,170411,,,A*64
$GPGGA,222921.002,1445.2306,S,07436.1473,W,1,10,0.8,3286.0,M,20.4,M,,0000*6D
$GPGSA,M,3,03,06,19,32,14,16,11,22,24,30,,,1.5,0.8,1.2*3A
$GPRMC,222921.002,A,1445.2306,S,07436.1473,W,19.41,25.18,170411,,,A*6E
$GPGGA,222922.000,1445.2255,S,07436.1446,W,1,10,0.8,3285.9,M,20.4,M,,0000*67
$GPGSA,M,3,03,06,19,32,14,16,11,22,24,30,,,1.5,0.8,1.2*3A
$GPRMC,222922.000,A,1445.2255,S,07436.1446,W,20.20,32.39,170411,,,A*66
$GPGGA,222923.000,1445.2207,S,07436.1410,W,1,10,0.8,3285.8,M,20.4,M,,0000*63
$GPGSA,M,3,03,06,19,32,14,16,11,22,24,30,,,1.5,0.8,1.2*3A
$GPGSV,3,1,12,03,84,088,36,06,66,060,39,19,57,193,39,32,45,291,38*72
$GPGSV,3,2,12,14,38,108,36,16,28,350,27,11,21,224,31,22,20,145,37*74
$GPGSV,3,3,12,20,20,297,36,24,17,236,40,30,14,006,30,31,04,039,36*7A
$GPRMC,222923.000,A,1445.2207,S,07436.1410,W,20.41,39.61,170411,,,A*62
$GPGGA,222923.998,1445.2164,S,07436.1370,W,1,09,1.0,3285.8,M,20.4,M,,0000*6D
$GPGSA,M,3,03,06,19,32,14,16,11,22,24,,,,1.8,1.0,1.5*3A
$GPRMC,222923.998,A,1445.2164,S,07436.1370,W,20.77,45.57,170411,,,A*66
$GPGGA,222925.001,1445.2130,S,07436.1318,W,1,08,1.6,3285.8,M,20.4,M,,0000*6A
$GPGSA,M,3,03,06,19,32,14,11,22,24,,,,,2.7,1.6,2.2*33
$GPRMC,222925.001,A,1445.2130,S,07436.1318,W,21.22,55.19,170411,,,A*6C
$GPGGA,222926.000,1445.2096,S,07436.1270,W,1,09,0.9,3285.9,M,20.4,M,,0000*64
$GPGSA,M,3,03,06,19,32,14,11,22,24,30,,,,1.5,0.9,1.3*3D
$GPRMC,222926.000,A,1445.2096,S,07436.1270,W,20.85,59.61,170411,,,A*63
$GPGGA,222926.998,1445.2069,S,07436.1218,W,1,08,1.1,3286.6,M,20.4,M,,0000*66
$GPGSA,M,3,03,06,19,32,14,11,24,30,,,,,1.8,1.1,1.4*3E
$GPRMC,222926.998,A,1445.2069,S,07436.1218,W,20.95,60.92,170411,,,A*62
$GPGGA,222928.001,1445.2042,S,07436.1166,W,1,09,1.0,3287.1,M,20.4,M,,0000*64
$GPGSA,M,3,03,06,19,32,14,16,11,24,30,,,,1.7,1.0,1.4*37
$GPGSV,3,1,12,03,84,088,36,06,66,060,38,19,57,193,40,32,45,291,41*73
$GPGSV,3,2,12,14,38,108,40,16,28,350,23,11,21,224,40,22,20,145,*73
$GPGSV,3,3,12,20,20,297,36,24,17,236,39,30,14,006,35,31,04,039,29*7F
$GPRMC,222928.001,A,1445.2042,S,07436.1166,W,20.89,59.47,170411,,,A*69
$GPGGA,222929.000,1445.2013,S,07436.1113,W,1,07,1.7,3287.2,M,20.4,M,,0000*68
$GPGSA,M,3,03,06,19,32,14,11,24,,,,,,2.9,1.7,2.3*3D
$GPRMC,222929.000,A,1445.2013,S,07436.1113,W,21.02,60.32,170411,,,A*65
$GPGGA,222930.001,1445.1985,S,07436.1060,W,1,08,1.1,3287.6,M,20.4,M,,0000*6C
$GPGSA,M,3,03,06,19,32,14,11,24,30,,,,,1.8,1.1,1.4*3E
$GPRMC,222930.001,A,1445.1985,S,07436.1060,W,21.03,58.98,170411,,,A*66
$GPGGA,222931.000,1445.1954,S,07436.1007,W,1,10,0.8,3287.7,M,20.4,M,,0000*61
$GPGSA,M,3,03,06,19,32,14,16,11,22,24,30,,,1.5,0.8,1.2*3A
$GPRMC,222931.000,A,1445.1954,S,07436.1007,W,21.44,59.36,170411,,,A*6D
$GPGGA,222931.999,1445.1925,S,07436.0952,W,1,09,1.0,3288.2,M,20.4,M,,0000*6D
$GPGSA,M,3,03,06,19,32,14,16,11,24,30,,,,1.7,1.0,1.4*37
$GPRMC,222931.999,A,1445.1925,S,07436.0952,W,21.81,60.64,170411,,,A*6E
$GPGGA,222932.999,1445.1893,S,07436.0899,W,1,09,1.0,3289.2,M,20.4,M,,0000*65
$GPGSA,M,3,03,06,19,32,14,16,11,24,30,,,,1.7,1.0,1.4*37
$GPGSV,3,1,12,03,84,088,36,06,66,060,37,19,57,193,39,32,45,291,40*73
$GPGSV,3,2,12,14,38,108,40,16,28,350,28,11,21,224,40,22,20,145,*78
$GPGSV,3,3,12,20,20,297,36,24,17,236,37,30,14,006,33,31,04,039,31*7E
$GPRMC,222932.999,A,1445.1893,S,07436.0899,W,21.60,57.37,170411,,,A*6A
$GPGGA,222933.999,1445.1865,S,07436.0846,W,1,08,1.1,3289.9,M,20.4,M,,0000*64
$GPGSA,M,3,03,06,19,32,14,11,24,30,,,,,1.8,1.1,1.4*3E
$GPRMC,222933.999,A,1445.1865,S,07436.0846,W,21.01,60.04,170411,,,A*63
$GPGGA,222934.999,1445.1838,S,07436.0793,W,1,09,1.0,3290.1,M,20.4,M,,0000*6C
$GPGSA,M,3,03,06,19,32,14,16,11,24,30,,,,1.7,1.0,1.4*37
$GPRMC,222934.999,A,1445.1838,S,07436.0793,W,21.46,59.91,170411,,,A*6E
$GPGGA,222936.001,1445.1808,S,07436.0739,W,1,08,1.1,3290.0,M,20.4,M,,0000*64
$GPGSA,M,3,03,06,19,32,14,11,24,30,,,,,1.8,1.1,1.4*3E
$GPRMC,222936.001,A,1445.1808,S,07436.0739,W,21.28,60.51,170411,,,A*69
$GPGGA,222937.000,1445.1782,S,07436.0687,W,1,08,1.1,3290.8,M,20.4,M,,0000*65
$GPGSA,M,3,03,06,19,32,14,11,24,30,,,,,1.8,1.1,1.4*3E
$GPRMC,222937.000,A,1445.1782,S,07436.0687,W,21.09,62.00,170411,,,A*65
$GPGGA,222938.000,1445.1756,S,07436.0633,W,1,09,1.0,3291.0,M,20.4,M,,0000*65
$GPGSA,M,3,03,06,19,32,14,16,11,24,30,,,,1.7,1.0,1.4*37
$GPGSV,3,1,12,03,84,088,37,06,66,060,37,19,57,193,40,32,45,291,41*7D
$GPGSV,3,2,12,14,38,108,39,16,28,350,28,11,21,224,39,22,20,145,*78
$GPGSV,3,3,12,20,20,297,37,24,17,236,38,30,14,006,33,31,04,039,*72
$GPRMC,222938.000,A,1445.1756,S,07436.0633,W,21.28,63.56,170411,,,A*6D
$GPGGA,222938.998,1445.1733,S,07436.0578,W,1,09,1.0,3291.6,M,20.4,M,,0000*64
$GPGSA,M,3,03,06,19,32,14,16,11,24,30,,,,1.7,1.0,1.4*37
$GPRMC,222938.998,A,1445.1733,S,07436.0578,W,21.76,65.49,170411,,,A*69
$GPGGA,222940.000,1445.1714,S,07436.0521,W,1,08,1.1,3293.3,M,20.4,M,,0000*6D
$GPGSA,M,3,03,06,19,32,14,16,11,24,,,,,2.1,1.1,1.7*33
$GPRMC,222940.000,A,1445.1714,S,07436.0521,W,21.39,69.38,170411,,,A*66
$GPGGA,222941.002,1445.1694,S,07436.0464,W,1,09,1.0,3294.0,M,20.4,M,,0000*63
$GPGSA,M,3,03,06,19,32,14,16,11,24,30,,,,1.7,1.0,1.4*37
$GPRMC,222941.002,A,1445.1694,S,07436.0464,W,21.52,70.43,170411,,,A*65
$GPGGA,222942.000,1445.1677,S,07436.0405,W,1,08,1.1,3295.1,M,20.4,M,,0000*68
$GPGSA,M,3,03,06,19,32,14,16,11,24,,,,,2.1,1.1,1.7*33
$GPRMC,222942.000,A,1445.1677,S,07436.0405,W,21.62,72.48,170411,,,A*64
$GPGGA,222942.998,1445.1658,S,07436.0344,W,1,09,1.0,3294.5,M,20.4,M,,0000*6A
$GPGSA,M,3,03,06,19,32,14,16,11,24,30,,,,1.7,1.0,1.4*37
$GPGSV,3,1,12,03,84,088,37,06,66,060,37,19,57,193,40,32,45,291,41*7D
$GPGSV,3,2,12,14,38,108,37,16,28,350,35,11,21,224,35,22,20,145,*76
$GPGSV,3,3,12,20,20,297,39,24,17,236,39,30,14,006,22,31,04,039,29*76
$GPRMC,222942.998,A,1445.1658,S,07436.0344,W,21.82,75.32,170411,,,A*67
$GPGGA,222944.002,1445.1643,S,07436.0279,W,1,08,1.1,3294.7,M,20.4,M,,0000*61
$GPGSA,M,3,03,06,19,32,14,16,11,24,,,,,2.1,1.1,1.7*33
$GPRMC,222944.002,A,1445.1643,S,07436.0279,W,21.55,76.65,170411,,,A*65
$GPGGA,222944.999,1445.1630,S,07436.0218,W,1,08,1.1,3294.8,M,20.4,M,,0000*66
$GPGSA,M,3,03,06,19,32,14,16,11,24,,,,,2.1,1.1,1.7*33
$GPRMC,222944.999,A,1445.1630,S,07436.0218,W,22.09,78.30,170411,,,A*69
$GPGGA,222945.996,1445.1618,S,07436.0159,W,1,08,1.1,3295.4,M,20.4,M,,0000*69
$GPGSA,M,3,03,06,19,32,14,16,11,24,,,,,2.1,1.1,1.7*33
$GPRMC,222945.996,A,1445.1618,S,07436.0159,W,21.19,77.50,170411,,,A*60
$GPGGA,222947.004,1445.1610,S,07436.0099,W,1,08,1.1,3297.1,M,20.4,M,,0000*6B
$GPGSA,M,3,03,06,19,32,14,16,11,24,,,,,2.1,1.1,1.7*33
$GPRMC,222947.004,A,1445.1610,S,07436.0099,W,21.01,78.06,170411,,,A*60
$GPGGA,222947.998,1445.1597,S,07436.0042,W,1,08,1.1,3297.3,M,20.4,M,,0000*6F
$GPGSA,M,3,03,06,19,32,14,16,11,24,,,,,2.1,1.1,1.7*33
$GPGSV,3,1,12,03,84,088,37,06,66,060,37,19,57,193,39,32,45,291,40*72
$GPGSV,3,2,12,14,38,108,37,16,28,350,32,11,21,224,37,22,20,145,*73
$GPGSV,3,3,12,20,20,297,38,24,17,236,39,30,14,006,,31,04,039,*7C
$GPRMC,222947.998,A,1445.1597,S,07436.0042,W,21.27,75.56,170411,,,A*6A
$GPGGA,222948.998,1445.1584,S,07435.9981,W,1,08,1.1,3297.6,M,20.4,M,,0000*6B
$GPGSA,M,3,03,06,19,32,14,16,11,24,,,,,2.1,1.1,1.7*33
$GPRMC,222948.998,A,1445.1584,S,07435.9981,W,20.67,76.55,170411,,,A*6E
$GPGGA,222950.000,1445.1573,S,07435.9925,W,1,09,1.0,3298.0,M,20.4,M,,0000*65
$GPGSA,M,3,03,06,19,32,14,16,11,24,30,,,,1.7,1.0,1.4*37
$GPRMC,222950.000,A,1445.1573,S,07435.9925,W,20.17,77.27,170411,,,A*6A
$GPGGA,222951.001,1445.1559,S,07435.9871,W,1,08,1.1,3298.8,M,20.4,M,,0000*65
$GPGSA,M,3,03,06,19,32,14,16,11,24,,,,,2.1,1.1,1.7*33
$GPRMC,222951.001,A,1445.1559,S,07435.9871,W,19.46,76.76,170411,,,A*69
$GPGGA,222952.001,1445.1543,S,07435.9817,W,1,09,1.0,3298.7,M,20.4,M,,0000*62
$GPGSA,M,3,03,06,19,32,14,16,11,24,30,,,,1.7,1.0,1.4*37
$GPRMC,222952.001,A,1445.1543,S,07435.9817,W,18.95,75.21,170411,,,A*6F
$GPGGA,222953.000,1445.1536,S,07435.9767,W,1,09,1.0,3300.9,M,20.4,M,,0000*66
$GPGSA,M,3,03,06,19,32,14,16,11,24,30,,,,1.7,1.0,1.4*37
$GPGSV,3,1,12,03,84,088,38,06,66,060,38,19,57,193,39,32,45,291,41*73
$GPGSV,3,2,12,14,38,108,34,16,28,350,36,11,21,224,30,22,20,145,*73
$GPGSV,3,3,12,20,20,297,36,24,17,236,39,30,14,006,32,31,04,039,29*78
$GPRMC,222953.000,A,1445.1536,S,07435.9767,W,18.31,73.25,170411,,,A*69
$GPGGA,222953.999,1445.1516,S,07435.9718,W,1,09,1.0,3300.0,M,20.4,M,,0000*6C
$GPGSA,M,3,03,06,19,32,14,16,11,24,30,,,,1.7,1.0,1.4*37
$GPRMC,222953.999,A,1445.1516,S,07435.9718,W,18.38,69.05,170411,,,A*6A
$GPGGA,222955.000,1445.1494,S,07435.9673,W,1,09,1.0,3301.0,M,20.4,M,,0000*65
$GPGSA,M,3,03,06,19,32,14,16,11,24,30,,,,1.7,1.0,1.4*37
$GPRMC,222955.000,A,1445.1494,S,07435.9673,W,17.87,65.56,170411,,,A*63
$GPGGA,222956.002,1445.1473,S,07435.9631,W,1,09,1.0,3302.7,M,20.4,M,,0000*6F
$GPGSA,M,3,03,06,19,32,14,16,11,24,30,,,,1.7,1.0,1.4*37
$GPRMC,222956.002,A,1445.1473,S,07435.9631,W,17.83,61.71,170411,,,A*68
$GPGGA,222957.000,1445.1449,S,07435.9587,W,1,09,1.0,3303.1,M,20.4,M,,0000*6C
$GPGSA,M,3,03,06,19,32,14,16,11,24,30,,,,1.7,1.0,1.4*37
$GPRMC,222957.000,A,1445.1449,S,07435.9587,W,17.66,57.67,170411,,,A*65
$GPGGA,222957.999,1445.1422,S,07435.9546,W,1,08,1.1,3302.8,M,20.4,M,,0000*6D
$GPGSA,M,3,03,06,19,32,14,16,11,24,,,,,2.1,1.1,1.7*33
$GPGSV,3,1,12,03,84,088,38,06,66,060,40,19,57,193,40,32,45,291,39*7D
$GPGSV,3,2,12,14,38,108,38,16,28,350,34,11,21,224,39,22,20,145,*74
$GPGSV,3,3,12,20,20,297,29,24,17,236,38,30,14,006,,31,04,039,*7D
$GPRMC,222957.999,A,1445.1422,S,07435.9546,W,17.20,55.91,170411,,,A*65
$GPGGA,222958.998,1445.1397,S,07435.9505,W,1,09,1.0,3303.6,M,20.4,M,,0000*62
$GPGSA,M,3,03,06,19,32,14,16,11,24,30,,,,1.7,1.0,1.4*37
$GPRMC,222958.998,A,1445.1397,S,07435.9505,W,16.64,55.48,170411,,,A*60
$GPGGA,223000.001,1445.1370,S,07435.9464,W,1,08,1.1,3303.6,M,20.4,M,,0000*61
$GPGSA,M,3,03,06,19,32,14,16,11,24,,,,,2.1,1.1,1.7*33
$GPRMC,223000.001,A,1445.1370,S,07435.9464,W,17.06,54.45,170411,,,A*6A
$GPGGA,223001.001,1445.1343,S,07435.9423,W,1,08,1.1,3303.8,M,20.4,M,,0000*6D
$GPGSA,M,3,03,06,19,32,14,16,11,24,,,,,2.1,1.1,1.7*33
$GPRMC,223001.001,A,1445.1343,S,07435.9423,W,17.14,56.13,170411,,,A*6A
$GPGGA,223001.998,1445.1316,S,07435.9381,W,1,09,1.0,3304.4,M,20.4,M,,0000*60
$GPGSA,M,3,03,06,19,32,14,16,11,24,30,,,,1.7,1.0,1.4*37
$GPRMC,223001.998,A,1445.1316,S,07435.9381,W,16.62,58.17,170411,,,A*66
$GPGGA,223003.000,1445.1292,S,07435.9341,W,1,09,1.0,3304.6,M,20.4,M,,0000*69
$GPGSA,M,3,03,06,19,32,14,16,11,24,30,,,,1.7,1.0,1.4*37
$GPGSV,3,1,12,03,84,088,38,06,66,060,39,19,57,193,40,32,45,291,40*7D
$GPGSV,3,2,12,14,38,108,40,16,28,350,29,11,21,224,39,22,20,145,*77
$GPGSV,3,3,12,20,20,297,35,24,17,236,38,30,14,006,30,31,04,039,24*75
$GPRMC,223003.000,A,1445.1292,S,07435.9341,W,16.26,58.87,170411,,,A*64
$GPGGA,223004.002,1445.1269,S,07435.9298,W,1,08,1.1,3304.5,M,20.4,M,,0000*6E
$GPGSA,M,3,03,06,19,32,14,11,24,30,,,,,1.8,1.1,1.4*3E
$GPRMC,223004.002,A,1445.1269,S,07435.9298,W,16.23,59.92,170411,,,A*60
$GPGGA,223005.000,1445.1249,S,07435.9259,W,1,08,1.1,3305.2,M,20.4,M,,0000*64
$GPGSA,M,3,03,06,19,32,14,11,24,30,,,,,1.8,1.1,1.4*3E
$GPRMC,223005.000,A,1445.1249,S,07435.9259,W,15.78,62.39,170411,,,A*68
$GPGGA,223006.000,1445.1228,S,07435.9218,W,1,08,1.1,3305.2,M,20.4,M,,0000*65
$GPGSA,M,3,03,06,19,32,14,11,24,30,,,,,1.8,1.1,1.4*3E
$GPRMC,223006.000,A,1445.1228,S,07435.9218,W,16.30,61.20,170411,,,A*6D
$GPGGA,223007.000,1445.1205,S,07435.9178,W,1,08,1.1,3306.8,M,20.4,M,,0000*67
$GPGSA,M,3,03,06,19,32,14,11,24,30,,,,,1.8,1.1,1.4*3E
$GPRMC,223007.000,A,1445.1205,S,07435.9178,W,16.48,59.69,170411,,,A*6F
$GPGGA,223008.000,1445.1182,S,07435.9139,W,1,08,1.1,3307.3,M,20.4,M,,0000*6B
$GPGSA,M,3,03,06,19,32,14,11,24,30,,,,,1.8,1.1,1.4*3E
$GPGSV,3,1,12,03,84,088,38,06,66,060,39,19,57,193,40,32,45,291,39*73
$GPGSV,3,2,12,14,38,108,38,16,28,350,,11,21,224,40,22,20,145,*7D
$GPGSV,3,3,12,20,20,297,35,24,17,236,38,30,14,006,35,31,04,039,28*7C
$GPRMC,223008.000,A,1445.1182,S,07435.9139,W,16.85,61.15,170411,,,A*68
$GPGGA,223008.996,1445.1158,S,07435.9097,W,1,08,1.1,3308.4,M,20.4,M,,0000*67
$GPGSA,M,3,03,06,19,32,14,11,24,30,,,,,1.8,1.1,1.4*3E
$GPRMC,223008.996,A,1445.1158,S,07435.9097,W,16.91,59.62,170411,,,A*62
$GPGGA,223010.004,1445.1135,S,07435.9053,W,1,08,1.1,3308.7,M,20.4,M,,0000*6C
$GPGSA,M,3,03,06,19,32,14,11,24,30,,,,,1.8,1.1,1.4*3E
$GPRMC,223010.004,A,1445.1135,S,07435.9053,W,17.20,62.32,170411,,,A*6C
$GPGGA,223010.999,1445.1112,S,07435.9012,W,1,08,1.1,3309.5,M,20.4,M,,0000*62
$GPGSA,M,3,03,06,19,32,14,11,24,30,,,,,1.8,1.1,1.4*3E
$GPRMC,223010.999,A,1445.1112,S,07435.9012,W,17.40,61.01,170411,,,A*64
$GPGGA,223011.998,1445.1088,S,07435.8965,W,1,09,1.0,3309.1,M,20.4,M,,0000*6C
$GPGSA,M,3,03,06,19,32,14,16,11,24,30,,,,1.7,1.0,1.4*37
$GPRMC,223011.998,A,1445.1088,S,07435.8965,W,17.57,61.54,170411,,,A*68
$GPGGA,223013.001,1445.1068,S,07435.8916,W,1,08,1.1,3308.4,M,20.4,M,,0000*69
$GPGSA,M,3,03,06,19,32,14,11,24,30,,,,,1.8,1.1,1.4*3E
$GPGSV,3,1,12,03,84,088,38,06,66,060,39,19,57,193,41,32,45,291,40*7C
$GPGSV,3,2,12,14,38,108,39,16,28,350,,11,21,224,40,22,20,145,*7C
$GPGSV,3,3,12,20,20,297,37,24,17,236,39,30,14,006,35,31,04,039,*75
$GPRMC,223013.001,A,1445.1068,S,07435.8916,W,17.93,63.05,170411,,,A*67
$GPGGA,223014.002,1445.1044,S,07435.8870,W,1,08,1.1,3308.3,M,20.4,M,,0000*65
$GPGSA,M,3,03,06,19,32,14,11,24,30,,,,,1.8,1.1,1.4*3E
$GPRMC,223014.002,A,1445.1044,S,07435.8870,W,17.87,62.13,170411,,,A*6F
$GPGGA,223014.996,1445.1025,S,07435.8827,W,1,08,1.1,3310.4,M,20.4,M,,0000*6A
$GPGSA,M,3,03,06,19,32,14,11,24,30,,,,,1.8,1.1,1.4*3E
$GPRMC,223014.996,A,1445.1025,S,07435.8827,W,18.05,63.32,170411,,,A*69
$GPGGA,223016.002,1445.1003,S,07435.8780,W,1,08,1.1,3310.7,M,20.4,M,,0000*69
$GPGSA,M,3,03,06,19,32,14,11,24,30,,,,,1.8,1.1,1.4*3E
$GPRMC,223016.002,A,1445.1003,S,07435.8780,W,17.91,63.49,170411,,,A*67
$GPGGA,223017.000,1445.0981,S,07435.8733,W,1,08,1.1,3311.8,M,20.4,M,,0000*6E
$GPGSA,M,3,03,06,19,32,14,11,24,30,,,,,1.8,1.1,1.4*3E
$GPRMC,223017.000,A,1445.0981,S,07435.8733,W,18.66,63.61,170411,,,A*63
$GPGGA,223018.000,1445.0957,S,07435.8687,W,1,08,1.1,3311.9,M,20.4,M,,0000*65
$GPGSA,M,3,03,06,19,32,14,11,24,30,,,,,1.8,1.1,1.4*3E
$GPGSV,3,1,12,03,84,088,38,06,66,060,39,19,57,193,40,32,45,291,39*73
$GPGSV,3,2,12,14,38,108,39,16,28,350,,11,21,224,39,22,20,145,*72
$GPGSV,3,3,12,20,20,297,36,24,17,236,38,30,14,006,35,31,04,039,*75
$GPRMC,223018.000,A,1445.0957,S,07435.8687,W,18.37,61.67,170411,,,A*69
$GPGGA,223019.000,1445.0932,S,07435.8640,W,1,08,1.1,3312.0,M,20.4,M,,0000*66
$GPGSA,M,3,03,06,19,32,14,11,24,30,,,,,1.8,1.1,1.4*3E
$GPRMC,223019.000,A,1445.0932,S,07435.8640,W,18.25,62.59,170411,,,A*6D
$GPGGA,223020.000,1445.0908,S,07435.8593,W,1,08,1.1,3312.5,M,20.4,M,,0000*6D
$GPGSA,M,3,03,06,19,32,14,11,24,30,,,,,1.8,1.1,1.4*3E
$GPRMC,223020.000,A,1445.0908,S,07435.8593,W,18.80,63.33,170411,,,A*61
$GPGGA,223020.999,1445.0882,S,07435.8545,W,1,09,1.0,3313.6,M,20.4,M,,0000*6E
$GPGSA,M,3,03,06,19,32,14,16,11,24,30,,,,1.7,1.0,1.4*37
$GPRMC,223020.999,A,1445.0882,S,07435.8545,W,18.62,63.55,170411,,,A*6C
$GPGGA,223021.998,1445.0859,S,07435.8497,W,1,09,1.0,3314.5,M,20.4,M,,0000*62
$GPGSA,M,3,03,06,19,32,14,16,11,24,30,,,,1.7,1.0,1.4*37
$GPRMC,223021.998,A,1445.0859,S,07435.8497,W,18.82,64.65,170411,,,A*6E
$GPGGA,223023.001,1445.0838,S,07435.8449,W,1,09,1.0,3316.2,M,20.4,M,,0000*68
$GPGSA,M,3,03,06,19,32,14,16,11,24,30,,,,1.7,1.0,1.4*37
$GPGSV,3,1,12,03,84,088,39,06,66,060,39,19,57,193,40,32,45,291,39*72
$GPGSV,3,2,12,14,38,108,36,16,28,350,32,11,21,224,39,22,20,145,*7C
$GPGSV,3,3,12,20,20,297,37,24,17,236,40,30,14,006,27,31,04,039,24*7E
$GPRMC,223023.001,A,1445.0838,S,07435.8449,W,18.72,65.71,170411,,,A*6A
$GPGGA,223023.999,1445.0816,S,07435.8399,W,1,08,1.1,3316.3,M,20.4,M,,0000*67
$GPGSA,M,3,03,06,19,32,14,16,11,24,,,,,2.1,1.1,1.7*33
$GPRMC,223023.999,A,1445.0816,S,07435.8399,W,19.66,67.03,170411,,,A*67
$GPGGA,223024.999,1445.0793,S,07435.8349,W,1,08,1.1,3316.8,M,20.4,M,,0000*64
$GPGSA,M,3,03,06,19,32,14,16,11,24,,,,,2.1,1.1,1.7*33
$GPRMC,223024.999,A,1445.0793,S,07435.8349,W,19.30,66.32,170411,,,A*6F
$GPGGA,223026.002,1445.0772,S,07435.8297,W,1,08,1.1,3316.4,M,20.4,M,,0000*6C
$GPGSA,M,3,03,06,19,32,14,16,11,24,,,,,2.1,1.1,1.7*33
$GPRMC,223026.002,A,1445.0772,S,07435.8297,W,19.11,66.47,170411,,,A*6A
$GPGGA,223027.000,1445.0750,S,07435.8247,W,1,08,1.1,3316.9,M,20.4,M,,0000*6F
$GPGSA,M,3,03,06,19,32,14,16,11,24,,,,,2.1,1.1,1.7*33
$GPRMC,223027.000,A,1445.0750,S,07435.8247,W,19.17,67.72,170411,,,A*65
$GPGGA,223027.998,1445.0734,S,07435.8198,W,1,09,1.0,3319.0,M,20.4,M,,0000*62
$GPGSA,M,3,03,06,19,32,14,16,11,24,30,,,,1.7,1.0,1.4*37
$GPGSV,3,1,12,03,84,088,38,06,66,060,38,19,57,193,40,32,45,291,38*73
$GPGSV,3,2,12,14,38,108,35,16,28,350,36,11,21,224,37,22,20,145,*75
$GPGSV,3,3,12,20,20,297,38,24,17,236,39,30,14,006,29,31,04,039,31*75
$GPRMC,223027.998,A,1445.0734,S,07435.8198,W,19.14,68.22,170411,,,A*67
$GPGGA,223029.002,1445.0713,S,07435.8147,W,1,09,1.0,3319.7,M,20.4,M,,0000*66
$GPGSA,M,3,03,06,19,32,14,16,11,24,30,,,,1.7,1.0,1.4*37
$GPRMC,223029.002,A,1445.0713,S,07435.8147,W,18.84,68.50,170411,,,A*69
