$GPGGA,060133.000,1926.9285,S,06958.0593,W,1,08,1.0,1090.4,M,35.0,M,,0000*60
$GPGSA,M,3,05,04,02,13,10,28,07,08,,,,,2.0,1.0,1.7*3E
$GPRMC,060133.000,A,1926.9285,S,06958.0593,W,0.10,178.50,010511,,,A*6F
$GPGGA,060134.000,1926.9286,S,06958.0592,W,1,08,1.0,1090.1,M,35.0,M,,0000*60
$GPGSA,M,3,05,04,02,13,10,28,07,08,,,,,2.0,1.0,1.7*3E
$GPRMC,060134.000,A,1926.9286,S,06958.0592,W,0.12,241.87,010511,,,A*6B
$GPGGA,060135.000,1926.9287,S,06958.0592,W,1,08,1.0,1090.1,M,35.0,M,,0000*60
$GPGSA,M,3,05,04,02,13,10,28,07,08,,,,,2.0,1.0,1.7*3E
$GPRMC,060135.000,A,1926.9287,S,06958.0592,W,0.18,261.29,010511,,,A*67
$GPGGA,060136.000,1926.9286,S,06958.0592,W,1,08,1.0,1090.1,M,35.0,M,,0000*62
$GPGSA,M,3,05,04,02,13,10,28,07,08,,,,,2.0,1.0,1.7*3E
$GPRMC,060136.000,A,1926.9286,S,06958.0592,W,0.20,88.29,010511,,,A*5B
$GPGGA,060137.000,1926.9286,S,06958.0592,W,1,08,1.0,1089.9,M,35.0,M,,0000*63
$GPGSA,M,3,05,04,02,13,10,28,07,08,,,,,2.0,1.0,1.7*3E
$GPGSV,3,1,11,10,81,232,24,08,58,192,16,28,52,015,28,07,38,156,26*77
$GPGSV,3,2,11,05,31,219,35,13,26,110,18,04,24,326,32,02,24,284,34*75
$GPGSV,3,3,11,26,10,236,21,17,03,003,,23,03,083,*47
$GPRMC,060137.000,A,1926.9286,S,06958.0592,W,0.32,99.70,010511,,,A*55
$GPGGA,060138.000,1926.9287,S,06958.0590,W,1,08,1.0,1090.0,M,35.0,M,,0000*6E
$GPGSA,M,3,05,04,02,13,10,28,07,08,,,,,2.0,1.0,1.7*3E
$GPRMC,060138.000,A,1926.9287,S,06958.0590,W,0.08,103.69,010511,,,A*6A
$GPGGA,060139.000,1926.9287,S,06958.0590,W,1,08,1.0,1089.8,M,35.0,M,,0000*6F
$GPGSA,M,3,05,04,02,13,10,28,07,08,,,,,2.0,1.0,1.7*3E
$GPRMC,060139.000,A,1926.9287,S,06958.0590,W,0.05,228.14,010511,,,A*66
$GPGGA,060140.000,1926.9286,S,06958.0591,W,1,08,1.0,1090.0,M,35.0,M,,0000*61
$GPGSA,M,3,05,04,02,13,10,28,07,08,,,,,2.0,1.0,1.7*3E
$GPRMC,060140.000,A,1926.9286,S,06958.0591,W,0.20,100.57,010511,,,A*61
$GPGGA,060141.000,1926.9286,S,06958.0591,W,1,08,1.0,1089.9,M,35.0,M,,0000*61
$GPGSA,M,3,05,04,02,13,10,28,07,08,,,,,2.0,1.0,1.7*3E
$GPRMC,060141.000,A,1926.9286,S,06958.0591,W,0.34,92.98,010511,,,A*5C
$GPGGA,060142.000,1926.9285,S,06958.0591,W,1,08,1.0,1090.1,M,35.0,M,,0000*61
$GPGSA,M,3,05,04,02,13,10,28,07,08,,,,,2.0,1.0,1.7*3E
$GPGSV,3,1,11,10,81,232,24,08,58,192,16,28,52,015,28,07,38,156,26*77
$GPGSV,3,2,11,05,31,219,36,13,26,110,19,04,24,326,33,02,24,284,34*76
$GPGSV,3,3,11,26,10,236,21,17,03,003,,23,03,083,*47
$GPRMC,060142.000,A,1926.9285,S,06958.0591,W,0.11,275.86,010511,,,A*6F
$GPGGA,060143.000,1926.9285,S,06958.0593,W,1,08,1.0,1090.5,M,35.0,M,,0000*66
$GPGSA,M,3,05,04,02,13,10,28,07,08,,,,,2.0,1.0,1.7*3E
$GPRMC,060143.000,A,1926.9285,S,06958.0593,W,0.27,274.31,010511,,,A*64
$GPGGA,060144.000,1926.9285,S,06958.0595,W,1,08,1.0,1090.8,M,35.0,M,,0000*6A
$GPGSA,M,3,05,04,02,13,10,28,07,08,,,,,2.0,1.0,1.7*3E
$GPRMC,060144.000,A,1926.9285,S,06958.0595,W,0.21,266.14,010511,,,A*67
$GPGGA,060145.000,1926.9284,S,06958.0596,W,1,08,1.0,1091.0,M,35.0,M,,0000*60
$GPGSA,M,3,05,04,02,13,10,28,07,08,,,,,2.0,1.0,1.7*3E
$GPRMC,060145.000,A,1926.9284,S,06958.0596,W,0.14,261.49,010511,,,A*6D
$GPGGA,060146.000,1926.9284,S,06958.0596,W,1,08,1.0,1091.0,M,35.0,M,,0000*63
$GPGSA,M,3,05,04,02,13,10,28,07,08,,,,,2.0,1.0,1.7*3E
$GPRMC,060146.000,A,1926.9284,S,06958.0596,W,0.13,77.74,010511,,,A*52
$GPGGA,060147.000,1926.9284,S,06958.0595,W,1,08,1.0,1090.8,M,35.0,M,,0000*68
$GPGSA,M,3,05,04,02,13,10,28,07,08,,,,,2.0,1.0,1.7*3E
$GPGSV,3,1,11,10,82,235,24,08,58,191,16,28,53,016,28,07,37,156,26*7D
$GPGSV,3,2,11,05,31,219,36,13,25,109,19,02,24,284,34,04,24,326,33*7D
$GPGSV,3,3,11,26,10,236,21,17,03,003,,23,02,083,*46
$GPRMC,060147.000,A,1926.9284,S,06958.0595,W,0.10,305.24,010511,,,A*60
$GPGGA,060148.000,1926.9285,S,06958.0594,W,1,08,1.0,1090.4,M,35.0,M,,0000*6B
$GPGSA,M,3,05,04,02,13,10,28,07,08,,,,,2.0,1.0,1.7*3E
$GPRMC,060148.000,A,1926.9285,S,06958.0594,W,0.06,330.24,010511,,,A*6E
$GPGGA,060149.000,1926.9284,S,06958.0594,W,1,08,1.0,1090.3,M,35.0,M,,0000*6C
$GPGSA,M,3,05,04,02,13,10,28,07,08,,,,,2.0,1.0,1.7*3E
$GPRMC,060149.000,A,1926.9284,S,06958.0594,W,0.19,68.37,010511,,,A*5C
$GPGGA,060150.000,1926.9284,S,06958.0594,W,1,08,1.0,1090.1,M,35.0,M,,0000*66
$GPGSA,M,3,05,04,02,13,10,28,07,08,,,,,2.0,1.0,1.7*3E
$GPRMC,060150.000,A,1926.9284,S,06958.0594,W,0.27,73.08,010511,,,A*5F
$GPGGA,060151.000,1926.9284,S,06958.0592,W,1,08,1.0,1089.6,M,35.0,M,,0000*6E
$GPGSA,M,3,05,04,02,13,10,28,07,08,,,,,2.0,1.0,1.7*3E
$GPRMC,060151.000,A,1926.9284,S,06958.0592,W,0.27,76.90,010511,,,A*5C
$GPGGA,060152.000,1926.9284,S,06958.0591,W,1,08,1.0,1089.3,M,35.0,M,,0000*6B
$GPGSA,M,3,05,04,02,13,10,28,07,08,,,,,2.0,1.0,1.7*3E
$GPGSV,3,1,11,10,82,235,24,08,58,191,16,28,53,016,28,07,37,156,26*7D
$GPGSV,3,2,11,05,31,219,36,13,25,109,19,02,24,284,34,04,24,326,33*7D
$GPGSV,3,3,11,26,10,236,22,17,03,003,,23,02,083,*45
$GPRMC,060152.000,A,1926.9284,S,06958.0591,W,0.39,82.34,010511,,,A*56
$GPGGA,060153.000,1926.9284,S,06958.0589,W,1,08,1.0,1088.9,M,35.0,M,,0000*68
$GPGSA,M,3,05,04,02,13,10,28,07,08,,,,,2.0,1.0,1.7*3E
$GPRMC,060153.000,A,1926.9284,S,06958.0589,W,0.23,67.46,010511,,,A*5B
$GPGGA,060154.000,1926.9284,S,06958.0589,W,1,08,1.0,1088.6,M,35.0,M,,0000*60
$GPGSA,M,3,05,04,02,13,10,28,07,08,,,,,2.0,1.0,1.7*3E
$GPRMC,060154.000,A,1926.9284,S,06958.0589,W,0.32,78.77,010511,,,A*50
$GPGGA,060155.000,1926.9284,S,06958.0588,W,1,08,1.0,1088.6,M,35.0,M,,0000*60
$GPGSA,M,3,05,04,02,13,10,28,07,08,,,,,2.0,1.0,1.7*3E
$GPRMC,060155.000,A,1926.9284,S,06958.0588,W,0.38,93.91,010511,,,A*57
$GPGGA,060156.000,1926.9283,S,06958.0588,W,1,08,1.0,1088.7,M,35.0,M,,0000*65
$GPGSA,M,3,05,04,02,13,10,28,07,08,,,,,2.0,1.0,1.7*3E
$GPRMC,060156.000,A,1926.9283,S,06958.0588,W,0.27,95.79,010511,,,A*5D
$GPGGA,060157.000,1926.9283,S,06958.0588,W,1,08,1.0,1088.9,M,35.0,M,,0000*6A
$GPGSA,M,3,05,04,02,13,10,28,07,08,,,,,2.0,1.0,1.7*3E
$GPGSV,3,1,11,10,82,235,24,08,58,191,16,28,53,016,28,07,37,156,26*7D
$GPGSV,3,2,11,05,31,219,36,13,25,109,19,02,24,284,34,04,24,326,33*7D
$GPGSV,3,3,11,26,10,236,22,17,03,003,,23,02,083,*45
$GPRMC,060157.000,A,1926.9283,S,06958.0588,W,0.07,103.78,010511,,,A*61
$GPGGA,060158.000,1926.9283,S,06958.0589,W,1,08,1.0,1088.9,M,35.0,M,,0000*64
$GPGSA,M,3,05,04,02,13,10,28,07,08,,,,,2.0,1.0,1.7*3E
$GPRMC,060158.000,A,1926.9283,S,06958.0589,W,0.22,296.15,010511,,,A*6C
$GPGGA,060159.000,1926.9283,S,06958.0589,W,1,08,1.0,1088.7,M,35.0,M,,0000*6B
$GPGSA,M,3,05,04,02,13,10,28,07,08,,,,,2.0,1.0,1.7*3E
$GPRMC,060159.000,A,1926.9283,S,06958.0589,W,0.16,59.66,010511,,,A*5F
$GPGGA,060200.000,1926.9282,S,06958.0588,W,1,08,1.0,1088.5,M,35.0,M,,0000*66
$GPGSA,M,3,05,04,02,13,10,28,07,08,,,,,2.0,1.0,1.7*3E
$GPRMC,060200.000,A,1926.9282,S,06958.0588,W,0.30,72.58,010511,,,A*50
$GPGGA,060201.000,1926.9282,S,06958.0589,W,1,08,1.0,1088.5,M,35.0,M,,0000*66
$GPGSA,M,3,05,04,02,13,10,28,07,08,,,,,2.0,1.0,1.7*3E
$GPRMC,060201.000,A,1926.9282,S,06958.0589,W,0.10,36.87,010511,,,A*50
$GPGGA,060202.000,1926.9282,S,06958.0589,W,1,08,1.0,1088.9,M,35.0,M,,0000*69
$GPGSA,M,3,05,04,02,13,10,28,07,08,,,,,2.0,1.0,1.7*3E
$GPGSV,3,1,11,10,82,235,24,08,58,191,16,28,53,016,28,07,37,156,26*7D
$GPGSV,3,2,11,05,31,219,36,13,25,109,19,02,24,284,34,04,24,326,33*7D
$GPGSV,3,3,11,26,10,236,22,17,03,003,,23,02,083,*45
$GPRMC,060202.000,A,1926.9282,S,06958.0589,W,0.15,282.01,010511,,,A*65
$GPGGA,060203.000,1926.9282,S,06958.0590,W,1,08,1.0,1089.2,M,35.0,M,,0000*6A
$GPGSA,M,3,05,04,02,13,10,28,07,08,,,,,2.0,1.0,1.7*3E
$GPRMC,060203.000,A,1926.9282,S,06958.0590,W,0.10,256.37,010511,,,A*65
$GPGGA,060204.000,1926.9282,S,06958.0590,W,1,08,1.0,1089.3,M,35.0,M,,0000*6C
$GPGSA,M,3,05,04,02,13,10,28,07,08,,,,,2.0,1.0,1.7*3E
$GPRMC,060204.000,A,1926.9282,S,06958.0590,W,0.21,102.04,010511,,,A*62
$GPGGA,060205.000,1926.9282,S,06958.0591,W,1,08,1.0,1089.6,M,35.0,M,,0000*69
$GPGSA,M,3,05,04,02,13,10,28,07,08,,,,,2.0,1.0,1.7*3E
$GPRMC,060205.000,A,1926.9282,S,06958.0591,W,0.15,280.43,010511,,,A*6F
$GPGGA,060206.000,1926.9282,S,06958.0592,W,1,08,1.0,1089.8,M,35.0,M,,0000*67
$GPGSA,M,3,05,04,02,13,10,28,07,08,,,,,2.0,1.0,1.7*3E
$GPRMC,060206.000,A,1926.9282,S,06958.0592,W,0.10,280.23,010511,,,A*6C
$GPGGA,060207.000,1926.9282,S,06958.0592,W,1,08,1.0,1090.1,M,35.0,M,,0000*67
$GPGSA,M,3,05,04,02,13,10,28,07,08,,,,,2.0,1.0,1.7*3E
$GPGSV,3,1,11,10,82,235,24,08,58,191,16,28,53,016,29,07,37,156,26*7C
$GPGSV,3,2,11,05,31,219,36,13,25,109,20,02,24,284,34,04,24,326,33*77
$GPGSV,3,3,11,26,10,236,21,17,03,003,,23,02,083,*46
$GPRMC,060207.000,A,1926.9282,S,06958.0592,W,0.24,264.38,010511,,,A*6A
$GPGGA,060208.000,1926.9282,S,06958.0593,W,1,08,1.0,1090.2,M,35.0,M,,0000*6A
$GPGSA,M,3,05,04,02,13,10,28,07,08,,,,,2.0,1.0,1.7*3E
$GPRMC,060208.000,A,1926.9282,S,06958.0593,W,0.14,58.59,010511,,,A*5D
$GPGGA,060209.000,1926.9282,S,06958.0592,W,1,08,1.0,1089.9,M,35.0,M,,0000*69
$GPGSA,M,3,05,04,02,13,10,28,07,08,,,,,2.0,1.0,1.7*3E
$GPRMC,060209.000,A,1926.9282,S,06958.0592,W,0.21,64.45,010511,,,A*59
$GPGGA,060210.000,1926.9281,S,06958.0592,W,1,08,1.0,1089.9,M,35.0,M,,0000*62
$GPGSA,M,3,05,04,02,13,10,28,07,08,,,,,2.0,1.0,1.7*3E
$GPRMC,060210.000,A,1926.9281,S,06958.0592,W,0.08,8.37,010511,,,A*66
$GPGGA,060211.000,1926.9281,S,06958.0592,W,1,08,1.0,1089.8,M,35.0,M,,0000*62
$GPGSA,M,3,05,04,02,13,10,28,07,08,,,,,2.0,1.0,1.7*3E
$GPRMC,060211.000,A,1926.9281,S,06958.0592,W,0.17,52.10,010511,,,A*53
$GPGGA,060212.000,1926.9281,S,06958.0592,W,1,08,1.0,1089.9,M,35.0,M,,0000*60
$GPGSA,M,3,05,04,02,13,10,28,07,08,,,,,2.0,1.0,1.7*3E
$GPGSV,3,1,11,10,82,235,24,08,58,191,16,28,53,016,29,07,37,156,26*7C
$GPGSV,3,2,11,05,31,219,36,13,25,109,20,02,24,284,34,04,24,326,33*77
$GPGSV,3,3,11,26,10,236,21,17,03,003,,23,02,083,*46
$GPRMC,060212.000,A,1926.9281,S,06958.0592,W,0.21,301.33,010511,,,A*61
$GPGGA,060213.000,1926.9281,S,06958.0593,W,1,08,1.0,1090.2,M,35.0,M,,0000*63
$GPGSA,M,3,05,04,02,13,10,28,07,08,,,,,2.0,1.0,1.7*3E
$GPRMC,060213.000,A,1926.9281,S,06958.0593,W,0.40,291.17,010511,,,A*68
$GPGGA,060214.000,1926.9280,S,06958.0595,W,1,08,1.0,1090.4,M,35.0,M,,0000*65
$GPGSA,M,3,05,04,02,13,10,28,07,08,,,,,2.0,1.0,1.7*3E
$GPRMC,060214.000,A,1926.9280,S,06958.0595,W,0.50,288.11,010511,,,A*67
$GPGGA,060215.000,1926.9280,S,06958.0595,W,1,08,1.0,1090.3,M,35.0,M,,0000*63
$GPGSA,M,3,05,04,02,13,10,28,07,08,,,,,2.0,1.0,1.7*3E
$GPRMC,060215.000,A,1926.9280,S,06958.0595,W,0.11,348.42,010511,,,A*68
$GPGGA,060216.000,1926.9279,S,06958.0597,W,1,08,1.0,1090.7,M,35.0,M,,0000*60
$GPGSA,M,3,05,04,02,13,10,28,07,08,,,,,2.0,1.0,1.7*3E
$GPRMC,060216.000,A,1926.9279,S,06958.0597,W,0.09,12.71,010511,,,A*5A
$GPGGA,060217.000,1926.9279,S,06958.0596,W,1,08,1.0,1090.6,M,35.0,M,,0000*61
$GPGSA,M,3,05,04,02,13,10,28,07,08,,,,,2.0,1.0,1.7*3E
$GPGSV,3,1,11,10,82,235,24,08,58,191,16,28,53,016,29,07,37,156,26*7C
$GPGSV,3,2,11,05,31,219,36,13,25,109,20,02,24,284,34,04,24,326,33*77
$GPGSV,3,3,11,26,10,236,21,17,03,003,,23,02,083,*46
$GPRMC,060217.000,A,1926.9279,S,06958.0596,W,0.25,70.81,010511,,,A*5F
$GPGGA,060218.000,1926.9279,S,06958.0597,W,1,08,1.0,1090.8,M,35.0,M,,0000*61
$GPGSA,M,3,05,04,02,13,10,28,07,08,,,,,2.0,1.0,1.7*3E
$GPRMC,060218.000,A,1926.9279,S,06958.0597,W,0.04,319.34,010511,,,A*60
$GPGGA,060219.000,1926.9279,S,06958.0598,W,1,08,1.0,1091.2,M,35.0,M,,0000*64
$GPGSA,M,3,05,04,02,13,10,28,07,08,,,,,2.0,1.0,1.7*3E
$GPRMC,060219.000,A,1926.9279,S,06958.0598,W,0.19,269.29,010511,,,A*68
$GPGGA,060220.000,1926.9279,S,06958.0598,W,1,08,1.0,1091.2,M,35.0,M,,0000*6E
$GPGSA,M,3,05,04,02,13,10,28,07,08,,,,,2.0,1.0,1.7*3E
$GPRMC,060220.000,A,1926.9279,S,06958.0598,W,0.09,101.56,010511,,,A*66
$GPGGA,060221.000,1926.9279,S,06958.0598,W,1,08,1.0,1091.1,M,35.0,M,,0000*6C
$GPGSA,M,3,05,04,02,13,10,28,07,08,,,,,2.0,1.0,1.7*3E
$GPRMC,060221.000,A,1926.9279,S,06958.0598,W,0.24,74.19,010511,,,A*50
$GPGGA,060222.000,1926.9279,S,06958.0598,W,1,08,1.0,1091.4,M,35.0,M,,0000*6A
$GPGSA,M,3,05,04,02,13,10,28,07,08,,,,,2.0,1.0,1.7*3E
$GPGSV,3,1,11,10,82,235,24,08,58,191,16,28,53,016,29,07,37,156,26*7C
$GPGSV,3,2,11,05,31,219,36,13,25,109,20,02,24,284,34,04,24,326,33*77
$GPGSV,3,3,11,26,10,236,22,17,03,003,,23,02,083,*45
$GPRMC,060222.000,A,1926.9279,S,06958.0598,W,0.13,323.82,010511,,,A*64
$GPGGA,060223.000,1926.9280,S,06958.0596,W,1,08,1.0,1090.9,M,35.0,M,,0000*6F
$GPGSA,M,3,05,04,02,13,10,28,07,08,,,,,2.0,1.0,1.7*3E
$GPRMC,060223.000,A,1926.9280,S,06958.0596,W,0.15,62.73,010511,,,A*53
$GPGGA,060224.000,1926.9280,S,06958.0595,W,1,08,1.0,1090.6,M,35.0,M,,0000*64
$GPGSA,M,3,05,04,02,13,10,28,07,08,,,,,2.0,1.0,1.7*3E
$GPRMC,060224.000,A,1926.9280,S,06958.0595,W,0.09,35.30,010511,,,A*5F
$GPGGA,060225.000,1926.9280,S,06958.0595,W,1,08,1.0,1090.5,M,35.0,M,,0000*66
$GPGSA,M,3,05,04,02,13,10,28,07,08,,,,,2.0,1.0,1.7*3E
$GPRMC,060225.000,A,1926.9280,S,06958.0595,W,0.05,297.43,010511,,,A*6C
$GPGGA,060226.000,1926.9280,S,06958.0596,W,1,08,1.0,1090.7,M,35.0,M,,0000*64
$GPGSA,M,3,05,04,02,13,10,28,07,08,,,,,2.0,1.0,1.7*3E
$GPRMC,060226.000,A,1926.9280,S,06958.0596,W,0.02,44.72,010511,,,A*55
$GPGGA,060227.000,1926.9280,S,06958.0596,W,1,08,1.0,1090.9,M,35.0,M,,0000*6B
$GPGSA,M,3,05,04,02,13,10,28,07,08,,,,,2.0,1.0,1.7*3E
$GPGSV,3,1,11,10,82,235,24,08,58,191,15,28,53,016,29,07,37,156,26*7F
$GPGSV,3,2,11,05,31,219,36,13,25,109,20,02,24,284,34,04,24,326,33*77
$GPGSV,3,3,11,26,10,236,22,17,03,003,,23,02,083,*45
$GPRMC,060227.000,A,1926.9280,S,06958.0596,W,0.06,137.35,010511,,,A*66
$GPGGA,060228.000,1926.9280,S,06958.0596,W,1,08,1.0,1091.0,M,35.0,M,,0000*6C
$GPGSA,M,3,05,04,02,13,10,28,07,08,,,,,2.0,1.0,1.7*3E
$GPRMC,060228.000,A,1926.9280,S,06958.0596,W,0.04,280.56,010511,,,A*61
$GPGGA,060229.000,1926.9280,S,06958.0597,W,1,08,1.0,1091.4,M,35.0,M,,0000*68
$GPGSA,M,3,05,04,02,13,10,28,07,08,,,,,2.0,1.0,1.7*3E
$GPRMC,060229.000,A,1926.9280,S,06958.0597,W,0.14,270.27,010511,,,A*69
$GPGGA,060230.000,1926.9280,S,06958.0597,W,1,08,1.0,1091.5,M,35.0,M,,0000*61
$GPGSA,M,3,05,04,02,13,10,28,07,08,,,,,2.0,1.0,1.7*3E
$GPRMC,060230.000,A,1926.9280,S,06958.0597,W,0.02,188.98,010511,,,A*66
$GPGGA,060231.000,1926.9282,S,06958.0595,W,1,08,1.0,1091.3,M,35.0,M,,0000*66
$GPGSA,M,3,05,04,02,13,10,28,07,08,,,,,2.0,1.0,1.7*3E
$GPRMC,060231.000,A,1926.9282,S,06958.0595,W,0.04,182.76,010511,,,A*6B
$GPGGA,060232.000,1926.9283,S,06958.0594,W,1,08,1.0,1090.9,M,35.0,M,,0000*6E
$GPGSA,M,3,05,04,02,13,10,28,07,08,,,,,2.0,1.0,1.7*3E
$GPGSV,3,1,11,10,82,235,24,08,58,191,15,28,53,016,29,07,37,156,26*7F
$GPGSV,3,2,11,05,31,219,36,13,25,109,20,02,24,284,34,04,24,326,33*77
$GPGSV,3,3,11,26,10,236,22,17,03,003,,23,02,083,*45
$GPRMC,060232.000,A,1926.9283,S,06958.0594,W,0.22,89.65,010511,,,A*54
$GPGGA,060233.000,1926.9282,S,06958.0594,W,1,08,1.0,1091.0,M,35.0,M,,0000*66
$GPGSA,M,3,05,04,02,13,10,28,07,08,,,,,2.0,1.0,1.7*3E
$GPRMC,060233.000,A,1926.9282,S,06958.0594,W,0.20,60.53,010511,,,A*54
$GPGGA,060234.000,1926.9281,S,06958.0595,W,1,08,1.0,1091.0,M,35.0,M,,0000*63
$GPGSA,M,3,05,04,02,13,10,28,07,08,,,,,2.0,1.0,1.7*3E
$GPRMC,060234.000,A,1926.9281,S,06958.0595,W,0.14,50.54,010511,,,A*52
$GPGGA,060235.000,1926.9281,S,06958.0595,W,1,08,1.0,1091.2,M,35.0,M,,0000*60
$GPGSA,M,3,05,04,02,13,10,28,07,08,,,,,2.0,1.0,1.7*3E
$GPRMC,060235.000,A,1926.9281,S,06958.0595,W,0.25,293.42,010511,,,A*6B
$GPGGA,060236.000,1926.9281,S,06958.0597,W,1,08,1.0,1091.5,M,35.0,M,,0000*66
$GPGSA,M,3,05,04,02,13,10,28,07,08,,,,,2.0,1.0,1.7*3E
$GPRMC,060236.000,A,1926.9281,S,06958.0597,W,0.37,293.11,010511,,,A*6F
$GPGGA,060237.000,1926.9281,S,06958.0597,W,1,08,1.0,1091.5,M,35.0,M,,0000*67
$GPGSA,M,3,05,04,02,13,10,28,07,08,,,,,2.0,1.0,1.7*3E
$GPGSV,3,1,11,10,82,235,24,08,58,191,15,28,53,016,29,07,37,156,26*7F
$GPGSV,3,2,11,05,31,219,36,13,25,109,20,02,24,284,34,04,24,326,33*77
$GPGSV,3,3,11,26,10,236,22,17,03,003,,23,02,083,*45
$GPRMC,060237.000,A,1926.9281,S,06958.0597,W,0.12,73.21,010511,,,A*56
$GPGGA,060238.000,1926.9281,S,06958.0597,W,1,08,1.0,1091.5,M,35.0,M,,0000*68
$GPGSA,M,3,05,04,02,13,10,28,07,08,,,,,2.0,1.0,1.7*3E
$GPRMC,060238.000,A,1926.9281,S,06958.0597,W,0.25,291.32,010511,,,A*61
$GPGGA,060239.000,1926.9281,S,06958.0597,W,1,08,1.0,1091.4,M,35.0,M,,0000*68
$GPGSA,M,3,05,04,02,13,10,28,07,08,,,,,2.0,1.0,1.7*3E
$GPRMC,060239.000,A,1926.9281,S,06958.0597,W,0.33,283.31,010511,,,A*67
$GPGGA,060240.000,1926.9281,S,06958.0598,W,1,08,1.0,1091.5,M,35.0,M,,0000*68
$GPGSA,M,3,05,04,02,13,10,28,07,08,,,,,2.0,1.0,1.7*3E
$GPRMC,060240.000,A,1926.9281,S,06958.0598,W,0.21,306.26,010511,,,A*6F
$GPGGA,060241.000,1926.9281,S,06958.0598,W,1,08,1.0,1091.4,M,35.0,M,,0000*68
$GPGSA,M,3,05,04,02,13,10,28,07,08,,,,,2.0,1.0,1.7*3E
$GPRMC,060241.000,A,1926.9281,S,06958.0598,W,0.17,68.67,010511,,,A*55
$GPGGA,060242.000,1926.9281,S,06958.0597,W,1,08,1.0,1091.1,M,35.0,M,,0000*61
$GPGSA,M,3,05,04,02,13,10,28,07,08,,,,,2.0,1.0,1.7*3E
$GPGSV,3,1,11,10,82,235,24,08,58,191,15,28,53,016,29,07,37,156,26*7F
$GPGSV,3,2,11,05,31,219,36,13,25,109,20,02,24,284,34,04,24,326,33*77
$GPGSV,3,3,11,26,10,236,22,17,03,003,,23,02,083,*45
$GPRMC,060242.000,A,1926.9281,S,06958.0597,W,0.32,90.01,010511,,,A*59
$GPGGA,060243.000,1926.9281,S,06958.0596,W,1,08,1.0,1091.2,M,35.0,M,,0000*62
$GPGSA,M,3,05,04,02,13,10,28,07,08,,,,,2.0,1.0,1.7*3E
$GPRMC,060243.000,A,1926.9281,S,06958.0596,W,0.04,194.41,010511,,,A*6D
$GPGGA,060244.000,1926.9281,S,06958.0597,W,1,08,1.0,1091.6,M,35.0,M,,0000*60
$GPGSA,M,3,05,04,02,13,10,28,07,08,,,,,2.0,1.0,1.7*3E
$GPRMC,060244.000,A,1926.9281,S,06958.0597,W,0.20,263.30,010511,,,A*60
$GPGGA,060245.000,1926.9281,S,06958.0597,W,1,08,1.0,1091.6,M,35.0,M,,0000*61
$GPGSA,M,3,05,04,02,13,10,28,07,08,,,,,2.0,1.0,1.7*3E
$GPRMC,060245.000,A,1926.9281,S,06958.0597,W,0.20,98.47,010511,,,A*57
$GPGGA,060246.000,1926.9281,S,06958.0597,W,1,08,1.0,1091.6,M,35.0,M,,0000*62
$GPGSA,M,3,05,04,02,13,10,28,07,08,,,,,2.0,1.0,1.7*3E
$GPRMC,060246.000,A,1926.9281,S,06958.0597,W,0.29,101.97,010511,,,A*61
$GPGGA,060247.000,1926.9282,S,06958.0597,W,1,08,1.0,1091.8,M,35.0,M,,0000*6E
$GPGSA,M,3,05,04,02,13,10,28,07,08,,,,,2.0,1.0,1.7*3E
$GPGSV,3,1,11,10,82,235,24,08,58,191,15,28,53,016,29,07,37,156,26*7F
$GPGSV,3,2,11,05,31,219,36,13,25,109,20,02,24,284,34,04,24,326,33*77
$GPGSV,3,3,11,26,10,236,22,17,03,003,,23,02,083,*45
$GPRMC,060247.000,A,1926.9282,S,06958.0597,W,0.06,244.08,010511,,,A*6A
$GPGGA,060248.000,1926.9281,S,06958.0598,W,1,08,1.0,1091.9,M,35.0,M,,0000*6C
$GPGSA,M,3,05,04,02,13,10,28,07,08,,,,,2.0,1.0,1.7*3E
$GPRMC,060248.000,A,1926.9281,S,06958.0598,W,0.23,286.32,010511,,,A*69
$GPGGA,060249.000,1926.9281,S,06958.0599,W,1,08,1.0,1092.2,M,35.0,M,,0000*64
$GPGSA,M,3,05,04,02,13,10,28,07,08,,,,,2.0,1.0,1.7*3E
$GPRMC,060249.000,A,1926.9281,S,06958.0599,W,0.15,273.56,010511,,,A*64
$GPGGA,060250.000,1926.9281,S,06958.0598,W,1,08,1.0,1092.3,M,35.0,M,,0000*6C
$GPGSA,M,3,05,04,02,13,10,28,07,08,,,,,2.0,1.0,1.7*3E
$GPRMC,060250.000,A,1926.9281,S,06958.0598,W,0.21,104.00,010511,,,A*6A
$GPGGA,060251.000,1926.9282,S,06958.0599,W,1,08,1.0,1092.6,M,35.0,M,,0000*6A
$GPGSA,M,3,05,04,02,13,10,28,07,08,,,,,2.0,1.0,1.7*3E
$GPRMC,060251.000,A,1926.9282,S,06958.0599,W,0.16,259.25,010511,,,A*61
$GPGGA,060252.000,1926.9282,S,06958.0599,W,1,08,1.0,1092.6,M,35.0,M,,0000*69
$GPGSA,M,3,05,04,02,13,10,28,07,08,,,,,2.0,1.0,1.7*3E
$GPGSV,3,1,11,10,82,235,24,08,58,191,15,28,53,016,29,07,37,156,26*7F
$GPGSV,3,2,11,05,31,219,36,13,25,109,20,02,24,284,34,04,24,326,33*77
$GPGSV,3,3,11,26,10,236,21,17,03,003,,23,02,083,*46
$GPRMC,060252.000,A,1926.9282,S,06958.0599,W,0.19,103.97,010511,,,A*68
$GPGGA,060253.000,1926.9282,S,06958.0599,W,1,08,1.0,1092.9,M,35.0,M,,0000*67
$GPGSA,M,3,05,04,02,13,10,28,07,08,,,,,2.0,1.0,1.7*3E
$GPRMC,060253.000,A,1926.9282,S,06958.0599,W,0.15,252.95,010511,,,A*60
$GPGGA,060254.000,1926.9282,S,06958.0598,W,1,08,1.0,1092.6,M,35.0,M,,0000*6E
$GPGSA,M,3,05,04,02,13,10,28,07,08,,,,,2.0,1.0,1.7*3E
$GPRMC,060254.000,A,1926.9282,S,06958.0598,W,0.10,93.96,010511,,,A*5F
$GPGGA,060255.000,1926.9283,S,06958.0598,W,1,08,1.0,1092.8,M,35.0,M,,0000*60
$GPGSA,M,3,05,04,02,13,10,28,07,08,,,,,2.0,1.0,1.7*3E
$GPRMC,060255.000,A,1926.9283,S,06958.0598,W,0.22,286.20,010511,,,A*65
$GPGGA,060256.000,1926.9283,S,06958.0598,W,1,08,1.0,1092.7,M,35.0,M,,0000*6C
$GPGSA,M,3,05,04,02,13,10,28,07,08,,,,,2.0,1.0,1.7*3E
$GPRMC,060256.000,A,1926.9283,S,06958.0598,W,0.19,285.55,010511,,,A*6F
$GPGGA,060257.000,1926.9282,S,06958.0600,W,1,08,1.0,1093.1,M,35.0,M,,0000*69
$GPGSA,M,3,05,04,02,13,10,28,07,08,,,,,2.0,1.0,1.7*3E
$GPGSV,3,1,11,10,82,235,24,08,58,191,15,28,53,016,29,07,37,156,26*7F
$GPGSV,3,2,11,05,31,219,36,13,25,109,20,02,24,284,34,04,24,326,33*77
$GPGSV,3,3,11,26,10,236,21,17,03,003,,23,02,083,*46
$GPRMC,060257.000,A,1926.9282,S,06958.0600,W,0.29,295.95,010511,,,A*63
$GPGGA,060258.000,1926.9282,S,06958.0599,W,1,08,1.0,1092.9,M,35.0,M,,0000*6C
$GPGSA,M,3,05,04,02,13,10,28,07,08,,,,,2.0,1.0,1.7*3E
$GPRMC,060258.000,A,1926.9282,S,06958.0599,W,0.09,28.27,010511,,,A*50
$GPGGA,060259.000,1926.9282,S,06958.0598,W,1,08,1.0,1092.6,M,35.0,M,,0000*63
$GPGSA,M,3,05,04,02,13,10,28,07,08,,,,,2.0,1.0,1.7*3E
$GPRMC,060259.000,A,1926.9282,S,06958.0598,W,0.20,73.02,010511,,,A*52
$GPGGA,060300.000,1926.9283,S,06958.0597,W,1,08,1.0,1092.3,M,35.0,M,,0000*65
$GPGSA,M,3,05,04,02,13,10,28,07,08,,,,,2.0,1.0,1.7*3E
$GPRMC,060300.000,A,1926.9283,S,06958.0597,W,0.05,315.75,010511,,,A*65
$GPGGA,060301.000,1926.9283,S,06958.0596,W,1,08,1.0,1092.2,M,35.0,M,,0000*64
$GPGSA,M,3,05,04,02,13,10,28,07,08,,,,,2.0,1.0,1.7*3E
$GPRMC,060301.000,A,1926.9283,S,06958.0596,W,0.12,319.88,010511,,,A*6D
$GPGGA,060302.000,1926.9283,S,06958.0596,W,1,08,1.0,1092.2,M,35.0,M,,0000*67
$GPGSA,M,3,05,04,02,13,10,28,07,08,,,,,2.0,1.0,1.7*3E
$GPGSV,3,1,11,10,82,235,24,08,58,191,15,28,53,016,29,07,37,156,26*7F
$GPGSV,3,2,11,05,31,219,36,13,25,109,21,02,24,284,34,04,24,326,33*76
$GPGSV,3,3,11,26,10,236,21,17,03,003,,23,02,083,*46
$GPRMC,060302.000,A,1926.9283,S,06958.0596,W,0.17,300.41,010511,,,A*66
$GPGGA,060303.000,1926.9284,S,06958.0595,W,1,08,1.0,1091.9,M,35.0,M,,0000*6A
$GPGSA,M,3,05,04,02,13,10,28,07,08,,,,,2.0,1.0,1.7*3E
$GPRMC,060303.000,A,1926.9284,S,06958.0595,W,0.24,288.45,010511,,,A*66
$GPGGA,060304.000,1926.9283,S,06958.0596,W,1,08,1.0,1092.0,M,35.0,M,,0000*63
$GPGSA,M,3,05,04,02,13,10,28,07,08,,,,,2.0,1.0,1.7*3E
$GPRMC,060304.000,A,1926.9283,S,06958.0596,W,0.20,337.31,010511,,,A*67
$GPGGA,060305.000,1926.9283,S,06958.0596,W,1,08,1.0,1092.0,M,35.0,M,,0000*62
$GPGSA,M,3,05,04,02,13,10,28,07,08,,,,,2.0,1.0,1.7*3E
$GPRMC,060305.000,A,1926.9283,S,06958.0596,W,0.08,323.10,010511,,,A*6A
$GPGGA,060306.000,1926.9282,S,06958.0598,W,1,08,1.0,1092.3,M,35.0,M,,0000*6D
$GPGSA,M,3,05,04,02,13,10,28,07,08,,,,,2.0,1.0,1.7*3E
$GPRMC,060306.000,A,1926.9282,S,06958.0598,W,0.30,288.66,010511,,,A*6C
$GPGGA,060307.000,1926.9281,S,06958.0600,W,1,08,1.0,1092.7,M,35.0,M,,0000*69
$GPGSA,M,3,05,04,02,13,10,28,07,08,,,,,2.0,1.0,1.7*3E
$GPGSV,3,1,11,10,82,235,24,08,58,191,15,28,53,016,29,07,37,156,26*7F
$GPGSV,3,2,11,05,31,219,36,13,25,109,20,02,24,284,34,04,24,326,33*77
$GPGSV,3,3,11,26,10,236,21,17,03,003,,23,02,083,*46
$GPRMC,060307.000,A,1926.9281,S,06958.0600,W,0.24,299.47,010511,,,A*6A
$GPGGA,060308.000,1926.9282,S,06958.0598,W,1,08,1.0,1092.2,M,35.0,M,,0000*62
$GPGSA,M,3,05,04,02,13,10,28,07,08,,,,,2.0,1.0,1.7*3E
$GPRMC,060308.000,A,1926.9282,S,06958.0598,W,0.25,93.51,010511,,,A*5A
$GPGGA,060309.000,1926.9282,S,06958.0597,W,1,08,1.0,1092.0,M,35.0,M,,0000*6E
$GPGSA,M,3,05,04,02,13,10,28,07,08,,,,,2.0,1.0,1.7*3E
$GPRMC,060309.000,A,1926.9282,S,06958.0597,W,0.07,350.68,010511,,,A*62
$GPGGA,060310.000,1926.9282,S,06958.0597,W,1,08,1.0,1092.0,M,35.0,M,,0000*66
$GPGSA,M,3,05,04,02,13,10,28,07,08,,,,,2.0,1.0,1.7*3E
$GPRMC,060310.000,A,1926.9282,S,06958.0597,W,0.26,295.99,010511,,,A*6F
$GPGGA,060311.000,1926.9282,S,06958.0598,W,1,08,1.0,1092.0,M,35.0,M,,0000*68
$GPGSA,M,3,05,04,02,13,10,28,07,08,,,,,2.0,1.0,1.7*3E
$GPRMC,060311.000,A,1926.9282,S,06958.0598,W,0.13,28.77,010511,,,A*53
$GPGGA,060312.000,1926.9282,S,06958.0596,W,1,08,1.0,1091.4,M,35.0,M,,0000*62
$GPGSA,M,3,05,04,02,13,10,28,07,08,,,,,2.0,1.0,1.7*3E
$GPGSV,3,1,11,10,82,239,24,08,57,191,15,28,53,016,29,07,37,156,26*7C
$GPGSV,3,2,11,05,32,219,36,13,25,108,20,02,24,285,34,04,24,327,33*75
$GPGSV,3,3,11,26,10,236,21,17,03,003,,23,02,082,*47
$GPRMC,060312.000,A,1926.9282,S,06958.0596,W,0.14,329.54,010511,,,A*6A
$GPGGA,060313.000,1926.9282,S,06958.0595,W,1,08,1.0,1091.1,M,35.0,M,,0000*65
$GPGSA,M,3,05,04,02,13,10,28,07,08,,,,,2.0,1.0,1.7*3E
$GPRMC,060313.000,A,1926.9282,S,06958.0595,W,0.26,95.82,010511,,,A*56
$GPGGA,060314.000,1926.9283,S,06958.0592,W,1,08,1.0,1090.8,M,35.0,M,,0000*6C
$GPGSA,M,3,05,04,02,13,10,28,07,08,,,,,2.0,1.0,1.7*3E
$GPRMC,060314.000,A,1926.9283,S,06958.0592,W,0.47,98.89,010511,,,A*56
$GPGGA,060315.000,1926.9284,S,06958.0591,W,1,08,1.0,1090.6,M,35.0,M,,0000*67
$GPGSA,M,3,05,04,02,13,10,28,07,08,,,,,2.0,1.0,1.7*3E
$GPRMC,060315.000,A,1926.9284,S,06958.0591,W,0.03,250.98,010511,,,A*65
$GPGGA,060316.000,1926.9284,S,06958.0592,W,1,08,1.0,1090.6,M,35.0,M,,0000*67
$GPGSA,M,3,05,04,02,13,10,28,07,08,,,,,2.0,1.0,1.7*3E
$GPRMC,060316.000,A,1926.9284,S,06958.0592,W,0.15,279.18,010511,,,A*61
$GPGGA,060317.000,1926.9284,S,06958.0592,W,1,08,1.0,1090.7,M,35.0,M,,0000*67
$GPGSA,M,3,05,04,02,13,10,28,07,08,,,,,2.0,1.0,1.7*3E
$GPGSV,3,1,11,10,82,239,24,08,57,190,14,28,53,016,29,07,37,156,26*7C
$GPGSV,3,2,11,05,32,219,36,13,25,108,20,02,24,285,34,04,24,327,33*75
$GPGSV,3,3,11,26,10,235,22,17,03,004,,23,02,082,*40
$GPRMC,060317.000,A,1926.9284,S,06958.0592,W,0.04,107.54,010511,,,A*62
$GPGGA,060318.000,1926.9284,S,06958.0592,W,1,08,1.0,1090.8,M,35.0,M,,0000*67
$GPGSA,M,3,05,04,02,13,10,28,07,08,,,,,2.0,1.0,1.7*3E
$GPRMC,060318.000,A,1926.9284,S,06958.0592,W,0.06,276.77,010511,,,A*6B
$GPGGA,060319.000,1926.9284,S,06958.0592,W,1,08,1.0,1090.9,M,35.0,M,,0000*67
$GPGSA,M,3,05,04,02,13,10,28,07,08,,,,,2.0,1.0,1.7*3E
$GPRMC,060319.000,A,1926.9284,S,06958.0592,W,0.13,278.89,010511,,,A*61
$GPGGA,060320.000,1926.9284,S,06958.0593,W,1,08,1.0,1091.1,M,35.0,M,,0000*65
$GPGSA,M,3,05,04,02,13,10,28,07,08,,,,,2.0,1.0,1.7*3E
$GPRMC,060320.000,A,1926.9284,S,06958.0593,W,0.25,273.23,010511,,,A*64
$GPGGA,060321.000,1926.9284,S,06958.0593,W,1,08,1.0,1091.3,M,35.0,M,,0000*66
$GPGSA,M,3,05,04,02,13,10,28,07,08,,,,,2.0,1.0,1.7*3E
$GPRMC,060321.000,A,1926.9284,S,06958.0593,W,0.22,269.27,010511,,,A*6D
$GPGGA,060322.000,1926.9284,S,06958.0593,W,1,08,1.0,1091.3,M,35.0,M,,0000*65
$GPGSA,M,3,05,04,02,13,10,28,07,08,,,,,2.0,1.0,1.7*3E
$GPGSV,3,1,11,10,82,239,24,08,57,190,14,28,53,016,29,07,37,156,26*7C
$GPGSV,3,2,11,05,32,219,36,13,25,108,21,02,24,285,34,04,24,327,33*74
$GPGSV,3,3,11,26,10,235,22,17,03,004,,23,02,082,*40
$GPRMC,060322.000,A,1926.9284,S,06958.0593,W,0.03,146.47,010511,,,A*65
$GPGGA,060323.000,1926.9285,S,06958.0593,W,1,08,1.0,1091.3,M,35.0,M,,0000*65
$GPGSA,M,3,05,04,02,13,10,28,07,08,,,,,2.0,1.0,1.7*3E
$GPRMC,060323.000,A,1926.9285,S,06958.0593,W,0.14,120.06,010511,,,A*66
$GPGGA,060324.000,1926.9285,S,06958.0592,W,1,08,1.0,1091.3,M,35.0,M,,0000*63
$GPGSA,M,3,05,04,02,13,10,28,07,08,,,,,2.0,1.0,1.7*3E
$GPRMC,060324.000,A,1926.9285,S,06958.0592,W,0.15,97.49,010511,,,A*57
$GPGGA,060325.000,1926.9285,S,06958.0591,W,1,08,1.0,1091.1,M,35.0,M,,0000*63
$GPGSA,M,3,05,04,02,13,10,28,07,08,,,,,2.0,1.0,1.7*3E
$GPRMC,060325.000,A,1926.9285,S,06958.0591,W,0.18,79.28,010511,,,A*5F
$GPGGA,060326.000,1926.9285,S,06958.0590,W,1,08,1.0,1090.9,M,35.0,M,,0000*68
$GPGSA,M,3,05,04,02,13,10,28,07,08,,,,,2.0,1.0,1.7*3E
$GPRMC,060326.000,A,1926.9285,S,06958.0590,W,0.07,356.20,010511,,,A*65
$GPGGA,060327.000,1926.9285,S,06958.0590,W,1,08,1.0,1090.8,M,35.0,M,,0000*68
$GPGSA,M,3,05,04,02,13,10,28,07,08,,,,,2.0,1.0,1.7*3E
$GPGSV,3,1,11,10,82,239,24,08,57,190,15,28,53,016,29,07,37,156,26*7D
$GPGSV,3,2,11,05,32,219,36,13,25,108,21,02,24,285,34,04,24,327,33*74
$GPGSV,3,3,11,26,10,235,22,17,03,004,,23,02,082,*40
$GPRMC,060327.000,A,1926.9285,S,06958.0590,W,0.24,95.83,010511,,,A*50
$GPGGA,060328.000,1926.9285,S,06958.0588,W,1,08,1.0,1090.6,M,35.0,M,,0000*60
$GPGSA,M,3,05,04,02,13,10,28,07,08,,,,,2.0,1.0,1.7*3E
$GPRMC,060328.000,A,1926.9285,S,06958.0588,W,0.36,97.39,010511,,,A*56
$GPGGA,060329.000,1926.9285,S,06958.0587,W,1,08,1.0,1090.5,M,35.0,M,,0000*6D
$GPGSA,M,3,05,04,02,13,10,28,07,08,,,,,2.0,1.0,1.7*3E
$GPRMC,060329.000,A,1926.9285,S,06958.0587,W,0.05,57.37,010511,,,A*5A
$GPGGA,060330.000,1926.9285,S,06958.0587,W,1,08,1.0,1090.5,M,35.0,M,,0000*65
$GPGSA,M,3,05,04,02,13,10,28,07,08,,,,,2.0,1.0,1.7*3E
$GPRMC,060330.000,A,1926.9285,S,06958.0587,W,0.06,83.86,010511,,,A*52
$GPGGA,060331.000,1926.9285,S,06958.0587,W,1,08,1.0,1090.3,M,35.0,M,,0000*62
$GPGSA,M,3,05,04,02,13,10,28,07,08,,,,,2.0,1.0,1.7*3E
$GPRMC,060331.000,A,1926.9285,S,06958.0587,W,0.13,42.45,010511,,,A*55
$GPGGA,060332.000,1926.9285,S,06958.0587,W,1,08,1.0,1090.1,M,35.0,M,,0000*63
$GPGSA,M,3,05,04,02,13,10,28,07,08,,,,,2.0,1.0,1.7*3E
$GPGSV,3,1,11,10,82,239,24,08,57,190,15,28,53,016,29,07,37,156,25*7E
$GPGSV,3,2,11,05,32,219,36,13,25,108,21,02,24,285,34,04,24,327,33*74
$GPGSV,3,3,11,26,10,235,22,17,03,004,,23,02,082,*40
$GPRMC,060332.000,A,1926.9285,S,06958.0587,W,0.20,60.98,010511,,,A*56
$GPGGA,060333.000,1926.9285,S,06958.0586,W,1,08,1.0,1089.8,M,35.0,M,,0000*62
$GPGSA,M,3,05,04,02,13,10,28,07,08,,,,,2.0,1.0,1.7*3E
$GPRMC,060333.000,A,1926.9285,S,06958.0586,W,0.13,38.82,010511,,,A*50
$GPGGA,060334.000,1926.9284,S,06958.0586,W,1,08,1.0,1089.6,M,35.0,M,,0000*6A
$GPGSA,M,3,05,04,02,13,10,28,07,08,,,,,2.0,1.0,1.7*3E
$GPRMC,060334.000,A,1926.9284,S,06958.0586,W,0.30,90.33,010511,,,A*5F
$GPGGA,060335.000,1926.9284,S,06958.0586,W,1,08,1.0,1089.7,M,35.0,M,,0000*6A
$GPGSA,M,3,05,04,02,13,10,28,07,08,,,,,2.0,1.0,1.7*3E
$GPRMC,060335.000,A,1926.9284,S,06958.0586,W,0.03,149.52,010511,,,A*6C
$GPGGA,060336.000,1926.9284,S,06958.0587,W,1,08,1.0,1089.8,M,35.0,M,,0000*67
$GPGSA,M,3,05,04,02,13,10,28,07,08,,,,,2.0,1.0,1.7*3E
$GPRMC,060336.000,A,1926.9284,S,06958.0587,W,0.10,81.36,010511,,,A*5B
$GPGGA,060337.000,1926.9284,S,06958.0587,W,1,08,1.0,1089.8,M,35.0,M,,0000*66
$GPGSA,M,3,05,04,02,13,10,28,07,08,,,,,2.0,1.0,1.7*3E
$GPGSV,3,1,11,10,82,239,24,08,57,190,15,28,53,016,29,07,37,156,25*7E
$GPGSV,3,2,11,05,32,219,36,13,25,108,21,02,24,285,34,04,24,327,33*74
$GPGSV,3,3,11,26,10,235,22,17,03,004,,23,02,082,*40
$GPRMC,060337.000,A,1926.9284,S,06958.0587,W,0.25,119.84,010511,,,A*65
$GPGGA,060338.000,1926.9284,S,06958.0586,W,1,08,1.0,1089.9,M,35.0,M,,0000*69
$GPGSA,M,3,05,04,02,13,10,28,07,08,,,,,2.0,1.0,1.7*3E
$GPRMC,060338.000,A,1926.9284,S,06958.0586,W,0.15,276.15,010511,,,A*6A
$GPGGA,060339.000,1926.9285,S,06958.0586,W,1,08,1.0,1089.9,M,35.0,M,,0000*69
$GPGSA,M,3,05,04,02,13,10,28,07,08,,,,,2.0,1.0,1.7*3E
$GPRMC,060339.000,A,1926.9285,S,06958.0586,W,0.16,286.88,010511,,,A*62
$GPGGA,060340.000,1926.9285,S,06958.0587,W,1,08,1.0,1090.0,M,35.0,M,,0000*67
$GPGSA,M,3,05,04,02,13,10,28,07,08,,,,,2.0,1.0,1.7*3E
$GPRMC,060340.000,A,1926.9285,S,06958.0587,W,0.20,271.72,010511,,,A*65
$GPGGA,060341.000,1926.9285,S,06958.0587,W,1,08,1.0,1089.9,M,35.0,M,,0000*67
$GPGSA,M,3,05,04,02,13,10,28,07,08,,,,,2.0,1.0,1.7*3E
$GPRMC,060341.000,A,1926.9285,S,06958.0587,W,0.06,349.31,010511,,,A*6D
$GPGGA,060342.000,1926.9285,S,06958.0588,W,1,08,1.0,1089.9,M,35.0,M,,0000*6B
$GPGSA,M,3,05,04,02,13,10,28,07,08,,,,,2.0,1.0,1.7*3E
$GPGSV,3,1,11,10,82,240,25,08,57,190,15,28,54,016,29,07,37,155,25*75
$GPGSV,3,2,11,05,32,219,36,13,25,108,21,02,24,285,34,04,24,327,34*73
$GPGSV,3,3,11,26,10,235,22,17,04,004,,23,02,082,*47
$GPRMC,060342.000,A,1926.9285,S,06958.0588,W,0.27,297.72,010511,,,A*67
$GPGGA,060343.000,1926.9284,S,06958.0588,W,1,08,1.0,1089.8,M,35.0,M,,0000*6A
$GPGSA,M,3,05,04,02,13,10,28,07,08,,,,,2.0,1.0,1.7*3E
$GPRMC,060343.000,A,1926.9284,S,06958.0588,W,0.11,330.22,010511,,,A*6B
$GPGGA,060344.000,1926.9284,S,06958.0589,W,1,08,1.0,1089.9,M,35.0,M,,0000*6D
$GPGSA,M,3,05,04,02,13,10,28,07,08,,,,,2.0,1.0,1.7*3E
$GPRMC,060344.000,A,1926.9284,S,06958.0589,W,0.23,300.59,010511,,,A*63
$GPGGA,060345.000,1926.9284,S,06958.0590,W,1,08,1.0,1090.0,M,35.0,M,,0000*65
$GPGSA,M,3,05,04,02,13,10,28,07,08,,,,,2.0,1.0,1.7*3E
$GPRMC,060345.000,A,1926.9284,S,06958.0590,W,0.28,292.30,010511,,,A*64
$GPGGA,060346.000,1926.9283,S,06958.0591,W,1,08,1.0,1090.0,M,35.0,M,,0000*60
$GPGSA,M,3,05,04,02,13,10,28,07,08,,,,,2.0,1.0,1.7*3E
$GPRMC,060346.000,A,1926.9283,S,06958.0591,W,0.25,296.18,010511,,,A*62
$GPGGA,060347.000,1926.9283,S,06958.0592,W,1,08,1.0,1090.2,M,35.0,M,,0000*60
$GPGSA,M,3,05,04,02,13,10,28,07,08,,,,,2.0,1.0,1.7*3E
$GPGSV,3,1,11,10,82,240,24,08,57,190,15,28,54,016,29,07,37,155,25*74
$GPGSV,3,2,11,05,32,219,36,13,25,108,21,02,24,285,34,04,24,327,33*74
$GPGSV,3,3,11,26,10,235,22,17,04,004,,23,02,082,*47
$GPRMC,060347.000,A,1926.9283,S,06958.0592,W,0.43,289.71,010511,,,A*61
$GPGGA,060348.000,1926.9283,S,06958.0592,W,1,08,1.0,1090.2,M,35.0,M,,0000*6F
$GPGSA,M,3,05,04,02,13,10,28,07,08,,,,,2.0,1.0,1.7*3E
$GPRMC,060348.000,A,1926.9283,S,06958.0592,W,0.09,87.06,010511,,,A*5C
$GPGGA,060349.000,1926.9283,S,06958.0592,W,1,08,1.0,1090.2,M,35.0,M,,0000*6E
$GPGSA,M,3,05,04,02,13,10,28,07,08,,,,,2.0,1.0,1.7*3E
$GPRMC,060349.000,A,1926.9283,S,06958.0592,W,0.14,80.99,010511,,,A*50
$GPGGA,060350.000,1926.9283,S,06958.0592,W,1,08,1.0,1090.2,M,35.0,M,,0000*66
$GPGSA,M,3,05,04,02,13,10,28,07,08,,,,,2.0,1.0,1.7*3E
$GPRMC,060350.000,A,1926.9283,S,06958.0592,W,0.14,308.69,010511,,,A*64
$GPGGA,060351.000,1926.9283,S,06958.0592,W,1,08,1.0,1090.0,M,35.0,M,,0000*65
$GPGSA,M,3,05,04,02,13,10,28,07,08,,,,,2.0,1.0,1.7*3E
$GPRMC,060351.000,A,1926.9283,S,06958.0592,W,0.17,53.03,010511,,,A*57
$GPGGA,060352.000,1926.9282,S,06958.0591,W,1,08,1.0,1089.9,M,35.0,M,,0000*65
$GPGSA,M,3,05,04,02,13,10,28,07,08,,,,,2.0,1.0,1.7*3E
$GPGSV,3,1,11,10,82,240,25,08,57,190,15,28,54,016,29,07,37,155,25*75
$GPGSV,3,2,11,05,32,219,36,13,25,108,21,02,24,285,34,04,24,327,33*74
$GPGSV,3,3,11,26,10,235,22,17,04,004,,23,02,082,*47
$GPRMC,060352.000,A,1926.9282,S,06958.0591,W,0.30,70.25,010511,,,A*56
$GPGGA,060353.000,1926.9283,S,06958.0590,W,1,08,1.0,1089.8,M,35.0,M,,0000*65
$GPGSA,M,3,05,04,02,13,10,28,07,08,,,,,2.0,1.0,1.7*3E
$GPRMC,060353.000,A,1926.9283,S,06958.0590,W,0.16,280.01,010511,,,A*68
$GPGGA,060354.000,1926.9283,S,06958.0591,W,1,08,1.0,1089.9,M,35.0,M,,0000*62
$GPGSA,M,3,05,04,02,13,10,28,07,08,,,,,2.0,1.0,1.7*3E
$GPRMC,060354.000,A,1926.9283,S,06958.0591,W,0.31,284.27,010511,,,A*6B
$GPGGA,060355.000,1926.9283,S,06958.0591,W,1,08,1.0,1089.8,M,35.0,M,,0000*62
$GPGSA,M,3,05,04,02,13,10,28,07,08,,,,,2.0,1.0,1.7*3E
$GPRMC,060355.000,A,1926.9283,S,06958.0591,W,0.06,322.05,010511,,,A*63
$GPGGA,060356.000,1926.9283,S,06958.0591,W,1,08,1.0,1089.7,M,35.0,M,,0000*6E
$GPGSA,M,3,05,04,02,13,10,28,07,08,,,,,2.0,1.0,1.7*3E
$GPRMC,060356.000,A,1926.9283,S,06958.0591,W,0.19,65.05,010511,,,A*5E
$GPGGA,060357.000,1926.9283,S,06958.0591,W,1,08,1.0,1089.8,M,35.0,M,,0000*60
$GPGSA,M,3,05,04,02,13,10,28,07,08,,,,,2.0,1.0,1.7*3E
$GPGSV,3,1,11,10,82,240,25,08,57,190,13,28,54,016,29,07,37,155,25*73
$GPGSV,3,2,11,05,32,219,36,13,25,108,21,02,24,285,34,04,24,327,33*74
$GPGSV,3,3,11,26,10,235,22,17,04,004,,23,02,082,*47
$GPRMC,060357.000,A,1926.9283,S,06958.0591,W,0.18,305.84,010511,,,A*62
$GPGGA,060358.000,1926.9283,S,06958.0592,W,1,08,1.0,1089.9,M,35.0,M,,0000*6D
$GPGSA,M,3,05,04,02,13,10,28,07,08,,,,,2.0,1.0,1.7*3E
$GPRMC,060358.000,A,1926.9283,S,06958.0592,W,0.30,288.52,010511,,,A*6B
$GPGGA,060359.000,1926.9282,S,06958.0592,W,1,08,1.0,1089.8,M,35.0,M,,0000*6C
$GPGSA,M,3,05,04,02,13,10,28,07,08,,,,,2.0,1.0,1.7*3E
$GPRMC,060359.000,A,1926.9282,S,06958.0592,W,0.09,24.89,010511,,,A*53
$GPGGA,060400.000,1926.9282,S,06958.0592,W,1,08,1.0,1089.8,M,35.0,M,,0000*67
$GPGSA,M,3,05,04,02,13,10,28,07,08,,,,,2.0,1.0,1.7*3E
$GPRMC,060400.000,A,1926.9282,S,06958.0592,W,0.10,72.24,010511,,,A*54
$GPGGA,060401.000,1926.9282,S,06958.0592,W,1,08,1.0,1090.0,M,35.0,M,,0000*66
$GPGSA,M,3,05,04,02,13,10,28,07,08,,,,,2.0,1.0,1.7*3E
$GPRMC,060401.000,A,1926.9282,S,06958.0592,W,0.06,114.52,010511,,,A*62
$GPGGA,060402.000,1926.9282,S,06958.0593,W,1,08,1.0,1090.2,M,35.0,M,,0000*66
$GPGSA,M,3,05,04,02,13,10,28,07,08,,,,,2.0,1.0,1.7*3E
$GPGSV,3,1,11,10,82,240,25,08,57,190,13,28,54,016,29,07,37,155,25*73
$GPGSV,3,2,11,05,32,219,36,13,25,108,21,02,24,285,34,04,24,327,33*74
$GPGSV,3,3,11,26,10,235,22,17,04,004,,23,02,082,*47
$GPRMC,060402.000,A,1926.9282,S,06958.0593,W,0.23,285.63,010511,,,A*6E
$GPGGA,060403.000,1926.9282,S,06958.0593,W,1,08,1.0,1090.3,M,35.0,M,,0000*66
$GPGSA,M,3,05,04,02,13,10,28,07,08,,,,,2.0,1.0,1.7*3E
$GPRMC,060403.000,A,1926.9282,S,06958.0593,W,0.11,10.72,010511,,,A*50
$GPGGA,060404.000,1926.9282,S,06958.0594,W,1,08,1.0,1090.5,M,35.0,M,,0000*60
$GPGSA,M,3,05,04,02,13,10,28,07,08,,,,,2.0,1.0,1.7*3E
$GPRMC,060404.000,A,1926.9282,S,06958.0594,W,0.25,299.35,010511,,,A*67
$GPGGA,060405.000,1926.9281,S,06958.0594,W,1,08,1.0,1090.3,M,35.0,M,,0000*64
$GPGSA,M,3,05,04,02,13,10,28,07,08,,,,,2.0,1.0,1.7*3E
$GPRMC,060405.000,A,1926.9281,S,06958.0594,W,0.09,331.50,010511,,,A*6B
$GPGGA,060406.000,1926.9281,S,06958.0595,W,1,08,1.0,1090.6,M,35.0,M,,0000*63
$GPGSA,M,3,05,04,02,13,10,28,07,08,,,,,2.0,1.0,1.7*3E
$GPRMC,060406.000,A,1926.9281,S,06958.0595,W,0.32,294.17,010511,,,A*6C
$GPGGA,060407.000,1926.9281,S,06958.0596,W,1,08,1.0,1090.7,M,35.0,M,,0000*60
$GPGSA,M,3,05,04,02,13,10,28,07,08,,,,,2.0,1.0,1.7*3E
$GPGSV,3,1,11,10,82,240,25,08,57,190,13,28,54,016,29,07,37,155,25*73
$GPGSV,3,2,11,05,32,219,36,13,25,108,21,02,24,285,34,04,24,327,33*74
$GPGSV,3,3,11,26,10,235,22,17,04,004,,23,02,082,*47
$GPRMC,060407.000,A,1926.9281,S,06958.0596,W,0.13,34.76,010511,,,A*52
$GPGGA,060408.000,1926.9281,S,06958.0595,W,1,08,1.0,1090.5,M,35.0,M,,0000*6E
$GPGSA,M,3,05,04,02,13,10,28,07,08,,,,,2.0,1.0,1.7*3E
$GPRMC,060408.000,A,1926.9281,S,06958.0595,W,0.18,41.85,010511,,,A*5B
$GPGGA,060409.000,1926.9281,S,06958.0595,W,1,08,1.0,1090.6,M,35.0,M,,0000*6C
$GPGSA,M,3,05,04,02,13,10,28,07,08,,,,,2.0,1.0,1.7*3E
$GPRMC,060409.000,A,1926.9281,S,06958.0595,W,0.15,276.50,010511,,,A*69
$GPGGA,060410.000,1926.9281,S,06958.0595,W,1,08,1.0,1090.7,M,35.0,M,,0000*65
$GPGSA,M,3,05,04,02,13,10,28,07,08,,,,,2.0,1.0,1.7*3E
$GPRMC,060410.000,A,1926.9281,S,06958.0595,W,0.12,86.43,010511,,,A*59
$GPGGA,060411.000,1926.9281,S,06958.0595,W,1,08,1.0,1091.0,M,35.0,M,,0000*62
$GPGSA,M,3,05,04,02,13,10,28,07,08,,,,,2.0,1.0,1.7*3E
$GPRMC,060411.000,A,1926.9281,S,06958.0595,W,0.02,210.69,010511,,,A*6C
$GPGGA,060412.000,1926.9281,S,06958.0596,W,1,08,1.0,1091.3,M,35.0,M,,0000*61
$GPGSA,M,3,05,04,02,13,10,28,07,08,,,,,2.0,1.0,1.7*3E
$GPGSV,3,1,11,10,82,242,25,08,57,190,13,28,54,016,29,07,37,155,25*71
$GPGSV,3,2,11,05,32,219,36,13,25,108,21,02,24,285,34,04,23,327,33*73
$GPGSV,3,3,11,26,11,235,22,17,04,004,,23,02,082,*46
$GPRMC,060412.000,A,1926.9281,S,06958.0596,W,0.19,261.57,010511,,,A*6D
$GPGGA,060413.000,1926.9280,S,06958.0598,W,1,08,1.0,1091.8,M,35.0,M,,0000*64
$GPGSA,M,3,05,04,02,13,10,28,07,08,,,,,2.0,1.0,1.7*3E
$GPRMC,060413.000,A,1926.9280,S,06958.0598,W,0.05,75.78,010511,,,A*54
$GPGGA,060414.000,1926.9280,S,06958.0600,W,1,08,1.0,1092.4,M,35.0,M,,0000*6E
$GPGSA,M,3,05,04,02,13,10,28,07,08,,,,,2.0,1.0,1.7*3E
$GPRMC,060414.000,A,1926.9280,S,06958.0600,W,0.27,276.01,010511,,,A*6E
$GPGGA,060415.000,1926.9280,S,06958.0602,W,1,08,1.0,1092.9,M,35.0,M,,0000*60
$GPGSA,M,3,05,04,02,13,10,28,07,08,,,,,2.0,1.0,1.7*3E
$GPRMC,060415.000,A,1926.9280,S,06958.0602,W,0.24,265.92,010511,,,A*66
$GPGGA,060416.000,1926.9281,S,06958.0601,W,1,08,1.0,1092.9,M,35.0,M,,0000*61
$GPGSA,M,3,05,04,02,13,10,28,07,08,,,,,2.0,1.0,1.7*3E
$GPRMC,060416.000,A,1926.9281,S,06958.0601,W,0.05,215.01,010511,,,A*69
$GPGGA,060417.000,1926.9281,S,06958.0600,W,1,08,1.0,1093.0,M,35.0,M,,0000*69
$GPGSA,M,3,05,04,02,13,10,28,07,08,,,,,2.0,1.0,1.7*3E
$GPGSV,3,1,11,10,82,242,25,08,57,190,13,28,54,016,29,07,37,155,25*71
$GPGSV,3,2,11,05,32,219,36,13,25,108,21,02,24,285,34,04,23,327,33*73
$GPGSV,3,3,11,26,11,235,22,17,04,004,,23,02,082,*46
$GPRMC,060417.000,A,1926.9281,S,06958.0600,W,0.21,271.09,010511,,,A*65
$GPGGA,060418.000,1926.9281,S,06958.0601,W,1,08,1.0,1093.1,M,35.0,M,,0000*66
$GPGSA,M,3,05,04,02,13,10,28,07,08,,,,,2.0,1.0,1.7*3E
$GPRMC,060418.000,A,1926.9281,S,06958.0601,W,0.14,289.12,010511,,,A*60
$GPGGA,060419.000,1926.9281,S,06958.0601,W,1,08,1.0,1093.2,M,35.0,M,,0000*64
$GPGSA,M,3,05,04,02,13,10,28,07,08,,,,,2.0,1.0,1.7*3E
$GPRMC,060419.000,A,1926.9281,S,06958.0601,W,0.47,281.74,010511,,,A*6F
$GPGGA,060420.000,1926.9281,S,06958.0602,W,1,08,1.0,1093.3,M,35.0,M,,0000*6C
$GPGSA,M,3,05,04,02,13,10,28,07,08,,,,,2.0,1.0,1.7*3E
$GPRMC,060420.000,A,1926.9281,S,06958.0602,W,0.18,313.99,010511,,,A*65
$GPGGA,060421.000,1926.9281,S,06958.0602,W,1,08,1.0,1093.3,M,35.0,M,,0000*6D
$GPGSA,M,3,05,04,02,13,10,28,07,08,,,,,2.0,1.0,1.7*3E
$GPRMC,060421.000,A,1926.9281,S,06958.0602,W,0.10,4.70,010511,,,A*6E
$GPGGA,060422.000,1926.9281,S,06958.0601,W,1,08,1.0,1093.2,M,35.0,M,,0000*6C
$GPGSA,M,3,05,04,02,13,10,28,07,08,,,,,2.0,1.0,1.7*3E
$GPGSV,3,1,11,10,82,242,25,08,57,190,13,28,54,016,29,07,37,155,25*71
$GPGSV,3,2,11,05,32,219,36,13,25,108,21,02,24,285,34,04,23,327,33*73
$GPGSV,3,3,11,26,11,235,22,17,04,004,,23,02,082,*46
$GPRMC,060422.000,A,1926.9281,S,06958.0601,W,0.20,58.35,010511,,,A*55
$GPGGA,060423.000,1926.9281,S,06958.0600,W,1,08,1.0,1092.9,M,35.0,M,,0000*66
$GPGSA,M,3,05,04,02,13,10,28,07,08,,,,,2.0,1.0,1.7*3E
$GPRMC,060423.000,A,1926.9281,S,06958.0600,W,0.13,63.95,010511,,,A*57
$GPGGA,060424.000,1926.9281,S,06958.0599,W,1,08,1.0,1092.8,M,35.0,M,,0000*63
$GPGSA,M,3,05,04,02,13,10,28,07,08,,,,,2.0,1.0,1.7*3E
$GPRMC,060424.000,A,1926.9281,S,06958.0599,W,0.27,297.19,010511,,,A*69
$GPGGA,060425.000,1926.9282,S,06958.0599,W,1,08,1.0,1092.6,M,35.0,M,,0000*6F
$GPGSA,M,3,05,04,02,13,10,28,07,08,,,,,2.0,1.0,1.7*3E
$GPRMC,060425.000,A,1926.9282,S,06958.0599,W,0.20,298.56,010511,,,A*68
$GPGGA,060426.000,1926.9281,S,06958.0600,W,1,08,1.0,1092.7,M,35.0,M,,0000*6D
$GPGSA,M,3,05,04,02,13,10,28,07,08,,,,,2.0,1.0,1.7*3E
$GPRMC,060426.000,A,1926.9281,S,06958.0600,W,0.20,303.88,010511,,,A*6B
$GPGGA,060427.000,1926.9281,S,06958.0601,W,1,08,1.0,1093.0,M,35.0,M,,0000*6B
$GPGSA,M,3,05,04,02,13,10,28,07,08,,,,,2.0,1.0,1.7*3E
$GPGSV,3,1,11,10,82,242,25,08,57,190,13,28,54,016,28,07,37,155,25*70
$GPGSV,3,2,11,05,32,219,36,13,25,108,21,02,24,285,34,04,23,327,33*73
$GPGSV,3,3,11,26,11,235,22,17,04,004,,23,02,082,*46
$GPRMC,060427.000,A,1926.9281,S,06958.0601,W,0.35,293.72,010511,,,A*62
$GPGGA,060428.000,1926.9280,S,06958.0604,W,1,08,1.0,1093.7,M,35.0,M,,0000*67
$GPGSA,M,3,05,04,02,13,10,28,07,08,,,,,2.0,1.0,1.7*3E
$GPRMC,060428.000,A,1926.9280,S,06958.0604,W,0.56,290.02,010511,,,A*68
$GPGGA,060429.000,1926.9279,S,06958.0606,W,1,08,1.0,1093.9,M,35.0,M,,0000*6C
$GPGSA,M,3,05,04,02,13,10,28,07,08,,,,,2.0,1.0,1.7*3E
$GPRMC,060429.000,A,1926.9279,S,06958.0606,W,0.41,287.39,010511,,,A*65
$GPGGA,060430.000,1926.9279,S,06958.0606,W,1,08,1.0,1094.1,M,35.0,M,,0000*6B
$GPGSA,M,3,05,04,02,13,10,28,07,08,,,,,2.0,1.0,1.7*3E
$GPRMC,060430.000,A,1926.9279,S,06958.0606,W,0.39,284.36,010511,,,A*6E
$GPGGA,060431.000,1926.9280,S,06958.0605,W,1,08,1.0,1093.7,M,35.0,M,,0000*6E
$GPGSA,M,3,05,04,02,13,10,28,07,08,,,,,2.0,1.0,1.7*3E
$GPRMC,060431.000,A,1926.9280,S,06958.0605,W,0.11,340.75,010511,,,A*6E
$GPGGA,060432.000,1926.9280,S,06958.0605,W,1,08,1.0,1093.7,M,35.0,M,,0000*6D
$GPGSA,M,3,05,04,02,13,10,28,07,08,,,,,2.0,1.0,1.7*3E
$GPGSV,3,1,11,10,82,242,25,08,57,190,12,28,54,016,29,07,37,155,25*70
$GPGSV,3,2,11,05,32,219,36,13,25,108,21,02,24,285,34,04,23,327,33*73
$GPGSV,3,3,11,26,11,235,22,17,04,004,,23,02,082,*46
$GPRMC,060432.000,A,1926.9280,S,06958.0605,W,0.27,289.71,010511,,,A*68
$GPGGA,060433.000,1926.9281,S,06958.0604,W,1,08,1.0,1093.5,M,35.0,M,,0000*6E
$GPGSA,M,3,05,04,02,13,10,28,07,08,,,,,2.0,1.0,1.7*3E
$GPRMC,060433.000,A,1926.9281,S,06958.0604,W,0.10,335.34,010511,,,A*6A
$GPGGA,060434.000,1926.9281,S,06958.0604,W,1,07,1.0,1093.5,M,35.0,M,,0000*66
$GPGSA,M,3,05,04,02,13,10,28,07,,,,,,2.1,1.0,1.9*39
$GPRMC,060434.000,A,1926.9281,S,06958.0604,W,0.12,87.56,010511,,,A*51
$GPGGA,060435.000,1926.9281,S,06958.0604,W,1,07,1.0,1093.7,M,35.0,M,,0000*65
$GPGSA,M,3,05,04,02,13,10,28,07,,,,,,2.1,1.0,1.9*39
$GPRMC,060435.000,A,1926.9281,S,06958.0604,W,0.17,291.04,010511,,,A*67
$GPGGA,060436.000,1926.9281,S,06958.0604,W,1,07,1.0,1093.8,M,35.0,M,,0000*69
$GPGSA,M,3,05,04,02,13,10,28,07,,,,,,2.1,1.0,1.9*39
$GPRMC,060436.000,A,1926.9281,S,06958.0604,W,0.02,333.03,010511,,,A*6E
$GPGGA,060437.000,1926.9281,S,06958.0605,W,1,07,1.0,1094.0,M,35.0,M,,0000*66
$GPGSA,M,3,05,04,02,13,10,28,07,,,,,,2.1,1.0,1.9*39
$GPGSV,3,1,11,10,82,242,25,08,57,190,,28,54,016,29,07,37,155,25*73
$GPGSV,3,2,11,05,32,219,36,13,25,108,21,02,24,285,34,04,23,327,33*73
$GPGSV,3,3,11,26,11,235,22,17,04,004,,23,02,082,*46
$GPRMC,060437.000,A,1926.9281,S,06958.0605,W,0.21,283.51,010511,,,A*62
$GPGGA,060438.000,1926.9281,S,06958.0605,W,1,07,1.0,1094.3,M,35.0,M,,0000*6A
$GPGSA,M,3,05,04,02,13,10,28,07,,,,,,2.1,1.0,1.9*39
$GPRMC,060438.000,A,1926.9281,S,06958.0605,W,0.35,279.66,010511,,,A*69
$GPGGA,060439.000,1926.9281,S,06958.0605,W,1,07,1.0,1094.3,M,35.0,M,,0000*6B
$GPGSA,M,3,05,04,02,13,10,28,07,,,,,,2.1,1.0,1.9*39
$GPRMC,060439.000,A,1926.9281,S,06958.0605,W,0.03,60.25,010511,,,A*50
$GPGGA,060440.000,1926.9281,S,06958.0605,W,1,07,1.0,1094.2,M,35.0,M,,0000*64
$GPGSA,M,3,05,04,02,13,10,28,07,,,,,,2.1,1.0,1.9*39
$GPRMC,060440.000,A,1926.9281,S,06958.0605,W,0.15,93.61,010511,,,A*55
$GPGGA,060441.000,1926.9281,S,06958.0604,W,1,07,1.0,1094.1,M,35.0,M,,0000*67
$GPGSA,M,3,05,04,02,13,10,28,07,,,,,,2.1,1.0,1.9*39
$GPRMC,060441.000,A,1926.9281,S,06958.0604,W,0.18,88.70,010511,,,A*52
$GPGGA,060442.000,1926.9282,S,06958.0603,W,1,07,1.0,1094.0,M,35.0,M,,0000*61
$GPGSA,M,3,05,04,02,13,10,28,07,,,,,,2.1,1.0,1.9*39
$GPGSV,3,1,11,10,82,242,25,08,57,190,,28,54,016,29,07,37,155,25*73
$GPGSV,3,2,11,05,32,219,36,13,25,108,21,02,24,285,34,04,23,327,33*73
$GPGSV,3,3,11,26,11,235,22,17,04,004,,23,02,082,*46
$GPRMC,060442.000,A,1926.9282,S,06958.0603,W,0.28,83.50,010511,,,A*5F
$GPGGA,060443.000,1926.9282,S,06958.0602,W,1,07,1.0,1093.8,M,35.0,M,,0000*6E
$GPGSA,M,3,05,04,02,13,10,28,07,,,,,,2.1,1.0,1.9*39
$GPRMC,060443.000,A,1926.9282,S,06958.0602,W,0.32,91.17,010511,,,A*54
$GPGGA,060444.000,1926.9282,S,06958.0601,W,1,07,1.0,1093.9,M,35.0,M,,0000*6B
$GPGSA,M,3,05,04,02,13,10,28,07,,,,,,2.1,1.0,1.9*39
$GPRMC,060444.000,A,1926.9282,S,06958.0601,W,0.05,302.75,010511,,,A*69
$GPGGA,060445.000,1926.9281,S,06958.0602,W,1,07,1.0,1093.8,M,35.0,M,,0000*6B
$GPGSA,M,3,05,04,02,13,10,28,07,,,,,,2.1,1.0,1.9*39
$GPRMC,060445.000,A,1926.9281,S,06958.0602,W,0.08,28.91,010511,,,A*54
$GPGGA,060446.000,1926.9281,S,06958.0602,W,1,07,1.0,1094.0,M,35.0,M,,0000*67
$GPGSA,M,3,05,04,02,13,10,28,07,,,,,,2.1,1.0,1.9*39
$GPRMC,060446.000,A,1926.9281,S,06958.0602,W,0.18,285.52,010511,,,A*6C
$GPGGA,060447.000,1926.9281,S,06958.0603,W,1,07,1.0,1094.1,M,35.0,M,,0000*66
$GPGSA,M,3,05,04,02,13,10,28,07,,,,,,2.1,1.0,1.9*39
$GPGSV,3,1,11,10,83,244,25,08,57,189,,28,54,017,29,07,36,155,25*7C
$GPGSV,3,2,11,05,33,219,36,13,25,108,21,02,24,286,34,04,23,327,33*71
$GPGSV,3,3,11,26,11,235,22,17,04,004,,23,02,081,*45
$GPRMC,060447.000,A,1926.9281,S,06958.0603,W,0.13,290.69,010511,,,A*6B
$GPGGA,060448.000,1926.9281,S,06958.0604,W,1,07,1.0,1094.3,M,35.0,M,,0000*6C
$GPGSA,M,3,05,04,02,13,10,28,07,,,,,,2.1,1.0,1.9*39
$GPRMC,060448.000,A,1926.9281,S,06958.0604,W,0.16,286.52,010511,,,A*69
$GPGGA,060449.000,1926.9281,S,06958.0605,W,1,07,1.0,1094.6,M,35.0,M,,0000*69
$GPGSA,M,3,05,04,02,13,10,28,07,,,,,,2.1,1.0,1.9*39
$GPRMC,060449.000,A,1926.9281,S,06958.0605,W,0.28,281.18,010511,,,A*6D
$GPGGA,060450.000,1926.9281,S,06958.0604,W,1,07,1.0,1094.5,M,35.0,M,,0000*63
$GPGSA,M,3,05,04,02,13,10,28,07,,,,,,2.1,1.0,1.9*39
$GPRMC,060450.000,A,1926.9281,S,06958.0604,W,0.07,84.58,010511,,,A*5A
$GPGGA,060451.000,1926.9282,S,06958.0604,W,1,07,1.0,1094.6,M,35.0,M,,0000*62
$GPGSA,M,3,05,04,02,13,10,28,07,,,,,,2.1,1.0,1.9*39
$GPRMC,060451.000,A,1926.9282,S,06958.0604,W,0.18,280.83,010511,,,A*66
$GPGGA,060452.000,1926.9282,S,06958.0604,W,1,07,1.0,1094.6,M,35.0,M,,0000*61
$GPGSA,M,3,05,04,02,13,10,28,07,,,,,,2.1,1.0,1.9*39
$GPGSV,3,1,11,10,83,244,25,08,57,189,,28,54,017,28,07,36,155,25*7D
$GPGSV,3,2,11,05,33,219,36,13,25,108,20,02,24,286,34,04,23,327,33*70
$GPGSV,3,3,11,26,11,235,22,17,04,004,,23,02,081,*45
$GPRMC,060452.000,A,1926.9282,S,06958.0604,W,0.03,357.86,010511,,,A*61
$GPGGA,060453.000,1926.9282,S,06958.0604,W,1,07,1.0,1094.6,M,35.0,M,,0000*60
$GPGSA,M,3,05,04,02,13,10,28,07,,,,,,2.1,1.0,1.9*39
$GPRMC,060453.000,A,1926.9282,S,06958.0604,W,0.14,82.54,010511,,,A*52
$GPGGA,060454.000,1926.9282,S,06958.0604,W,1,07,1.0,1094.6,M,35.0,M,,0000*67
$GPGSA,M,3,05,04,02,13,10,28,07,,,,,,2.1,1.0,1.8*38
$GPRMC,060454.000,A,1926.9282,S,06958.0604,W,0.06,299.76,010511,,,A*6E
$GPGGA,060455.000,1926.9281,S,06958.0605,W,1,07,1.0,1094.7,M,35.0,M,,0000*65
$GPGSA,M,3,05,04,02,13,10,28,07,,,,,,2.1,1.0,1.8*38
$GPRMC,060455.000,A,1926.9281,S,06958.0605,W,0.16,290.18,010511,,,A*6D
$GPGGA,060456.000,1926.9281,S,06958.0605,W,1,07,1.0,1094.7,M,35.0,M,,0000*66
$GPGSA,M,3,05,04,02,13,10,28,07,,,,,,2.1,1.0,1.8*38
$GPRMC,060456.000,A,1926.9281,S,06958.0605,W,0.15,83.71,010511,,,A*52
$GPGGA,060457.000,1926.9281,S,06958.0604,W,1,07,1.0,1094.6,M,35.0,M,,0000*67
$GPGSA,M,3,05,04,02,13,10,28,07,,,,,,2.1,1.0,1.8*38
$GPGSV,3,1,11,10,83,244,25,08,57,189,,28,54,017,28,07,36,155,25*7D
$GPGSV,3,2,11,05,33,219,36,13,25,108,20,02,24,286,34,04,23,327,33*70
$GPGSV,3,3,11,26,11,235,22,17,04,004,,23,02,081,*45
$GPRMC,060457.000,A,1926.9281,S,06958.0604,W,0.26,102.58,010511,,,A*61
$GPGGA,060458.000,1926.9281,S,06958.0603,W,1,07,1.0,1094.4,M,35.0,M,,0000*6D
$GPGSA,M,3,05,04,02,13,10,28,07,,,,,,2.1,1.0,1.8*38
$GPRMC,060458.000,A,1926.9281,S,06958.0603,W,0.39,98.93,010511,,,A*52
$GPGGA,060459.000,1926.9281,S,06958.0603,W,1,07,1.0,1094.3,M,35.0,M,,0000*6B
$GPGSA,M,3,05,04,02,13,10,28,07,,,,,,2.1,1.0,1.8*38
$GPRMC,060459.000,A,1926.9281,S,06958.0603,W,0.40,89.86,010511,,,A*59
$GPGGA,060500.000,1926.9281,S,06958.0602,W,1,07,1.0,1094.1,M,35.0,M,,0000*65
$GPGSA,M,3,05,04,02,13,10,28,07,,,,,,2.1,1.0,1.8*38
$GPRMC,060500.000,A,1926.9281,S,06958.0602,W,0.35,86.69,010511,,,A*59
$GPGGA,060501.000,1926.9281,S,06958.0602,W,1,07,1.0,1094.0,M,35.0,M,,0000*65
$GPGSA,M,3,05,04,02,13,10,28,07,,,,,,2.1,1.0,1.8*38
$GPRMC,060501.000,A,1926.9281,S,06958.0602,W,0.15,292.09,010511,,,A*6B
$GPGGA,060502.000,1926.9281,S,06958.0603,W,1,07,1.0,1093.8,M,35.0,M,,0000*68
$GPGSA,M,3,05,04,02,13,10,28,07,,,,,,2.1,1.0,1.8*38
$GPGSV,3,1,11,10,83,244,25,08,57,189,,28,54,017,29,07,36,155,25*7C
$GPGSV,3,2,11,05,33,219,36,13,25,108,20,02,24,286,34,04,23,327,33*70
$GPGSV,3,3,11,26,11,235,22,17,04,004,,23,02,081,*45
$GPRMC,060502.000,A,1926.9281,S,06958.0603,W,0.04,1.42,010511,,,A*6E
$GPGGA,060503.000,1926.9282,S,06958.0600,W,1,07,1.0,1093.1,M,35.0,M,,0000*60
$GPGSA,M,3,05,04,02,13,10,28,07,,,,,,2.1,1.0,1.8*38
$GPRMC,060503.000,A,1926.9282,S,06958.0600,W,0.33,91.27,010511,,,A*51
$GPGGA,060504.000,1926.9282,S,06958.0599,W,1,07,1.0,1092.7,M,35.0,M,,0000*63
$GPGSA,M,3,05,04,02,13,10,28,07,,,,,,2.1,1.0,1.8*38
$GPRMC,060504.000,A,1926.9282,S,06958.0599,W,0.13,69.82,010511,,,A*5F
$GPGGA,060505.000,1926.9283,S,06958.0597,W,1,07,1.0,1092.2,M,35.0,M,,0000*68
$GPGSA,M,3,05,04,02,13,10,28,07,,,,,,2.1,1.0,1.8*38
$GPRMC,060505.000,A,1926.9283,S,06958.0597,W,0.28,87.66,010511,,,A*53
$GPGGA,060506.000,1926.9283,S,06958.0596,W,1,07,1.0,1091.9,M,35.0,M,,0000*62
$GPGSA,M,3,05,04,02,13,10,28,07,,,,,,2.1,1.0,1.8*38
$GPRMC,060506.000,A,1926.9283,S,06958.0596,W,0.09,64.00,010511,,,A*5F
$GPGGA,060507.000,1926.9283,S,06958.0596,W,1,07,1.0,1091.7,M,35.0,M,,0000*6D
$GPGSA,M,3,05,04,02,13,10,28,07,,,,,,2.1,1.0,1.8*38
$GPGSV,3,1,11,10,83,244,25,08,57,189,,28,54,017,28,07,36,155,25*7D
$GPGSV,3,2,11,05,33,219,36,13,25,108,20,02,24,286,34,04,23,327,33*70
$GPGSV,3,3,11,26,11,235,22,17,04,004,,23,02,081,*45
$GPRMC,060507.000,A,1926.9283,S,06958.0596,W,0.18,78.42,010511,,,A*55
$GPGGA,060508.000,1926.9283,S,06958.0595,W,1,07,1.0,1091.3,M,35.0,M,,0000*65
$GPGSA,M,3,05,04,02,13,10,28,07,,,,,,2.1,1.0,1.8*38
$GPRMC,060508.000,A,1926.9283,S,06958.0595,W,0.37,87.65,010511,,,A*51
$GPGGA,060509.000,1926.9282,S,06958.0596,W,1,07,1.0,1091.3,M,35.0,M,,0000*66
$GPGSA,M,3,05,04,02,13,10,28,07,,,,,,2.1,1.0,1.8*38
$GPRMC,060509.000,A,1926.9282,S,06958.0596,W,0.06,326.31,010511,,,A*69
$GPGGA,060510.000,1926.9282,S,06958.0595,W,1,07,1.0,1091.1,M,35.0,M,,0000*6F
$GPGSA,M,3,05,04,02,13,10,28,07,,,,,,2.1,1.0,1.8*38
$GPRMC,060510.000,A,1926.9282,S,06958.0595,W,0.22,87.78,010511,,,A*51
$GPGGA,060511.000,1926.9284,S,06958.0592,W,1,07,1.0,1090.5,M,35.0,M,,0000*6A
$GPGSA,M,3,05,04,02,13,10,28,07,,,,,,2.1,1.0,1.8*38
$GPRMC,060511.000,A,1926.9284,S,06958.0592,W,0.10,42.70,010511,,,A*51
$GPGGA,060512.000,1926.9284,S,06958.0591,W,1,07,1.0,1090.0,M,35.0,M,,0000*6F
$GPGSA,M,3,05,04,02,13,10,28,07,,,,,,2.1,1.0,1.8*38
$GPGSV,3,1,11,10,83,244,25,08,57,189,,28,54,017,29,07,36,155,25*7C
$GPGSV,3,2,11,05,33,219,36,13,25,108,20,02,24,286,34,04,23,327,33*70
$GPGSV,3,3,11,26,11,235,22,17,04,004,,23,02,081,*45
$GPRMC,060512.000,A,1926.9284,S,06958.0591,W,0.39,91.81,010511,,,A*5A
$GPGGA,060513.000,1926.9284,S,06958.0590,W,1,07,1.0,1089.8,M,35.0,M,,0000*6F
$GPGSA,M,3,05,04,02,13,10,28,07,,,,,,2.1,1.0,1.8*38
$GPRMC,060513.000,A,1926.9284,S,06958.0590,W,0.26,83.09,010511,,,A*57
$GPGGA,060514.000,1926.9284,S,06958.0590,W,1,07,1.0,1089.7,M,35.0,M,,0000*67
$GPGSA,M,3,05,04,02,13,10,28,07,,,,,,2.1,1.0,1.8*38
$GPRMC,060514.000,A,1926.9284,S,06958.0590,W,0.20,77.84,010511,,,A*58
$GPGGA,060515.000,1926.9284,S,06958.0590,W,1,07,1.0,1089.6,M,35.0,M,,0000*67
$GPGSA,M,3,05,04,02,13,10,28,07,,,,,,2.1,1.0,1.8*38
$GPRMC,060515.000,A,1926.9284,S,06958.0590,W,0.26,86.63,010511,,,A*58
$GPGGA,060516.000,1926.9283,S,06958.0591,W,1,07,1.0,1089.8,M,35.0,M,,0000*6C
$GPGSA,M,3,05,04,02,13,10,28,07,,,,,,2.1,1.0,1.8*38
$GPRMC,060516.000,A,1926.9283,S,06958.0591,W,0.07,329.16,010511,,,A*6A
$GPGGA,060517.000,1926.9283,S,06958.0592,W,1,07,1.0,1090.1,M,35.0,M,,0000*6F
$GPGSA,M,3,05,04,02,13,10,28,07,,,,,,2.1,1.0,1.8*38
$GPGSV,3,1,11,10,83,246,25,08,56,189,,28,54,017,28,07,36,155,25*7E
$GPGSV,3,2,11,05,33,219,36,13,25,107,20,02,24,286,34,04,23,327,33*7F
$GPGSV,3,3,11,26,11,235,23,17,04,004,,23,02,081,*44
$GPRMC,060517.000,A,1926.9283,S,06958.0592,W,0.14,298.47,010511,,,A*65
$GPGGA,060518.000,1926.9281,S,06958.0596,W,1,07,1.0,1090.9,M,35.0,M,,0000*6E
$GPGSA,M,3,05,04,02,13,10,28,07,,,,,,2.1,1.0,1.8*38
$GPRMC,060518.000,A,1926.9281,S,06958.0596,W,0.11,287.96,010511,,,A*6B
$GPGGA,060519.000,1926.9281,S,06958.0597,W,1,07,1.0,1091.2,M,35.0,M,,0000*64
$GPGSA,M,3,05,04,02,13,10,28,07,,,,,,2.1,1.0,1.8*38
$GPRMC,060519.000,A,1926.9281,S,06958.0597,W,0.25,284.54,010511,,,A*61
$GPGGA,060520.000,1926.9280,S,06958.0598,W,1,07,1.0,1091.5,M,35.0,M,,0000*67
$GPGSA,M,3,05,04,02,13,10,28,07,,,,,,2.1,1.0,1.8*38
$GPRMC,060520.000,A,1926.9280,S,06958.0598,W,0.03,22.65,010511,,,A*5D
$GPGGA,060521.000,1926.9280,S,06958.0599,W,1,07,1.0,1091.8,M,35.0,M,,0000*6A
$GPGSA,M,3,05,04,02,13,10,28,07,,,,,,2.1,1.0,1.8*38
$GPRMC,060521.000,A,1926.9280,S,06958.0599,W,0.17,286.73,010511,,,A*63
$GPGGA,060522.000,1926.9280,S,06958.0599,W,1,07,1.0,1091.7,M,35.0,M,,0000*66
$GPGSA,M,3,05,04,02,13,10,28,07,,,,,,2.1,1.0,1.8*38
$GPGSV,3,1,11,10,83,246,25,08,56,189,,28,54,017,28,07,36,155,25*7E
$GPGSV,3,2,11,05,33,219,36,13,25,107,20,02,24,286,34,04,23,327,33*7F
$GPGSV,3,3,11,26,11,235,23,17,04,004,,23,02,081,*44
$GPRMC,060522.000,A,1926.9280,S,06958.0599,W,0.17,84.47,010511,,,A*57
$GPGGA,060523.000,1926.9280,S,06958.0599,W,1,07,1.0,1091.8,M,35.0,M,,0000*68
$GPGSA,M,3,05,04,02,13,10,28,07,,,,,,2.1,1.0,1.8*38
$GPRMC,060523.000,A,1926.9280,S,06958.0599,W,0.04,331.59,010511,,,A*66
$GPGGA,060524.000,1926.9280,S,06958.0600,W,1,07,1.0,1092.0,M,35.0,M,,0000*67
$GPGSA,M,3,05,04,02,13,10,28,07,,,,,,2.1,1.0,1.8*38
$GPRMC,060524.000,A,1926.9280,S,06958.0600,W,0.23,286.02,010511,,,A*64
$GPGGA,060525.000,1926.9280,S,06958.0600,W,1,07,1.0,1092.0,M,35.0,M,,0000*66
$GPGSA,M,3,05,04,02,13,10,28,07,,,,,,2.1,1.0,1.8*38
$GPRMC,060525.000,A,1926.9280,S,06958.0600,W,0.06,67.32,010511,,,A*5C
$GPGGA,060526.000,1926.9282,S,06958.0598,W,1,08,1.0,1091.5,M,35.0,M,,0000*6C
$GPGSA,M,3,05,04,02,13,10,28,07,08,,,,,2.0,1.0,1.7*3E
$GPRMC,060526.000,A,1926.9282,S,06958.0598,W,0.09,294.08,010511,,,A*67
$GPGGA,060527.000,1926.9282,S,06958.0596,W,1,08,1.0,1090.8,M,35.0,M,,0000*6F
$GPGSA,M,3,05,04,02,13,10,28,07,08,,,,,2.0,1.0,1.7*3E
$GPGSV,3,1,11,10,83,246,25,08,56,189,16,28,54,017,29,07,36,155,25*78
$GPGSV,3,2,11,05,33,219,36,13,25,107,20,02,24,286,34,04,23,327,33*7F
$GPGSV,3,3,11,26,11,235,23,17,04,004,,23,02,081,*44
$GPRMC,060527.000,A,1926.9282,S,06958.0596,W,0.15,24.20,010511,,,A*56
$GPGGA,060528.000,1926.9281,S,06958.0598,W,1,08,1.0,1091.2,M,35.0,M,,0000*66
$GPGSA,M,3,05,04,02,13,10,28,07,08,,,,,2.0,1.0,1.7*3E
$GPRMC,060528.000,A,1926.9281,S,06958.0598,W,0.16,342.27,010511,,,A*63
$GPGGA,060529.000,1926.9280,S,06958.0600,W,1,08,1.0,1091.6,M,35.0,M,,0000*60
$GPGSA,M,3,05,04,02,13,10,28,07,08,,,,,2.0,1.0,1.7*3E
$GPRMC,060529.000,A,1926.9280,S,06958.0600,W,0.11,16.14,010511,,,A*54
$GPGGA,060530.000,1926.9279,S,06958.0600,W,1,08,1.0,1091.6,M,35.0,M,,0000*6E
$GPGSA,M,3,05,04,02,13,10,28,07,08,,,,,2.0,1.0,1.7*3E
$GPRMC,060530.000,A,1926.9279,S,06958.0600,W,0.22,60.04,010511,,,A*5A
$GPGGA,060531.000,1926.9279,S,06958.0600,W,1,08,1.0,1091.5,M,35.0,M,,0000*6C
$GPGSA,M,3,05,04,02,13,10,28,07,08,,,,,2.0,1.0,1.7*3E
$GPRMC,060531.000,A,1926.9279,S,06958.0600,W,0.28,79.34,010511,,,A*5A
$GPGGA,060532.000,1926.9279,S,06958.0600,W,1,08,1.0,1091.6,M,35.0,M,,0000*6C
$GPGSA,M,3,05,04,02,13,10,28,07,08,,,,,2.0,1.0,1.7*3E
$GPGSV,3,1,11,10,83,246,25,08,56,189,16,28,54,017,28,07,36,155,25*79
$GPGSV,3,2,11,05,33,219,36,13,25,107,20,02,24,286,34,04,23,327,33*7F
$GPGSV,3,3,11,26,11,235,23,17,04,004,,23,02,081,*44
$GPRMC,060532.000,A,1926.9279,S,06958.0600,W,0.09,21.17,010511,,,A*56
$GPGGA,060533.000,1926.9278,S,06958.0601,W,1,08,1.0,1091.8,M,35.0,M,,0000*63
$GPGSA,M,3,05,04,02,13,10,28,07,08,,,,,2.0,1.0,1.7*3E
$GPRMC,060533.000,A,1926.9278,S,06958.0601,W,0.18,275.43,010511,,,A*65
$GPGGA,060534.000,1926.9278,S,06958.0601,W,1,08,1.0,1091.9,M,35.0,M,,0000*65
$GPGSA,M,3,05,04,02,13,10,28,07,08,,,,,2.0,1.0,1.7*3E
$GPRMC,060534.000,A,1926.9278,S,06958.0601,W,0.15,102.06,010511,,,A*6D
$GPGGA,060535.000,1926.9279,S,06958.0602,W,1,08,1.0,1092.1,M,35.0,M,,0000*6D
$GPGSA,M,3,05,04,02,13,10,28,07,08,,,,,2.0,1.0,1.7*3E
$GPRMC,060535.000,A,1926.9279,S,06958.0602,W,0.15,258.37,010511,,,A*60
$GPGGA,060536.000,1926.9278,S,06958.0603,W,1,08,1.0,1092.3,M,35.0,M,,0000*6C
$GPGSA,M,3,05,04,02,13,10,28,07,08,,,,,2.0,1.0,1.7*3E
$GPRMC,060536.000,A,1926.9278,S,06958.0603,W,0.32,283.87,010511,,,A*6B
$GPGGA,060537.000,1926.9278,S,06958.0603,W,1,08,1.0,1092.1,M,35.0,M,,0000*6F
$GPGSA,M,3,05,04,02,13,10,28,07,08,,,,,2.0,1.0,1.7*3E
$GPGSV,3,1,11,10,83,246,25,08,56,189,16,28,54,017,28,07,36,155,25*79
$GPGSV,3,2,11,05,33,219,36,13,25,107,20,02,24,286,34,04,23,327,33*7F
$GPGSV,3,3,11,26,11,235,23,17,04,004,,23,02,081,*44
$GPRMC,060537.000,A,1926.9278,S,06958.0603,W,0.14,40.23,010511,,,A*5D
$GPGGA,060538.000,1926.9278,S,06958.0603,W,1,08,1.0,1092.2,M,35.0,M,,0000*63
$GPGSA,M,3,05,04,02,13,10,28,07,08,,,,,2.0,1.0,1.7*3E
$GPRMC,060538.000,A,1926.9278,S,06958.0603,W,0.31,83.60,010511,,,A*5D
$GPGGA,060539.000,1926.9278,S,06958.0602,W,1,08,1.0,1092.1,M,35.0,M,,0000*60
$GPGSA,M,3,05,04,02,13,10,28,07,08,,,,,2.0,1.0,1.7*3E
$GPRMC,060539.000,A,1926.9278,S,06958.0602,W,0.32,77.64,010511,,,A*51
$GPGGA,060540.000,1926.9278,S,06958.0602,W,1,08,1.0,1092.1,M,35.0,M,,0000*6E
$GPGSA,M,3,05,04,02,13,10,28,07,08,,,,,2.0,1.0,1.7*3E
$GPRMC,060540.000,A,1926.9278,S,06958.0602,W,0.36,300.31,010511,,,A*68
$GPGGA,060541.000,1926.9279,S,06958.0599,W,1,08,1.0,1090.9,M,35.0,M,,0000*65
$GPGSA,M,3,05,04,02,13,10,28,07,08,,,,,2.0,1.0,1.7*3E
$GPRMC,060541.000,A,1926.9279,S,06958.0599,W,0.40,297.76,010511,,,A*64
$GPGGA,060542.000,1926.9279,S,06958.0599,W,1,08,1.0,1090.8,M,35.0,M,,0000*67
$GPGSA,M,3,05,04,02,13,10,28,07,08,,,,,2.0,1.0,1.7*3E
$GPGSV,3,1,11,10,83,246,25,08,56,189,16,28,54,017,28,07,36,155,25*79
$GPGSV,3,2,11,05,33,219,36,13,25,107,20,02,24,286,34,04,23,327,33*7F
$GPGSV,3,3,11,26,11,235,23,17,04,004,,23,02,081,*44
$GPRMC,060542.000,A,1926.9279,S,06958.0599,W,0.14,2.81,010511,,,A*60
$GPGGA,060543.000,1926.9280,S,06958.0598,W,1,08,1.0,1091.2,M,35.0,M,,0000*6A
$GPGSA,M,3,05,04,02,13,10,28,07,08,,,,,2.0,1.0,1.7*3E
$GPRMC,060543.000,A,1926.9280,S,06958.0598,W,0.25,84.38,010511,,,A*58
