$GPGGA,204011.000,1401.3143,S,07312.5887,W,1,06,1.8,2329.2,M,25.8,M,,0000*69
$GPGSA,M,3,16,22,30,06,03,14,,,,,,,4.5,1.8,4.1*37
$GPGSV,3,1,12,16,66,295,37,22,62,146,34,30,55,340,41,06,53,178,38*71
$GPGSV,3,2,12,03,44,198,30,14,29,050,37,18,27,143,,19,18,214,31*7A
$GPGSV,3,3,12,32,12,323,,31,06,002,,21,05,121,,24,02,276,*7F
$GPRMC,204011.000,A,1401.3143,S,07312.5887,W,26.17,42.28,200411,,,A*6B
$GPGGA,204012.000,1401.3091,S,07312.5833,W,1,06,1.8,2325.8,M,25.8,M,,0000*6D
$GPGSA,M,3,16,22,30,06,03,14,,,,,,,4.5,1.8,4.1*37
$GPRMC,204012.000,A,1401.3091,S,07312.5833,W,26.48,43.13,200411,,,A*6A
$GPGGA,204013.000,1401.3040,S,07312.5776,W,1,06,1.8,2327.9,M,25.8,M,,0000*6D
$GPGSA,M,3,16,22,30,06,03,14,,,,,,,4.5,1.8,4.1*37
$GPRMC,204013.000,A,1401.3040,S,07312.5776,W,26.70,43.38,200411,,,A*6B
$GPGGA,204014.000,1401.2986,S,07312.5720,W,1,06,1.8,2327.6,M,25.8,M,,0000*64
$GPGSA,M,3,16,22,30,06,03,14,,,,,,,4.5,1.8,4.1*37
$GPRMC,204014.000,A,1401.2986,S,07312.5720,W,26.27,41.49,200411,,,A*6B
$GPGGA,204015.000,1401.2934,S,07312.5664,W,1,06,1.8,2328.7,M,25.8,M,,0000*63
$GPGSA,M,3,16,22,30,06,03,14,,,,,,,4.5,1.8,4.1*37
$GPRMC,204015.000,A,1401.2934,S,07312.5664,W,26.63,43.07,200411,,,A*6A
$GPGGA,204016.000,1401.2882,S,07312.5612,W,1,06,1.8,2332.2,M,25.8,M,,0000*63
$GPGSA,M,3,16,22,30,06,03,14,,,,,,,4.5,1.8,4.1*37
$GPGSV,3,1,12,16,66,295,35,22,62,146,35,30,55,340,37,06,53,178,37*7C
$GPGSV,3,2,12,03,44,198,21,14,29,050,35,18,27,143,,19,18,214,31*78
$GPGSV,3,3,12,32,12,323,,31,06,002,,21,05,121,,24,02,276,*7F
$GPRMC,204016.000,A,1401.2882,S,07312.5612,W,26.26,41.66,200411,,,A*60
$GPGGA,204017.000,1401.2824,S,07312.5558,W,1,06,1.8,2331.4,M,25.8,M,,0000*66
$GPGSA,M,3,16,22,30,06,03,14,,,,,,,4.5,1.8,4.1*37
$GPRMC,204017.000,A,1401.2824,S,07312.5558,W,26.64,44.21,200411,,,A*60
$GPGGA,204018.000,1401.2770,S,07312.5500,W,1,05,2.0,2329.8,M,25.8,M,,0000*67
$GPGSA,M,3,16,22,06,03,14,,,,,,,,4.6,2.0,4.1*3C
$GPRMC,204018.000,A,1401.2770,S,07312.5500,W,25.94,44.47,200411,,,A*60
$GPGGA,204019.000,1401.2719,S,07312.5449,W,1,05,2.0,2327.8,M,25.8,M,,0000*6B
$GPGSA,M,3,16,22,06,03,14,,,,,,,,4.6,2.0,4.1*3C
$GPRMC,204019.000,A,1401.2719,S,07312.5449,W,26.11,45.52,200411,,,A*69
$GPGGA,204019.998,1401.2669,S,07312.5388,W,1,05,2.0,2329.7,M,25.8,M,,0000*6E
$GPGSA,M,3,16,22,06,03,14,,,,,,,,4.6,2.0,4.1*3C
$GPRMC,204019.998,A,1401.2669,S,07312.5388,W,25.80,49.80,200411,,,A*65
$GPGGA,204021.000,1401.2626,S,07312.5319,W,1,05,2.0,2330.7,M,25.8,M,,0000*66
$GPGSA,M,3,16,22,06,03,14,,,,,,,,4.6,2.0,4.2*3F
$GPGSV,3,1,12,16,66,295,37,22,62,146,31,30,55,340,,06,53,178,39*70
$GPGSV,3,2,12,03,44,198,32,14,29,050,30,18,27,143,,19,18,214,35*7B
$GPGSV,3,3,12,32,12,323,,31,06,002,,21,05,121,,24,02,276,*7F
$GPRMC,204021.000,A,1401.2626,S,07312.5319,W,26.54,51.77,200411,,,A*6E
$GPGGA,204022.002,1401.2585,S,07312.5254,W,1,04,3.3,2332.0,M,25.8,M,,0000*63
$GPGSA,M,3,16,06,03,14,,,,,,,,,8.0,3.3,7.3*35
$GPRMC,204022.002,A,1401.2585,S,07312.5254,W,26.79,54.45,200411,,,A*66
$GPGGA,204022.999,1401.2548,S,07312.5190,W,1,05,2.0,2333.2,M,25.8,M,,0000*62
$GPGSA,M,3,16,22,06,03,14,,,,,,,,4.6,2.0,4.2*3F
$GPRMC,204022.999,A,1401.2548,S,07312.5190,W,24.55,56.81,200411,,,A*61
$GPGGA,204023.998,1401.2520,S,07312.5120,W,1,05,2.0,2333.4,M,25.8,M,,0000*61
$GPGSA,M,3,16,22,06,03,14,,,,,,,,4.6,2.0,4.2*3F
$GPRMC,204023.998,A,1401.2520,S,07312.5120,W,23.89,61.79,200411,,,A*61
$GPGGA,204025.000,1401.2496,S,07312.5043,W,1,05,2.0,2333.5,M,25.8,M,,0000*66
$GPGSA,M,3,16,22,06,03,14,,,,,,,,4.6,2.0,4.2*3F
$GPRMC,204025.000,A,1401.2496,S,07312.5043,W,25.44,66.55,200411,,,A*69
$GPGGA,204026.000,1401.2469,S,07312.4975,W,1,05,2.0,2333.4,M,25.8,M,,0000*69
$GPGSA,M,3,16,22,06,03,14,,,,,,,,4.6,2.0,4.2*3F
$GPGSV,3,1,12,16,66,295,36,22,62,146,23,30,55,340,,06,53,178,37*7C
$GPGSV,3,2,12,03,44,198,38,14,29,050,30,18,27,143,,19,18,214,31*75
$GPGSV,3,3,12,32,12,323,,31,06,002,,21,05,121,,24,02,276,*7F
$GPRMC,204026.000,A,1401.2469,S,07312.4975,W,25.30,67.01,200411,,,A*64
$GPGGA,204027.000,1401.2443,S,07312.4908,W,1,05,2.0,2329.9,M,25.8,M,,0000*6C
$GPGSA,M,3,16,22,06,03,14,,,,,,,,4.6,2.0,4.2*3F
$GPRMC,204027.000,A,1401.2443,S,07312.4908,W,24.80,68.64,200411,,,A*61
$GPGGA,204028.001,1401.2416,S,07312.4832,W,1,06,1.8,2333.9,M,25.8,M,,0000*69
$GPGSA,M,3,16,22,30,06,03,14,,,,,,,4.5,1.8,4.2*34
$GPRMC,204028.001,A,1401.2416,S,07312.4832,W,25.09,69.54,200411,,,A*65
$GPGGA,204028.999,1401.2387,S,07312.4768,W,1,06,1.8,2335.7,M,25.8,M,,0000*66
$GPGSA,M,3,16,22,30,06,03,14,,,,,,,4.5,1.8,4.2*34
$GPRMC,204028.999,A,1401.2387,S,07312.4768,W,24.62,67.01,200411,,,A*60
$GPGGA,204030.000,1401.2358,S,07312.4702,W,1,06,1.8,2337.7,M,25.8,M,,0000*6A
$GPGSA,M,3,16,22,30,06,03,14,,,,,,,4.5,1.8,4.2*34
$GPRMC,204030.000,A,1401.2358,S,07312.4702,W,24.67,65.45,200411,,,A*69
$GPGGA,204031.000,1401.2322,S,07312.4652,W,1,06,1.8,2336.9,M,25.8,M,,0000*6D
$GPGSA,M,3,16,22,30,06,03,14,,,,,,,4.5,1.8,4.2*34
$GPGSV,3,1,12,16,66,295,34,22,62,146,31,30,55,340,29,06,53,178,40*76
$GPGSV,3,2,12,03,44,198,37,14,29,050,32,18,27,143,,19,18,214,27*7F
$GPGSV,3,3,12,32,12,323,,31,06,002,,21,05,121,,24,02,276,*7F
$GPRMC,204031.000,A,1401.2322,S,07312.4652,W,24.32,62.58,200411,,,A*6A
$GPGGA,204031.999,1401.2291,S,07312.4589,W,1,06,1.8,2337.3,M,25.8,M,,0000*63
$GPGSA,M,3,16,22,30,06,03,14,,,,,,,4.5,1.8,4.2*34
$GPRMC,204031.999,A,1401.2291,S,07312.4589,W,24.82,60.81,200411,,,A*62
$GPGGA,204032.998,1401.2256,S,07312.4529,W,1,06,1.8,2336.1,M,25.8,M,,0000*63
$GPGSA,M,3,16,22,30,06,03,14,,,,,,,4.6,1.8,4.2*37
$GPRMC,204032.998,A,1401.2256,S,07312.4529,W,25.46,56.27,200411,,,A*61
$GPGGA,204034.001,1401.2216,S,07312.4468,W,1,06,1.8,2335.9,M,25.8,M,,0000*67
$GPGSA,M,3,16,22,30,06,03,14,,,,,,,4.6,1.8,4.2*37
$GPRMC,204034.001,A,1401.2216,S,07312.4468,W,25.92,53.41,200411,,,A*62
$GPGGA,204034.999,1401.2172,S,07312.4399,W,1,06,1.8,2337.2,M,25.8,M,,0000*6E
$GPGSA,M,3,16,22,30,06,03,14,,,,,,,4.6,1.8,4.2*37
$GPRMC,204034.999,A,1401.2172,S,07312.4399,W,26.67,50.76,200411,,,A*6C
$GPGGA,204035.999,1401.2122,S,07312.4348,W,1,06,1.8,2338.9,M,25.8,M,,0000*62
$GPGSA,M,3,16,22,30,06,03,14,,,,,,,4.6,1.8,4.2*37
$GPGSV,3,1,12,16,66,295,36,22,62,146,31,30,55,340,35,06,53,178,39*77
$GPGSV,3,2,12,03,44,198,37,14,29,050,34,18,27,143,,19,18,214,*7C
$GPGSV,3,3,12,32,12,323,,31,06,002,,21,05,121,,24,02,276,*7F
$GPRMC,204035.999,A,1401.2122,S,07312.4348,W,26.17,48.32,200411,,,A*6A
$GPGGA,204036.999,1401.2067,S,07312.4292,W,1,06,1.8,2340.1,M,25.8,M,,0000*60
$GPGSA,M,3,16,22,30,06,03,14,,,,,,,4.6,1.8,4.2*37
$GPRMC,204036.999,A,1401.2067,S,07312.4292,W,26.17,46.57,200411,,,A*62
$GPGGA,204037.999,1401.2018,S,07312.4241,W,1,06,1.8,2339.4,M,25.8,M,,0000*6C
$GPGSA,M,3,16,22,30,06,03,14,,,,,,,4.6,1.8,4.2*37
$GPRMC,204037.999,A,1401.2018,S,07312.4241,W,26.26,45.67,200411,,,A*67
$GPGGA,204038.999,1401.1968,S,07312.4188,W,1,06,1.8,2340.4,M,25.8,M,,0000*66
$GPGSA,M,3,16,22,30,06,03,14,,,,,,,4.6,1.8,4.2*37
$GPRMC,204038.999,A,1401.1968,S,07312.4188,W,26.44,41.70,200411,,,A*65
$GPGGA,204039.999,1401.1909,S,07312.4144,W,1,06,1.8,2337.1,M,25.8,M,,0000*65
$GPGSA,M,3,16,22,30,06,03,14,,,,,,,4.6,1.8,4.2*37
$GPRMC,204039.999,A,1401.1909,S,07312.4144,W,26.98,40.71,200411,,,A*62
$GPGGA,204040.999,1401.1851,S,07312.4095,W,1,06,1.8,2336.5,M,25.8,M,,0000*6F
$GPGSA,M,3,16,22,30,06,03,14,,,,,,,4.6,1.8,4.2*37
$GPGSV,3,1,12,16,66,295,34,22,62,146,35,30,55,340,40,06,53,178,37*7D
$GPGSV,3,2,12,03,44,198,29,14,29,050,34,18,27,143,,19,18,214,*73
$GPGSV,3,3,12,32,12,323,,31,06,002,,21,05,121,,24,02,276,*7F
$GPRMC,204040.999,A,1401.1851,S,07312.4095,W,26.32,38.43,200411,,,A*63
$GPGGA,204041.999,1401.1794,S,07312.4043,W,1,06,1.8,2336.3,M,25.8,M,,0000*65
$GPGSA,M,3,16,22,30,06,03,14,,,,,,,4.6,1.8,4.2*37
$GPRMC,204041.999,A,1401.1794,S,07312.4043,W,26.21,39.52,200411,,,A*6C
$GPGGA,204042.999,1401.1736,S,07312.4002,W,1,06,1.8,2333.9,M,25.8,M,,0000*64
$GPGSA,M,3,16,22,30,06,03,14,,,,,,,4.6,1.8,4.2*37
$GPRMC,204042.999,A,1401.1736,S,07312.4002,W,26.70,38.63,200411,,,A*65
$GPGGA,204044.001,1401.1680,S,07312.3954,W,1,06,1.8,2330.6,M,25.8,M,,0000*67
$GPGSA,M,3,16,22,30,06,03,14,,,,,,,4.6,1.8,4.2*37
$GPRMC,204044.001,A,1401.1680,S,07312.3954,W,26.85,39.61,200411,,,A*63
$GPGGA,204044.998,1401.1627,S,07312.3907,W,1,06,1.8,2329.3,M,25.8,M,,0000*68
$GPGSA,M,3,16,22,30,06,03,14,,,,,,,4.6,1.8,4.2*37
$GPRMC,204044.998,A,1401.1627,S,07312.3907,W,26.24,39.02,200411,,,A*6F
$GPGGA,204046.000,1401.1571,S,07312.3860,W,1,06,1.8,2327.0,M,25.8,M,,0000*6F
$GPGSA,M,3,16,22,30,06,03,14,,,,,,,4.6,1.8,4.2*37
$GPGSV,3,1,12,16,66,295,37,22,62,146,37,30,55,340,39,06,53,178,38*7D
$GPGSV,3,2,12,03,44,198,28,14,29,050,35,18,27,143,,19,18,214,*73
$GPGSV,3,3,12,32,12,323,,31,06,002,,21,05,121,,24,02,276,*7F
$GPRMC,204046.000,A,1401.1571,S,07312.3860,W,27.29,38.52,200411,,,A*6D
$GPGGA,204047.000,1401.1510,S,07312.3811,W,1,06,1.8,2327.6,M,25.8,M,,0000*69
$GPGSA,M,3,16,22,30,06,03,14,,,,,,,4.6,1.8,4.2*37
$GPRMC,204047.000,A,1401.1510,S,07312.3811,W,26.99,38.06,200411,,,A*66
$GPGGA,204048.000,1401.1448,S,07312.3768,W,1,06,1.8,2325.3,M,25.8,M,,0000*6C
$GPGSA,M,3,16,22,30,06,03,14,,,,,,,4.6,1.8,4.2*37
$GPRMC,204048.000,A,1401.1448,S,07312.3768,W,26.93,37.30,200411,,,A*64
$GPGGA,204049.000,1401.1385,S,07312.3721,W,1,06,1.8,2326.5,M,25.8,M,,0000*63
$GPGSA,M,3,16,22,30,06,03,14,,,,,,,4.6,1.8,4.2*37
$GPRMC,204049.000,A,1401.1385,S,07312.3721,W,27.58,36.78,200411,,,A*65
$GPGGA,204050.000,1401.1321,S,07312.3673,W,1,06,1.8,2326.4,M,25.8,M,,0000*62
$GPGSA,M,3,16,22,30,06,03,14,,,,,,,4.6,1.8,4.2*37
$GPRMC,204050.000,A,1401.1321,S,07312.3673,W,27.37,37.35,200411,,,A*64
$GPGGA,204051.000,1401.1261,S,07312.3635,W,1,06,1.8,2321.2,M,25.8,M,,0000*65
$GPGSA,M,3,16,22,30,06,03,14,,,,,,,4.6,1.8,4.2*37
$GPGSV,3,1,12,16,66,295,34,22,62,146,36,30,55,340,41,06,53,178,36*7E
$GPGSV,3,2,12,03,44,198,32,14,29,050,32,18,27,143,,19,18,214,*7F
$GPGSV,3,3,12,32,12,323,,31,06,002,,21,05,121,,24,02,276,*7F
$GPRMC,204051.000,A,1401.1261,S,07312.3635,W,26.93,34.24,200411,,,A*6E
$GPGGA,204052.000,1401.1202,S,07312.3599,W,1,06,1.8,2316.6,M,25.8,M,,0000*66
$GPGSA,M,3,16,22,30,06,03,14,,,,,,,4.6,1.8,4.2*37
$GPRMC,204052.000,A,1401.1202,S,07312.3599,W,27.49,35.82,200411,,,A*66
$GPGGA,204053.000,1401.1141,S,07312.3550,W,1,06,1.8,2315.8,M,25.8,M,,0000*6B
$GPGSA,M,3,16,22,30,06,03,14,,,,,,,4.6,1.8,4.2*37
$GPRMC,204053.000,A,1401.1141,S,07312.3550,W,27.13,36.00,200411,,,A*60
$GPGGA,204054.000,1401.1082,S,07312.3507,W,1,06,1.8,2313.1,M,25.8,M,,0000*6F
$GPGSA,M,3,16,22,30,06,03,14,,,,,,,4.6,1.8,4.2*37
$GPRMC,204054.000,A,1401.1082,S,07312.3507,W,26.87,36.00,200411,,,A*67
$GPGGA,204055.000,1401.1025,S,07312.3454,W,1,06,1.8,2313.2,M,25.8,M,,0000*67
$GPGSA,M,3,16,22,30,06,03,14,,,,,,,4.6,1.8,4.2*37
$GPRMC,204055.000,A,1401.1025,S,07312.3454,W,27.15,36.45,200411,,,A*67
$GPGGA,204056.000,1401.0964,S,07312.3402,W,1,06,1.8,2314.4,M,25.8,M,,0000*6B
$GPGSA,M,3,16,22,30,06,03,14,,,,,,,4.6,1.8,4.2*37
$GPGSV,3,1,12,16,66,295,32,22,62,146,36,30,55,340,38,06,53,178,36*76
$GPGSV,3,2,12,03,44,198,34,14,29,050,33,18,27,143,,19,18,214,*78
$GPGSV,3,3,12,32,12,323,,31,06,002,,21,05,121,,24,02,276,*7F
$GPRMC,204056.000,A,1401.0964,S,07312.3402,W,26.95,37.86,200411,,,A*6D
$GPGGA,204057.000,1401.0908,S,07312.3355,W,1,06,1.8,2313.8,M,25.8,M,,0000*6E
$GPGSA,M,3,16,22,30,06,03,14,,,,,,,4.6,1.8,4.2*37
$GPRMC,204057.000,A,1401.0908,S,07312.3355,W,26.21,36.91,200411,,,A*6B
$GPGGA,204058.000,1401.0854,S,07312.3310,W,1,06,1.8,2312.4,M,25.8,M,,0000*65
$GPGSA,M,3,16,22,30,06,03,14,,,,,,,4.6,1.8,4.2*37
$GPRMC,204058.000,A,1401.0854,S,07312.3310,W,27.02,36.82,200411,,,A*6F
$GPGGA,204059.000,1401.0796,S,07312.3259,W,1,06,1.8,2313.8,M,25.8,M,,0000*64
$GPGSA,M,3,16,22,30,06,03,14,,,,,,,4.6,1.8,4.2*37
$GPRMC,204059.000,A,1401.0796,S,07312.3259,W,27.52,38.00,200411,,,A*62
$GPGGA,204100.000,1401.0730,S,07312.3203,W,1,06,1.8,2316.1,M,25.8,M,,0000*66
$GPGSA,M,3,16,22,30,06,03,14,,,,,,,4.6,1.8,4.2*37
$GPRMC,204100.000,A,1401.0730,S,07312.3203,W,28.41,36.67,200411,,,A*6E
$GPGGA,204101.000,1401.0668,S,07312.3151,W,1,06,1.8,2315.2,M,25.8,M,,0000*6F
$GPGSA,M,3,16,22,30,06,03,14,,,,,,,4.6,1.8,4.2*37
$GPGSV,3,1,12,16,66,295,34,22,62,146,37,30,55,340,40,06,53,178,36*7E
$GPGSV,3,2,12,03,44,198,32,14,29,050,32,18,27,143,,19,18,214,*7F
$GPGSV,3,3,12,32,12,323,,31,06,002,,21,05,121,,24,02,276,*7F
$GPRMC,204101.000,A,1401.0668,S,07312.3151,W,27.81,37.66,200411,,,A*64
$GPGGA,204102.000,1401.0608,S,07312.3098,W,1,06,1.8,2315.6,M,25.8,M,,0000*6A
$GPGSA,M,3,16,22,30,06,03,14,,,,,,,4.6,1.8,4.2*37
$GPRMC,204102.000,A,1401.0608,S,07312.3098,W,27.76,38.75,200411,,,A*60
$GPGGA,204103.000,1401.0549,S,07312.3049,W,1,06,1.8,2317.3,M,25.8,M,,0000*66
$GPGSA,M,3,16,22,30,06,03,14,,,,,,,4.6,1.8,4.2*37
$GPRMC,204103.000,A,1401.0549,S,07312.3049,W,26.94,38.81,200411,,,A*6D
$GPGGA,204104.001,1401.0493,S,07312.3009,W,1,06,1.8,2316.1,M,25.8,M,,0000*61
$GPGSA,M,3,16,22,30,06,03,14,,,,,,,4.6,1.8,4.2*37
$GPRMC,204104.001,A,1401.0493,S,07312.3009,W,26.26,36.15,200411,,,A*63
$GPGGA,204104.999,1401.0433,S,07312.2959,W,1,06,1.8,2319.3,M,25.8,M,,0000*63
$GPGSA,M,3,16,22,30,06,03,14,,,,,,,4.6,1.8,4.2*37
$GPRMC,204104.999,A,1401.0433,S,07312.2959,W,26.66,35.87,200411,,,A*60
$GPGGA,204105.999,1401.0374,S,07312.2916,W,1,06,1.8,2316.7,M,25.8,M,,0000*66
$GPGSA,M,3,16,22,30,06,03,14,,,,,,,4.6,1.8,4.2*37
$GPGSV,3,1,12,16,66,295,36,22,62,146,36,30,55,340,39,06,53,178,36*73
$GPGSV,3,2,12,03,44,198,34,14,29,050,32,18,27,143,,19,18,214,*79
$GPGSV,3,3,12,32,12,323,,31,06,002,,21,05,121,,24,02,276,*7F
$GPRMC,204105.999,A,1401.0374,S,07312.2916,W,26.59,35.39,200411,,,A*67
$GPGGA,204106.998,1401.0313,S,07312.2870,W,1,06,1.8,2316.6,M,25.8,M,,0000*65
$GPGSA,M,3,16,22,30,06,03,14,,,,,,,4.6,1.8,4.2*37
$GPRMC,204106.998,A,1401.0313,S,07312.2870,W,26.65,34.81,200411,,,A*68
$GPGGA,204108.001,1401.0251,S,07312.2824,W,1,06,1.8,2318.2,M,25.8,M,,0000*6E
$GPGSA,M,3,16,22,30,06,03,14,,,,,,,4.6,1.8,4.3*36
$GPRMC,204108.001,A,1401.0251,S,07312.2824,W,26.49,34.27,200411,,,A*6B
$GPGGA,204108.999,1401.0195,S,07312.2782,W,1,06,1.8,2315.6,M,25.8,M,,0000*67
$GPGSA,M,3,16,22,30,06,03,14,,,,,,,4.6,1.8,4.3*36
$GPRMC,204108.999,A,1401.0195,S,07312.2782,W,26.25,34.85,200411,,,A*69
$GPGGA,204109.999,1401.0135,S,07312.2736,W,1,06,1.8,2313.9,M,25.8,M,,0000*6A
$GPGSA,M,3,16,22,30,06,03,14,,,,,,,4.6,1.8,4.3*36
$GPRMC,204109.999,A,1401.0135,S,07312.2736,W,26.64,35.49,200411,,,A*69
$GPGGA,204111.001,1401.0074,S,07312.2693,W,1,06,1.8,2312.8,M,25.8,M,,0000*61
$GPGSA,M,3,16,22,30,06,03,14,,,,,,,4.6,1.8,4.3*36
$GPGSV,3,1,12,16,66,295,36,22,62,146,36,30,55,340,39,06,53,178,35*70
$GPGSV,3,2,12,03,44,198,31,14,29,050,31,18,27,143,,19,18,214,25*78
$GPGSV,3,3,12,32,12,323,,31,06,002,,21,05,121,,24,02,276,*7F
$GPRMC,204111.001,A,1401.0074,S,07312.2693,W,27.28,34.72,200411,,,A*62
$GPGGA,204111.998,1401.0012,S,07312.2653,W,1,06,1.8,2311.8,M,25.8,M,,0000*67
$GPGSA,M,3,16,22,30,06,03,14,,,,,,,4.6,1.8,4.3*36
$GPRMC,204111.998,A,1401.0012,S,07312.2653,W,26.94,37.02,200411,,,A*65
$GPGGA,204113.002,1400.9954,S,07312.2611,W,1,06,1.8,2308.7,M,25.8,M,,0000*6D
$GPGSA,M,3,16,22,30,06,03,14,,,,,,,4.6,1.8,4.3*36
$GPRMC,204113.002,A,1400.9954,S,07312.2611,W,26.04,36.11,200411,,,A*62
$GPGGA,204114.000,1400.9896,S,07312.2572,W,1,06,1.8,2305.1,M,25.8,M,,0000*6A
$GPGSA,M,3,16,22,30,06,03,14,,,,,,,4.6,1.8,4.3*36
$GPRMC,204114.000,A,1400.9896,S,07312.2572,W,26.77,34.53,200411,,,A*6E
$GPGGA,204115.000,1400.9834,S,07312.2544,W,1,06,1.8,2299.5,M,25.8,M,,0000*66
$GPGSA,M,3,16,22,30,06,03,14,,,,,,,4.6,1.8,4.3*36
$GPRMC,204115.000,A,1400.9834,S,07312.2544,W,26.38,32.21,200411,,,A*6A
$GPGGA,204116.000,1400.9770,S,07312.2501,W,1,06,1.8,2299.9,M,25.8,M,,0000*67
$GPGSA,M,3,16,22,30,06,03,14,,,,,,,4.6,1.8,4.3*36
$GPGSV,3,1,12,16,66,295,36,22,62,146,37,30,55,340,40,06,53,178,33*79
$GPGSV,3,2,12,03,44,198,29,14,29,050,34,18,27,143,,19,18,214,28*79
$GPGSV,3,3,12,32,12,323,,31,06,002,,21,05,121,,24,02,276,*7F
$GPRMC,204116.000,A,1400.9770,S,07312.2501,W,26.95,33.11,200411,,,A*62
$GPGGA,204117.000,1400.9708,S,07312.2461,W,1,06,1.8,2298.0,M,25.8,M,,0000*66
$GPGSA,M,3,16,22,30,06,03,14,,,,,,,4.6,1.8,4.3*36
$GPRMC,204117.000,A,1400.9708,S,07312.2461,W,26.32,34.14,200411,,,A*64
$GPGGA,204118.000,1400.9648,S,07312.2417,W,1,06,1.8,2296.4,M,25.8,M,,0000*67
$GPGSA,M,3,16,22,30,06,03,14,,,,,,,4.6,1.8,4.3*36
$GPRMC,204118.000,A,1400.9648,S,07312.2417,W,27.42,35.21,200411,,,A*6E
$GPGGA,204119.000,1400.9584,S,07312.2370,W,1,06,1.8,2296.6,M,25.8,M,,0000*61
$GPGSA,M,3,16,22,30,06,03,14,,,,,,,4.7,1.8,4.3*37
$GPRMC,204119.000,A,1400.9584,S,07312.2370,W,27.26,32.39,200411,,,A*66
$GPGGA,204120.000,1400.9519,S,07312.2323,W,1,06,1.8,2296.9,M,25.8,M,,0000*66
$GPGSA,M,3,16,22,30,06,03,14,,,,,,,4.7,1.8,4.3*37
$GPRMC,204120.000,A,1400.9519,S,07312.2323,W,28.34,33.03,200411,,,A*6A
$GPGGA,204121.000,1400.9453,S,07312.2276,W,1,06,1.8,2299.0,M,25.8,M,,0000*6F
$GPGSA,M,3,16,22,30,06,03,14,,,,,,,4.7,1.8,4.3*37
$GPGSV,3,1,12,16,66,295,36,22,62,146,37,30,55,340,40,06,53,178,33*79
$GPGSV,3,2,12,03,44,198,32,14,29,050,34,18,27,143,,19,18,214,28*73
$GPGSV,3,3,12,32,12,323,,31,06,002,,21,05,121,,24,02,276,*7F
$GPRMC,204121.000,A,1400.9453,S,07312.2276,W,27.62,35.68,200411,,,A*62
$GPGGA,204122.000,1400.9389,S,07312.2231,W,1,06,1.8,2299.4,M,25.8,M,,0000*6B
$GPGSA,M,3,16,22,30,06,03,14,,,,,,,4.7,1.8,4.3*37
$GPRMC,204122.000,A,1400.9389,S,07312.2231,W,28.72,32.98,200411,,,A*64
$GPGGA,204123.000,1400.9320,S,07312.2182,W,1,06,1.8,2300.5,M,25.8,M,,0000*62
$GPGSA,M,3,16,22,30,06,03,14,,,,,,,4.7,1.8,4.3*37
$GPRMC,204123.000,A,1400.9320,S,07312.2182,W,27.73,32.87,200411,,,A*6D
$GPGGA,204124.000,1400.9255,S,07312.2133,W,1,06,1.8,2300.5,M,25.8,M,,0000*6C
$GPGSA,M,3,16,22,30,06,03,14,,,,,,,4.7,1.8,4.3*37
$GPRMC,204124.000,A,1400.9255,S,07312.2133,W,27.10,34.57,200411,,,A*6D
$GPGGA,204125.000,1400.9196,S,07312.2091,W,1,06,1.8,2299.1,M,25.8,M,,0000*6D
$GPGSA,M,3,16,22,30,06,03,14,,,,,,,4.7,1.8,4.3*37
$GPRMC,204125.000,A,1400.9196,S,07312.2091,W,26.42,36.78,200411,,,A*60
$GPGGA,204125.998,1400.9131,S,07312.2033,W,1,06,1.8,2305.4,M,25.8,M,,0000*61
$GPGSA,M,3,16,22,30,06,03,14,,,,,,,4.7,1.8,4.3*37
$GPGSV,3,1,12,16,66,295,37,22,62,146,37,30,55,340,40,06,53,178,37*7C
$GPGSV,3,2,12,03,44,198,27,14,29,050,31,18,27,143,,19,18,214,*78
$GPGSV,3,3,12,32,12,323,,31,06,002,,21,05,121,,24,02,276,*7F
$GPRMC,204125.998,A,1400.9131,S,07312.2033,W,27.49,36.42,200411,,,A*6E
$GPGGA,204127.000,1400.9072,S,07312.1983,W,1,05,3.2,2306.0,M,25.8,M,,0000*60
$GPGSA,M,3,16,22,30,06,14,,,,,,,,8.9,3.2,8.3*32
$GPRMC,204127.000,A,1400.9072,S,07312.1983,W,26.49,36.89,200411,,,A*65
$GPGGA,204128.002,1400.9017,S,07312.1939,W,1,06,1.8,2303.6,M,25.8,M,,0000*67
$GPGSA,M,3,16,22,30,06,03,14,,,,,,,4.7,1.8,4.3*37
$GPRMC,204128.002,A,1400.9017,S,07312.1939,W,25.81,38.39,200411,,,A*68
$GPGGA,204129.002,1400.8963,S,07312.1895,W,1,06,1.8,2306.0,M,25.8,M,,0000*69
$GPGSA,M,3,16,22,06,30,03,14,,,,,,,4.7,1.8,4.3*37
$GPRMC,204129.002,A,1400.8963,S,07312.1895,W,26.28,39.02,200411,,,A*6C
$GPGGA,204129.996,1400.8906,S,07312.1840,W,1,06,1.8,2307.9,M,25.8,M,,0000*6E
$GPGSA,M,3,16,22,06,30,03,14,,,,,,,4.7,1.8,4.3*37
$GPRMC,204129.996,A,1400.8906,S,07312.1840,W,27.07,40.00,200411,,,A*63
$GPGGA,204131.017,1400.8848,S,07312.1785,W,1,06,1.8,2308.9,M,25.8,M,,0000*65
$GPGSA,M,3,16,22,06,30,03,14,,,,,,,4.7,1.8,4.3*37
$GPGSV,3,1,12,16,65,298,36,22,61,147,36,06,54,177,37,30,53,341,41*7E
$GPGSV,3,2,12,03,45,197,30,14,30,052,37,18,26,143,,19,19,213,29*70
$GPGSV,3,3,12,32,13,323,,31,06,003,,21,04,120,,24,03,274,*7C
$GPRMC,204131.017,A,1400.8848,S,07312.1785,W,26.78,39.33,200411,,,A*60
$GPGGA,204131.985,1400.8794,S,07312.1737,W,1,06,1.8,2307.9,M,25.8,M,,0000*6F
$GPGSA,M,3,16,22,06,30,03,14,,,,,,,4.7,1.8,4.3*37
$GPRMC,204131.985,A,1400.8794,S,07312.1737,W,26.30,39.94,200411,,,A*64
$GPGGA,204132.998,1400.8738,S,07312.1693,W,1,06,1.8,2306.3,M,25.8,M,,0000*62
$GPGSA,M,3,16,22,06,30,03,14,,,,,,,4.7,1.8,4.3*37
$GPRMC,204132.998,A,1400.8738,S,07312.1693,W,26.95,38.46,200411,,,A*63
$GPGGA,204134.002,1400.8680,S,07312.1648,W,1,06,1.8,2305.3,M,25.8,M,,0000*69
$GPGSA,M,3,16,22,06,30,03,14,,,,,,,4.7,1.8,4.3*37
$GPRMC,204134.002,A,1400.8680,S,07312.1648,W,26.94,38.72,200411,,,A*6D
$GPGGA,204134.999,1400.8624,S,07312.1597,W,1,06,1.8,2305.4,M,25.8,M,,0000*6A
$GPGSA,M,3,16,22,06,30,03,14,,,,,,,4.7,1.8,4.3*37
$GPRMC,204134.999,A,1400.8624,S,07312.1597,W,27.35,41.76,200411,,,A*69
$GPGGA,204136.000,1400.8571,S,07312.1540,W,1,06,1.8,2305.9,M,25.8,M,,0000*65
$GPGSA,M,3,16,22,06,30,03,14,,,,,,,4.7,1.8,4.3*37
$GPGSV,3,1,12,16,65,298,36,22,61,147,36,06,54,177,37,30,53,341,41*7E
$GPGSV,3,2,12,03,45,197,31,14,30,052,36,18,26,143,,19,19,213,28*71
$GPGSV,3,3,12,32,13,323,,31,06,003,,21,04,120,,24,03,274,*7C
$GPRMC,204136.000,A,1400.8571,S,07312.1540,W,26.78,45.33,200411,,,A*66
$GPGGA,204136.998,1400.8524,S,07312.1488,W,1,05,2.9,2303.6,M,25.8,M,,0000*60
$GPGSA,M,3,16,22,06,30,03,,,,,,,,8.4,2.9,7.9*36
$GPRMC,204136.998,A,1400.8524,S,07312.1488,W,26.27,47.88,200411,,,A*63
$GPGGA,204138.001,1400.8475,S,07312.1432,W,1,06,1.8,2300.9,M,25.8,M,,0000*6E
$GPGSA,M,3,16,22,06,30,03,14,,,,,,,4.7,1.8,4.3*37
$GPRMC,204138.001,A,1400.8475,S,07312.1432,W,26.24,47.79,200411,,,A*6D
$GPGGA,204139.000,1400.8429,S,07312.1373,W,1,06,1.8,2301.6,M,25.8,M,,0000*6B
$GPGSA,M,3,16,22,06,30,03,14,,,,,,,4.7,1.8,4.3*37
$GPRMC,204139.000,A,1400.8429,S,07312.1373,W,26.18,52.47,200411,,,A*60
$GPGGA,204140.000,1400.8387,S,07312.1312,W,1,06,1.8,2301.6,M,25.8,M,,0000*61
$GPGSA,M,3,16,22,06,30,03,14,,,,,,,4.7,1.8,4.3*37
$GPRMC,204140.000,A,1400.8387,S,07312.1312,W,26.33,53.05,200411,,,A*64
$GPGGA,204140.999,1400.8346,S,07312.1248,W,1,05,2.9,2300.8,M,25.8,M,,0000*65
$GPGSA,M,3,16,22,06,30,03,,,,,,,,8.4,2.9,7.9*36
$GPGSV,3,1,12,16,65,298,37,22,61,147,34,06,54,177,38,30,53,341,37*73
$GPGSV,3,2,12,03,45,197,32,14,30,052,,18,26,143,,19,19,213,35*7B
$GPGSV,3,3,12,32,13,323,,31,06,003,,21,04,120,,24,03,274,*7C
$GPRMC,204140.999,A,1400.8346,S,07312.1248,W,26.82,54.59,200411,,,A*6A
$GPGGA,204142.000,1400.8301,S,07312.1183,W,1,06,1.8,2303.0,M,25.8,M,,0000*63
$GPGSA,M,3,16,22,06,30,03,14,,,,,,,4.7,1.8,4.3*37
$GPRMC,204142.000,A,1400.8301,S,07312.1183,W,26.62,54.37,200411,,,A*60
$GPGGA,204142.999,1400.8260,S,07312.1119,W,1,05,2.8,2303.6,M,25.8,M,,0000*69
$GPGSA,M,3,16,22,06,30,03,,,,,,,,8.4,2.8,7.9*37
$GPRMC,204142.999,A,1400.8260,S,07312.1119,W,26.13,57.34,200411,,,A*6A
$GPGGA,204143.998,1400.8225,S,07312.1058,W,1,05,2.8,2302.6,M,25.8,M,,0000*6D
$GPGSA,M,3,16,22,06,30,03,,,,,,,,8.4,2.8,7.9*37
$GPRMC,204143.998,A,1400.8225,S,07312.1058,W,24.79,59.97,200411,,,A*66
$GPGGA,204145.003,1400.8191,S,07312.0992,W,1,05,2.8,2299.9,M,25.8,M,,0000*6E
$GPGSA,M,3,16,22,06,30,03,,,,,,,,8.4,2.8,7.9*37
$GPRMC,204145.003,A,1400.8191,S,07312.0992,W,26.75,63.13,200411,,,A*62
$GPGGA,204145.998,1400.8159,S,07312.0916,W,1,05,2.8,2300.0,M,25.8,M,,0000*65
$GPGSA,M,3,16,22,06,30,03,,,,,,,,8.4,2.8,7.9*37
$GPGSV,3,1,12,16,65,298,36,22,61,147,28,06,54,177,38,30,53,341,26*7F
$GPGSV,3,2,12,03,45,197,37,14,30,052,,18,26,143,,19,19,213,29*73
$GPGSV,3,3,12,32,13,323,,31,06,003,,21,04,120,,24,03,274,*7C
$GPRMC,204145.998,A,1400.8159,S,07312.0916,W,27.03,66.73,200411,,,A*62
$GPGGA,204146.999,1400.8128,S,07312.0842,W,1,05,2.8,2301.1,M,25.8,M,,0000*61
$GPGSA,M,3,16,22,06,30,03,,,,,,,,8.4,2.8,7.9*37
$GPRMC,204146.999,A,1400.8128,S,07312.0842,W,26.64,66.02,200411,,,A*60
$GPGGA,204147.999,1400.8097,S,07312.0768,W,1,04,3.0,2301.6,M,25.8,M,,0000*6D
$GPGSA,M,3,16,22,06,03,,,,,,,,,3.1,3.0,1.0*3C
$GPRMC,204147.999,A,1400.8097,S,07312.0768,W,27.36,65.21,200411,,,A*67
$GPGGA,204148.999,1400.8071,S,07312.0692,W,1,05,2.8,2303.2,M,25.8,M,,0000*60
$GPGSA,M,3,16,22,06,30,03,,,,,,,,8.4,2.8,7.9*37
$GPRMC,204148.999,A,1400.8071,S,07312.0692,W,27.26,69.29,200411,,,A*61
$GPGGA,204149.999,1400.8049,S,07312.0618,W,1,05,2.8,2301.9,M,25.8,M,,0000*61
$GPGSA,M,3,16,22,06,30,03,,,,,,,,8.4,2.8,7.9*37
$GPRMC,204149.999,A,1400.8049,S,07312.0618,W,27.26,70.92,200411,,,A*61
$GPGGA,204150.999,1400.8028,S,07312.0540,W,1,05,2.8,2304.3,M,25.8,M,,0000*6F
$GPGSA,M,3,16,22,06,30,03,,,,,,,,8.4,2.8,7.9*37
$GPGSV,3,1,12,16,65,298,29,22,61,147,30,06,54,177,37,30,53,341,24*75
$GPGSV,3,2,12,03,45,197,41,14,30,052,,18,26,143,,19,19,213,30*7A
$GPGSV,3,3,12,32,13,323,,31,06,003,,21,04,120,,24,03,274,*7C
$GPRMC,204150.999,A,1400.8028,S,07312.0540,W,25.89,75.13,200411,,,A*6B
$GPGGA,204151.999,1400.8007,S,07312.0460,W,1,05,2.8,2305.7,M,25.8,M,,0000*65
$GPGSA,M,3,16,22,06,30,03,,,,,,,,8.4,2.8,7.9*37
$GPRMC,204151.999,A,1400.8007,S,07312.0460,W,26.94,76.73,200411,,,A*6E
$GPGGA,204152.999,1400.7990,S,07312.0380,W,1,05,2.8,2308.6,M,25.8,M,,0000*6B
$GPGSA,M,3,16,22,06,30,03,,,,,,,,8.4,2.8,7.9*37
$GPRMC,204152.999,A,1400.7990,S,07312.0380,W,27.14,80.75,200411,,,A*6A
$GPGGA,204153.999,1400.7978,S,07312.0304,W,1,05,2.8,2308.9,M,25.8,M,,0000*6F
$GPGSA,M,3,16,22,06,30,03,,,,,,,,8.4,2.8,7.9*37
$GPRMC,204153.999,A,1400.7978,S,07312.0304,W,26.07,84.45,200411,,,A*65
$GPGGA,204154.999,1400.7973,S,07312.0227,W,1,05,2.8,2308.3,M,25.8,M,,0000*69
$GPGSA,M,3,16,22,06,30,03,,,,,,,,8.4,2.8,7.9*37
$GPRMC,204154.999,A,1400.7973,S,07312.0227,W,26.72,86.74,200411,,,A*6B
$GPGGA,204155.999,1400.7969,S,07312.0141,W,1,05,2.8,2312.1,M,25.8,M,,0000*69
$GPGSA,M,3,16,22,06,30,03,,,,,,,,8.4,2.8,7.9*37
$GPGSV,3,1,12,16,65,298,33,22,61,147,37,06,54,177,30,30,53,341,40*7C
$GPGSV,3,2,12,03,45,197,37,14,30,052,,18,26,143,,19,19,213,37*7C
$GPGSV,3,3,12,32,13,323,,31,06,003,,21,04,120,,24,03,274,*7C
$GPRMC,204155.999,A,1400.7969,S,07312.0141,W,26.55,91.06,200411,,,A*64
$GPGGA,204156.999,1400.7975,S,07312.0062,W,1,05,2.8,2312.9,M,25.8,M,,0000*6F
$GPGSA,M,3,16,22,06,30,03,,,,,,,,8.4,2.8,7.9*37
$GPRMC,204156.999,A,1400.7975,S,07312.0062,W,26.68,95.47,200411,,,A*65
$GPGGA,204157.999,1400.7989,S,07311.9987,W,1,05,2.8,2312.1,M,25.8,M,,0000*6D
$GPGSA,M,3,16,22,06,30,03,,,,,,,,8.4,2.8,7.9*37
$GPRMC,204157.999,A,1400.7989,S,07311.9987,W,26.36,99.15,200411,,,A*6F
$GPGGA,204158.999,1400.8008,S,07311.9918,W,1,05,2.8,2311.3,M,25.8,M,,0000*6A
$GPGSA,M,3,16,22,06,30,03,,,,,,,,8.4,2.8,7.9*37
$GPRMC,204158.999,A,1400.8008,S,07311.9918,W,26.64,103.30,200411,,,A*5B
$GPGGA,204159.999,1400.8031,S,07311.9852,W,1,05,2.8,2308.1,M,25.8,M,,0000*64
$GPGSA,M,3,16,22,06,30,03,,,,,,,,8.4,2.8,7.9*37
$GPRMC,204159.999,A,1400.8031,S,07311.9852,W,26.26,106.71,200411,,,A*59
$GPGGA,204200.999,1400.8053,S,07311.9771,W,1,05,2.8,2310.4,M,25.8,M,,0000*6D
$GPGSA,M,3,16,22,06,30,03,,,,,,,,8.4,2.8,7.9*37
$GPGSV,3,1,12,16,65,298,36,22,61,147,36,06,54,177,36,30,53,341,37*7E
$GPGSV,3,2,12,03,45,197,31,14,30,052,,18,26,143,,19,19,213,30*7D
$GPGSV,3,3,12,32,13,323,,31,06,003,,21,04,120,,24,03,274,*7C
$GPRMC,204200.999,A,1400.8053,S,07311.9771,W,27.85,107.26,200411,,,A*57
$GPGGA,204202.002,1400.8082,S,07311.9693,W,1,05,2.8,2307.2,M,25.8,M,,0000*65
$GPGSA,M,3,16,22,06,30,03,,,,,,,,8.4,2.8,7.9*37
$GPRMC,204202.002,A,1400.8082,S,07311.9693,W,28.04,108.77,200411,,,A*52
$GPGGA,204202.999,1400.8115,S,07311.9618,W,1,05,2.8,2305.9,M,25.8,M,,0000*6B
$GPGSA,M,3,16,22,06,30,03,,,,,,,,8.4,2.8,7.9*37
$GPRMC,204202.999,A,1400.8115,S,07311.9618,W,27.39,109.66,200411,,,A*55
$GPGGA,204203.998,1400.8143,S,07311.9544,W,1,04,2.9,2304.8,M,25.8,M,,0000*62
$GPGSA,M,3,16,22,30,03,,,,,,,,,8.5,2.9,7.9*31
$GPRMC,204203.998,A,1400.8143,S,07311.9544,W,26.61,107.87,200411,,,A*51
$GPGGA,204205.001,1400.8167,S,07311.9465,W,1,05,2.8,2303.5,M,25.8,M,,0000*63
$GPGSA,M,3,16,22,06,30,03,,,,,,,,8.4,2.8,7.9*37
$GPRMC,204205.001,A,1400.8167,S,07311.9465,W,26.97,104.97,200411,,,A*51
$GPGGA,204206.000,1400.8183,S,07311.9389,W,1,05,2.8,2301.1,M,25.8,M,,0000*68
$GPGSA,M,3,16,22,06,30,03,,,,,,,,8.4,2.8,7.9*37
$GPGSV,3,1,12,16,65,298,36,22,61,147,33,06,54,177,36,30,53,341,41*7A
$GPGSV,3,2,12,03,45,197,31,14,30,052,,18,26,143,,19,19,213,*7E
$GPGSV,3,3,12,32,13,323,,31,06,003,,21,04,120,,24,03,274,*7C
$GPRMC,204206.000,A,1400.8183,S,07311.9389,W,27.14,100.05,200411,,,A*59
$GPGGA,204207.000,1400.8196,S,07311.9306,W,1,04,3.5,2303.4,M,25.8,M,,0000*60
$GPGSA,M,3,16,22,06,30,,,,,,,,,3.7,3.5,1.0*3F
$GPRMC,204207.000,A,1400.8196,S,07311.9306,W,27.82,95.53,200411,,,A*6A
$GPGGA,204207.999,1400.8205,S,07311.9224,W,1,04,3.5,2305.6,M,25.8,M,,0000*65
$GPGSA,M,3,16,22,06,30,,,,,,,,,3.7,3.5,1.0*3F
$GPRMC,204207.999,A,1400.8205,S,07311.9224,W,26.70,95.40,200411,,,A*65
$GPGGA,204208.999,1400.8212,S,07311.9145,W,1,04,3.5,2305.0,M,25.8,M,,0000*6E
$GPGSA,M,3,16,22,06,30,,,,,,,,,3.7,3.5,1.0*3F
$GPRMC,204208.999,A,1400.8212,S,07311.9145,W,26.72,94.86,200411,,,A*61
$GPGGA,204209.998,1400.8219,S,07311.9067,W,1,04,3.5,2305.4,M,25.8,M,,0000*60
$GPGSA,M,3,16,22,06,30,,,,,,,,,3.7,3.5,1.0*3F
$GPRMC,204209.998,A,1400.8219,S,07311.9067,W,27.92,93.46,200411,,,A*6F
$GPGGA,204211.000,1400.8223,S,07311.8989,W,1,04,3.5,2304.7,M,25.8,M,,0000*62
$GPGSA,M,3,16,22,06,30,,,,,,,,,3.7,3.5,1.0*3F
$GPGSV,3,1,12,16,65,298,36,22,61,147,36,06,54,177,33,30,53,341,40*7B
$GPGSV,3,2,12,03,45,197,,14,30,052,,18,26,143,,19,19,213,*7C
$GPGSV,3,3,12,32,13,323,,31,06,003,,21,04,120,,24,03,274,*7C
$GPRMC,204211.000,A,1400.8223,S,07311.8989,W,27.31,92.08,200411,,,A*6D
$GPGGA,204212.000,1400.8229,S,07311.8906,W,1,04,3.5,2305.5,M,25.8,M,,0000*6F
$GPGSA,M,3,16,22,06,30,,,,,,,,,3.7,3.5,1.0*3F
$GPRMC,204212.000,A,1400.8229,S,07311.8906,W,27.86,93.21,200411,,,A*65
$GPGGA,204213.001,1400.8234,S,07311.8836,W,1,04,3.5,2305.4,M,25.8,M,,0000*60
$GPGSA,M,3,16,22,06,30,,,,,,,,,3.7,3.5,1.0*3F
$GPRMC,204213.001,A,1400.8234,S,07311.8836,W,27.78,92.66,200411,,,A*68
$GPGGA,204213.999,1400.8238,S,07311.8762,W,1,04,3.5,2305.3,M,25.8,M,,0000*6D
$GPGSA,M,3,16,22,06,30,,,,,,,,,3.7,3.5,1.0*3F
$GPRMC,204213.999,A,1400.8238,S,07311.8762,W,27.91,91.80,200411,,,A*6E
$GPGGA,204214.999,1400.8239,S,07311.8675,W,1,04,3.5,2304.2,M,25.8,M,,0000*6C
$GPGSA,M,3,16,22,06,30,,,,,,,,,3.7,3.5,1.0*3F
$GPRMC,204214.999,A,1400.8239,S,07311.8675,W,29.42,91.75,200411,,,A*65
$GPGGA,204216.000,1400.8246,S,07311.8604,W,1,04,3.5,2306.5,M,25.8,M,,0000*6C
$GPGSA,M,3,16,22,06,30,,,,,,,,,3.7,3.5,1.0*3F
$GPGSV,3,1,12,16,65,298,36,22,61,147,38,06,54,177,35,30,53,341,41*72
$GPGSV,3,2,12,03,45,197,,14,30,052,,18,26,143,,19,19,213,*7C
$GPGSV,3,3,12,32,13,323,,31,06,003,,21,04,120,,24,03,274,*7C
$GPRMC,204216.000,A,1400.8246,S,07311.8604,W,28.03,93.47,200411,,,A*67
$GPGGA,204217.001,1400.8253,S,07311.8530,W,1,04,3.5,2305.6,M,25.8,M,,0000*6C
$GPGSA,M,3,16,22,06,30,,,,,,,,,3.7,3.5,1.0*3F
$GPRMC,204217.001,A,1400.8253,S,07311.8530,W,26.54,95.27,200411,,,A*6B
$GPGGA,204217.998,1400.8259,S,07311.8453,W,1,04,3.5,2306.1,M,25.8,M,,0000*6F
$GPGSA,M,3,16,22,06,30,,,,,,,,,3.7,3.5,1.0*3F
$GPRMC,204217.998,A,1400.8259,S,07311.8453,W,27.47,94.03,200411,,,A*68
$GPGGA,204219.000,1400.8265,S,07311.8378,W,1,04,3.5,2304.7,M,25.8,M,,0000*6C
$GPGSA,M,3,16,22,06,30,,,,,,,,,3.7,3.5,1.0*3F
$GPRMC,204219.000,A,1400.8265,S,07311.8378,W,26.56,94.01,200411,,,A*6C
$GPGGA,204220.000,1400.8267,S,07311.8304,W,1,04,3.5,2304.3,M,25.8,M,,0000*6B
$GPGSA,M,3,16,22,06,30,,,,,,,,,3.7,3.5,1.0*3F
$GPRMC,204220.000,A,1400.8267,S,07311.8304,W,26.69,93.30,200411,,,A*66
$GPGGA,204221.000,1400.8273,S,07311.8233,W,1,04,3.5,2304.4,M,25.8,M,,0000*6D
$GPGSA,M,3,16,22,06,30,,,,,,,,,3.7,3.5,1.0*3F
$GPGSV,3,1,12,16,65,298,37,22,61,147,37,06,54,177,34,30,53,341,41*7D
$GPGSV,3,2,12,03,45,197,,14,30,052,,18,26,143,,19,19,213,*7C
$GPGSV,3,3,12,32,13,323,,31,06,003,,21,04,120,,24,03,274,*7C
$GPRMC,204221.000,A,1400.8273,S,07311.8233,W,27.65,91.15,200411,,,A*6F
$GPGGA,204222.000,1400.8276,S,07311.8150,W,1,04,3.5,2302.0,M,25.8,M,,0000*6F
$GPGSA,M,3,16,22,06,30,,,,,,,,,3.7,3.5,1.0*3F
$GPRMC,204222.000,A,1400.8276,S,07311.8150,W,27.63,92.76,200411,,,A*6F
$GPGGA,204223.000,1400.8282,S,07311.8072,W,1,04,3.5,2301.0,M,25.8,M,,0000*67
$GPGSA,M,3,16,22,06,30,,,,,,,,,3.7,3.5,1.0*3F
$GPRMC,204223.000,A,1400.8282,S,07311.8072,W,27.69,93.26,200411,,,A*6A
$GPGGA,204224.002,1400.8290,S,07311.7996,W,1,04,3.5,2301.1,M,25.8,M,,0000*6C
$GPGSA,M,3,16,22,06,30,,,,,,,,,3.7,3.5,1.0*3F
$GPRMC,204224.002,A,1400.8290,S,07311.7996,W,27.53,94.82,200411,,,A*60
$GPGGA,204224.998,1400.8293,S,07311.7917,W,1,04,3.5,2299.2,M,25.8,M,,0000*6F
$GPGSA,M,3,16,22,06,30,,,,,,,,,3.7,3.5,1.0*3F
$GPRMC,204224.998,A,1400.8293,S,07311.7917,W,28.23,96.50,200411,,,A*65
$GPGGA,204226.002,1400.8306,S,07311.7835,W,1,04,3.5,2300.0,M,25.8,M,,0000*68
$GPGSA,M,3,16,22,06,30,,,,,,,,,3.7,3.5,1.0*3F
$GPGSV,3,1,12,16,65,298,33,22,61,147,34,06,54,177,28,30,53,341,37*76
$GPGSV,3,2,12,03,45,197,17,14,30,052,,18,26,143,,19,19,213,*7A
$GPGSV,3,3,12,32,13,323,,31,06,003,,21,04,120,,24,03,274,*7C
$GPRMC,204226.002,A,1400.8306,S,07311.7835,W,28.66,99.17,200411,,,A*6C
$GPGGA,204227.000,1400.8327,S,07311.7766,W,1,04,3.5,2299.6,M,25.8,M,,0000*66
$GPGSA,M,3,16,22,06,30,,,,,,,,,3.7,3.5,1.0*3F
$GPRMC,204227.000,A,1400.8327,S,07311.7766,W,28.73,103.94,200411,,,A*58
$GPGGA,204227.998,1400.8349,S,07311.7688,W,1,04,3.6,2298.7,M,25.8,M,,0000*64
$GPGSA,M,3,16,22,06,30,,,,,,,,,3.7,3.6,1.0*3C
$GPRMC,204227.998,A,1400.8349,S,07311.7688,W,29.18,105.23,200411,,,A*5F
$GPGGA,204229.000,1400.8373,S,07311.7613,W,1,04,3.6,2298.4,M,25.8,M,,0000*6A
$GPGSA,M,3,16,22,06,30,,,,,,,,,3.7,3.6,1.0*3C
$GPRMC,204229.000,A,1400.8373,S,07311.7613,W,28.55,106.28,200411,,,A*52
$GPGGA,204230.000,1400.8395,S,07311.7530,W,1,04,3.6,2297.9,M,25.8,M,,0000*6A
$GPGSA,M,3,16,22,06,30,,,,,,,,,3.7,3.6,1.0*3C
$GPRMC,204230.000,A,1400.8395,S,07311.7530,W,27.73,108.13,200411,,,A*5D
$GPGGA,204231.000,1400.8424,S,07311.7457,W,1,04,3.6,2295.9,M,25.8,M,,0000*64
$GPGSA,M,3,16,22,06,30,,,,,,,,,3.7,3.6,1.0*3C
$GPGSV,3,1,12,16,65,298,36,22,61,147,38,06,54,177,31,30,53,341,35*75
$GPGSV,3,2,12,03,45,197,,14,30,052,,18,26,143,,19,19,213,*7C
$GPGSV,3,3,12,32,13,323,,31,06,003,,21,04,120,,24,03,274,*7C
$GPRMC,204231.000,A,1400.8424,S,07311.7457,W,27.62,111.46,200411,,,A*59
$GPGGA,204232.000,1400.8456,S,07311.7391,W,1,04,3.6,2294.9,M,25.8,M,,0000*6E
$GPGSA,M,3,16,22,06,30,,,,,,,,,3.7,3.6,1.0*3C
$GPRMC,204232.000,A,1400.8456,S,07311.7391,W,26.72,113.20,200411,,,A*50
$GPGGA,204233.000,1400.8488,S,07311.7334,W,1,04,3.6,2294.2,M,25.8,M,,0000*68
$GPGSA,M,3,16,22,06,30,,,,,,,,,3.7,3.6,1.0*3C
$GPRMC,204233.000,A,1400.8488,S,07311.7334,W,25.28,114.65,200411,,,A*57
$GPGGA,204234.000,1400.8524,S,07311.7266,W,1,04,3.6,2292.6,M,25.8,M,,0000*6C
$GPGSA,M,3,16,22,06,30,,,,,,,,,3.7,3.6,1.0*3C
$GPRMC,204234.000,A,1400.8524,S,07311.7266,W,25.44,115.50,200411,,,A*5C
$GPGGA,204235.000,1400.8548,S,07311.7206,W,1,04,3.6,2292.2,M,25.8,M,,0000*65
$GPGSA,M,3,16,22,06,30,,,,,,,,,3.7,3.6,1.0*3C
$GPRMC,204235.000,A,1400.8548,S,07311.7206,W,25.51,114.72,200411,,,A*54
$GPGGA,204236.000,1400.8574,S,07311.7137,W,1,04,3.6,2290.9,M,25.8,M,,0000*61
$GPGSA,M,3,16,22,06,30,,,,,,,,,3.7,3.6,1.0*3C
$GPGSV,3,1,12,16,65,298,36,22,61,147,38,06,54,177,37,30,53,341,36*70
$GPGSV,3,2,12,03,45,197,,14,30,052,,18,26,143,,19,19,213,*7C
$GPGSV,3,3,12,32,13,323,,31,06,003,,21,04,120,,24,03,274,*7C
$GPRMC,204236.000,A,1400.8574,S,07311.7137,W,26.44,114.04,200411,,,A*5F
$GPGGA,204237.000,1400.8610,S,07311.7077,W,1,04,3.6,2290.1,M,25.8,M,,0000*6C
$GPGSA,M,3,16,22,06,30,,,,,,,,,3.7,3.6,1.0*3C
$GPRMC,204237.000,A,1400.8610,S,07311.7077,W,25.57,115.09,200411,,,A*57
$GPGGA,204238.000,1400.8641,S,07311.7011,W,1,04,3.6,2289.8,M,25.8,M,,0000*66
$GPGSA,M,3,16,22,06,30,,,,,,,,,3.7,3.6,1.0*3C
$GPRMC,204238.000,A,1400.8641,S,07311.7011,W,25.60,114.22,200411,,,A*50
$GPGGA,204239.001,1400.8671,S,07311.6952,W,1,04,3.6,2288.2,M,25.8,M,,0000*61
$GPGSA,M,3,16,22,06,30,,,,,,,,,3.7,3.6,1.0*3C
$GPRMC,204239.001,A,1400.8671,S,07311.6952,W,25.05,114.22,200411,,,A*5F
$GPGGA,204240.000,1400.8694,S,07311.6871,W,1,05,3.5,2285.8,M,25.8,M,,0000*60
$GPGSA,M,3,16,22,06,30,14,,,,,,,,9.7,3.5,9.0*38
$GPRMC,204240.000,A,1400.8694,S,07311.6871,W,25.56,112.42,200411,,,A*5D
$GPGGA,204241.000,1400.8732,S,07311.6822,W,1,05,3.5,2290.9,M,25.8,M,,0000*6F
$GPGSA,M,3,16,22,06,30,14,,,,,,,,9.7,3.5,9.0*38
$GPGSV,3,1,12,16,65,298,37,22,61,147,35,06,54,177,36,30,53,341,36*7D
$GPGSV,3,2,12,03,45,197,,14,30,052,29,18,26,143,,19,19,213,*77
$GPGSV,3,3,12,32,13,323,,31,06,003,,21,04,120,,24,03,274,*7C
$GPRMC,204241.000,A,1400.8732,S,07311.6822,W,25.27,113.14,200411,,,A*53
$GPGGA,204241.998,1400.8755,S,07311.6753,W,1,04,3.6,2289.5,M,25.8,M,,0000*69
$GPGSA,M,3,16,22,06,30,,,,,,,,,3.7,3.6,1.0*3C
$GPRMC,204241.998,A,1400.8755,S,07311.6753,W,25.29,111.77,200411,,,A*5A
$GPGGA,204243.002,1400.8782,S,07311.6690,W,1,05,3.5,2290.0,M,25.8,M,,0000*6A
$GPGSA,M,3,16,22,06,30,14,,,,,,,,9.7,3.5,9.1*39
$GPRMC,204243.002,A,1400.8782,S,07311.6690,W,23.47,109.06,200411,,,A*57
$GPGGA,204243.998,1400.8803,S,07311.6626,W,1,04,3.6,2290.2,M,25.8,M,,0000*6B
$GPGSA,M,3,16,22,06,30,,,,,,,,,3.7,3.6,1.0*3C
$GPRMC,204243.998,A,1400.8803,S,07311.6626,W,23.04,107.46,200411,,,A*5B
$GPGGA,204245.001,1400.8829,S,07311.6567,W,1,04,3.6,2289.8,M,25.8,M,,0000*68
$GPGSA,M,3,16,22,06,30,,,,,,,,,3.7,3.6,1.0*3C
$GPRMC,204245.001,A,1400.8829,S,07311.6567,W,23.06,107.87,200411,,,A*55
$GPGGA,204246.001,1400.8853,S,07311.6523,W,1,05,3.5,2289.2,M,25.8,M,,0000*6E
$GPGSA,M,3,16,22,06,30,14,,,,,,,,9.7,3.5,9.1*39
$GPGSV,3,1,12,16,65,298,34,22,61,147,36,06,54,177,30,30,53,341,38*75
$GPGSV,3,2,12,03,45,197,,14,30,052,20,18,26,143,,19,19,213,*7E
$GPGSV,3,3,12,32,13,323,,31,06,003,,21,04,120,,24,03,274,*7C
$GPRMC,204246.001,A,1400.8853,S,07311.6523,W,22.32,107.60,200411,,,A*54
$GPGGA,204247.000,1400.8876,S,07311.6466,W,1,05,3.5,2289.4,M,25.8,M,,0000*6F
$GPGSA,M,3,16,22,06,30,14,,,,,,,,9.7,3.5,9.1*39
$GPRMC,204247.000,A,1400.8876,S,07311.6466,W,22.99,107.31,200411,,,A*56
$GPGGA,204247.998,1400.8867,S,07311.6396,W,1,06,1.8,2288.0,M,25.8,M,,0000*66
$GPGSA,M,3,16,22,06,30,03,14,,,,,,,4.9,1.8,4.5*3F
$GPRMC,204247.998,A,1400.8867,S,07311.6396,W,23.23,97.79,200411,,,A*62
$GPGGA,204249.000,1400.8903,S,07311.6297,W,1,06,1.8,2287.8,M,25.8,M,,0000*64
$GPGSA,M,3,16,22,06,30,03,14,,,,,,,4.9,1.8,4.5*3F
$GPRMC,204249.000,A,1400.8903,S,07311.6297,W,26.51,101.78,200411,,,A*58
$GPGGA,204250.000,1400.8881,S,07311.6207,W,1,06,1.8,2290.9,M,25.8,M,,0000*69
$GPGSA,M,3,16,22,06,30,03,14,,,,,,,4.9,1.8,4.5*3F
$GPRMC,204250.000,A,1400.8881,S,07311.6207,W,27.40,93.73,200411,,,A*62
$GPGGA,204251.000,1400.8817,S,07311.6136,W,1,06,1.8,2290.3,M,25.8,M,,0000*6C
$GPGSA,M,3,16,22,06,30,03,14,,,,,,,4.9,1.8,4.5*3F
$GPGSV,3,1,12,16,65,298,37,22,61,147,27,06,54,177,40,30,53,341,36*7F
$GPGSV,3,2,12,03,45,197,36,14,30,052,34,18,26,143,,19,19,213,*7E
$GPGSV,3,3,12,32,13,323,,31,06,003,,21,04,120,,24,03,274,*7C
$GPRMC,204251.000,A,1400.8817,S,07311.6136,W,25.73,79.53,200411,,,A*69
$GPGGA,204252.000,1400.8780,S,07311.6065,W,1,06,1.8,2288.9,M,25.8,M,,0000*6A
$GPGSA,M,3,16,22,06,30,03,14,,,,,,,4.9,1.8,4.5*3F
$GPRMC,204252.000,A,1400.8780,S,07311.6065,W,25.32,74.33,200411,,,A*62
$GPGGA,204252.999,1400.8731,S,07311.6002,W,1,06,1.8,2285.7,M,25.8,M,,0000*6B
$GPGSA,M,3,16,22,06,30,03,14,,,,,,,4.9,1.8,4.5*3F
$GPRMC,204252.999,A,1400.8731,S,07311.6002,W,25.65,67.18,200411,,,A*69
$GPGGA,204253.999,1400.8669,S,07311.5941,W,1,06,1.8,2287.1,M,25.8,M,,0000*6F
$GPGSA,M,3,16,22,06,30,03,14,,,,,,,4.9,1.8,4.5*3F
$GPRMC,204253.999,A,1400.8669,S,07311.5941,W,25.39,60.97,200411,,,A*60
$GPGGA,204255.000,1400.8615,S,07311.5878,W,1,06,1.8,2285.0,M,25.8,M,,0000*63
$GPGSA,M,3,16,22,06,30,03,14,,,,,,,4.9,1.8,4.5*3F
$GPRMC,204255.000,A,1400.8615,S,07311.5878,W,25.44,63.52,200411,,,A*6F
$GPGGA,204256.002,1400.8579,S,07311.5823,W,1,05,2.9,2287.4,M,25.8,M,,0000*62
$GPGSA,M,3,16,06,30,03,14,,,,,,,,8.0,2.9,7.4*3A
$GPGSV,3,1,12,16,65,298,33,22,61,147,,06,54,177,37,30,53,341,29*70
$GPGSV,3,2,12,03,45,197,38,14,30,052,32,18,26,143,,19,19,213,*76
$GPGSV,3,3,12,32,13,323,,31,06,003,,21,04,120,,24,03,274,*7C
$GPRMC,204256.002,A,1400.8579,S,07311.5823,W,24.45,67.00,200411,,,A*6A
$GPGGA,204256.997,1400.8551,S,07311.5751,W,1,06,1.8,2290.4,M,25.8,M,,0000*60
$GPGSA,M,3,16,22,06,30,03,14,,,,,,,4.9,1.8,4.5*3F
$GPRMC,204256.997,A,1400.8551,S,07311.5751,W,24.64,71.64,200411,,,A*69
$GPGGA,204258.000,1400.8517,S,07311.5684,W,1,06,1.8,2293.5,M,25.8,M,,0000*60
$GPGSA,M,3,16,22,06,30,03,14,,,,,,,4.9,1.8,4.5*3F
$GPRMC,204258.000,A,1400.8517,S,07311.5684,W,22.84,72.46,200411,,,A*60
$GPGGA,204259.002,1400.8492,S,07311.5626,W,1,05,2.8,2293.2,M,25.8,M,,0000*60
$GPGSA,M,3,16,22,06,30,03,,,,,,,,8.5,2.8,8.0*30
$GPRMC,204259.002,A,1400.8492,S,07311.5626,W,23.38,72.45,200411,,,A*62
$GPGGA,204259.998,1400.8472,S,07311.5570,W,1,06,1.9,2290.3,M,25.8,M,,0000*67
$GPGSA,M,3,16,22,06,30,03,14,,,,,,,4.9,1.9,4.5*3E
$GPRMC,204259.998,A,1400.8472,S,07311.5570,W,22.49,75.22,200411,,,A*67
$GPGGA,204301.000,1400.8482,S,07311.5504,W,1,06,1.9,2294.9,M,25.8,M,,0000*61
$GPGSA,M,3,16,22,06,30,03,14,,,,,,,4.9,1.9,4.5*3E
$GPGSV,3,1,12,16,65,298,35,22,61,147,36,06,54,177,33,30,53,341,39*76
$GPGSV,3,2,12,03,45,197,41,14,30,052,25,18,26,143,,19,19,213,*7E
$GPGSV,3,3,12,32,13,323,,31,06,003,,21,04,120,,24,03,274,*7C
$GPRMC,204301.000,A,1400.8482,S,07311.5504,W,23.41,81.38,200411,,,A*66
$GPGGA,204302.002,1400.8470,S,07311.5435,W,1,05,2.8,2294.6,M,25.8,M,,0000*60
$GPGSA,M,3,16,22,06,30,03,,,,,,,,8.5,2.8,8.0*30
$GPRMC,204302.002,A,1400.8470,S,07311.5435,W,23.91,84.12,200411,,,A*69
$GPGGA,204302.998,1400.8445,S,07311.5366,W,1,06,1.9,2293.7,M,25.8,M,,0000*6A
$GPGSA,M,3,16,22,06,30,03,14,,,,,,,4.9,1.9,4.5*3E
$GPRMC,204302.998,A,1400.8445,S,07311.5366,W,26.33,81.50,200411,,,A*6A
$GPGGA,204304.002,1400.8428,S,07311.5293,W,1,05,2.1,2297.4,M,25.8,M,,0000*69
$GPGSA,M,3,16,22,06,03,14,,,,,,,,5.0,2.1,4.5*3E
$GPRMC,204304.002,A,1400.8428,S,07311.5293,W,26.21,77.96,200411,,,A*66
$GPGGA,204304.998,1400.8413,S,07311.5223,W,1,06,1.9,2299.7,M,25.8,M,,0000*65
$GPGSA,M,3,16,22,06,30,03,14,,,,,,,4.9,1.9,4.5*3E
$GPRMC,204304.998,A,1400.8413,S,07311.5223,W,26.81,73.68,200411,,,A*60
$GPGGA,204306.000,1400.8394,S,07311.5149,W,1,06,1.9,2301.2,M,25.8,M,,0000*6D
$GPGSA,M,3,16,22,06,30,03,14,,,,,,,4.9,1.9,4.5*3E
$GPGSV,3,1,12,16,65,298,32,22,61,147,32,06,54,177,38,30,53,341,24*72
$GPGSV,3,2,12,03,45,197,38,14,30,052,37,18,26,143,,19,19,213,*73
$GPGSV,3,3,12,32,13,323,,31,06,003,,21,04,120,,24,03,274,*7C
$GPRMC,204306.000,A,1400.8394,S,07311.5149,W,26.81,70.92,200411,,,A*6B
$GPGGA,204307.000,1400.8374,S,07311.5076,W,1,06,1.9,2303.2,M,25.8,M,,0000*6D
$GPGSA,M,3,16,22,06,30,03,14,,,,,,,4.9,1.9,4.5*3E
$GPRMC,204307.000,A,1400.8374,S,07311.5076,W,27.21,67.14,200411,,,A*6A
$GPGGA,204308.000,1400.8359,S,07311.4997,W,1,06,1.9,2304.5,M,25.8,M,,0000*6A
$GPGSA,M,3,16,22,06,30,03,14,,,,,,,4.9,1.9,4.5*3E
$GPRMC,204308.000,A,1400.8359,S,07311.4997,W,27.06,66.12,200411,,,A*6F
$GPGGA,204309.000,1400.8321,S,07311.4914,W,1,06,1.9,2308.7,M,25.8,M,,0000*61
$GPGSA,M,3,16,22,06,30,03,14,,,,,,,4.9,1.9,4.5*3E
$GPRMC,204309.000,A,1400.8321,S,07311.4914,W,27.29,64.95,200411,,,A*6A
$GPGGA,204310.001,1400.8292,S,07311.4839,W,1,06,1.9,2306.0,M,25.8,M,,0000*66
$GPGSA,M,3,16,22,06,30,03,14,,,,,,,4.9,1.9,4.5*3E
$GPRMC,204310.001,A,1400.8292,S,07311.4839,W,27.76,65.30,200411,,,A*60
$GPGGA,204311.000,1400.8260,S,07311.4771,W,1,06,1.9,2306.2,M,25.8,M,,0000*6A
$GPGSA,M,3,16,22,06,30,03,14,,,,,,,4.9,1.9,4.6*3D
$GPGSV,3,1,12,16,65,298,37,22,61,147,30,06,54,177,38,30,53,341,31*71
$GPGSV,3,2,12,03,45,197,37,14,30,052,35,18,26,143,,19,19,213,*7E
$GPGSV,3,3,12,32,13,323,,31,06,003,,21,04,120,,24,03,274,*7C
$GPRMC,204311.000,A,1400.8260,S,07311.4771,W,27.34,65.53,200411,,,A*6D
$GPGGA,204311.999,1400.8223,S,07311.4704,W,1,06,1.9,2306.7,M,25.8,M,,0000*63
$GPGSA,M,3,16,22,06,30,03,14,,,,,,,4.9,1.9,4.6*3D
$GPRMC,204311.999,A,1400.8223,S,07311.4704,W,27.42,64.36,200411,,,A*62
$GPGGA,204312.999,1400.8196,S,07311.4640,W,1,06,1.9,2302.9,M,25.8,M,,0000*66
$GPGSA,M,3,16,22,06,30,03,14,,,,,,,4.9,1.9,4.6*3D
$GPRMC,204312.999,A,1400.8196,S,07311.4640,W,27.02,64.40,200411,,,A*68
$GPGGA,204313.999,1400.8165,S,07311.4575,W,1,06,1.9,2302.6,M,25.8,M,,0000*61
$GPGSA,M,3,16,22,06,30,03,14,,,,,,,4.9,1.9,4.6*3D
$GPRMC,204313.999,A,1400.8165,S,07311.4575,W,26.89,64.97,200411,,,A*68
$GPGGA,204315.000,1400.8140,S,07311.4505,W,1,07,1.8,2305.2,M,25.8,M,,0000*6D
$GPGSA,M,3,16,22,06,30,03,14,18,,,,,,4.0,1.8,3.6*3B
$GPRMC,204315.000,A,1400.8140,S,07311.4505,W,26.60,66.50,200411,,,A*69
$GPGGA,204316.001,1400.8106,S,07311.4435,W,1,07,1.8,2304.2,M,25.8,M,,0000*6E
$GPGSA,M,3,16,22,06,30,03,14,18,,,,,,4.0,1.8,3.6*3B
$GPGSV,3,1,12,16,65,298,37,22,61,147,30,06,54,177,39,30,53,341,30*71
$GPGSV,3,2,12,03,45,197,37,14,30,052,36,18,26,143,38,19,19,213,*76
$GPGSV,3,3,12,32,13,323,,31,06,003,,21,04,120,,24,03,274,*7C
$GPRMC,204316.001,A,1400.8106,S,07311.4435,W,26.64,66.08,200411,,,A*62
$GPGGA,204317.000,1400.8072,S,07311.4364,W,1,07,1.8,2303.3,M,25.8,M,,0000*69
$GPGSA,M,3,16,22,06,30,03,14,18,,,,,,4.0,1.8,3.6*3B
$GPRMC,204317.000,A,1400.8072,S,07311.4364,W,27.24,66.44,200411,,,A*6E
$GPGGA,204317.999,1400.8042,S,07311.4286,W,1,07,1.8,2301.0,M,25.8,M,,0000*6F
$GPGSA,M,3,16,22,06,30,03,14,18,,,,,,4.0,1.8,3.6*3B
$GPRMC,204317.999,A,1400.8042,S,07311.4286,W,28.42,66.42,200411,,,A*60
$GPGGA,204319.000,1400.8010,S,07311.4212,W,1,07,1.8,2300.9,M,25.8,M,,0000*6A
$GPGSA,M,3,16,22,06,30,03,14,18,,,,,,4.0,1.8,3.6*3B
$GPRMC,204319.000,A,1400.8010,S,07311.4212,W,27.24,67.03,200411,,,A*66
$GPGGA,204319.999,1400.7980,S,07311.4140,W,1,07,1.8,2302.2,M,25.8,M,,0000*61
$GPGSA,M,3,16,22,06,30,03,14,18,,,,,,4.0,1.8,3.6*3B
$GPRMC,204319.999,A,1400.7980,S,07311.4140,W,27.28,67.32,200411,,,A*6A
$GPGGA,204320.998,1400.7950,S,07311.4065,W,1,06,2.8,2302.1,M,25.8,M,,0000*60
$GPGSA,M,3,16,06,30,03,14,18,,,,,,,6.9,2.8,6.3*33
$GPGSV,3,1,12,16,65,298,37,22,61,147,,06,54,177,39,30,53,341,27*74
$GPGSV,3,2,12,03,45,197,38,14,30,052,35,18,26,143,38,19,19,213,*7A
$GPGSV,3,3,12,32,13,323,,31,06,003,,21,04,120,,24,03,274,*7C
$GPRMC,204320.998,A,1400.7950,S,07311.4065,W,27.64,67.87,200411,,,A*6C
$GPGGA,204322.000,1400.7917,S,07311.3987,W,1,06,2.8,2303.1,M,25.8,M,,0000*6A
$GPGSA,M,3,16,06,30,03,14,18,,,,,,,6.9,2.8,6.3*33
$GPRMC,204322.000,A,1400.7917,S,07311.3987,W,27.33,69.07,200411,,,A*63
$GPGGA,204323.000,1400.7888,S,07311.3920,W,1,06,2.8,2301.5,M,25.8,M,,0000*67
$GPGSA,M,3,16,06,30,03,14,18,,,,,,,6.9,2.8,6.3*33
$GPRMC,204323.000,A,1400.7888,S,07311.3920,W,26.82,72.14,200411,,,A*6B
$GPGGA,204324.000,1400.7867,S,07311.3850,W,1,06,2.8,2299.7,M,25.8,M,,0000*65
$GPGSA,M,3,16,06,30,03,14,18,,,,,,,6.9,2.8,6.3*33
$GPRMC,204324.000,A,1400.7867,S,07311.3850,W,27.28,73.18,200411,,,A*67
$GPGGA,204325.002,1400.7848,S,07311.3769,W,1,05,3.2,2298.9,M,25.8,M,,0000*69
$GPGSA,M,3,16,06,03,14,18,,,,,,,,7.4,3.2,6.7*33
$GPRMC,204325.002,A,1400.7848,S,07311.3769,W,26.99,76.90,200411,,,A*62
$GPGGA,204325.999,1400.7831,S,07311.3691,W,1,04,4.8,2300.1,M,25.8,M,,0000*6E
$GPGSA,M,3,22,06,03,18,,,,,,,,,4.9,4.8,1.0*32
$GPGSV,3,1,12,16,65,298,,22,61,147,30,06,54,177,36,30,53,341,*79
$GPGSV,3,2,12,03,45,197,41,14,30,052,,18,26,143,39,19,19,213,*73
$GPGSV,3,3,12,32,13,323,,31,06,003,,21,04,120,,24,03,274,*7C
$GPRMC,204325.999,A,1400.7831,S,07311.3691,W,27.52,78.13,200411,,,A*62
$GPGGA,204326.998,1400.7819,S,07311.3616,W,1,06,2.3,2298.1,M,25.8,M,,0000*66
$GPGSA,M,3,16,22,06,30,03,18,,,,,,,4.3,2.3,3.6*35
$GPRMC,204326.998,A,1400.7819,S,07311.3616,W,27.72,80.93,200411,,,A*68
$GPGGA,204328.000,1400.7806,S,07311.3534,W,1,06,2.3,2300.6,M,25.8,M,,0000*6A
$GPGSA,M,3,16,22,06,30,03,18,,,,,,,4.3,2.3,3.6*35
$GPRMC,204328.000,A,1400.7806,S,07311.3534,W,27.20,81.04,200411,,,A*6B
$GPGGA,204329.000,1400.7794,S,07311.3460,W,1,06,2.3,2300.2,M,25.8,M,,0000*6B
$GPGSA,M,3,16,22,06,30,03,18,,,,,,,4.3,2.3,3.6*35
$GPRMC,204329.000,A,1400.7794,S,07311.3460,W,27.65,83.81,200411,,,A*60
$GPGGA,204330.000,1400.7785,S,07311.3388,W,1,06,2.3,2297.6,M,25.8,M,,0000*69
$GPGSA,M,3,16,22,06,30,03,18,,,,,,,4.3,2.3,3.6*35
$GPRMC,204330.000,A,1400.7785,S,07311.3388,W,27.03,85.44,200411,,,A*66
$GPGGA,204331.000,1400.7779,S,07311.3309,W,1,06,2.3,2296.0,M,25.8,M,,0000*65
$GPGSA,M,3,16,22,06,30,03,18,,,,,,,4.3,2.3,3.6*35
$GPGSV,3,1,12,16,65,298,30,22,61,147,36,06,54,177,35,30,53,341,37*7B
$GPGSV,3,2,12,03,45,197,40,14,30,052,,18,26,143,39,19,19,213,*72
$GPGSV,3,3,12,32,13,323,,31,06,003,,21,04,120,,24,03,274,*7C
$GPRMC,204331.000,A,1400.7779,S,07311.3309,W,26.96,84.95,200411,,,A*6D
$GPGGA,204332.000,1400.7771,S,07311.3227,W,1,06,2.3,2298.3,M,25.8,M,,0000*6E
$GPGSA,M,3,16,22,06,30,03,18,,,,,,,4.3,2.3,3.6*35
$GPRMC,204332.000,A,1400.7771,S,07311.3227,W,27.07,85.14,200411,,,A*6A
$GPGGA,204333.000,1400.7762,S,07311.3149,W,1,06,2.3,2298.1,M,25.8,M,,0000*64
$GPGSA,M,3,16,22,06,30,03,18,,,,,,,4.3,2.3,3.6*35
$GPRMC,204333.000,A,1400.7762,S,07311.3149,W,25.99,85.93,200411,,,A*68
$GPGGA,204334.000,1400.7749,S,07311.3074,W,1,06,2.3,2298.7,M,25.8,M,,0000*63
$GPGSA,M,3,16,22,06,30,03,18,,,,,,,4.3,2.3,3.6*35
$GPRMC,204334.000,A,1400.7749,S,07311.3074,W,27.58,84.48,200411,,,A*61
$GPGGA,204335.000,1400.7745,S,07311.2995,W,1,06,2.3,2299.5,M,25.8,M,,0000*6A
$GPGSA,M,3,16,22,06,30,03,18,,,,,,,4.3,2.3,3.6*35
$GPRMC,204335.000,A,1400.7745,S,07311.2995,W,26.14,86.26,200411,,,A*68
$GPGGA,204336.000,1400.7741,S,07311.2916,W,1,06,2.3,2299.7,M,25.8,M,,0000*64
$GPGSA,M,3,16,22,06,30,03,18,,,,,,,4.3,2.3,3.6*35
$GPGSV,3,1,12,16,65,298,31,22,61,147,35,06,54,177,36,30,53,341,36*7B
$GPGSV,3,2,12,03,45,197,40,14,30,052,,18,26,143,37,19,19,213,*7C
$GPGSV,3,3,12,32,13,323,,31,06,003,,21,04,120,,24,03,274,*7C
$GPRMC,204336.000,A,1400.7741,S,07311.2916,W,26.50,84.87,200411,,,A*6D
$GPGGA,204337.000,1400.7734,S,07311.2839,W,1,06,2.3,2301.1,M,25.8,M,,0000*6D
$GPGSA,M,3,16,22,06,30,03,18,,,,,,,4.3,2.3,3.6*35
$GPRMC,204337.000,A,1400.7734,S,07311.2839,W,25.73,85.13,200411,,,A*6C
$GPGGA,204338.003,1400.7727,S,07311.2764,W,1,05,2.4,2300.5,M,25.8,M,,0000*65
$GPGSA,M,3,22,06,30,03,18,,,,,,,,4.3,2.4,3.6*35
$GPRMC,204338.003,A,1400.7727,S,07311.2764,W,25.81,82.72,200411,,,A*68
$GPGGA,204338.999,1400.7715,S,07311.2685,W,1,07,1.8,2301.8,M,25.8,M,,0000*61
$GPGSA,M,3,16,22,06,30,03,14,18,,,,,,4.0,1.8,3.6*3B
$GPRMC,204338.999,A,1400.7715,S,07311.2685,W,26.40,78.64,200411,,,A*61
$GPGGA,204339.999,1400.7701,S,07311.2605,W,1,07,1.8,2305.2,M,25.8,M,,0000*63
$GPGSA,M,3,16,22,06,30,03,14,18,,,,,,4.0,1.8,3.6*3B
$GPRMC,204339.999,A,1400.7701,S,07311.2605,W,27.26,76.80,200411,,,A*68
$GPGGA,204340.999,1400.7683,S,07311.2535,W,1,07,1.8,2303.7,M,25.8,M,,0000*65
$GPGSA,M,3,16,22,06,30,03,14,18,,,,,,4.0,1.8,3.6*3B
$GPGSV,3,1,12,16,65,298,30,22,61,147,33,06,54,177,37,30,53,341,31*7A
$GPGSV,3,2,12,03,45,197,39,14,30,052,36,18,26,143,31,19,19,213,*71
$GPGSV,3,3,12,32,13,323,,31,06,003,,21,04,120,,24,03,274,*7C
$GPRMC,204340.999,A,1400.7683,S,07311.2535,W,27.67,73.03,200411,,,A*66
$GPGGA,204341.999,1400.7655,S,07311.2456,W,1,07,1.8,2305.5,M,25.8,M,,0000*6F
$GPGSA,M,3,16,22,06,30,03,14,18,,,,,,4.0,1.8,3.6*3B
$GPRMC,204341.999,A,1400.7655,S,07311.2456,W,27.12,70.07,200411,,,A*6D
$GPGGA,204342.997,1400.7625,S,07311.2392,W,1,06,2.0,2302.1,M,25.8,M,,0000*63
$GPGSA,M,3,16,22,06,03,14,18,,,,,,,4.1,2.0,3.6*32
$GPRMC,204342.997,A,1400.7625,S,07311.2392,W,27.02,67.80,200411,,,A*60
$GPGGA,204344.002,1400.7597,S,07311.2330,W,1,07,1.8,2298.7,M,25.8,M,,0000*6C
$GPGSA,M,3,16,22,06,30,03,14,18,,,,,,4.0,1.8,3.6*3B
$GPRMC,204344.002,A,1400.7597,S,07311.2330,W,25.75,66.94,200411,,,A*67
$GPGGA,204345.000,1400.7564,S,07311.2274,W,1,07,1.8,2298.3,M,25.8,M,,0000*66
$GPGSA,M,3,16,22,06,30,03,14,18,,,,,,4.0,1.8,3.6*3B
$GPRMC,204345.000,A,1400.7564,S,07311.2274,W,26.10,64.84,200411,,,A*6A
$GPGGA,204345.999,1400.7516,S,07311.2219,W,1,07,1.8,2298.3,M,25.8,M,,0000*61
$GPGSA,M,3,16,22,06,30,03,14,18,,,,,,4.0,1.8,3.6*3B
$GPGSV,3,1,12,16,65,298,37,22,61,147,37,06,54,177,38,30,53,341,41*71
$GPGSV,3,2,12,03,45,197,35,14,30,052,37,18,26,143,38,19,19,213,*75
$GPGSV,3,3,12,32,13,323,,31,06,003,,21,04,120,,24,03,274,*7C
$GPRMC,204345.999,A,1400.7516,S,07311.2219,W,26.14,57.69,200411,,,A*6A
$GPGGA,204346.999,1400.7470,S,07311.2154,W,1,07,1.8,2295.6,M,25.8,M,,0000*61
$GPGSA,M,3,16,22,06,30,03,14,18,,,,,,4.0,1.8,3.6*3B
$GPRMC,204346.999,A,1400.7470,S,07311.2154,W,27.92,52.50,200411,,,A*62
$GPGGA,204347.999,1400.7417,S,07311.2094,W,1,07,1.8,2299.0,M,25.8,M,,0000*66
$GPGSA,M,3,16,22,06,30,03,14,18,,,,,,4.0,1.8,3.6*3B
$GPRMC,204347.999,A,1400.7417,S,07311.2094,W,27.26,46.29,200411,,,A*6B
$GPGGA,204348.999,1400.7367,S,07311.2038,W,1,07,1.8,2298.7,M,25.8,M,,0000*69
$GPGSA,M,3,16,22,06,30,03,14,18,,,,,,4.0,1.8,3.6*3B
$GPRMC,204348.999,A,1400.7367,S,07311.2038,W,26.92,45.74,200411,,,A*67
$GPGGA,204350.000,1400.7307,S,07311.1993,W,1,07,1.8,2297.9,M,25.8,M,,0000*65
$GPGSA,M,3,16,22,06,30,03,14,18,,,,,,4.0,1.8,3.6*3B
$GPRMC,204350.000,A,1400.7307,S,07311.1993,W,27.24,47.80,200411,,,A*6F
$GPGGA,204350.997,1400.7257,S,07311.1936,W,1,07,1.8,2297.4,M,25.8,M,,0000*64
$GPGSA,M,3,16,22,06,30,03,14,18,,,,,,4.0,1.8,3.6*3B
$GPGSV,3,1,12,16,65,298,36,22,61,147,32,06,54,177,38,30,53,341,39*7A
$GPGSV,3,2,12,03,45,197,32,14,30,052,36,18,26,143,27,19,19,213,*7D
$GPGSV,3,3,12,32,13,323,,31,06,003,,21,04,120,21,24,03,274,*7F
$GPRMC,204350.997,A,1400.7257,S,07311.1936,W,27.00,49.33,200411,,,A*63
$GPGGA,204352.002,1400.7207,S,07311.1877,W,1,07,1.8,2294.8,M,25.8,M,,0000*6D
$GPGSA,M,3,16,22,06,30,03,14,18,,,,,,4.0,1.8,3.6*3B
$GPRMC,204352.002,A,1400.7207,S,07311.1877,W,27.21,50.12,200411,,,A*6D
$GPGGA,204353.000,1400.7151,S,07311.1824,W,1,07,1.8,2293.8,M,25.8,M,,0000*6F
$GPGSA,M,3,16,22,06,30,03,14,18,,,,,,4.0,1.8,3.6*3B
$GPRMC,204353.000,A,1400.7151,S,07311.1824,W,27.13,52.76,200411,,,A*69
$GPGGA,204354.000,1400.7100,S,07311.1761,W,1,07,1.8,2293.9,M,25.8,M,,0000*63
$GPGSA,M,3,16,22,06,30,03,14,18,,,,,,4.0,1.8,3.6*3B
$GPRMC,204354.000,A,1400.7100,S,07311.1761,W,27.45,53.46,200411,,,A*65
$GPGGA,204355.000,1400.7051,S,07311.1698,W,1,07,1.8,2293.2,M,25.8,M,,0000*6B
$GPGSA,M,3,16,22,06,30,03,14,18,,,,,,4.0,1.8,3.6*3B
$GPRMC,204355.000,A,1400.7051,S,07311.1698,W,27.15,55.63,200411,,,A*62
$GPGGA,204356.000,1400.7001,S,07311.1641,W,1,07,1.8,2292.7,M,25.8,M,,0000*6D
$GPGSA,M,3,16,22,06,30,03,14,18,,,,,,4.0,1.8,3.6*3B
$GPGSV,3,1,12,16,65,298,36,22,61,147,31,06,54,177,39,30,53,341,36*77
$GPGSV,3,2,12,03,45,197,32,14,30,052,34,18,26,143,36,19,19,213,*7F
$GPGSV,3,3,12,32,13,323,,31,06,003,,21,04,120,,24,03,274,*7C
$GPRMC,204356.000,A,1400.7001,S,07311.1641,W,27.48,54.93,200411,,,A*66
$GPGGA,204357.000,1400.6950,S,07311.1576,W,1,07,1.8,2292.1,M,25.8,M,,0000*61
$GPGSA,M,3,16,22,06,30,03,14,18,,,,,,4.0,1.8,3.6*3B
$GPRMC,204357.000,A,1400.6950,S,07311.1576,W,27.37,56.95,200411,,,A*60
$GPGGA,204358.000,1400.6909,S,07311.1511,W,1,07,1.8,2291.9,M,25.8,M,,0000*68
$GPGSA,M,3,16,22,06,30,03,14,18,,,,,,4.0,1.8,3.6*3B
$GPRMC,204358.000,A,1400.6909,S,07311.1511,W,27.85,56.49,200411,,,A*6A
$GPGGA,204359.000,1400.6868,S,07311.1453,W,1,07,1.8,2290.3,M,25.8,M,,0000*63
$GPGSA,M,3,16,22,06,30,03,14,18,,,,,,4.0,1.8,3.6*3B
$GPRMC,204359.000,A,1400.6868,S,07311.1453,W,27.51,56.01,200411,,,A*6F
$GPGGA,204400.000,1400.6822,S,07311.1386,W,1,07,1.8,2287.8,M,25.8,M,,0000*64
$GPGSA,M,3,16,22,06,30,03,14,18,,,,,,4.0,1.8,3.6*3B
$GPRMC,204400.000,A,1400.6822,S,07311.1386,W,27.65,56.54,200411,,,A*62
$GPGGA,204401.000,1400.6781,S,07311.1312,W,1,07,1.8,2291.3,M,25.8,M,,0000*62
$GPGSA,M,3,16,22,06,30,03,14,18,,,,,,4.0,1.8,3.6*3B
$GPGSV,3,1,12,16,65,298,38,22,61,147,33,06,54,177,39,30,53,341,35*78
$GPGSV,3,2,12,03,45,197,32,14,30,052,33,18,26,143,36,19,19,213,*78
$GPGSV,3,3,12,32,13,323,,31,06,003,,21,04,120,,24,03,274,*7C
$GPRMC,204401.000,A,1400.6781,S,07311.1312,W,27.09,58.96,200411,,,A*62
$GPGGA,204402.000,1400.6739,S,07311.1242,W,1,07,1.8,2290.7,M,25.8,M,,0000*63
$GPGSA,M,3,16,22,06,30,03,14,18,,,,,,4.0,1.8,3.6*3B
$GPRMC,204402.000,A,1400.6739,S,07311.1242,W,27.37,59.85,200411,,,A*68
$GPGGA,204403.000,1400.6702,S,07311.1170,W,1,07,1.8,2292.5,M,25.8,M,,0000*68
$GPGSA,M,3,16,22,06,30,03,14,18,,,,,,4.0,1.8,3.6*3B
$GPRMC,204403.000,A,1400.6702,S,07311.1170,W,27.53,61.77,200411,,,A*67
$GPGGA,204404.000,1400.6665,S,07311.1105,W,1,07,1.8,2291.6,M,25.8,M,,0000*6D
$GPGSA,M,3,16,22,06,30,03,14,18,,,,,,4.0,1.8,3.6*3B
$GPRMC,204404.000,A,1400.6665,S,07311.1105,W,28.15,62.61,200411,,,A*6B
$GPGGA,204405.000,1400.6626,S,07311.1037,W,1,07,1.8,2291.2,M,25.8,M,,0000*6F
$GPGSA,M,3,16,22,06,30,03,14,18,,,,,,4.0,1.8,3.6*3B
$GPRMC,204405.000,A,1400.6626,S,07311.1037,W,27.16,62.87,200411,,,A*69
$GPGGA,204406.000,1400.6587,S,07311.0967,W,1,07,1.8,2290.3,M,25.8,M,,0000*69
$GPGSA,M,3,16,22,06,30,03,14,18,,,,,,4.0,1.8,3.6*3B
$GPGSV,3,1,12,16,65,298,36,22,61,147,28,06,54,177,38,30,53,341,36*7E
$GPGSV,3,2,12,03,45,197,36,14,30,052,29,18,26,143,37,19,19,213,*76
$GPGSV,3,3,12,32,13,323,,31,06,003,,21,04,120,,24,03,274,*7C
$GPRMC,204406.000,A,1400.6587,S,07311.0967,W,28.06,62.25,200411,,,A*69
$GPGGA,204406.998,1400.6555,S,07311.0904,W,1,07,1.8,2288.3,M,25.8,M,,0000*62
$GPGSA,M,3,16,22,06,30,03,14,18,,,,,,4.0,1.8,3.6*3B
$GPRMC,204406.998,A,1400.6555,S,07311.0904,W,27.08,60.27,200411,,,A*6A
$GPGGA,204408.000,1400.6517,S,07311.0837,W,1,07,1.8,2287.3,M,25.8,M,,0000*6C
$GPGSA,M,3,16,22,06,30,03,14,18,,,,,,4.0,1.8,3.6*3B
$GPRMC,204408.000,A,1400.6517,S,07311.0837,W,27.88,57.41,200411,,,A*67
$GPGGA,204409.000,1400.6474,S,07311.0774,W,1,07,1.8,2286.7,M,25.8,M,,0000*64
$GPGSA,M,3,16,22,06,30,03,14,18,,,,,,4.0,1.8,3.6*3B
$GPRMC,204409.000,A,1400.6474,S,07311.0774,W,28.44,56.53,200411,,,A*67
$GPGGA,204410.000,1400.6431,S,07311.0704,W,1,07,1.8,2287.8,M,25.8,M,,0000*64
$GPGSA,M,3,16,22,06,30,03,14,18,,,,,,4.0,1.8,3.6*3B
$GPRMC,204410.000,A,1400.6431,S,07311.0704,W,28.37,56.62,200411,,,A*6F
$GPGGA,204411.000,1400.6387,S,07311.0633,W,1,06,2.0,2286.7,M,25.8,M,,0000*6E
$GPGSA,M,3,16,22,06,03,14,18,,,,,,,4.2,2.0,3.6*31
$GPGSV,3,1,12,16,65,298,36,22,61,147,30,06,54,177,39,30,53,341,*73
$GPGSV,3,2,12,03,45,197,30,14,30,052,34,18,26,143,36,19,19,213,*7D
$GPGSV,3,3,12,32,13,323,,31,06,003,,21,04,120,,24,03,274,*7C
$GPRMC,204411.000,A,1400.6387,S,07311.0633,W,26.98,56.41,200411,,,A*6B
$GPGGA,204412.000,1400.6349,S,07311.0563,W,1,06,2.0,2289.1,M,25.8,M,,0000*60
$GPGSA,M,3,16,22,06,03,14,18,,,,,,,4.2,2.0,3.6*31
$GPRMC,204412.000,A,1400.6349,S,07311.0563,W,27.16,59.88,200411,,,A*61
$GPGGA,204413.000,1400.6311,S,07311.0499,W,1,07,1.8,2288.6,M,25.8,M,,0000*64
$GPGSA,M,3,16,22,06,30,03,14,18,,,,,,4.0,1.8,3.6*3B
$GPRMC,204413.000,A,1400.6311,S,07311.0499,W,27.22,61.22,200411,,,A*65
$GPGGA,204414.002,1400.6274,S,07311.0420,W,1,06,2.8,2291.9,M,25.8,M,,0000*64
$GPGSA,M,3,16,06,30,03,14,18,,,,,,,6.7,2.8,6.1*3F
$GPRMC,204414.002,A,1400.6274,S,07311.0420,W,27.51,66.23,200411,,,A*62
$GPGGA,204414.998,1400.6248,S,07311.0352,W,1,07,1.8,2292.0,M,25.8,M,,0000*6B
$GPGSA,M,3,16,22,06,30,03,14,18,,,,,,4.0,1.8,3.6*3B
$GPRMC,204414.998,A,1400.6248,S,07311.0352,W,25.98,68.43,200411,,,A*6A
$GPGGA,204416.000,1400.6218,S,07311.0290,W,1,07,1.8,2290.4,M,25.8,M,,0000*6D
$GPGSA,M,3,16,22,06,30,03,14,18,,,,,,4.0,1.8,3.6*3B
$GPGSV,3,1,12,16,65,298,36,22,61,147,28,06,54,177,38,30,53,341,28*71
$GPGSV,3,2,12,03,45,197,38,14,30,052,36,18,26,143,36,19,19,213,31*75
$GPGSV,3,3,12,32,13,323,,31,06,003,,21,04,120,,24,03,274,*7C
$GPRMC,204416.000,A,1400.6218,S,07311.0290,W,26.12,67.39,200411,,,A*69
$GPGGA,204417.000,1400.6187,S,07311.0226,W,1,07,1.8,2288.4,M,25.8,M,,0000*6D
$GPGSA,M,3,16,22,06,30,03,14,18,,,,,,4.0,1.8,3.6*3B
$GPRMC,204417.000,A,1400.6187,S,07311.0226,W,25.93,63.02,200411,,,A*66
$GPGGA,204418.000,1400.6152,S,07311.0159,W,1,07,1.8,2288.7,M,25.8,M,,0000*62
$GPGSA,M,3,16,22,06,30,03,14,18,,,,,,4.0,1.8,3.6*3B
$GPRMC,204418.000,A,1400.6152,S,07311.0159,W,25.47,59.98,200411,,,A*69
$GPGGA,204419.000,1400.6115,S,07311.0096,W,1,07,1.8,2289.5,M,25.8,M,,0000*61
$GPGSA,M,3,16,22,06,30,03,14,18,,,,,,4.0,1.8,3.6*3B
$GPRMC,204419.000,A,1400.6115,S,07311.0096,W,24.70,57.00,200411,,,A*63
$GPGGA,204420.000,1400.6069,S,07311.0044,W,1,07,1.8,2288.6,M,25.8,M,,0000*6C
$GPGSA,M,3,16,22,06,30,03,14,18,,,,,,4.0,1.8,3.6*3B
$GPRMC,204420.000,A,1400.6069,S,07311.0044,W,25.74,49.11,200411,,,A*66
$GPGGA,204421.000,1400.6019,S,07310.9992,W,1,07,1.8,2287.3,M,25.8,M,,0000*6A
$GPGSA,M,3,16,22,06,30,03,14,18,,,,,,4.0,1.8,3.6*3B
$GPGSV,3,1,12,16,65,298,35,22,61,147,36,06,54,177,37,30,53,341,40*7C
$GPGSV,3,2,12,03,45,197,30,14,30,052,37,18,26,143,33,19,19,213,27*7E
$GPGSV,3,3,12,32,13,323,,31,06,003,,21,04,120,,24,03,274,*7C
$GPRMC,204421.000,A,1400.6019,S,07310.9992,W,26.58,42.42,200411,,,A*6A
$GPGGA,204422.002,1400.5961,S,07310.9938,W,1,06,2.2,2287.5,M,25.8,M,,0000*60
$GPGSA,M,3,16,22,06,30,14,18,,,,,,,4.6,2.2,4.0*36
$GPRMC,204422.002,A,1400.5961,S,07310.9938,W,27.55,40.91,200411,,,A*6E
$GPGGA,204422.997,1400.5903,S,07310.9890,W,1,07,1.8,2286.4,M,25.8,M,,0000*6A
$GPGSA,M,3,16,22,06,30,03,14,18,,,,,,4.0,1.8,3.6*3B
$GPRMC,204422.997,A,1400.5903,S,07310.9890,W,27.50,43.52,200411,,,A*65
$GPGGA,204424.000,1400.5848,S,07310.9833,W,1,07,1.8,2287.5,M,25.8,M,,0000*6C
