$GPGGA,192930.000,3254.4617,S,07017.8731,W,1,06,1.8,1384.9,M,30.1,M,,0000*61
$GPGSA,M,3,22,06,03,16,18,19,,,,,,,3.6,1.8,3.2*30
$GPRMC,192930.000,A,3254.4617,S,07017.8731,W,26.64,41.82,060511,,,A*63
$GPGGA,192931.000,3254.4549,S,07017.8669,W,1,06,1.8,1384.1,M,30.1,M,,0000*6C
$GPGSA,M,3,22,06,03,16,18,19,,,,,,,3.6,1.8,3.2*30
$GPRMC,192931.000,A,3254.4549,S,07017.8669,W,25.66,41.53,060511,,,A*6B
$GPGGA,192932.000,3254.4470,S,07017.8610,W,1,06,1.8,1384.2,M,30.1,M,,0000*69
$GPGSA,M,3,22,06,03,16,18,19,,,,,,,3.6,1.8,3.2*30
$GPRMC,192932.000,A,3254.4470,S,07017.8610,W,26.98,44.81,060511,,,A*65
$GPGGA,192933.003,3254.4414,S,07017.8545,W,1,06,1.8,1383.9,M,30.1,M,,0000*66
$GPGSA,M,3,22,06,03,16,18,19,,,,,,,3.6,1.8,3.2*30
$GPRMC,192933.003,A,3254.4414,S,07017.8545,W,28.60,47.69,060511,,,A*6A
$GPGGA,192934.003,3254.4363,S,07017.8473,W,1,06,1.8,1384.7,M,30.1,M,,0000*6B
$GPGSA,M,3,22,06,03,16,18,19,,,,,,,3.6,1.8,3.2*30
$GPGSV,3,1,11,22,78,067,38,06,75,192,38,03,62,218,38,16,50,318,34*73
$GPGSV,3,2,11,18,47,128,39,30,34,342,,19,31,225,34,21,18,114,*74
$GPGSV,3,3,11,14,15,037,,15,03,139,,11,02,263,*45
$GPRMC,192934.003,A,3254.4363,S,07017.8473,W,30.15,50.51,060511,,,A*68
$GPGGA,192934.996,3254.4328,S,07017.8393,W,1,06,1.8,1383.5,M,30.1,M,,0000*6D
$GPGSA,M,3,22,06,03,16,18,19,,,,,,,3.6,1.8,3.2*30
$GPRMC,192934.996,A,3254.4328,S,07017.8393,W,28.39,54.35,060511,,,A*6A
$GPGGA,192936.000,3254.4312,S,07017.8308,W,1,06,1.8,1383.9,M,30.1,M,,0000*6E
$GPGSA,M,3,22,06,03,16,18,19,,,,,,,3.6,1.8,3.2*30
$GPRMC,192936.000,A,3254.4312,S,07017.8308,W,27.88,63.49,060511,,,A*6F
$GPGGA,192937.000,3254.4264,S,07017.8223,W,1,06,1.8,1380.4,M,30.1,M,,0000*69
$GPGSA,M,3,22,06,03,16,18,19,,,,,,,3.6,1.8,3.2*30
$GPRMC,192937.000,A,3254.4264,S,07017.8223,W,27.93,62.48,060511,,,A*6C
$GPGGA,192937.998,3254.4252,S,07017.8145,W,1,06,1.8,1381.6,M,30.1,M,,0000*64
$GPGSA,M,3,22,06,03,16,18,19,,,,,,,3.6,1.8,3.2*30
$GPRMC,192937.998,A,3254.4252,S,07017.8145,W,25.28,67.07,060511,,,A*6E
$GPGGA,192938.999,3254.4242,S,07017.8066,W,1,06,1.8,1379.1,M,30.1,M,,0000*6B
$GPGSA,M,3,22,06,03,16,18,19,,,,,,,3.6,1.8,3.2*30
$GPGSV,3,1,11,22,78,067,38,06,75,192,39,03,62,218,39,16,50,318,36*71
$GPGSV,3,2,11,18,47,128,38,30,34,342,,19,31,225,26,21,18,114,*76
$GPGSV,3,3,11,14,15,037,,15,03,139,,11,02,263,*45
$GPRMC,192938.999,A,3254.4242,S,07017.8066,W,24.49,71.19,060511,,,A*6F
$GPGGA,192940.004,3254.4287,S,07017.7965,W,1,05,2.2,1381.9,M,30.1,M,,0000*60
$GPGSA,M,3,22,06,03,16,18,,,,,,,,5.0,2.2,4.5*31
$GPRMC,192940.004,A,3254.4287,S,07017.7965,W,24.73,86.26,060511,,,A*6C
$GPGGA,192940.999,3254.4323,S,07017.7872,W,1,05,2.2,1380.3,M,30.1,M,,0000*6E
$GPGSA,M,3,22,06,03,16,18,,,,,,,,5.0,2.2,4.5*31
$GPRMC,192940.999,A,3254.4323,S,07017.7872,W,26.09,96.42,060511,,,A*65
$GPGGA,192942.000,3254.4368,S,07017.7761,W,1,06,1.8,1381.1,M,30.1,M,,0000*6E
$GPGSA,M,3,22,06,03,16,18,19,,,,,,,3.6,1.8,3.2*30
$GPRMC,192942.000,A,3254.4368,S,07017.7761,W,27.53,101.72,060511,,,A*5E
$GPGGA,192942.999,3254.4404,S,07017.7657,W,1,06,1.8,1374.8,M,30.1,M,,0000*6D
$GPGSA,M,3,22,06,03,16,18,19,,,,,,,3.6,1.8,3.2*30
$GPRMC,192942.999,A,3254.4404,S,07017.7657,W,28.45,100.00,060511,,,A*52
$GPGGA,192943.999,3254.4441,S,07017.7566,W,1,06,1.8,1376.2,M,30.1,M,,0000*64
$GPGSA,M,3,22,06,03,16,18,19,,,,,,,3.6,1.8,3.2*30
$GPGSV,3,1,11,22,78,067,36,06,75,192,39,03,62,218,40,16,50,318,36*71
$GPGSV,3,2,11,18,47,128,33,30,34,342,,19,31,225,27,21,18,114,*7C
$GPGSV,3,3,11,14,15,037,,15,03,139,,11,02,263,*45
$GPRMC,192943.999,A,3254.4441,S,07017.7566,W,28.39,102.52,060511,,,A*5D
$GPGGA,192945.001,3254.4473,S,07017.7462,W,1,05,2.2,1374.9,M,30.1,M,,0000*6D
$GPGSA,M,3,22,06,03,16,18,,,,,,,,5.0,2.2,4.5*31
$GPRMC,192945.001,A,3254.4473,S,07017.7462,W,27.75,103.10,060511,,,A*57
$GPGGA,192946.004,3254.4487,S,07017.7368,W,1,05,2.2,1373.6,M,30.1,M,,0000*65
$GPGSA,M,3,22,06,03,16,18,,,,,,,,5.0,2.2,4.5*31
$GPRMC,192946.004,A,3254.4487,S,07017.7368,W,27.62,100.97,060511,,,A*5D
$GPGGA,192946.992,3254.4499,S,07017.7270,W,1,06,1.8,1369.7,M,30.1,M,,0000*64
$GPGSA,M,3,22,06,03,16,18,19,,,,,,,3.6,1.8,3.2*30
$GPRMC,192946.992,A,3254.4499,S,07017.7270,W,27.36,98.65,060511,,,A*60
$GPGGA,192948.001,3254.4510,S,07017.7175,W,1,06,1.8,1372.2,M,30.1,M,,0000*60
$GPGSA,M,3,22,06,03,16,18,19,,,,,,,3.6,1.8,3.2*30
$GPRMC,192948.001,A,3254.4510,S,07017.7175,W,27.30,94.59,060511,,,A*6E
$GPGGA,192949.002,3254.4509,S,07017.7089,W,1,05,2.2,1370.9,M,30.1,M,,0000*6B
$GPGSA,M,3,22,06,03,16,18,,,,,,,,5.0,2.2,4.5*31
$GPGSV,3,1,11,22,78,067,38,06,75,192,38,03,62,218,40,16,50,318,35*7D
$GPGSV,3,2,11,18,47,128,29,30,34,342,,19,31,225,,21,18,114,*72
$GPGSV,3,3,11,14,15,037,,15,03,139,,11,02,263,*45
$GPRMC,192949.002,A,3254.4509,S,07017.7089,W,27.05,93.64,060511,,,A*69
$GPGGA,192950.002,3254.4517,S,07017.7001,W,1,05,2.2,1370.1,M,30.1,M,,0000*64
$GPGSA,M,3,22,06,03,16,18,,,,,,,,5.0,2.2,4.5*31
$GPRMC,192950.002,A,3254.4517,S,07017.7001,W,27.19,90.88,060511,,,A*62
$GPGGA,192950.996,3254.4520,S,07017.6914,W,1,06,1.8,1365.9,M,30.1,M,,0000*6E
$GPGSA,M,3,22,06,03,16,18,19,,,,,,,3.6,1.8,3.2*30
$GPRMC,192950.996,A,3254.4520,S,07017.6914,W,27.39,85.77,060511,,,A*68
$GPGGA,192952.002,3254.4514,S,07017.6830,W,1,05,2.2,1365.4,M,30.1,M,,0000*6F
$GPGSA,M,3,22,06,03,16,18,,,,,,,,5.0,2.2,4.5*31
$GPRMC,192952.002,A,3254.4514,S,07017.6830,W,27.80,85.58,060511,,,A*61
$GPGGA,192953.007,3254.4498,S,07017.6742,W,1,05,2.2,1364.5,M,30.1,M,,0000*64
$GPGSA,M,3,22,06,03,16,18,,,,,,,,5.0,2.2,4.5*31
$GPRMC,192953.007,A,3254.4498,S,07017.6742,W,27.21,81.31,060511,,,A*6A
$GPGGA,192953.988,3254.4480,S,07017.6668,W,1,06,1.8,1365.6,M,30.1,M,,0000*62
$GPGSA,M,3,22,06,03,16,18,19,,,,,,,3.6,1.8,3.2*30
$GPGSV,3,1,11,22,78,067,40,06,75,192,39,03,62,218,38,16,50,318,33*7A
$GPGSV,3,2,11,18,47,128,37,30,34,342,,19,31,225,33,21,18,114,*7D
$GPGSV,3,3,11,14,15,037,,15,03,139,,11,02,263,*45
$GPRMC,192953.988,A,3254.4480,S,07017.6668,W,26.90,77.17,060511,,,A*62
$GPGGA,192955.003,3254.4462,S,07017.6585,W,1,06,1.8,1370.6,M,30.1,M,,0000*66
$GPGSA,M,3,22,06,03,16,18,19,,,,,,,3.6,1.8,3.2*30
$GPRMC,192955.003,A,3254.4462,S,07017.6585,W,28.08,73.96,060511,,,A*60
$GPGGA,192955.997,3254.4440,S,07017.6504,W,1,06,1.8,1371.3,M,30.1,M,,0000*6F
$GPGSA,M,3,22,06,03,16,18,19,,,,,,,3.6,1.8,3.2*30
$GPRMC,192955.997,A,3254.4440,S,07017.6504,W,25.80,71.38,060511,,,A*66
$GPGGA,192957.003,3254.4416,S,07017.6424,W,1,07,1.4,1373.6,M,30.1,M,,0000*63
$GPGSA,M,3,22,06,03,16,18,30,19,,,,,,2.8,1.4,2.4*37
$GPRMC,192957.003,A,3254.4416,S,07017.6424,W,27.11,68.45,060511,,,A*68
$GPGGA,192958.029,3254.4388,S,07017.6339,W,0,00,,1373.9,M,30.1,M,,0000*4D
$GPGSA,M,1,,,,,,,,,,,,,,,*12
$GPRMC,192958.029,V,3254.4388,S,07017.6339,W,,,060511,,,N*76
$GPGGA,192958.727,3254.4368,S,07017.6281,W,0,00,,1374.1,M,30.1,M,,0000*47
$GPGSA,M,1,,,,,,,,,,,,,,,*12
$GPRMC,192958.727,V,3254.4368,S,07017.6281,W,,,060511,,,N*73
$GPGGA,192959.000,3254.4361,S,07017.6258,W,0,00,,1374.1,M,30.1,M,,0000*49
$GPGSA,M,1,,,,,,,,,,,,,,,*12
$GPGSV,3,1,11,22,78,072,,06,76,191,,03,62,218,,16,49,319,*72
$GPGSV,3,2,11,18,46,129,,30,34,343,,19,31,224,,21,18,114,*79
$GPGSV,3,3,11,14,16,037,,15,03,140,,11,03,263,*49
$GPRMC,192959.000,V,3254.4361,S,07017.6258,W,,,060511,,,N*7D
$GPGGA,193000.000,3254.4333,S,07017.6175,W,0,00,,1374.4,M,30.1,M,,0000*43
$GPGSA,M,1,,,,,,,,,,,,,,,*12
$GPRMC,193000.000,V,3254.4333,S,07017.6175,W,,,060511,,,N*72
$GPGGA,193001.000,3254.4336,S,07017.6088,W,1,06,3.0,1388.0,M,30.1,M,,0000*69
$GPGSA,M,3,16,19,22,06,03,30,,,,,,,4.9,3.0,3.9*33
$GPRMC,193001.000,A,3254.4336,S,07017.6088,W,27.33,66.33,060511,,,A*68
$GPGGA,193002.000,3254.4331,S,07017.6025,W,1,07,1.4,1401.4,M,30.1,M,,0000*6F
$GPGSA,M,3,16,19,22,06,03,30,18,,,,,,2.8,1.4,2.4*37
$GPRMC,193002.000,A,3254.4331,S,07017.6025,W,27.52,66.33,060511,,,A*6C
$GPGGA,193003.000,3254.4304,S,07017.5969,W,1,07,1.4,1412.7,M,30.1,M,,0000*6B
$GPGSA,M,3,16,19,22,06,03,30,18,,,,,,2.8,1.4,2.4*37
$GPRMC,193003.000,A,3254.4304,S,07017.5969,W,27.59,66.32,060511,,,A*63
$GPGGA,193004.000,3254.4273,S,07017.5894,W,1,07,1.4,1418.5,M,30.1,M,,0000*66
$GPGSA,M,3,16,19,22,06,03,30,18,,,,,,2.8,1.4,2.4*37
$GPGSV,3,1,11,22,78,072,42,06,76,191,41,03,62,218,40,16,49,319,35*73
$GPGSV,3,2,11,18,46,129,42,30,34,343,41,19,31,224,34,21,18,114,*7D
$GPGSV,3,3,11,14,16,037,,15,03,140,,11,03,263,*49
$GPRMC,193004.000,A,3254.4273,S,07017.5894,W,27.46,66.19,060511,,,A*61
$GPGGA,193005.000,3254.4242,S,07017.5817,W,1,07,1.4,1423.4,M,30.1,M,,0000*67
$GPGSA,M,3,16,19,22,06,03,30,18,,,,,,2.8,1.4,2.4*37
$GPRMC,193005.000,A,3254.4242,S,07017.5817,W,27.26,66.32,060511,,,A*66
$GPGGA,193006.000,3254.4212,S,07017.5740,W,1,07,1.4,1427.3,M,30.1,M,,0000*6F
$GPGSA,M,3,16,19,22,06,03,30,18,,,,,,2.8,1.4,2.4*37
$GPRMC,193006.000,A,3254.4212,S,07017.5740,W,27.07,66.71,060511,,,A*69
$GPGGA,193007.000,3254.4179,S,07017.5661,W,1,07,1.4,1430.3,M,30.1,M,,0000*64
$GPGSA,M,3,16,19,22,06,03,30,18,,,,,,2.8,1.4,2.4*37
$GPRMC,193007.000,A,3254.4179,S,07017.5661,W,26.88,66.60,060511,,,A*62
$GPGGA,193008.000,3254.4147,S,07017.5584,W,1,07,1.4,1433.1,M,30.1,M,,0000*6F
$GPGSA,M,3,16,19,22,06,03,30,18,,,,,,2.8,1.4,2.4*37
$GPRMC,193008.000,A,3254.4147,S,07017.5584,W,26.81,66.34,060511,,,A*60
$GPGGA,193009.000,3254.4115,S,07017.5504,W,1,07,1.4,1435.2,M,30.1,M,,0000*64
$GPGSA,M,3,16,19,22,06,03,30,18,,,,,,2.8,1.4,2.4*37
$GPGSV,3,1,11,22,78,072,42,06,76,191,41,03,62,218,40,16,49,319,35*73
$GPGSV,3,2,11,18,46,129,43,30,34,343,41,19,31,224,34,21,18,114,*7C
$GPGSV,3,3,11,14,16,037,,15,03,140,,11,03,263,*49
$GPRMC,193009.000,A,3254.4115,S,07017.5504,W,26.70,66.15,060511,,,A*63
$GPGGA,193010.000,3254.4085,S,07017.5424,W,1,07,1.4,1437.4,M,30.1,M,,0000*63
$GPGSA,M,3,16,19,22,06,03,30,18,,,,,,2.8,1.4,2.4*37
$GPRMC,193010.000,A,3254.4085,S,07017.5424,W,26.40,66.49,060511,,,A*6A
$GPGGA,193011.000,3254.4055,S,07017.5344,W,1,07,1.4,1439.2,M,30.1,M,,0000*66
$GPGSA,M,3,16,19,22,06,03,30,18,,,,,,2.8,1.4,2.4*37
$GPRMC,193011.000,A,3254.4055,S,07017.5344,W,25.89,66.52,060511,,,A*6B
$GPGGA,193012.013,3254.4028,S,07017.5268,W,1,07,1.4,1439.5,M,30.1,M,,0000*65
$GPGSA,M,3,22,06,03,16,18,30,19,,,,,,2.8,1.4,2.4*37
$GPRMC,193012.013,A,3254.4028,S,07017.5268,W,25.21,66.22,060511,,,A*6A
$GPGGA,193012.986,3254.4001,S,07017.5197,W,1,07,1.4,1440.4,M,30.1,M,,0000*67
$GPGSA,M,3,22,06,03,16,18,30,19,,,,,,2.8,1.4,2.4*37
$GPRMC,193012.986,A,3254.4001,S,07017.5197,W,23.57,67.06,060511,,,A*67
$GPGGA,193014.003,3254.3975,S,07017.5124,W,1,07,1.4,1441.5,M,30.1,M,,0000*60
$GPGSA,M,3,22,06,03,16,18,30,19,,,,,,2.8,1.4,2.4*37
$GPGSV,3,1,11,22,78,072,37,06,76,191,37,03,62,218,37,16,49,319,34*71
$GPGSV,3,2,11,18,46,129,37,30,34,343,37,19,31,224,32,21,18,114,*78
$GPGSV,3,3,11,14,16,037,,15,03,140,,11,03,263,*49
$GPRMC,193014.003,A,3254.3975,S,07017.5124,W,23.83,67.36,060511,,,A*6A
$GPGGA,193015.000,3254.3951,S,07017.5051,W,1,06,2.1,1442.5,M,30.1,M,,0000*63
$GPGSA,M,3,22,06,03,16,18,30,,,,,,,4.2,2.1,3.6*36
$GPRMC,193015.000,A,3254.3951,S,07017.5051,W,23.64,68.01,060511,,,A*6F
$GPGGA,193016.000,3254.3925,S,07017.4978,W,1,06,2.1,1443.6,M,30.1,M,,0000*62
$GPGSA,M,3,22,06,03,16,18,30,,,,,,,4.2,2.1,3.6*36
$GPRMC,193016.000,A,3254.3925,S,07017.4978,W,23.12,68.84,060511,,,A*60
$GPGGA,193016.997,3254.3901,S,07017.4907,W,1,07,1.4,1444.5,M,30.1,M,,0000*68
$GPGSA,M,3,22,06,03,16,18,30,19,,,,,,2.8,1.4,2.4*37
$GPRMC,193016.997,A,3254.3901,S,07017.4907,W,21.96,68.10,060511,,,A*6A
$GPGGA,193018.001,3254.3888,S,07017.4839,W,1,07,1.4,1444.8,M,30.1,M,,0000*61
$GPGSA,M,3,22,06,03,16,18,30,19,,,,,,2.8,1.4,2.4*37
$GPRMC,193018.001,A,3254.3888,S,07017.4839,W,21.09,78.10,060511,,,A*69
$GPGGA,193019.001,3254.3880,S,07017.4770,W,1,07,1.4,1445.6,M,30.1,M,,0000*65
$GPGSA,M,3,22,06,03,16,18,30,19,,,,,,2.8,1.4,2.4*37
$GPGSV,3,1,11,22,78,072,39,06,76,191,39,03,62,218,38,16,49,319,36*7C
$GPGSV,3,2,11,18,46,129,33,30,34,343,28,19,31,224,30,21,18,114,*70
$GPGSV,3,3,11,14,16,037,,15,03,140,,11,03,263,*49
$GPRMC,193019.001,A,3254.3880,S,07017.4770,W,21.10,83.72,060511,,,A*6A
$GPGGA,193019.999,3254.3876,S,07017.4703,W,1,06,3.0,1446.8,M,30.1,M,,0000*6A
$GPGSA,M,3,22,06,03,16,30,19,,,,,,,4.9,3.0,3.9*33
$GPRMC,193019.999,A,3254.3876,S,07017.4703,W,20.48,89.07,060511,,,A*6B
$GPGGA,193020.999,3254.3879,S,07017.4632,W,1,06,2.1,1446.6,M,30.1,M,,0000*62
$GPGSA,M,3,22,06,03,16,18,30,,,,,,,4.2,2.1,3.6*36
$GPRMC,193020.999,A,3254.3879,S,07017.4632,W,20.80,93.70,060511,,,A*62
$GPGGA,193021.999,3254.3884,S,07017.4562,W,1,06,2.1,1446.6,M,30.1,M,,0000*67
$GPGSA,M,3,22,06,03,16,18,30,,,,,,,4.2,2.1,3.6*36
$GPRMC,193021.999,A,3254.3884,S,07017.4562,W,20.96,95.90,060511,,,A*68
$GPGGA,193023.001,3254.3892,S,07017.4492,W,1,07,1.4,1446.6,M,30.1,M,,0000*63
$GPGSA,M,3,22,06,03,16,18,30,19,,,,,,2.8,1.4,2.4*37
$GPRMC,193023.001,A,3254.3892,S,07017.4492,W,21.72,99.32,060511,,,A*64
$GPGGA,193023.999,3254.3903,S,07017.4424,W,1,07,1.4,1447.8,M,30.1,M,,0000*60
$GPGSA,M,3,22,06,03,16,18,30,19,,,,,,2.8,1.4,2.4*37
$GPGSV,3,1,11,22,78,072,37,06,76,191,38,03,62,218,38,16,49,319,37*72
$GPGSV,3,2,11,18,46,129,34,30,34,343,30,19,31,224,29,21,18,114,*76
$GPGSV,3,3,11,14,16,037,,15,03,140,,11,03,263,*49
$GPRMC,193023.999,A,3254.3903,S,07017.4424,W,21.99,102.06,060511,,,A*59
$GPGGA,193025.001,3254.3923,S,07017.4346,W,1,06,2.1,1448.5,M,30.1,M,,0000*6A
$GPGSA,M,3,22,06,03,16,18,30,,,,,,,4.2,2.1,3.6*36
$GPRMC,193025.001,A,3254.3923,S,07017.4346,W,24.00,105.72,060511,,,A*57
$GPGGA,193025.997,3254.3942,S,07017.4269,W,1,06,2.1,1449.3,M,30.1,M,,0000*60
$GPGSA,M,3,22,06,03,16,18,30,,,,,,,4.2,2.1,3.6*36
$GPRMC,193025.997,A,3254.3942,S,07017.4269,W,23.97,107.31,060511,,,A*56
$GPGGA,193027.002,3254.3963,S,07017.4193,W,1,07,1.4,1449.5,M,30.1,M,,0000*63
$GPGSA,M,3,22,06,03,16,18,30,19,,,,,,2.8,1.4,2.4*37
$GPRMC,193027.002,A,3254.3963,S,07017.4193,W,23.94,109.16,060511,,,A*5C
$GPGGA,193027.997,3254.3986,S,07017.4118,W,1,07,1.4,1450.3,M,30.1,M,,0000*60
$GPGSA,M,3,22,06,03,16,18,30,19,,,,,,2.8,1.4,2.4*37
$GPRMC,193027.997,A,3254.3986,S,07017.4118,W,23.44,109.62,060511,,,A*5F
$GPGGA,193029.003,3254.4008,S,07017.4043,W,1,07,1.4,1450.8,M,30.1,M,,0000*66
$GPGSA,M,3,22,06,03,16,18,30,19,,,,,,2.8,1.4,2.4*37
$GPGSV,3,1,11,22,78,072,36,06,76,191,36,03,62,218,37,16,49,319,37*72
$GPGSV,3,2,11,18,46,129,35,30,34,343,33,19,31,224,28,21,18,114,*75
$GPGSV,3,3,11,14,16,037,,15,03,140,,11,03,263,*49
$GPRMC,193029.003,A,3254.4008,S,07017.4043,W,23.29,108.31,060511,,,A*5E
$GPGGA,193029.997,3254.4027,S,07017.3974,W,1,07,1.4,1451.3,M,30.1,M,,0000*6F
$GPGSA,M,3,22,06,03,16,18,30,19,,,,,,2.8,1.4,2.4*37
$GPRMC,193029.997,A,3254.4027,S,07017.3974,W,21.60,110.40,060511,,,A*5D
$GPGGA,193031.002,3254.4045,S,07017.3902,W,1,07,1.4,1452.3,M,30.1,M,,0000*65
$GPGSA,M,3,22,06,03,16,18,30,19,,,,,,2.8,1.4,2.4*37
$GPRMC,193031.002,A,3254.4045,S,07017.3902,W,21.99,108.65,060511,,,A*5C
$GPGGA,193032.004,3254.4064,S,07017.3837,W,1,07,1.4,1453.5,M,30.1,M,,0000*63
$GPGSA,M,3,22,06,03,16,18,30,19,,,,,,2.8,1.4,2.4*37
$GPRMC,193032.004,A,3254.4064,S,07017.3837,W,21.56,108.78,060511,,,A*52
$GPGGA,193032.996,3254.4082,S,07017.3776,W,1,07,1.4,1455.6,M,30.1,M,,0000*66
$GPGSA,M,3,22,06,03,16,18,30,19,,,,,,2.8,1.4,2.4*37
$GPRMC,193032.996,A,3254.4082,S,07017.3776,W,19.95,109.00,060511,,,A*58
$GPGGA,193033.998,3254.4100,S,07017.3717,W,1,07,1.4,1457.0,M,30.1,M,,0000*61
$GPGSA,M,3,22,06,03,16,18,30,19,,,,,,2.8,1.4,2.4*37
$GPGSV,3,1,11,22,78,072,38,06,76,191,38,03,62,218,40,16,49,319,38*7D
$GPGSV,3,2,11,18,46,129,36,30,34,343,34,19,31,224,30,21,18,114,*78
$GPGSV,3,3,11,14,16,037,,15,03,140,,11,03,263,*49
$GPRMC,193033.998,A,3254.4100,S,07017.3717,W,19.05,110.84,060511,,,A*56
$GPGGA,193035.000,3254.4116,S,07017.3659,W,1,07,1.4,1457.6,M,30.1,M,,0000*65
$GPGSA,M,3,22,06,03,16,18,30,19,,,,,,2.8,1.4,2.4*37
$GPRMC,193035.000,A,3254.4116,S,07017.3659,W,17.99,108.67,060511,,,A*5B
$GPGGA,193036.000,3254.4133,S,07017.3604,W,1,07,1.4,1458.5,M,30.1,M,,0000*65
$GPGSA,M,3,22,06,03,16,18,30,19,,,,,,2.8,1.4,2.4*37
$GPRMC,193036.000,A,3254.4133,S,07017.3604,W,17.79,111.20,060511,,,A*52
$GPGGA,193037.002,3254.4151,S,07017.3549,W,1,07,1.4,1459.7,M,30.1,M,,0000*6B
$GPGSA,M,3,22,06,03,16,18,30,19,,,,,,2.8,1.4,2.4*37
$GPRMC,193037.002,A,3254.4151,S,07017.3549,W,17.09,111.41,060511,,,A*5F
$GPGGA,193038.000,3254.4167,S,07017.3490,W,1,07,1.4,1461.5,M,30.1,M,,0000*6F
$GPGSA,M,3,22,06,03,16,18,30,19,,,,,,2.8,1.4,2.4*37
$GPRMC,193038.000,A,3254.4167,S,07017.3490,W,17.41,109.39,060511,,,A*58
$GPGGA,193038.999,3254.4181,S,07017.3431,W,1,07,1.4,1463.6,M,30.1,M,,0000*64
$GPGSA,M,3,22,06,03,16,18,30,19,,,,,,2.8,1.4,2.4*37
$GPGSV,3,1,11,22,78,072,36,06,76,191,37,03,62,218,39,16,49,319,37*7D
$GPGSV,3,2,11,18,46,129,37,30,34,343,33,19,31,224,30,21,18,114,*7E
$GPGSV,3,3,11,14,16,037,,15,03,140,,11,03,263,*49
$GPRMC,193038.999,A,3254.4181,S,07017.3431,W,17.54,107.32,060511,,,A*53
$GPGGA,193039.999,3254.4193,S,07017.3377,W,1,07,1.4,1465.5,M,30.1,M,,0000*66
$GPGSA,M,3,22,06,03,16,18,30,19,,,,,,2.8,1.4,2.4*37
$GPRMC,193039.999,A,3254.4193,S,07017.3377,W,17.24,105.52,060511,,,A*57
$GPGGA,193040.999,3254.4207,S,07017.3323,W,1,07,1.4,1465.0,M,30.1,M,,0000*62
$GPGSA,M,3,22,06,03,16,18,30,19,,,,,,2.8,1.4,2.4*37
$GPRMC,193040.999,A,3254.4207,S,07017.3323,W,17.29,106.58,060511,,,A*52
$GPGGA,193041.999,3254.4222,S,07017.3270,W,1,07,1.4,1466.2,M,30.1,M,,0000*62
$GPGSA,M,3,22,06,03,16,18,30,19,,,,,,2.8,1.4,2.4*37
$GPRMC,193041.999,A,3254.4222,S,07017.3270,W,17.19,108.89,060511,,,A*52
$GPGGA,193043.000,3254.4238,S,07017.3217,W,1,06,2.1,1466.6,M,30.1,M,,0000*60
$GPGSA,M,3,22,06,03,16,18,30,,,,,,,4.2,2.1,3.6*36
$GPRMC,193043.000,A,3254.4238,S,07017.3217,W,17.00,110.24,060511,,,A*55
$GPGGA,193043.998,3254.4253,S,07017.3162,W,1,07,1.4,1468.0,M,30.1,M,,0000*6B
$GPGSA,M,3,22,06,03,16,18,30,19,,,,,,2.8,1.4,2.4*37
$GPGSV,3,1,11,22,78,073,39,06,76,190,38,03,63,218,40,16,49,319,40*72
$GPGSV,3,2,11,18,46,129,38,30,33,343,37,19,32,224,29,21,18,114,*79
$GPGSV,3,3,11,14,16,037,,11,03,263,,15,03,140,*49
$GPRMC,193043.998,A,3254.4253,S,07017.3162,W,17.10,110.32,060511,,,A*57
$GPGGA,193045.000,3254.4270,S,07017.3109,W,1,07,1.4,1469.6,M,30.1,M,,0000*6E
$GPGSA,M,3,22,06,03,16,18,30,19,,,,,,2.8,1.4,2.4*37
$GPRMC,193045.000,A,3254.4270,S,07017.3109,W,17.18,112.27,060511,,,A*5B
$GPGGA,193046.001,3254.4286,S,07017.3058,W,1,07,1.4,1470.8,M,30.1,M,,0000*66
$GPGSA,M,3,22,06,03,16,18,30,19,,,,,,2.8,1.4,2.4*37
$GPRMC,193046.001,A,3254.4286,S,07017.3058,W,16.11,109.23,060511,,,A*53
$GPGGA,193047.000,3254.4300,S,07017.3008,W,1,07,1.4,1471.9,M,30.1,M,,0000*6C
$GPGSA,M,3,22,06,03,16,18,30,19,,,,,,2.8,1.4,2.4*37
$GPRMC,193047.000,A,3254.4300,S,07017.3008,W,16.10,107.99,060511,,,A*57
$GPGGA,193048.000,3254.4315,S,07017.2958,W,1,07,1.4,1472.2,M,30.1,M,,0000*62
$GPGSA,M,3,22,06,03,16,18,30,19,,,,,,2.8,1.4,2.4*37
$GPRMC,193048.000,A,3254.4315,S,07017.2958,W,16.41,110.29,060511,,,A*58
$GPGGA,193048.998,3254.4333,S,07017.2915,W,1,07,1.4,1472.0,M,30.1,M,,0000*65
$GPGSA,M,3,22,06,03,16,18,30,19,,,,,,2.8,1.4,2.4*37
$GPGSV,3,1,11,22,78,073,39,06,76,190,38,03,63,218,40,16,49,319,38*7D
$GPGSV,3,2,11,18,46,129,37,30,33,343,36,19,32,224,29,21,18,114,*77
$GPGSV,3,3,11,14,16,037,,11,03,263,,15,03,140,*49
$GPRMC,193048.998,A,3254.4333,S,07017.2915,W,15.55,113.42,060511,,,A*55
$GPGGA,193050.001,3254.4352,S,07017.2870,W,1,06,1.8,1471.8,M,30.1,M,,0000*66
$GPGSA,M,3,22,06,03,16,18,19,,,,,,,3.6,1.8,3.1*33
$GPRMC,193050.001,A,3254.4352,S,07017.2870,W,15.95,112.64,060511,,,A*59
$GPGGA,193051.002,3254.4370,S,07017.2821,W,1,07,1.4,1471.1,M,30.1,M,,0000*64
$GPGSA,M,3,22,06,03,16,18,30,19,,,,,,2.8,1.4,2.4*37
$GPRMC,193051.002,A,3254.4370,S,07017.2821,W,15.21,111.82,060511,,,A*5B
$GPGGA,193052.001,3254.4383,S,07017.2767,W,1,06,2.1,1469.7,M,30.1,M,,0000*6D
$GPGSA,M,3,22,06,03,16,18,30,,,,,,,4.2,2.1,3.6*36
$GPRMC,193052.001,A,3254.4383,S,07017.2767,W,14.80,111.43,060511,,,A*5D
$GPGGA,193052.996,3254.4395,S,07017.2722,W,1,06,2.1,1469.8,M,30.1,M,,0000*63
$GPGSA,M,3,22,06,03,16,18,30,,,,,,,4.2,2.1,3.6*36
$GPRMC,193052.996,A,3254.4395,S,07017.2722,W,15.05,108.35,060511,,,A*59
$GPGGA,193054.002,3254.4408,S,07017.2671,W,1,06,2.1,1470.9,M,30.1,M,,0000*6C
$GPGSA,M,3,22,06,03,16,18,30,,,,,,,4.2,2.1,3.6*36
$GPGSV,3,1,11,22,78,073,37,06,76,190,36,03,63,218,37,16,49,319,34*71
$GPGSV,3,2,11,18,46,129,36,30,33,343,31,19,32,224,,21,18,114,*7A
$GPGSV,3,3,11,14,16,037,,11,03,263,,15,03,140,*49
$GPRMC,193054.002,A,3254.4408,S,07017.2671,W,15.15,107.25,060511,,,A*50
$GPGGA,193055.002,3254.4420,S,07017.2622,W,1,06,2.1,1471.1,M,30.1,M,,0000*68
$GPGSA,M,3,22,06,03,16,18,30,,,,,,,4.2,2.1,3.6*36
$GPRMC,193055.002,A,3254.4420,S,07017.2622,W,15.35,106.54,060511,,,A*58
$GPGGA,193055.997,3254.4432,S,07017.2577,W,1,06,2.1,1471.2,M,30.1,M,,0000*6E
$GPGSA,M,3,22,06,03,16,18,30,,,,,,,4.2,2.1,3.6*36
$GPRMC,193055.997,A,3254.4432,S,07017.2577,W,15.57,104.89,060511,,,A*5B
$GPGGA,193057.004,3254.4444,S,07017.2529,W,1,07,1.4,1471.5,M,30.1,M,,0000*65
$GPGSA,M,3,22,06,03,16,18,30,19,,,,,,2.8,1.4,2.4*37
$GPRMC,193057.004,A,3254.4444,S,07017.2529,W,16.12,103.98,060511,,,A*55
$GPGGA,193057.996,3254.4456,S,07017.2483,W,1,07,1.4,1470.1,M,30.1,M,,0000*60
$GPGSA,M,3,22,06,03,16,18,30,19,,,,,,2.8,1.4,2.4*37
$GPRMC,193057.996,A,3254.4456,S,07017.2483,W,15.35,98.57,060511,,,A*63
$GPGGA,193059.001,3254.4462,S,07017.2432,W,1,07,1.4,1470.3,M,30.1,M,,0000*66
$GPGSA,M,3,22,06,03,16,18,30,19,,,,,,2.8,1.4,2.4*37
$GPGSV,3,1,11,22,78,073,38,06,76,190,36,03,63,218,32,16,49,319,30*7F
$GPGSV,3,2,11,18,46,129,36,30,33,343,34,19,32,224,17,21,18,114,*79
$GPGSV,3,3,11,14,16,037,,11,03,263,,15,03,140,*49
$GPRMC,193059.001,A,3254.4462,S,07017.2432,W,16.21,95.84,060511,,,A*62
$GPGGA,193059.998,3254.4464,S,07017.2380,W,1,06,2.1,1470.7,M,30.1,M,,0000*64
$GPGSA,M,3,22,06,03,16,18,30,,,,,,,4.2,2.1,3.6*36
$GPRMC,193059.998,A,3254.4464,S,07017.2380,W,15.01,91.30,060511,,,A*69
$GPGGA,193101.000,3254.4464,S,07017.2323,W,1,06,2.1,1468.3,M,30.1,M,,0000*64
$GPGSA,M,3,22,06,03,16,18,30,,,,,,,4.2,2.1,3.6*36
$GPRMC,193101.000,A,3254.4464,S,07017.2323,W,15.78,92.98,060511,,,A*6B
$GPGGA,193102.005,3254.4464,S,07017.2268,W,1,05,2.2,1468.6,M,30.1,M,,0000*69
$GPGSA,M,3,22,06,03,18,30,,,,,,,,4.2,2.2,3.6*32
$GPRMC,193102.005,A,3254.4464,S,07017.2268,W,16.25,90.94,060511,,,A*66
$GPGGA,193102.996,3254.4462,S,07017.2209,W,1,06,2.1,1468.0,M,30.1,M,,0000*6D
$GPGSA,M,3,22,06,03,16,18,30,,,,,,,4.2,2.1,3.6*36
$GPRMC,193102.996,A,3254.4462,S,07017.2209,W,16.97,87.83,060511,,,A*6D
$GPGGA,193103.998,3254.4458,S,07017.2153,W,1,06,2.1,1468.1,M,30.1,M,,0000*66
$GPGSA,M,3,22,06,03,16,18,30,,,,,,,4.2,2.1,3.6*36
$GPGSV,3,1,11,22,78,073,40,06,76,190,39,03,63,218,38,16,49,319,29*7D
$GPGSV,3,2,11,18,46,129,27,30,33,343,33,19,32,224,,21,18,114,*78
$GPGSV,3,3,11,14,16,037,,11,03,263,,15,03,140,*49
$GPRMC,193103.998,A,3254.4458,S,07017.2153,W,16.71,87.22,060511,,,A*64
$GPGGA,193105.004,3254.4460,S,07017.2100,W,1,05,3.8,1468.1,M,30.1,M,,0000*6A
$GPGSA,M,3,22,06,03,16,30,,,,,,,,8.4,3.8,7.5*3A
$GPRMC,193105.004,A,3254.4460,S,07017.2100,W,17.32,86.96,060511,,,A*6B
$GPGGA,193105.998,3254.4459,S,07017.2034,W,1,06,2.1,1467.0,M,30.1,M,,0000*6F
$GPGSA,M,3,22,06,03,16,18,30,,,,,,,4.2,2.1,3.6*36
$GPRMC,193105.998,A,3254.4459,S,07017.2034,W,19.30,86.93,060511,,,A*62
$GPGGA,193107.000,3254.4451,S,07017.1968,W,1,06,2.1,1466.4,M,30.1,M,,0000*6B
$GPGSA,M,3,22,06,03,16,18,30,,,,,,,4.1,2.1,3.6*35
$GPRMC,193107.000,A,3254.4451,S,07017.1968,W,18.81,82.08,060511,,,A*6E
$GPGGA,193108.001,3254.4445,S,07017.1912,W,1,07,1.4,1466.3,M,30.1,M,,0000*6D
$GPGSA,M,3,22,06,03,16,18,30,19,,,,,,2.8,1.4,2.4*37
$GPRMC,193108.001,A,3254.4445,S,07017.1912,W,19.07,81.51,060511,,,A*68
$GPGGA,193108.999,3254.4436,S,07017.1847,W,1,06,1.8,1466.4,M,30.1,M,,0000*6A
$GPGSA,M,3,22,06,03,16,18,19,,,,,,,3.6,1.8,3.1*33
$GPGSV,3,1,11,22,78,073,38,06,76,190,36,03,63,218,37,16,49,319,30*7A
$GPGSV,3,2,11,18,46,129,24,30,33,343,,19,32,224,27,21,18,114,*7E
$GPGSV,3,3,11,14,16,037,,11,03,263,,15,03,140,*49
$GPRMC,193108.999,A,3254.4436,S,07017.1847,W,20.16,79.76,060511,,,A*6D
$GPGGA,193109.999,3254.4428,S,07017.1789,W,1,06,3.0,1466.3,M,30.1,M,,0000*64
$GPGSA,M,3,22,06,03,16,30,19,,,,,,,4.9,3.0,3.9*33
$GPRMC,193109.999,A,3254.4428,S,07017.1789,W,20.01,80.48,060511,,,A*63
$GPGGA,193110.999,3254.4417,S,07017.1725,W,1,05,3.8,1464.8,M,30.1,M,,0000*64
$GPGSA,M,3,22,06,03,16,30,,,,,,,,8.4,3.8,7.5*3A
$GPRMC,193110.999,A,3254.4417,S,07017.1725,W,21.61,81.29,060511,,,A*60
$GPGGA,193111.998,3254.4407,S,07017.1657,W,1,07,1.4,1465.5,M,30.1,M,,0000*61
$GPGSA,M,3,22,06,03,16,18,30,19,,,,,,2.8,1.4,2.4*37
$GPRMC,193111.998,A,3254.4407,S,07017.1657,W,21.28,81.18,060511,,,A*6A
$GPGGA,193113.000,3254.4399,S,07017.1591,W,1,07,1.4,1464.9,M,30.1,M,,0000*6F
$GPGSA,M,3,22,06,03,16,18,30,19,,,,,,2.8,1.4,2.4*37
$GPRMC,193113.000,A,3254.4399,S,07017.1591,W,21.06,81.06,060511,,,A*6A
$GPGGA,193114.002,3254.4394,S,07017.1525,W,1,07,1.4,1466.3,M,30.1,M,,0000*60
$GPGSA,M,3,22,06,03,16,18,30,19,,,,,,2.8,1.4,2.4*37
$GPGSV,3,1,11,22,78,073,40,06,76,190,39,03,63,218,38,16,49,319,35*70
$GPGSV,3,2,11,18,46,129,30,30,33,343,36,19,32,224,29,21,18,114,*70
$GPGSV,3,3,11,14,16,037,,11,03,263,,15,03,140,*49
$GPRMC,193114.002,A,3254.4394,S,07017.1525,W,21.08,82.84,060511,,,A*6A
$GPGGA,193115.000,3254.4389,S,07017.1464,W,1,05,3.8,1466.4,M,30.1,M,,0000*60
$GPGSA,M,3,22,06,03,16,30,,,,,,,,8.4,3.8,7.5*3A
$GPRMC,193115.000,A,3254.4389,S,07017.1464,W,20.81,82.54,060511,,,A*6C
$GPGGA,193115.998,3254.4381,S,07017.1398,W,1,06,3.0,1466.9,M,30.1,M,,0000*62
$GPGSA,M,3,22,06,03,16,30,19,,,,,,,4.9,3.0,3.9*33
$GPRMC,193115.998,A,3254.4381,S,07017.1398,W,21.09,82.06,060511,,,A*6E
$GPGGA,193117.000,3254.4372,S,07017.1330,W,1,06,3.0,1467.9,M,30.1,M,,0000*67
$GPGSA,M,3,22,06,03,16,30,19,,,,,,,4.9,3.0,3.9*33
$GPRMC,193117.000,A,3254.4372,S,07017.1330,W,21.23,80.87,060511,,,A*69
$GPGGA,193118.000,3254.4362,S,07017.1266,W,1,06,3.0,1469.6,M,30.1,M,,0000*6A
$GPGSA,M,3,22,06,03,16,30,19,,,,,,,4.9,3.0,3.9*33
$GPRMC,193118.000,A,3254.4362,S,07017.1266,W,20.98,83.93,060511,,,A*62
$GPGGA,193119.001,3254.4353,S,07017.1198,W,1,06,3.0,1470.7,M,30.1,M,,0000*63
$GPGSA,M,3,22,06,03,16,30,19,,,,,,,4.9,3.0,3.9*33
$GPGSV,3,1,11,22,78,073,39,06,76,190,40,03,63,218,38,16,49,319,33*76
$GPGSV,3,2,11,18,46,129,,30,33,343,35,19,32,224,30,21,18,114,*78
$GPGSV,3,3,11,14,16,037,,11,03,263,,15,03,140,*49
$GPRMC,193119.001,A,3254.4353,S,07017.1198,W,21.14,82.70,060511,,,A*6B
$GPGGA,193120.000,3254.4341,S,07017.1129,W,1,06,3.0,1473.1,M,30.1,M,,0000*64
$GPGSA,M,3,22,06,03,16,30,19,,,,,,,4.9,3.0,3.9*33
$GPRMC,193120.000,A,3254.4341,S,07017.1129,W,21.22,80.89,060511,,,A*68
$GPGGA,193121.003,3254.4331,S,07017.1066,W,1,05,3.8,1473.9,M,30.1,M,,0000*68
$GPGSA,M,3,22,06,03,16,30,,,,,,,,8.4,3.8,7.5*3A
$GPRMC,193121.003,A,3254.4331,S,07017.1066,W,20.65,82.47,060511,,,A*65
$GPGGA,193121.998,3254.4323,S,07017.0995,W,1,07,1.4,1472.5,M,30.1,M,,0000*65
$GPGSA,M,3,22,06,03,16,18,30,19,,,,,,2.8,1.4,2.4*37
$GPRMC,193121.998,A,3254.4323,S,07017.0995,W,20.37,81.69,060511,,,A*61
$GPGGA,193123.002,3254.4314,S,07017.0922,W,1,06,2.1,1471.0,M,30.1,M,,0000*64
$GPGSA,M,3,22,06,03,16,18,30,,,,,,,4.1,2.1,3.5*36
$GPRMC,193123.002,A,3254.4314,S,07017.0922,W,20.60,78.51,060511,,,A*6E
$GPGGA,193123.999,3254.4301,S,07017.0854,W,1,05,3.8,1472.1,M,30.1,M,,0000*62
$GPGSA,M,3,22,06,03,16,30,,,,,,,,8.4,3.8,7.5*3A
$GPGSV,3,1,11,22,78,073,39,06,76,190,38,03,63,218,36,16,49,319,29*7C
$GPGSV,3,2,11,18,46,129,,30,33,343,35,19,32,224,,21,18,114,*7B
$GPGSV,3,3,11,14,16,037,,11,03,263,,15,03,140,*49
$GPRMC,193123.999,A,3254.4301,S,07017.0854,W,19.92,83.01,060511,,,A*67
$GPGGA,193124.998,3254.4293,S,07017.0791,W,1,05,3.8,1472.8,M,30.1,M,,0000*61
$GPGSA,M,3,22,06,03,16,30,,,,,,,,8.4,3.8,7.5*3A
$GPRMC,193124.998,A,3254.4293,S,07017.0791,W,20.38,82.44,060511,,,A*67
$GPGGA,193125.998,3254.4282,S,07017.0725,W,1,06,3.0,1474.6,M,30.1,M,,0000*6C
$GPGSA,M,3,22,06,03,16,30,19,,,,,,,4.9,3.0,3.9*33
$GPRMC,193125.998,A,3254.4282,S,07017.0725,W,20.69,81.46,060511,,,A*6C
$GPGGA,193127.000,3254.4274,S,07017.0660,W,1,06,3.0,1475.0,M,30.1,M,,0000*68
$GPGSA,M,3,22,06,03,16,30,19,,,,,,,4.9,3.0,3.9*33
$GPRMC,193127.000,A,3254.4274,S,07017.0660,W,21.59,82.47,060511,,,A*6F
$GPGGA,193128.003,3254.4262,S,07017.0595,W,1,05,3.8,1476.3,M,30.1,M,,0000*61
$GPGSA,M,3,22,06,03,16,30,,,,,,,,8.4,3.8,7.5*3A
$GPRMC,193128.003,A,3254.4262,S,07017.0595,W,21.00,81.57,060511,,,A*63
$GPGGA,193128.999,3254.4257,S,07017.0522,W,1,07,1.4,1474.1,M,30.1,M,,0000*6D
$GPGSA,M,3,22,06,03,16,18,30,19,,,,,,2.8,1.4,2.4*37
$GPGSV,3,1,11,22,78,073,39,06,76,190,40,03,63,218,38,16,49,319,34*71
$GPGSV,3,2,11,18,46,129,29,30,33,343,36,19,32,224,27,21,18,114,*76
$GPGSV,3,3,11,14,16,037,,11,03,263,,15,03,140,*49
$GPRMC,193128.999,A,3254.4257,S,07017.0522,W,20.70,82.72,060511,,,A*61
$GPGGA,193130.001,3254.4254,S,07017.0438,W,1,06,2.1,1471.0,M,30.1,M,,0000*66
$GPGSA,M,3,22,06,03,16,18,30,,,,,,,4.1,2.1,3.5*36
$GPRMC,193130.001,A,3254.4254,S,07017.0438,W,21.28,81.63,060511,,,A*66
$GPGGA,193130.996,3254.4249,S,07017.0366,W,1,07,1.4,1471.0,M,30.1,M,,0000*66
$GPGSA,M,3,22,06,03,16,18,30,19,,,,,,2.8,1.4,2.4*37
$GPRMC,193130.996,A,3254.4249,S,07017.0366,W,20.83,82.59,060511,,,A*6B
$GPGGA,193132.002,3254.4238,S,07017.0302,W,1,07,1.4,1472.9,M,30.1,M,,0000*6E
$GPGSA,M,3,22,06,03,16,18,30,19,,,,,,2.8,1.4,2.4*37
$GPRMC,193132.002,A,3254.4238,S,07017.0302,W,20.65,81.51,060511,,,A*6A
$GPGGA,193132.999,3254.4229,S,07017.0231,W,1,07,1.4,1471.9,M,30.1,M,,0000*67
$GPGSA,M,3,22,06,03,16,18,30,19,,,,,,2.8,1.4,2.4*37
$GPRMC,193132.999,A,3254.4229,S,07017.0231,W,20.65,79.26,060511,,,A*67
$GPGGA,193133.997,3254.4223,S,07017.0154,W,1,07,1.4,1469.0,M,30.1,M,,0000*62
$GPGSA,M,3,22,06,03,16,18,30,19,,,,,,2.8,1.4,2.4*37
$GPGSV,3,1,11,22,78,073,40,06,76,190,39,03,63,218,39,16,49,319,36*72
$GPGSV,3,2,11,18,46,129,30,30,33,343,34,19,32,224,28,21,18,114,*73
$GPGSV,3,3,11,14,16,037,,11,03,263,,15,03,140,*49
$GPRMC,193133.997,A,3254.4223,S,07017.0154,W,19.86,78.42,060511,,,A*66
$GPGGA,193135.000,3254.4210,S,07017.0091,W,1,06,2.2,1469.6,M,30.1,M,,0000*69
$GPGSA,M,3,22,06,03,16,18,30,,,,,,,4.1,2.2,3.5*35
$GPRMC,193135.000,A,3254.4210,S,07017.0091,W,19.93,78.87,060511,,,A*62
$GPGGA,193136.002,3254.4201,S,07017.0026,W,1,07,1.4,1469.2,M,30.1,M,,0000*64
$GPGSA,M,3,22,06,03,16,18,30,19,,,,,,2.8,1.4,2.4*37
$GPRMC,193136.002,A,3254.4201,S,07017.0026,W,19.02,75.96,060511,,,A*6A
$GPGGA,193136.998,3254.4187,S,07016.9961,W,1,06,3.0,1471.2,M,30.1,M,,0000*6F
$GPGSA,M,3,22,06,03,16,30,19,,,,,,,4.9,3.0,3.9*33
$GPRMC,193136.998,A,3254.4187,S,07016.9961,W,20.01,75.34,060511,,,A*6E
$GPGGA,193138.001,3254.4172,S,07016.9891,W,1,07,1.4,1468.6,M,30.1,M,,0000*67
$GPGSA,M,3,22,06,03,16,18,30,19,,,,,,2.8,1.4,2.4*37
$GPRMC,193138.001,A,3254.4172,S,07016.9891,W,19.23,71.91,060511,,,A*6C
$GPGGA,193139.000,3254.4154,S,07016.9832,W,1,07,1.4,1471.9,M,30.1,M,,0000*6D
$GPGSA,M,3,22,06,03,16,18,30,19,,,,,,2.8,1.4,2.4*37
$GPGSV,3,1,11,22,78,073,39,06,76,190,38,03,63,218,37,16,49,319,35*70
$GPGSV,3,2,11,18,46,129,35,30,33,343,36,19,32,224,29,21,18,114,*75
$GPGSV,3,3,11,14,16,037,,11,03,263,,15,03,140,*49
$GPRMC,193139.000,A,3254.4154,S,07016.9832,W,18.71,70.92,060511,,,A*65
$GPGGA,193140.001,3254.4137,S,07016.9774,W,1,07,1.4,1472.6,M,30.1,M,,0000*66
$GPGSA,M,3,22,06,03,16,18,30,19,,,,,,2.8,1.4,2.4*37
$GPRMC,193140.001,A,3254.4137,S,07016.9774,W,19.30,70.23,060511,,,A*6C
$GPGGA,193141.001,3254.4116,S,07016.9714,W,1,07,1.4,1473.9,M,30.1,M,,0000*6C
$GPGSA,M,3,22,06,03,16,18,30,19,,,,,,2.8,1.4,2.4*37
$GPRMC,193141.001,A,3254.4116,S,07016.9714,W,18.72,70.25,060511,,,A*69
$GPGGA,193141.999,3254.4097,S,07016.9671,W,1,07,1.4,1477.0,M,30.1,M,,0000*63
$GPGSA,M,3,22,06,03,16,18,30,19,,,,,,2.8,1.4,2.4*37
$GPRMC,193141.999,A,3254.4097,S,07016.9671,W,18.36,70.42,060511,,,A*6A
$GPGGA,193142.999,3254.4077,S,07016.9613,W,1,07,1.4,1479.8,M,30.1,M,,0000*6C
$GPGSA,M,3,22,06,03,16,18,30,19,,,,,,2.8,1.4,2.4*37
$GPRMC,193142.999,A,3254.4077,S,07016.9613,W,18.55,69.48,060511,,,A*64
$GPGGA,193143.999,3254.4059,S,07016.9560,W,1,07,1.4,1480.0,M,30.1,M,,0000*68
$GPGSA,M,3,22,06,03,16,18,30,19,,,,,,2.8,1.4,2.4*37
$GPGSV,3,1,11,22,78,073,39,06,76,190,39,03,63,218,39,16,49,319,36*7C
$GPGSV,3,2,11,18,46,129,36,30,33,343,37,19,32,224,31,21,18,114,*7E
$GPGSV,3,3,11,14,16,037,,11,03,263,,15,03,140,*49
$GPRMC,193143.999,A,3254.4059,S,07016.9560,W,18.38,69.26,060511,,,A*6D
$GPGGA,193144.999,3254.4039,S,07016.9498,W,1,07,1.4,1482.1,M,30.1,M,,0000*6C
$GPGSA,M,3,22,06,03,16,18,30,19,,,,,,2.8,1.4,2.4*37
$GPRMC,193144.999,A,3254.4039,S,07016.9498,W,17.75,69.84,060511,,,A*64
$GPGGA,193145.999,3254.4018,S,07016.9451,W,1,07,1.4,1485.9,M,30.1,M,,0000*64
$GPGSA,M,3,22,06,03,16,18,30,19,,,,,,2.8,1.4,2.4*37
$GPRMC,193145.999,A,3254.4018,S,07016.9451,W,18.67,69.96,060511,,,A*6C
$GPGGA,193146.999,3254.4001,S,07016.9394,W,1,07,1.4,1486.5,M,30.1,M,,0000*6E
$GPGSA,M,3,22,06,03,16,18,30,19,,,,,,2.8,1.4,2.4*37
$GPRMC,193146.999,A,3254.4001,S,07016.9394,W,17.71,72.94,060511,,,A*69
$GPGGA,193147.997,3254.3988,S,07016.9339,W,1,07,1.4,1487.6,M,30.1,M,,0000*6B
$GPGSA,M,3,22,06,03,16,18,30,19,,,,,,2.8,1.4,2.4*37
$GPRMC,193147.997,A,3254.3988,S,07016.9339,W,17.38,74.38,060511,,,A*63
$GPGGA,193148.999,3254.3971,S,07016.9280,W,1,07,1.4,1488.1,M,30.1,M,,0000*67
$GPGSA,M,3,22,06,03,16,18,30,19,,,,,,2.8,1.4,2.4*37
$GPGSV,3,1,11,22,78,073,40,06,76,190,40,03,63,218,39,16,49,319,35*7F
$GPGSV,3,2,11,18,46,129,31,30,33,343,36,19,32,224,35,21,18,114,*7C
$GPGSV,3,3,11,14,16,037,,11,03,263,,15,03,140,*49
$GPRMC,193148.999,A,3254.3971,S,07016.9280,W,17.74,75.01,060511,,,A*64
$GPGGA,193149.999,3254.3961,S,07016.9230,W,1,06,3.0,1488.5,M,30.1,M,,0000*6F
$GPGSA,M,3,22,06,03,16,30,19,,,,,,,4.9,3.0,3.9*33
$GPRMC,193149.999,A,3254.3961,S,07016.9230,W,16.83,77.41,060511,,,A*60
$GPGGA,193150.999,3254.3945,S,07016.9170,W,1,07,1.4,1490.5,M,30.1,M,,0000*68
$GPGSA,M,3,22,06,03,16,18,30,19,,,,,,2.8,1.4,2.4*37
$GPRMC,193150.999,A,3254.3945,S,07016.9170,W,16.71,75.82,060511,,,A*69
$GPGGA,193152.001,3254.3930,S,07016.9117,W,1,07,1.4,1492.6,M,30.1,M,,0000*60
$GPGSA,M,3,22,06,03,16,18,30,19,,,,,,2.8,1.4,2.4*37
$GPRMC,193152.001,A,3254.3930,S,07016.9117,W,16.40,77.27,060511,,,A*6F
$GPGGA,193152.998,3254.3920,S,07016.9064,W,1,07,1.4,1494.2,M,30.1,M,,0000*6F
$GPGSA,M,3,22,06,03,16,18,30,19,,,,,,2.8,1.4,2.4*37
$GPRMC,193152.998,A,3254.3920,S,07016.9064,W,16.28,80.10,060511,,,A*60
$GPGGA,193154.001,3254.3911,S,07016.9006,W,1,06,3.0,1493.6,M,30.1,M,,0000*62
$GPGSA,M,3,22,06,03,16,30,19,,,,,,,4.9,3.0,3.9*33
$GPGSV,3,1,11,22,78,073,37,06,76,190,38,03,63,218,35,16,49,319,35*7C
$GPGSV,3,2,11,18,46,129,,30,33,343,27,19,32,224,33,21,18,114,*78
$GPGSV,3,3,11,14,16,037,,11,03,263,,15,03,140,*49
$GPRMC,193154.001,A,3254.3911,S,07016.9006,W,16.70,81.65,060511,,,A*67
$GPGGA,193155.001,3254.3909,S,07016.8951,W,1,07,1.4,1491.9,M,30.1,M,,0000*6A
$GPGSA,M,3,22,06,03,16,18,30,19,,,,,,2.8,1.4,2.4*37
$GPRMC,193155.001,A,3254.3909,S,07016.8951,W,16.19,81.55,060511,,,A*69
$GPGGA,193155.999,3254.3907,S,07016.8893,W,1,06,2.2,1491.8,M,30.1,M,,0000*66
$GPGSA,M,3,22,06,03,16,18,30,,,,,,,4.1,2.2,3.5*35
$GPRMC,193155.999,A,3254.3907,S,07016.8893,W,16.89,86.43,060511,,,A*69
$GPGGA,193156.999,3254.3904,S,07016.8841,W,1,06,3.0,1492.1,M,30.1,M,,0000*60
$GPGSA,M,3,22,06,03,16,30,19,,,,,,,4.9,3.0,3.9*33
$GPRMC,193156.999,A,3254.3904,S,07016.8841,W,16.72,84.38,060511,,,A*6C
$GPGGA,193158.002,3254.3903,S,07016.8779,W,1,05,2.3,1492.1,M,30.1,M,,0000*67
$GPGSA,M,3,22,06,03,16,18,,,,,,,,4.8,2.3,4.3*3F
$GPRMC,193158.002,A,3254.3903,S,07016.8779,W,16.76,87.99,060511,,,A*66
$GPGGA,193159.000,3254.3903,S,07016.8723,W,1,05,2.3,1491.3,M,30.1,M,,0000*6A
$GPGSA,M,3,22,06,03,16,18,,,,,,,,4.8,2.3,4.3*3F
$GPGSV,3,1,11,22,78,073,38,06,76,190,40,03,63,218,39,16,49,319,36*73
$GPGSV,3,2,11,18,46,129,33,30,33,343,,19,32,224,,21,18,114,*7D
$GPGSV,3,3,11,14,16,037,,11,03,263,,15,03,140,*49
$GPRMC,193159.000,A,3254.3903,S,07016.8723,W,16.53,89.17,060511,,,A*65
$GPGGA,193159.999,3254.3901,S,07016.8669,W,1,05,2.3,1491.1,M,30.1,M,,0000*6C
$GPGSA,M,3,22,06,03,16,18,,,,,,,,4.8,2.3,4.3*3F
$GPRMC,193159.999,A,3254.3901,S,07016.8669,W,16.82,89.66,060511,,,A*6B
$GPGGA,193200.998,3254.3903,S,07016.8617,W,1,07,1.4,1491.9,M,30.1,M,,0000*67
$GPGSA,M,3,22,06,03,16,18,30,19,,,,,,2.8,1.4,2.4*37
$GPRMC,193200.998,A,3254.3903,S,07016.8617,W,16.67,93.52,060511,,,A*69
$GPGGA,193202.001,3254.3905,S,07016.8566,W,1,07,1.4,1492.4,M,30.1,M,,0000*61
$GPGSA,M,3,22,06,03,16,18,30,19,,,,,,2.8,1.4,2.4*37
$GPRMC,193202.001,A,3254.3905,S,07016.8566,W,16.18,92.67,060511,,,A*6E
$GPGGA,193202.998,3254.3907,S,07016.8515,W,1,06,2.2,1493.4,M,30.1,M,,0000*6B
$GPGSA,M,3,22,06,03,16,18,30,,,,,,,4.1,2.2,3.5*35
$GPRMC,193202.998,A,3254.3907,S,07016.8515,W,16.79,94.44,060511,,,A*61
$GPGGA,193203.999,3254.3913,S,07016.8458,W,1,07,1.4,1493.7,M,30.1,M,,0000*61
$GPGSA,M,3,22,06,03,16,18,30,19,,,,,,2.8,1.4,2.4*37
$GPGSV,3,1,11,22,78,073,38,06,76,190,39,03,63,218,39,16,49,319,33*78
$GPGSV,3,2,11,18,46,129,36,30,33,343,31,19,32,224,29,21,18,114,*71
$GPGSV,3,3,11,14,16,037,,11,03,263,,15,03,140,*49
$GPRMC,193203.999,A,3254.3913,S,07016.8458,W,16.27,98.96,060511,,,A*64
$GPGGA,193205.002,3254.3916,S,07016.8398,W,1,07,1.4,1492.1,M,30.1,M,,0000*65
$GPGSA,M,3,22,06,03,16,18,30,19,,,,,,2.8,1.4,2.4*37
$GPRMC,193205.002,A,3254.3916,S,07016.8398,W,16.19,97.43,060511,,,A*6D
$GPGGA,193205.999,3254.3920,S,07016.8348,W,1,07,1.4,1495.0,M,30.1,M,,0000*60
$GPGSA,M,3,22,06,03,16,18,30,19,,,,,,2.8,1.4,2.4*37
$GPRMC,193205.999,A,3254.3920,S,07016.8348,W,17.68,95.63,060511,,,A*69
$GPGGA,193206.997,3254.3926,S,07016.8286,W,1,07,1.4,1494.3,M,30.1,M,,0000*6A
$GPGSA,M,3,22,06,03,16,18,30,19,,,,,,2.8,1.4,2.4*37
$GPRMC,193206.997,A,3254.3926,S,07016.8286,W,17.61,96.01,060511,,,A*6F
$GPGGA,193208.000,3254.3931,S,07016.8229,W,1,07,1.4,1496.8,M,30.1,M,,0000*69
$GPGSA,M,3,22,06,03,16,18,30,19,,,,,,2.8,1.4,2.4*37
$GPRMC,193208.000,A,3254.3931,S,07016.8229,W,18.09,96.55,060511,,,A*65
$GPGGA,193208.999,3254.3933,S,07016.8166,W,1,06,2.2,1495.2,M,30.1,M,,0000*67
$GPGSA,M,3,22,06,03,16,18,30,,,,,,,4.1,2.2,3.5*35
$GPGSV,3,1,11,22,78,073,37,06,76,190,37,03,63,218,37,16,49,319,31*75
$GPGSV,3,2,11,18,46,129,33,30,33,343,33,19,32,224,,21,18,114,*7D
$GPGSV,3,3,11,14,16,037,,11,03,263,,15,03,140,*49
$GPRMC,193208.999,A,3254.3933,S,07016.8166,W,18.58,93.73,060511,,,A*63
$GPGGA,193210.000,3254.3937,S,07016.8105,W,1,06,2.2,1495.6,M,30.1,M,,0000*62
$GPGSA,M,3,22,06,03,16,18,30,,,,,,,4.1,2.2,3.5*35
$GPRMC,193210.000,A,3254.3937,S,07016.8105,W,19.43,93.66,060511,,,A*6D
$GPGGA,193211.001,3254.3941,S,07016.8040,W,1,06,2.2,1495.7,M,30.1,M,,0000*62
$GPGSA,M,3,22,06,03,16,18,30,,,,,,,4.1,2.2,3.5*35
$GPRMC,193211.001,A,3254.3941,S,07016.8040,W,19.59,91.98,060511,,,A*64
$GPGGA,193212.000,3254.3938,S,07016.7973,W,1,06,2.2,1496.2,M,30.1,M,,0000*6E
$GPGSA,M,3,22,06,03,16,18,30,,,,,,,4.1,2.2,3.5*35
$GPRMC,193212.000,A,3254.3938,S,07016.7973,W,19.85,85.70,060511,,,A*6C
$GPGGA,193213.002,3254.3934,S,07016.7909,W,1,07,1.4,1496.7,M,30.1,M,,0000*6D
$GPGSA,M,3,22,06,03,16,18,30,19,,,,,,2.8,1.4,2.4*37
$GPRMC,193213.002,A,3254.3934,S,07016.7909,W,19.37,82.86,060511,,,A*69
$GPGGA,193213.999,3254.3925,S,07016.7839,W,1,07,1.4,1496.1,M,30.1,M,,0000*62
$GPGSA,M,3,22,06,03,16,18,30,19,,,,,,2.8,1.4,2.4*37
$GPGSV,3,1,11,22,78,073,39,06,76,190,39,03,63,218,38,16,49,319,34*7F
$GPGSV,3,2,11,18,46,129,30,30,33,343,36,19,32,224,29,21,18,114,*70
$GPGSV,3,3,11,14,16,037,,11,03,263,,15,03,140,*49
$GPRMC,193213.999,A,3254.3925,S,07016.7839,W,19.89,78.36,060511,,,A*6B
$GPGGA,193215.002,3254.3909,S,07016.7776,W,1,07,1.4,1497.1,M,30.1,M,,0000*64
$GPGSA,M,3,22,06,03,16,18,30,19,,,,,,2.8,1.4,2.4*37
$GPRMC,193215.002,A,3254.3909,S,07016.7776,W,19.63,72.39,060511,,,A*6D
$GPGGA,193215.999,3254.3889,S,07016.7717,W,1,07,1.4,1497.8,M,30.1,M,,0000*68
$GPGSA,M,3,22,06,03,16,18,30,19,,,,,,2.8,1.4,2.4*37
$GPRMC,193215.999,A,3254.3889,S,07016.7717,W,19.63,67.41,060511,,,A*63
$GPGGA,193217.003,3254.3867,S,07016.7665,W,1,07,1.4,1500.0,M,30.1,M,,0000*63
$GPGSA,M,3,22,06,03,16,18,30,19,,,,,,2.8,1.4,2.4*37
$GPRMC,193217.003,A,3254.3867,S,07016.7665,W,18.39,66.38,060511,,,A*6E
$GPGGA,193217.993,3254.3845,S,07016.7616,W,1,07,1.4,1502.5,M,30.1,M,,0000*60
$GPGSA,M,3,22,06,03,16,18,30,19,,,,,,2.8,1.4,2.4*37
$GPRMC,193217.993,A,3254.3845,S,07016.7616,W,19.61,60.97,060511,,,A*65
$GPGGA,193218.998,3254.3817,S,07016.7564,W,1,07,1.4,1504.6,M,30.1,M,,0000*60
$GPGSA,M,3,22,06,03,16,18,30,19,,,,,,2.8,1.4,2.4*37
$GPGSV,3,1,11,22,78,073,40,06,76,190,40,03,63,218,38,16,49,319,37*7C
$GPGSV,3,2,11,18,46,129,40,30,33,343,36,19,32,224,30,21,18,114,*7F
$GPGSV,3,3,11,14,16,037,,11,03,263,,15,03,140,*49
$GPRMC,193218.998,A,3254.3817,S,07016.7564,W,19.98,59.18,060511,,,A*6B
$GPGGA,193220.004,3254.3785,S,07016.7513,W,1,07,1.4,1505.4,M,30.1,M,,0000*60
$GPGSA,M,3,22,06,03,16,18,30,19,,,,,,2.8,1.4,2.4*37
$GPRMC,193220.004,A,3254.3785,S,07016.7513,W,19.55,59.84,060511,,,A*6C
$GPGGA,193220.999,3254.3757,S,07016.7461,W,1,07,1.4,1505.9,M,30.1,M,,0000*6B
$GPGSA,M,3,22,06,03,16,18,30,19,,,,,,2.8,1.4,2.4*37
$GPRMC,193220.999,A,3254.3757,S,07016.7461,W,19.81,58.69,060511,,,A*61
$GPGGA,193222.001,3254.3728,S,07016.7407,W,1,07,1.4,1507.4,M,30.1,M,,0000*66
$GPGSA,M,3,22,06,03,16,18,30,19,,,,,,2.8,1.4,2.4*37
$GPRMC,193222.001,A,3254.3728,S,07016.7407,W,19.72,58.50,060511,,,A*65
$GPGGA,193222.995,3254.3698,S,07016.7358,W,1,07,1.4,1508.8,M,30.1,M,,0000*66
$GPGSA,M,3,22,06,03,16,18,30,19,,,,,,2.8,1.4,2.4*37
$GPRMC,193222.995,A,3254.3698,S,07016.7358,W,19.26,54.57,060511,,,A*6C
$GPGGA,193224.000,3254.3667,S,07016.7308,W,1,07,1.4,1510.5,M,30.1,M,,0000*64
$GPGSA,M,3,22,06,03,16,18,30,19,,,,,,2.8,1.4,2.4*37
$GPGSV,3,1,11,22,78,073,38,06,76,190,37,03,63,218,36,16,49,319,32*78
$GPGSV,3,2,11,18,46,129,37,30,33,343,33,19,32,224,31,21,18,114,*7B
$GPGSV,3,3,11,14,16,037,,11,03,263,,15,03,140,*49
$GPRMC,193224.000,A,3254.3667,S,07016.7308,W,19.03,58.23,060511,,,A*62
$GPGGA,193225.000,3254.3638,S,07016.7264,W,1,07,1.4,1511.6,M,30.1,M,,0000*66
$GPGSA,M,3,22,06,03,16,18,30,19,,,,,,2.8,1.4,2.4*37
$GPRMC,193225.000,A,3254.3638,S,07016.7264,W,19.14,58.16,060511,,,A*62
$GPGGA,193226.000,3254.3613,S,07016.7213,W,1,07,1.4,1510.7,M,30.1,M,,0000*6C
$GPGSA,M,3,22,06,03,16,18,30,19,,,,,,2.8,1.4,2.4*37
$GPRMC,193226.000,A,3254.3613,S,07016.7213,W,18.88,58.81,060511,,,A*62
$GPGGA,193227.000,3254.3584,S,07016.7164,W,1,07,1.4,1513.2,M,30.1,M,,0000*65
$GPGSA,M,3,22,06,03,16,18,30,19,,,,,,2.8,1.4,2.4*37
$GPRMC,193227.000,A,3254.3584,S,07016.7164,W,19.39,56.83,060511,,,A*6A
$GPGGA,193228.001,3254.3554,S,07016.7112,W,1,07,1.4,1513.5,M,30.1,M,,0000*60
$GPGSA,M,3,22,06,03,16,18,30,19,,,,,,2.8,1.4,2.4*37
$GPRMC,193228.001,A,3254.3554,S,07016.7112,W,19.07,59.31,060511,,,A*63
$GPGGA,193229.001,3254.3526,S,07016.7066,W,1,07,1.4,1514.5,M,30.1,M,,0000*61
$GPGSA,M,3,22,06,03,16,18,30,19,,,,,,2.8,1.4,2.4*37
$GPGSV,3,1,11,22,78,073,40,06,76,190,40,03,63,218,40,16,49,319,37*73
$GPGSV,3,2,11,18,46,129,37,30,33,343,36,19,32,224,34,21,18,114,*7B
$GPGSV,3,3,11,14,16,037,,11,03,263,,15,03,140,*49
$GPRMC,193229.001,A,3254.3526,S,07016.7066,W,19.06,56.61,060511,,,A*6E
$GPGGA,193230.000,3254.3497,S,07016.7010,W,1,07,1.4,1514.7,M,30.1,M,,0000*60
$GPGSA,M,3,22,06,03,16,18,30,19,,,,,,2.8,1.4,2.4*37
$GPRMC,193230.000,A,3254.3497,S,07016.7010,W,18.94,56.57,060511,,,A*62
$GPGGA,193230.999,3254.3474,S,07016.6961,W,1,07,1.4,1513.7,M,30.1,M,,0000*6D
$GPGSA,M,3,22,06,03,16,18,30,19,,,,,,2.8,1.4,2.4*37
$GPRMC,193230.999,A,3254.3474,S,07016.6961,W,18.53,57.58,060511,,,A*6D
$GPGGA,193231.998,3254.3446,S,07016.6913,W,1,07,1.4,1514.2,M,30.1,M,,0000*6B
$GPGSA,M,3,22,06,03,16,18,30,19,,,,,,2.8,1.4,2.4*37
$GPRMC,193231.998,A,3254.3446,S,07016.6913,W,18.80,57.24,060511,,,A*6C
$GPGGA,193233.000,3254.3419,S,07016.6859,W,1,07,1.4,1513.4,M,30.1,M,,0000*65
$GPGSA,M,3,22,06,03,16,18,30,19,,,,,,2.8,1.4,2.4*37
$GPRMC,193233.000,A,3254.3419,S,07016.6859,W,18.73,58.17,060511,,,A*60
$GPGGA,193234.000,3254.3385,S,07016.6815,W,1,07,1.4,1517.7,M,30.1,M,,0000*6F
$GPGSA,M,3,22,06,03,16,18,30,19,,,,,,2.8,1.4,2.4*37
$GPGSV,3,1,11,22,78,073,40,06,76,190,38,03,63,218,39,16,49,319,36*73
$GPGSV,3,2,11,18,46,129,39,30,33,343,30,19,32,224,36,21,18,114,*71
$GPGSV,3,3,11,14,16,037,,11,03,263,,15,03,140,*49
$GPRMC,193234.000,A,3254.3385,S,07016.6815,W,18.50,57.71,060511,,,A*63
$GPGGA,193235.003,3254.3358,S,07016.6763,W,1,07,1.4,1518.6,M,30.1,M,,0000*6D
$GPGSA,M,3,22,06,03,16,18,30,19,,,,,,2.8,1.4,2.4*37
$GPRMC,193235.003,A,3254.3358,S,07016.6763,W,18.60,59.94,060511,,,A*69
$GPGGA,193235.998,3254.3335,S,07016.6703,W,1,07,1.4,1518.1,M,30.1,M,,0000*6C
$GPGSA,M,3,22,06,03,16,18,30,19,,,,,,2.8,1.4,2.4*37
$GPRMC,193235.998,A,3254.3335,S,07016.6703,W,18.63,59.37,060511,,,A*65
$GPGGA,193237.003,3254.3308,S,07016.6655,W,1,07,1.4,1518.5,M,30.1,M,,0000*6D
$GPGSA,M,3,22,06,03,16,18,30,19,,,,,,2.8,1.4,2.4*37
$GPRMC,193237.003,A,3254.3308,S,07016.6655,W,17.83,53.50,060511,,,A*6A
$GPGGA,193237.996,3254.3276,S,07016.6613,W,1,07,1.4,1521.7,M,30.1,M,,0000*6A
$GPGSA,M,3,22,06,03,16,18,30,19,,,,,,2.8,1.4,2.4*37
$GPRMC,193237.996,A,3254.3276,S,07016.6613,W,17.70,53.14,060511,,,A*69
$GPGGA,193239.006,3254.3247,S,07016.6571,W,1,07,1.4,1521.3,M,30.1,M,,0000*65
$GPGSA,M,3,22,06,03,16,18,30,19,,,,,,2.8,1.4,2.4*37
$GPGSV,3,1,11,22,78,073,38,06,76,190,36,03,63,218,37,16,49,319,33*79
$GPGSV,3,2,11,18,46,129,38,30,33,343,32,19,32,224,33,21,18,114,*77
$GPGSV,3,3,11,14,16,037,,11,03,263,,15,03,140,*49
$GPRMC,193239.006,A,3254.3247,S,07016.6571,W,18.11,54.93,060511,,,A*62
$GPGGA,193239.997,3254.3219,S,07016.6521,W,1,07,1.4,1522.3,M,30.1,M,,0000*69
$GPGSA,M,3,22,06,03,16,18,30,19,,,,,,2.8,1.4,2.4*37
$GPRMC,193239.997,A,3254.3219,S,07016.6521,W,18.95,57.05,060511,,,A*6D
$GPGGA,193240.997,3254.3186,S,07016.6469,W,1,07,1.4,1523.6,M,30.1,M,,0000*6B
$GPGSA,M,3,22,06,03,16,18,30,19,,,,,,2.8,1.4,2.4*37
$GPRMC,193240.997,A,3254.3186,S,07016.6469,W,18.98,58.57,060511,,,A*6E
$GPGGA,193242.000,3254.3157,S,07016.6417,W,1,07,1.4,1524.1,M,30.1,M,,0000*6B
$GPGSA,M,3,22,06,03,16,18,30,19,,,,,,2.8,1.4,2.4*37
$GPRMC,193242.000,A,3254.3157,S,07016.6417,W,19.50,57.72,060511,,,A*63
$GPGGA,193243.001,3254.3126,S,07016.6364,W,1,07,1.4,1523.9,M,30.1,M,,0000*61
$GPGSA,M,3,22,06,03,16,18,30,19,,,,,,2.8,1.4,2.4*37
$GPRMC,193243.001,A,3254.3126,S,07016.6364,W,19.37,55.29,060511,,,A*6B
$GPGGA,193244.003,3254.3095,S,07016.6307,W,1,07,1.4,1524.9,M,30.1,M,,0000*6F
$GPGSA,M,3,22,06,03,16,18,30,19,,,,,,2.8,1.4,2.4*37
$GPGSV,3,1,11,22,78,073,40,06,76,190,39,03,63,218,39,16,49,319,35*71
$GPGSV,3,2,11,18,46,129,36,30,33,343,34,19,32,224,36,21,18,114,*7A
$GPGSV,3,3,11,14,16,037,,11,03,263,,15,03,140,*49
$GPRMC,193244.003,A,3254.3095,S,07016.6307,W,19.21,56.54,060511,,,A*6C
$GPGGA,193244.996,3254.3067,S,07016.6256,W,1,07,1.4,1524.1,M,30.1,M,,0000*6A
$GPGSA,M,3,22,06,03,16,18,30,19,,,,,,2.8,1.4,2.4*37
$GPRMC,193244.996,A,3254.3067,S,07016.6256,W,18.80,57.11,060511,,,A*6B
$GPGGA,193246.000,3254.3038,S,07016.6208,W,1,07,1.4,1523.8,M,30.1,M,,0000*61
$GPGSA,M,3,22,06,03,16,18,30,19,,,,,,2.8,1.4,2.4*37
$GPRMC,193246.000,A,3254.3038,S,07016.6208,W,18.89,59.05,060511,,,A*6C
$GPGGA,193247.002,3254.3012,S,07016.6154,W,1,07,1.4,1524.2,M,30.1,M,,0000*6D
$GPGSA,M,3,22,06,03,16,18,30,19,,,,,,2.8,1.4,2.4*37
$GPRMC,193247.002,A,3254.3012,S,07016.6154,W,18.58,57.03,060511,,,A*69
$GPGGA,193248.002,3254.2982,S,07016.6103,W,1,07,1.4,1523.9,M,30.1,M,,0000*6D
$GPGSA,M,3,22,06,03,16,18,30,19,,,,,,2.8,1.4,2.4*37
$GPRMC,193248.002,A,3254.2982,S,07016.6103,W,18.55,55.82,060511,,,A*63
$GPGGA,193248.996,3254.2954,S,07016.6053,W,1,06,3.0,1523.9,M,30.1,M,,0000*61
$GPGSA,M,3,22,06,03,16,30,19,,,,,,,4.9,3.0,3.9*33
$GPGSV,3,1,11,22,78,073,39,06,76,190,38,03,63,218,38,16,49,319,34*7E
$GPGSV,3,2,11,18,46,129,,30,33,343,33,19,32,224,32,21,18,114,*7C
$GPGSV,3,3,11,14,16,037,,11,03,263,,15,03,140,*49
$GPRMC,193248.996,A,3254.2954,S,07016.6053,W,18.95,59.38,060511,,,A*69
$GPGGA,193250.000,3254.2926,S,07016.6001,W,1,06,3.0,1525.0,M,30.1,M,,0000*63
$GPGSA,M,3,22,06,03,16,30,19,,,,,,,4.9,3.0,3.9*33
$GPRMC,193250.000,A,3254.2926,S,07016.6001,W,18.42,57.46,060511,,,A*69
$GPGGA,193251.006,3254.2898,S,07016.5950,W,1,07,1.4,1527.8,M,30.1,M,,0000*63
$GPGSA,M,3,22,06,03,16,18,30,19,,,,,,2.8,1.4,2.4*37
$GPRMC,193251.006,A,3254.2898,S,07016.5950,W,18.88,58.18,060511,,,A*66
$GPGGA,193251.996,3254.2871,S,07016.5899,W,1,07,1.4,1528.2,M,30.1,M,,0000*65
$GPGSA,M,3,22,06,03,16,18,30,19,,,,,,2.8,1.4,2.4*37
$GPRMC,193251.996,A,3254.2871,S,07016.5899,W,19.09,60.13,060511,,,A*6D
$GPGGA,193252.997,3254.2846,S,07016.5841,W,1,07,1.4,1527.1,M,30.1,M,,0000*6A
$GPGSA,M,3,22,06,03,16,18,30,19,,,,,,2.8,1.4,2.4*37
$GPRMC,193252.997,A,3254.2846,S,07016.5841,W,18.61,60.58,060511,,,A*6E
$GPGGA,193254.003,3254.2820,S,07016.5782,W,1,07,1.4,1527.8,M,30.1,M,,0000*61
$GPGSA,M,3,22,06,03,16,18,30,19,,,,,,2.8,1.4,2.4*37
$GPGSV,3,1,11,22,78,073,39,06,76,190,38,03,63,218,38,16,49,319,33*79
$GPGSV,3,2,11,18,46,129,32,30,33,343,36,19,32,224,28,21,18,114,*73
$GPGSV,3,3,11,14,16,037,,11,03,263,,15,03,140,*49
$GPRMC,193254.003,A,3254.2820,S,07016.5782,W,19.75,62.58,060511,,,A*6A
$GPGGA,193254.999,3254.2801,S,07016.5723,W,1,06,2.2,1529.5,M,30.1,M,,0000*64
$GPGSA,M,3,22,06,03,16,18,30,,,,,,,4.1,2.2,3.5*35
$GPRMC,193254.999,A,3254.2801,S,07016.5723,W,19.54,65.79,060511,,,A*6F
$GPGGA,193256.000,3254.2782,S,07016.5665,W,1,06,2.2,1529.3,M,30.1,M,,0000*6E
$GPGSA,M,3,22,06,03,16,18,30,,,,,,,4.1,2.2,3.5*35
$GPRMC,193256.000,A,3254.2782,S,07016.5665,W,18.25,67.57,060511,,,A*6A
$GPGGA,193256.997,3254.2764,S,07016.5612,W,1,07,1.4,1529.8,M,30.1,M,,0000*6E
$GPGSA,M,3,22,06,03,16,18,30,19,,,,,,2.8,1.4,2.4*37
$GPRMC,193256.997,A,3254.2764,S,07016.5612,W,18.93,70.49,060511,,,A*61
$GPGGA,193258.005,3254.2748,S,07016.5552,W,1,06,3.0,1532.7,M,30.1,M,,0000*69
$GPGSA,M,3,22,06,03,16,30,19,,,,,,,4.9,3.0,3.9*33
$GPRMC,193258.005,A,3254.2748,S,07016.5552,W,18.91,73.15,060511,,,A*6C
$GPGGA,193258.998,3254.2733,S,07016.5494,W,1,07,1.4,1533.7,M,30.1,M,,0000*65
$GPGSA,M,3,22,06,03,16,18,30,19,,,,,,2.8,1.4,2.4*37
$GPGSV,3,1,11,22,78,073,39,06,76,190,40,03,63,218,39,16,49,319,37*73
$GPGSV,3,2,11,18,46,129,33,30,33,343,37,19,32,224,34,21,18,114,*7E
$GPGSV,3,3,11,14,16,037,,11,03,263,,15,03,140,*49
$GPRMC,193258.998,A,3254.2733,S,07016.5494,W,19.31,72.46,060511,,,A*6A
$GPGGA,193300.000,3254.2717,S,07016.5432,W,1,07,1.4,1535.4,M,30.1,M,,0000*6E
$GPGSA,M,3,22,06,03,16,18,30,19,,,,,,2.8,1.4,2.4*37
$GPRMC,193300.000,A,3254.2717,S,07016.5432,W,18.59,73.98,060511,,,A*69
$GPGGA,193301.000,3254.2702,S,07016.5377,W,1,07,1.4,1535.6,M,30.1,M,,0000*6F
$GPGSA,M,3,22,06,03,16,18,30,19,,,,,,2.8,1.4,2.4*37
$GPRMC,193301.000,A,3254.2702,S,07016.5377,W,19.09,70.49,060511,,,A*61
$GPGGA,193302.000,3254.2688,S,07016.5318,W,1,07,1.4,1538.7,M,30.1,M,,0000*6A
$GPGSA,M,3,22,06,03,16,18,30,19,,,,,,2.8,1.4,2.4*37
$GPRMC,193302.000,A,3254.2688,S,07016.5318,W,18.67,71.33,060511,,,A*6D
$GPGGA,193303.000,3254.2671,S,07016.5262,W,1,07,1.4,1540.2,M,30.1,M,,0000*6B
$GPGSA,M,3,22,06,03,16,18,30,19,,,,,,2.8,1.4,2.4*37
$GPRMC,193303.000,A,3254.2671,S,07016.5262,W,19.03,70.59,060511,,,A*68
$GPGGA,193304.000,3254.2656,S,07016.5200,W,1,07,1.4,1539.2,M,30.1,M,,0000*63
$GPGSA,M,3,22,06,03,16,18,30,19,,,,,,2.8,1.4,2.4*37
$GPGSV,3,1,11,22,78,073,38,06,76,190,38,03,63,218,38,16,49,319,35*7E
$GPGSV,3,2,11,18,46,129,33,30,33,343,36,19,32,224,31,21,18,114,*7A
$GPGSV,3,3,11,14,16,037,,11,03,263,,15,03,140,*49
$GPRMC,193304.000,A,3254.2656,S,07016.5200,W,18.91,72.31,060511,,,A*68
$GPGGA,193305.000,3254.2640,S,07016.5143,W,1,07,1.4,1540.0,M,30.1,M,,0000*6D
$GPGSA,M,3,22,06,03,16,18,30,19,,,,,,2.8,1.4,2.4*37
$GPRMC,193305.000,A,3254.2640,S,07016.5143,W,18.88,71.53,060511,,,A*65
$GPGGA,193305.998,3254.2623,S,07016.5088,W,1,07,1.4,1542.1,M,30.1,M,,0000*65
$GPGSA,M,3,22,06,03,16,18,30,19,,,,,,2.8,1.4,2.4*37
$GPRMC,193305.998,A,3254.2623,S,07016.5088,W,18.18,72.58,060511,,,A*6F
$GPGGA,193307.001,3254.2607,S,07016.5029,W,1,07,1.4,1542.1,M,30.1,M,,0000*63
$GPGSA,M,3,22,06,03,16,18,30,19,,,,,,2.8,1.4,2.4*37
$GPRMC,193307.001,A,3254.2607,S,07016.5029,W,18.85,74.19,060511,,,A*6E
$GPGGA,193307.998,3254.2592,S,07016.4968,W,1,07,1.4,1543.4,M,30.1,M,,0000*6C
$GPGSA,M,3,22,06,03,16,18,30,19,,,,,,2.8,1.4,2.4*37
$GPRMC,193307.998,A,3254.2592,S,07016.4968,W,18.60,73.93,060511,,,A*6B
$GPGGA,193309.003,3254.2578,S,07016.4912,W,1,07,1.4,1544.1,M,30.1,M,,0000*62
$GPGSA,M,3,22,06,03,16,18,30,19,,,,,,2.8,1.4,2.4*37
$GPGSV,3,1,11,22,78,073,36,06,76,190,37,03,63,218,35,16,49,319,34*73
$GPGSV,3,2,11,18,46,129,29,30,33,343,34,19,32,224,32,21,18,114,*70
$GPGSV,3,3,11,14,16,037,,11,03,263,,15,03,140,*49
$GPRMC,193309.003,A,3254.2578,S,07016.4912,W,18.53,73.72,060511,,,A*68
$GPGGA,193309.999,3254.2563,S,07016.4854,W,1,07,1.4,1545.4,M,30.1,M,,0000*65
$GPGSA,M,3,22,06,03,16,18,30,19,,,,,,2.8,1.4,2.4*37
$GPRMC,193309.999,A,3254.2563,S,07016.4854,W,18.59,72.51,060511,,,A*61
$GPGGA,193311.001,3254.2547,S,07016.4805,W,1,07,1.4,1548.1,M,30.1,M,,0000*6E
$GPGSA,M,3,22,06,03,16,18,30,19,,,,,,2.8,1.4,2.4*37
$GPRMC,193311.001,A,3254.2547,S,07016.4805,W,18.37,72.33,060511,,,A*6E
$GPGGA,193311.996,3254.2537,S,07016.4747,W,1,07,1.4,1548.5,M,30.1,M,,0000*63
$GPGSA,M,3,22,06,03,16,18,30,19,,,,,,2.8,1.4,2.4*37
$GPRMC,193311.996,A,3254.2537,S,07016.4747,W,18.74,73.73,060511,,,A*65
$GPGGA,193313.002,3254.2522,S,07016.4689,W,1,07,1.4,1550.0,M,30.1,M,,0000*6E
$GPGSA,M,3,22,06,03,16,18,30,19,,,,,,2.8,1.4,2.4*37
$GPRMC,193313.002,A,3254.2522,S,07016.4689,W,18.22,72.72,060511,,,A*67
$GPGGA,193314.000,3254.2507,S,07016.4629,W,1,07,1.4,1550.7,M,30.1,M,,0000*61
$GPGSA,M,3,22,06,03,16,18,30,19,,,,,,2.8,1.4,2.4*37
$GPGSV,3,1,11,22,78,073,39,06,76,190,39,03,63,218,37,16,49,319,36*72
$GPGSV,3,2,11,18,46,129,34,30,33,343,37,19,32,224,34,21,18,114,*79
$GPGSV,3,3,11,14,16,037,,11,03,263,,15,03,140,*49
$GPRMC,193314.000,A,3254.2507,S,07016.4629,W,18.85,72.29,060511,,,A*6C
$GPGGA,193315.007,3254.2492,S,07016.4568,W,1,07,1.4,1554.2,M,30.1,M,,0000*6D
$GPGSA,M,3,22,06,03,16,18,30,19,,,,,,2.8,1.4,2.4*37
$GPRMC,193315.007,A,3254.2492,S,07016.4568,W,18.58,73.76,060511,,,A*6A
$GPGGA,193315.994,3254.2478,S,07016.4510,W,1,07,1.4,1554.6,M,30.1,M,,0000*61
$GPGSA,M,3,22,06,03,16,18,30,19,,,,,,2.8,1.4,2.4*37
$GPRMC,193315.994,A,3254.2478,S,07016.4510,W,18.31,74.25,060511,,,A*6C
$GPGGA,193317.000,3254.2464,S,07016.4450,W,1,07,1.4,1555.3,M,30.1,M,,0000*6B
$GPGSA,M,3,22,06,03,16,18,30,19,,,,,,2.8,1.4,2.4*37
$GPRMC,193317.000,A,3254.2464,S,07016.4450,W,18.66,74.30,060511,,,A*64
$GPGGA,193318.000,3254.2448,S,07016.4389,W,1,07,1.4,1556.7,M,30.1,M,,0000*6E
$GPGSA,M,3,22,06,03,16,18,30,19,,,,,,2.8,1.4,2.4*37
$GPRMC,193318.000,A,3254.2448,S,07016.4389,W,18.80,73.96,060511,,,A*65
$GPGGA,193319.000,3254.2432,S,07016.4330,W,1,07,1.4,1556.5,M,30.1,M,,0000*62
$GPGSA,M,3,22,06,03,16,18,30,19,,,,,,2.8,1.4,2.4*37
$GPGSV,3,1,11,22,78,073,37,06,76,190,38,03,63,218,37,16,49,319,36*7D
$GPGSV,3,2,11,18,46,129,30,30,33,343,34,19,32,224,35,21,18,114,*7F
$GPGSV,3,3,11,14,16,037,,11,03,263,,15,03,140,*49
$GPRMC,193319.000,A,3254.2432,S,07016.4330,W,18.22,72.61,060511,,,A*6A
$GPGGA,193320.000,3254.2416,S,07016.4272,W,1,07,1.4,1558.0,M,30.1,M,,0000*62
$GPGSA,M,3,22,06,03,16,18,30,19,,,,,,2.8,1.4,2.4*37
$GPRMC,193320.000,A,3254.2416,S,07016.4272,W,18.05,72.76,060511,,,A*62
$GPGGA,193320.998,3254.2402,S,07016.4217,W,1,07,1.4,1559.2,M,30.1,M,,0000*6F
$GPGSA,M,3,22,06,03,16,18,30,19,,,,,,2.8,1.4,2.4*37
$GPRMC,193320.998,A,3254.2402,S,07016.4217,W,17.99,74.30,060511,,,A*62
$GPGGA,193321.999,3254.2389,S,07016.4149,W,1,07,1.4,1559.4,M,30.1,M,,0000*65
$GPGSA,M,3,22,06,03,16,18,30,19,,,,,,2.8,1.4,2.4*37
$GPRMC,193321.999,A,3254.2389,S,07016.4149,W,18.07,73.40,060511,,,A*66
$GPGGA,193322.999,3254.2375,S,07016.4093,W,1,07,1.4,1561.0,M,30.1,M,,0000*6C
$GPGSA,M,3,22,06,03,16,18,30,19,,,,,,2.8,1.4,2.4*37
$GPRMC,193322.999,A,3254.2375,S,07016.4093,W,18.03,74.65,060511,,,A*64
$GPGGA,193323.999,3254.2360,S,07016.4037,W,1,07,1.4,1561.6,M,30.1,M,,0000*61
$GPGSA,M,3,22,06,03,16,18,30,19,,,,,,2.8,1.4,2.4*37
$GPGSV,3,1,11,22,78,073,39,06,76,190,39,03,63,218,37,16,49,319,37*73
$GPGSV,3,2,11,18,46,129,35,30,33,343,36,19,32,224,36,21,18,114,*7B
$GPGSV,3,3,11,14,16,037,,11,03,263,,15,03,140,*49
$GPRMC,193323.999,A,3254.2360,S,07016.4037,W,18.49,75.33,060511,,,A*63
$GPGGA,193324.999,3254.2348,S,07016.3975,W,1,07,1.4,1562.7,M,30.1,M,,0000*66
$GPGSA,M,3,22,06,03,16,18,30,19,,,,,,2.8,1.4,2.4*37
$GPRMC,193324.999,A,3254.2348,S,07016.3975,W,18.57,75.60,060511,,,A*6F
$GPGGA,193326.000,3254.2333,S,07016.3914,W,1,07,1.4,1563.6,M,30.1,M,,0000*66
$GPGSA,M,3,22,06,03,16,18,30,19,,,,,,2.8,1.4,2.4*37
$GPRMC,193326.000,A,3254.2333,S,07016.3914,W,18.79,73.12,060511,,,A*60
$GPGGA,193327.002,3254.2318,S,07016.3848,W,1,07,1.4,1565.4,M,30.1,M,,0000*60
$GPGSA,M,3,22,06,03,16,18,30,19,,,,,,2.8,1.4,2.4*37
$GPRMC,193327.002,A,3254.2318,S,07016.3848,W,19.53,74.75,060511,,,A*6D
$GPGGA,193328.000,3254.2305,S,07016.3789,W,1,07,1.4,1566.5,M,30.1,M,,0000*61
$GPGSA,M,3,22,06,03,16,18,30,19,,,,,,2.8,1.4,2.4*37
$GPRMC,193328.000,A,3254.2305,S,07016.3789,W,19.52,75.15,060511,,,A*68
$GPGGA,193328.996,3254.2294,S,07016.3730,W,1,07,1.4,1566.4,M,30.1,M,,0000*6D
$GPGSA,M,3,22,06,03,16,18,30,19,,,,,,2.8,1.4,2.4*37
$GPGSV,3,1,11,22,78,073,40,06,76,190,39,03,63,218,38,16,49,319,37*72
$GPGSV,3,2,11,18,46,129,35,30,33,343,35,19,32,224,36,21,18,114,*78
$GPGSV,3,3,11,14,16,037,,11,03,263,,15,03,140,*49
$GPRMC,193328.996,A,3254.2294,S,07016.3730,W,18.78,74.56,060511,,,A*6A
$GPGGA,193330.003,3254.2283,S,07016.3673,W,1,07,1.4,1568.8,M,30.1,M,,0000*63
$GPGSA,M,3,22,06,03,16,18,30,19,,,,,,2.8,1.4,2.4*37
$GPRMC,193330.003,A,3254.2283,S,07016.3673,W,19.33,74.67,060511,,,A*6A
$GPGGA,193331.000,3254.2268,S,07016.3613,W,1,07,1.4,1569.8,M,30.1,M,,0000*63
$GPGSA,M,3,22,06,03,16,18,30,19,,,,,,2.8,1.4,2.4*37
$GPRMC,193331.000,A,3254.2268,S,07016.3613,W,19.06,74.63,060511,,,A*69
$GPGGA,193331.999,3254.2255,S,07016.3553,W,1,07,1.4,1570.3,M,30.1,M,,0000*60
$GPGSA,M,3,22,06,03,16,18,30,19,,,,,,2.8,1.4,2.4*37
$GPRMC,193331.999,A,3254.2255,S,07016.3553,W,18.75,73.43,060511,,,A*69
$GPGGA,193332.999,3254.2242,S,07016.3492,W,1,07,1.4,1571.2,M,30.1,M,,0000*69
$GPGSA,M,3,22,06,03,16,18,30,19,,,,,,2.8,1.4,2.4*37
$GPRMC,193332.999,A,3254.2242,S,07016.3492,W,19.08,73.49,060511,,,A*61
$GPGGA,193333.999,3254.2231,S,07016.3434,W,1,07,1.4,1572.9,M,30.1,M,,0000*68
$GPGSA,M,3,22,06,03,16,18,30,19,,,,,,2.8,1.4,2.4*37
$GPGSV,3,1,11,22,78,073,39,06,76,190,38,03,63,218,37,16,49,319,36*73
$GPGSV,3,2,11,18,46,129,31,30,33,343,36,19,32,224,32,21,18,114,*7B
$GPGSV,3,3,11,14,16,037,,11,03,263,,15,03,140,*49
$GPRMC,193333.999,A,3254.2231,S,07016.3434,W,19.56,75.99,060511,,,A*68
$GPGGA,193334.999,3254.2219,S,07016.3377,W,1,07,1.4,1574.7,M,30.1,M,,0000*6D
$GPGSA,M,3,22,06,03,16,18,30,19,,,,,,2.8,1.4,2.4*37
$GPRMC,193334.999,A,3254.2219,S,07016.3377,W,18.49,74.02,060511,,,A*69
$GPGGA,193336.000,3254.2208,S,07016.3320,W,1,07,1.4,1574.5,M,30.1,M,,0000*66
$GPGSA,M,3,22,06,03,16,18,30,19,,,,,,2.8,1.4,2.4*37
$GPRMC,193336.000,A,3254.2208,S,07016.3320,W,17.42,76.94,060511,,,A*69
$GPGGA,193337.000,3254.2195,S,07016.3265,W,1,07,1.4,1575.1,M,30.1,M,,0000*65
$GPGSA,M,3,22,06,03,16,18,30,19,,,,,,2.8,1.4,2.4*37
$GPRMC,193337.000,A,3254.2195,S,07016.3265,W,17.84,75.34,060511,,,A*6C
$GPGGA,193338.001,3254.2185,S,07016.3212,W,1,06,3.0,1578.3,M,30.1,M,,0000*62
$GPGSA,M,3,22,06,03,16,30,19,,,,,,,4.9,3.0,3.9*33
$GPRMC,193338.001,A,3254.2185,S,07016.3212,W,16.81,79.44,060511,,,A*6C
$GPGGA,193338.999,3254.2178,S,07016.3160,W,1,06,3.0,1578.0,M,30.1,M,,0000*6D
$GPGSA,M,3,22,06,03,16,30,19,,,,,,,4.9,3.0,3.9*33
$GPGSV,3,1,11,22,78,073,40,06,76,190,39,03,63,218,38,16,49,319,36*73
$GPGSV,3,2,11,18,46,129,,30,33,343,33,19,32,224,32,21,18,114,*7C
$GPGSV,3,3,11,14,16,037,,11,03,263,,15,03,140,*49
$GPRMC,193338.999,A,3254.2178,S,07016.3160,W,15.72,82.10,060511,,,A*6A
$GPGGA,193339.995,3254.2175,S,07016.3111,W,1,06,3.0,1578.7,M,30.1,M,,0000*6C
$GPGSA,M,3,22,06,03,16,30,19,,,,,,,4.9,3.0,3.9*33
$GPRMC,193339.995,A,3254.2175,S,07016.3111,W,14.86,86.03,060511,,,A*60
$GPGGA,193341.002,3254.2172,S,07016.3064,W,1,07,1.4,1577.7,M,30.1,M,,0000*68
$GPGSA,M,3,22,06,03,16,18,30,19,,,,,,2.8,1.4,2.4*37
$GPRMC,193341.002,A,3254.2172,S,07016.3064,W,14.25,83.12,060511,,,A*60
$GPGGA,193341.998,3254.2168,S,07016.3026,W,1,06,2.2,1579.1,M,30.1,M,,0000*63
$GPGSA,M,3,22,06,03,16,18,30,,,,,,,4.1,2.2,3.5*35
$GPRMC,193341.998,A,3254.2168,S,07016.3026,W,13.05,83.69,060511,,,A*6E
$GPGGA,193343.004,3254.2167,S,07016.2973,W,1,06,2.2,1577.5,M,30.1,M,,0000*60
$GPGSA,M,3,06,22,03,16,18,30,,,,,,,4.1,2.2,3.5*35
$GPRMC,193343.004,A,3254.2167,S,07016.2973,W,12.64,87.55,060511,,,A*6A
