$GPGGA,181336.000,3948.1801,S,07036.6629,W,1,08,1.2,957.5,M,22.8,M,,0000*57
$GPGSA,M,3,22,03,06,21,30,16,18,19,,,,,2.6,1.2,2.3*3B
$GPRMC,181336.000,A,3948.1801,S,07036.6629,W,0.08,128.94,120511,,,A*60
$GPGGA,181337.000,3948.1801,S,07036.6630,W,1,08,1.2,956.9,M,22.8,M,,0000*53
$GPGSA,M,3,22,03,06,21,30,16,18,19,,,,,2.6,1.2,2.3*3B
$GPGSV,3,1,12,16,61,291,34,18,61,078,42,06,61,224,32,22,50,009,43*7D
$GPGSV,3,2,12,30,50,333,38,03,47,231,26,21,39,123,38,19,17,240,25*7C
$GPGSV,3,3,12,29,03,067,,15,10,117,34,07,01,215,,26,00,150,*76
$GPRMC,181337.000,A,3948.1801,S,07036.6630,W,0.13,213.02,120511,,,A*67
$GPGGA,181338.000,3948.1802,S,07036.6631,W,1,08,1.2,956.4,M,22.8,M,,0000*53
$GPGSA,M,3,22,03,06,21,30,16,18,19,,,,,2.6,1.2,2.3*3B
$GPRMC,181338.000,A,3948.1802,S,07036.6631,W,0.12,195.03,120511,,,A*67
$GPGGA,181339.000,3948.1802,S,07036.6632,W,1,08,1.2,956.1,M,22.8,M,,0000*54
$GPGSA,M,3,22,03,06,21,30,16,18,19,,,,,2.6,1.2,2.3*3B
$GPRMC,181339.000,A,3948.1802,S,07036.6632,W,0.06,132.24,120511,,,A*68
$GPGGA,181340.000,3948.1802,S,07036.6633,W,1,08,1.2,956.0,M,22.8,M,,0000*5A
$GPGSA,M,3,22,03,06,21,30,16,18,19,,,,,2.6,1.2,2.3*3B
$GPRMC,181340.000,A,3948.1802,S,07036.6633,W,0.06,125.57,120511,,,A*65
$GPGGA,181341.000,3948.1802,S,07036.6633,W,1,08,1.2,955.9,M,22.8,M,,0000*51
$GPGSA,M,3,22,03,06,21,30,16,18,19,,,,,2.6,1.2,2.3*3B
$GPRMC,181341.000,A,3948.1802,S,07036.6633,W,0.10,74.84,120511,,,A*58
$GPGGA,181342.000,3948.1802,S,07036.6633,W,1,08,1.2,955.8,M,22.8,M,,0000*53
$GPGSA,M,3,22,03,06,21,30,16,18,19,,,,,2.6,1.2,2.3*3B
$GPGSV,3,1,12,16,61,291,36,18,61,078,42,06,61,224,35,22,50,009,43*78
$GPGSV,3,2,12,30,50,333,38,03,47,231,28,21,39,123,37,19,18,240,24*73
$GPGSV,3,3,12,15,10,118,33,29,03,067,,07,01,215,,26,00,150,*7E
$GPRMC,181342.000,A,3948.1802,S,07036.6633,W,0.06,178.26,120511,,,A*69
$GPGGA,181343.000,3948.1802,S,07036.6634,W,1,08,1.2,955.7,M,22.8,M,,0000*5A
$GPGSA,M,3,22,03,06,21,30,16,18,19,,,,,2.6,1.2,2.3*3B
$GPRMC,181343.000,A,3948.1802,S,07036.6634,W,0.05,133.55,120511,,,A*67
$GPGGA,181344.000,3948.1802,S,07036.6634,W,1,08,1.2,955.4,M,22.8,M,,0000*5E
$GPGSA,M,3,22,03,06,21,30,16,18,19,,,,,2.6,1.2,2.3*3B
$GPRMC,181344.000,A,3948.1802,S,07036.6634,W,0.05,143.42,120511,,,A*61
$GPGGA,181345.000,3948.1802,S,07036.6634,W,1,08,1.2,955.5,M,22.8,M,,0000*5E
$GPGSA,M,3,22,03,06,21,30,16,18,19,,,,,2.6,1.2,2.3*3B
$GPRMC,181345.000,A,3948.1802,S,07036.6634,W,0.11,83.33,120511,,,A*5E
$GPGGA,181346.000,3948.1801,S,07036.6634,W,1,08,1.2,955.5,M,22.8,M,,0000*5E
$GPGSA,M,3,22,03,06,21,30,16,18,19,,,,,2.6,1.2,2.3*3B
$GPRMC,181346.000,A,3948.1801,S,07036.6634,W,0.06,130.13,120511,,,A*63
$GPGGA,181347.000,3948.1801,S,07036.6634,W,1,08,1.2,955.5,M,22.8,M,,0000*5F
$GPGSA,M,3,22,03,06,21,30,16,18,19,,,,,2.6,1.2,2.3*3B
$GPGSV,3,1,12,16,61,291,36,18,61,078,42,06,61,224,35,22,50,009,43*78
$GPGSV,3,2,12,30,50,333,39,03,47,231,30,21,39,123,38,19,18,240,25*75
$GPGSV,3,3,12,15,10,118,30,29,03,067,,07,01,215,,26,00,150,*7D
$GPRMC,181347.000,A,3948.1801,S,07036.6634,W,0.05,106.47,120511,,,A*65
$GPGGA,181348.000,3948.1801,S,07036.6634,W,1,08,1.2,955.5,M,22.8,M,,0000*50
$GPGSA,M,3,22,03,06,21,30,16,18,19,,,,,2.6,1.2,2.3*3B
$GPRMC,181348.000,A,3948.1801,S,07036.6634,W,0.06,97.19,120511,,,A*5B
$GPGGA,181349.000,3948.1801,S,07036.6634,W,1,08,1.2,955.4,M,22.8,M,,0000*50
$GPGSA,M,3,22,03,06,21,30,16,18,19,,,,,2.6,1.2,2.3*3B
$GPRMC,181349.000,A,3948.1801,S,07036.6634,W,0.06,90.36,120511,,,A*50
$GPGGA,181350.000,3948.1801,S,07036.6634,W,1,08,1.2,955.4,M,22.8,M,,0000*58
$GPGSA,M,3,22,03,06,21,30,16,18,19,,,,,2.6,1.2,2.3*3B
$GPRMC,181350.000,A,3948.1801,S,07036.6634,W,0.06,100.87,120511,,,A*6A
$GPGGA,181351.000,3948.1801,S,07036.6634,W,1,08,1.2,955.4,M,22.8,M,,0000*59
$GPGSA,M,3,22,03,06,21,30,16,18,19,,,,,2.6,1.2,2.3*3B
$GPRMC,181351.000,A,3948.1801,S,07036.6634,W,0.05,122.00,120511,,,A*67
$GPGGA,181352.000,3948.1801,S,07036.6634,W,1,08,1.2,955.2,M,22.8,M,,0000*5C
$GPGSA,M,3,22,03,06,21,30,16,18,19,,,,,2.6,1.2,2.3*3B
$GPGSV,3,1,12,16,61,291,36,18,61,078,42,06,61,224,35,22,50,009,42*79
$GPGSV,3,2,12,30,50,333,39,03,47,231,30,21,39,123,38,19,18,240,26*76
$GPGSV,3,3,12,15,10,118,31,29,03,067,,07,01,215,,26,00,150,*7C
$GPRMC,181352.000,A,3948.1801,S,07036.6634,W,0.05,111.72,120511,,,A*61
$GPGGA,181353.000,3948.1802,S,07036.6634,W,1,08,1.2,955.1,M,22.8,M,,0000*5D
$GPGSA,M,3,22,03,06,21,30,16,18,19,,,,,2.6,1.2,2.3*3B
$GPRMC,181353.000,A,3948.1802,S,07036.6634,W,0.04,121.71,120511,,,A*62
$GPGGA,181354.000,3948.1802,S,07036.6634,W,1,08,1.2,955.0,M,22.8,M,,0000*5B
$GPGSA,M,3,22,03,06,21,30,16,18,19,,,,,2.6,1.2,2.3*3B
$GPRMC,181354.000,A,3948.1802,S,07036.6634,W,0.05,122.44,120511,,,A*61
$GPGGA,181355.000,3948.1802,S,07036.6634,W,1,08,1.2,954.9,M,22.8,M,,0000*52
$GPGSA,M,3,22,03,06,21,30,16,18,19,,,,,2.6,1.2,2.3*3B
$GPRMC,181355.000,A,3948.1802,S,07036.6634,W,0.04,129.30,120511,,,A*69
$GPGGA,181356.000,3948.1802,S,07036.6634,W,1,08,1.2,954.8,M,22.8,M,,0000*50
$GPGSA,M,3,22,03,06,21,30,16,18,19,,,,,2.6,1.2,2.3*3B
$GPRMC,181356.000,A,3948.1802,S,07036.6634,W,0.04,127.55,120511,,,A*67
$GPGGA,181357.000,3948.1802,S,07036.6634,W,1,08,1.2,954.8,M,22.8,M,,0000*51
$GPGSA,M,3,22,03,06,21,30,16,18,19,,,,,2.6,1.2,2.3*3B
$GPGSV,3,1,12,16,61,291,35,06,61,224,35,18,61,079,42,22,50,010,42*73
$GPGSV,3,2,12,30,50,333,39,03,47,231,30,21,39,123,38,19,18,239,26*78
$GPGSV,3,3,12,15,10,118,31,29,03,067,,07,01,215,,26,00,150,*7C
$GPRMC,181357.000,A,3948.1802,S,07036.6634,W,0.07,114.73,120511,,,A*61
$GPGGA,181358.000,3948.1803,S,07036.6634,W,1,08,1.2,954.7,M,22.8,M,,0000*50
$GPGSA,M,3,22,03,06,21,30,16,18,19,,,,,2.6,1.2,2.3*3B
$GPRMC,181358.000,A,3948.1803,S,07036.6634,W,0.05,121.07,120511,,,A*68
$GPGGA,181359.000,3948.1803,S,07036.6634,W,1,08,1.2,954.6,M,22.8,M,,0000*50
$GPGSA,M,3,22,03,06,21,30,16,18,19,,,,,2.6,1.2,2.3*3B
$GPRMC,181359.000,A,3948.1803,S,07036.6634,W,0.08,95.85,120511,,,A*50
$GPGGA,181400.000,3948.1803,S,07036.6634,W,1,08,1.2,954.6,M,22.8,M,,0000*5B
$GPGSA,M,3,22,03,06,21,30,16,18,19,,,,,2.6,1.2,2.3*3B
$GPRMC,181400.000,A,3948.1803,S,07036.6634,W,0.10,78.73,120511,,,A*58
$GPGGA,181401.000,3948.1803,S,07036.6634,W,1,08,1.2,954.5,M,22.8,M,,0000*59
$GPGSA,M,3,22,03,06,21,30,16,18,19,,,,,2.6,1.2,2.3*3B
$GPRMC,181401.000,A,3948.1803,S,07036.6634,W,0.05,109.96,120511,,,A*61
$GPGGA,181402.000,3948.1803,S,07036.6634,W,1,08,1.2,954.5,M,22.8,M,,0000*5A
$GPGSA,M,3,22,03,06,21,30,16,18,19,,,,,2.6,1.2,2.3*3B
$GPGSV,3,1,12,06,61,224,34,16,61,291,35,18,61,079,42,22,50,010,42*72
$GPGSV,3,2,12,30,49,333,39,03,47,231,30,21,39,123,39,19,18,239,26*71
$GPGSV,3,3,12,15,10,118,30,29,03,067,,07,01,215,,26,00,150,*7D
$GPRMC,181402.000,A,3948.1803,S,07036.6634,W,0.06,150.22,120511,,,A*62
$GPGGA,181403.000,3948.1803,S,07036.6634,W,1,08,1.2,954.5,M,22.8,M,,0000*5B
$GPGSA,M,3,22,03,06,21,30,16,18,19,,,,,2.6,1.2,2.3*3B
$GPRMC,181403.000,A,3948.1803,S,07036.6634,W,0.11,78.61,120511,,,A*59
$GPGGA,181404.000,3948.1803,S,07036.6634,W,1,09,1.1,954.5,M,22.8,M,,0000*5E
$GPGSA,M,3,22,03,06,21,30,16,18,19,15,,,,2.0,1.1,1.7*3D
$GPRMC,181404.000,A,3948.1803,S,07036.6634,W,0.08,93.14,120511,,,A*51
$GPGGA,181405.000,3948.1804,S,07036.6634,W,1,09,1.1,954.4,M,22.8,M,,0000*59
$GPGSA,M,3,22,03,06,21,30,16,18,19,15,,,,2.0,1.1,1.7*3D
$GPRMC,181405.000,A,3948.1804,S,07036.6634,W,0.06,120.95,120511,,,A*69
$GPGGA,181406.181,3948.1804,S,07036.6633,W,1,08,1.3,954.2,M,22.8,M,,0000*50
$GPGSA,M,3,06,16,18,22,30,03,21,15,,,,,2.7,1.3,2.3*37
$GPRMC,181406.181,A,3948.1804,S,07036.6633,W,0.12,43.34,120511,,,A*5F
$GPGGA,181406.998,3948.1805,S,07036.6635,W,1,08,1.3,954.5,M,22.8,M,,0000*50
$GPGSA,M,3,06,16,18,22,30,03,21,15,,,,,2.7,1.3,2.3*37
$GPRMC,181406.998,A,3948.1805,S,07036.6635,W,0.40,249.43,120511,,,A*67
$GPGGA,181408.002,3948.1805,S,07036.6635,W,1,09,1.1,954.7,M,22.8,M,,0000*55
$GPGSA,M,3,06,16,18,22,30,03,21,19,15,,,,2.0,1.1,1.7*3D
$GPGSV,3,1,12,06,61,224,30,16,61,291,34,18,61,079,38,22,50,010,38*77
$GPGSV,3,2,12,30,49,333,37,03,47,231,29,21,39,123,37,19,18,239,22*7D
$GPGSV,3,3,12,15,10,118,31,29,03,067,,07,01,215,,26,00,150,*7C
$GPRMC,181408.002,A,3948.1805,S,07036.6635,W,0.32,61.39,120511,,,A*53
$GPGGA,181408.998,3948.1805,S,07036.6633,W,1,08,1.3,954.9,M,22.8,M,,0000*54
$GPGSA,M,3,06,16,18,22,30,03,21,15,,,,,2.7,1.3,2.3*37
$GPRMC,181408.998,A,3948.1805,S,07036.6633,W,0.16,35.85,120511,,,A*5F
$GPGGA,181410.000,3948.1804,S,07036.6631,W,1,08,1.3,955.0,M,22.8,M,,0000*5E
$GPGSA,M,3,06,16,18,22,30,03,21,15,,,,,2.7,1.3,2.3*37
$GPRMC,181410.000,A,3948.1804,S,07036.6631,W,0.13,69.97,120511,,,A*52
$GPGGA,181411.000,3948.1803,S,07036.6629,W,1,08,1.3,955.6,M,22.8,M,,0000*57
$GPGSA,M,3,06,16,18,22,30,03,21,15,,,,,2.7,1.3,2.3*37
$GPRMC,181411.000,A,3948.1803,S,07036.6629,W,0.39,33.50,120511,,,A*51
$GPGGA,181412.000,3948.1802,S,07036.6628,W,1,08,1.3,956.4,M,22.8,M,,0000*55
$GPGSA,M,3,06,16,18,22,30,03,21,15,,,,,2.7,1.3,2.3*37
$GPRMC,181412.000,A,3948.1802,S,07036.6628,W,0.33,56.85,120511,,,A*53
$GPGGA,181413.000,3948.1803,S,07036.6626,W,1,08,1.3,956.7,M,22.8,M,,0000*58
$GPGSA,M,3,06,16,18,22,30,03,21,15,,,,,2.7,1.3,2.3*37
$GPGSV,3,1,12,06,61,224,31,16,61,291,33,18,61,079,38,22,50,010,38*71
$GPGSV,3,2,12,30,49,333,37,03,47,231,27,21,39,123,37,19,18,239,*73
$GPGSV,3,3,12,15,10,118,29,29,03,067,,07,01,215,,26,00,150,*75
$GPRMC,181413.000,A,3948.1803,S,07036.6626,W,0.37,132.22,120511,,,A*67
$GPGGA,181414.000,3948.1804,S,07036.6627,W,1,08,1.3,957.6,M,22.8,M,,0000*59
$GPGSA,M,3,06,16,18,22,30,03,21,15,,,,,2.7,1.3,2.3*37
$GPRMC,181414.000,A,3948.1804,S,07036.6627,W,0.19,40.41,120511,,,A*5B
$GPGGA,181415.002,3948.1802,S,07036.6623,W,1,09,1.1,957.8,M,22.8,M,,0000*55
$GPGSA,M,3,06,16,18,22,30,03,21,19,15,,,,2.0,1.1,1.7*3D
$GPRMC,181415.002,A,3948.1802,S,07036.6623,W,0.75,42.43,120511,,,A*50
$GPGGA,181415.999,3948.1801,S,07036.6620,W,1,09,1.1,958.4,M,22.8,M,,0000*5D
$GPGSA,M,3,06,16,18,22,30,03,21,19,15,,,,2.0,1.1,1.7*3D
$GPRMC,181415.999,A,3948.1801,S,07036.6620,W,0.55,68.19,120511,,,A*5E
$GPGGA,181416.998,3948.1799,S,07036.6615,W,1,08,1.2,958.5,M,22.8,M,,0000*54
$GPGSA,M,3,06,16,18,22,30,21,19,15,,,,,2.1,1.2,1.7*3C
$GPRMC,181416.998,A,3948.1799,S,07036.6615,W,0.29,51.97,120511,,,A*53
$GPGGA,181418.001,3948.1799,S,07036.6615,W,1,09,1.1,958.7,M,22.8,M,,0000*53
$GPGSA,M,3,06,16,18,22,30,03,21,19,15,,,,2.0,1.1,1.7*3D
$GPGSV,3,1,12,06,61,224,32,16,61,291,33,18,61,079,38,22,50,010,39*73
$GPGSV,3,2,12,30,49,333,38,03,47,231,29,21,39,123,38,19,18,239,26*79
$GPGSV,3,3,12,15,10,118,28,29,03,067,,07,01,215,,26,00,150,*74
$GPRMC,181418.001,A,3948.1799,S,07036.6615,W,0.34,84.69,120511,,,A*51
$GPGGA,181419.000,3948.1797,S,07036.6614,W,1,09,1.1,958.0,M,22.8,M,,0000*5B
$GPGSA,M,3,06,16,18,22,30,03,21,19,15,,,,2.0,1.1,1.7*3D
$GPRMC,181419.000,A,3948.1797,S,07036.6614,W,0.38,8.09,120511,,,A*60
$GPGGA,181420.000,3948.1795,S,07036.6615,W,1,09,1.1,958.0,M,22.8,M,,0000*52
$GPGSA,M,3,06,16,18,22,30,03,21,19,15,,,,2.0,1.1,1.7*3D
$GPRMC,181420.000,A,3948.1795,S,07036.6615,W,0.43,52.93,120511,,,A*59
$GPGGA,181421.000,3948.1792,S,07036.6611,W,1,09,1.1,957.5,M,22.8,M,,0000*5A
$GPGSA,M,3,06,16,18,22,30,03,21,19,15,,,,2.0,1.1,1.7*3D
$GPRMC,181421.000,A,3948.1792,S,07036.6611,W,0.23,49.07,120511,,,A*5A
$GPGGA,181421.999,3948.1793,S,07036.6611,W,1,08,1.3,958.0,M,22.8,M,,0000*5B
$GPGSA,M,3,06,16,18,22,30,03,21,15,,,,,2.7,1.3,2.3*37
$GPRMC,181421.999,A,3948.1793,S,07036.6611,W,0.27,85.04,120511,,,A*55
$GPGGA,181422.998,3948.1792,S,07036.6607,W,1,08,1.3,958.4,M,22.8,M,,0000*5B
$GPGSA,M,3,06,16,18,22,30,03,21,15,,,,,2.7,1.3,2.3*37
$GPGSV,3,1,12,06,61,224,32,16,61,291,31,18,61,079,39,22,50,010,39*70
$GPGSV,3,2,12,30,49,333,37,03,47,231,28,21,39,123,37,19,18,239,*7C
$GPGSV,3,3,12,15,10,118,28,29,03,067,,07,01,215,,26,00,150,*74
$GPRMC,181422.998,A,3948.1792,S,07036.6607,W,0.57,79.45,120511,,,A*50
$GPGGA,181424.001,3948.1795,S,07036.6609,W,1,08,1.3,959.0,M,22.8,M,,0000*58
$GPGSA,M,3,06,16,18,22,30,03,21,15,,,,,2.7,1.3,2.3*37
$GPRMC,181424.001,A,3948.1795,S,07036.6609,W,0.29,183.85,120511,,,A*67
$GPGGA,181424.999,3948.1795,S,07036.6607,W,1,08,1.3,959.4,M,22.8,M,,0000*5A
$GPGSA,M,3,06,16,18,22,30,03,21,15,,,,,2.7,1.3,2.3*37
$GPRMC,181424.999,A,3948.1795,S,07036.6607,W,0.58,42.17,120511,,,A*50
$GPGGA,181425.999,3948.1797,S,07036.6608,W,1,08,1.3,960.1,M,22.8,M,,0000*59
$GPGSA,M,3,06,16,18,22,30,03,21,15,,,,,2.7,1.3,2.3*37
$GPRMC,181425.999,A,3948.1797,S,07036.6608,W,0.32,81.20,120511,,,A*5B
$GPGGA,181426.999,3948.1796,S,07036.6607,W,1,08,1.3,960.5,M,22.8,M,,0000*50
$GPGSA,M,3,06,16,18,22,30,03,21,15,,,,,2.7,1.3,2.3*37
$GPRMC,181426.999,A,3948.1796,S,07036.6607,W,0.54,32.07,120511,,,A*5B
$GPGGA,181428.003,3948.1794,S,07036.6606,W,1,09,1.1,959.7,M,22.8,M,,0000*5C
$GPGSA,M,3,06,16,18,22,30,03,21,19,15,,,,2.0,1.1,1.7*3D
$GPGSV,3,1,12,06,61,224,37,16,61,291,39,18,61,079,30,22,50,010,33*7E
$GPGSV,3,2,12,30,49,333,31,03,47,231,38,21,39,123,32,19,18,239,37*7A
$GPGSV,3,3,12,15,10,118,29,29,03,067,,07,01,215,,26,00,150,*75
$GPRMC,181428.003,A,3948.1794,S,07036.6606,W,0.08,335.21,120511,,,A*65
$GPGGA,181428.996,3948.1795,S,07036.6609,W,1,08,1.2,959.7,M,22.8,M,,0000*55
$GPGSA,M,3,06,16,22,30,03,21,19,15,,,,,2.1,1.2,1.8*39
$GPRMC,181428.996,A,3948.1795,S,07036.6609,W,0.85,264.01,120511,,,A*6C
$GPGGA,181430.000,3948.1795,S,07036.6611,W,1,08,1.2,959.9,M,22.8,M,,0000*5D
$GPGSA,M,3,06,16,22,30,03,21,19,15,,,,,2.1,1.2,1.8*39
$GPRMC,181430.000,A,3948.1795,S,07036.6611,W,0.43,30.66,120511,,,A*52
$GPGGA,181431.000,3948.1794,S,07036.6608,W,1,08,1.2,959.9,M,22.8,M,,0000*55
$GPGSA,M,3,06,16,22,30,03,21,19,15,,,,,2.1,1.2,1.8*39
$GPRMC,181431.000,A,3948.1794,S,07036.6608,W,0.67,131.94,120511,,,A*61
$GPGGA,181432.004,3948.1796,S,07036.6608,W,1,08,1.2,960.6,M,22.8,M,,0000*55
$GPGSA,M,3,06,16,22,30,03,21,19,15,,,,,2.1,1.2,1.8*39
$GPRMC,181432.004,A,3948.1796,S,07036.6608,W,0.46,215.69,120511,,,A*60
$GPGGA,181432.996,3948.1797,S,07036.6608,W,1,08,1.2,960.8,M,22.8,M,,0000*58
$GPGSA,M,3,06,16,22,30,03,21,19,15,,,,,2.1,1.2,1.8*39
$GPGSV,3,1,12,06,61,224,32,16,61,291,33,18,61,079,,22,50,010,31*70
$GPGSV,3,2,12,30,49,333,31,03,47,231,32,21,39,123,26,19,18,239,32*70
$GPGSV,3,3,12,15,10,118,31,29,03,067,,07,01,215,,26,00,150,*7C
$GPRMC,181432.996,A,3948.1797,S,07036.6608,W,0.98,161.69,120511,,,A*60
$GPGGA,181434.002,3948.1799,S,07036.6609,W,1,09,1.1,958.3,M,22.8,M,,0000*57
$GPGSA,M,3,06,16,18,22,30,03,21,19,15,,,,2.0,1.1,1.7*3D
$GPRMC,181434.002,A,3948.1799,S,07036.6609,W,0.89,187.15,120511,,,A*6E
$GPGGA,181434.998,3948.1801,S,07036.6610,W,1,08,1.3,958.4,M,22.8,M,,0000*5F
$GPGSA,M,3,06,16,18,22,30,03,21,15,,,,,2.7,1.3,2.3*37
$GPRMC,181434.998,A,3948.1801,S,07036.6610,W,0.56,42.54,120511,,,A*5D
$GPGGA,181436.002,3948.1801,S,07036.6611,W,1,09,1.1,957.8,M,22.8,M,,0000*56
$GPGSA,M,3,06,16,18,22,30,03,21,19,15,,,,2.0,1.1,1.7*3D
$GPRMC,181436.002,A,3948.1801,S,07036.6611,W,0.56,21.07,120511,,,A*57
$GPGGA,181436.998,3948.1800,S,07036.6612,W,1,08,1.3,956.7,M,22.8,M,,0000*53
$GPGSA,M,3,06,16,18,22,30,03,21,15,,,,,2.7,1.3,2.3*37
$GPRMC,181436.998,A,3948.1800,S,07036.6612,W,0.81,33.03,120511,,,A*52
$GPGGA,181438.000,3948.1798,S,07036.6609,W,1,08,1.3,957.6,M,22.8,M,,0000*51
$GPGSA,M,3,06,16,18,22,30,03,21,15,,,,,2.7,1.3,2.3*37
$GPGSV,3,1,12,06,61,224,35,16,61,291,37,18,61,079,40,22,50,010,39*7F
$GPGSV,3,2,12,30,49,333,37,03,47,231,28,21,39,123,34,19,18,239,*7F
$GPGSV,3,3,12,15,10,118,37,29,03,067,,07,01,215,,26,00,150,*7A
$GPRMC,181438.000,A,3948.1798,S,07036.6609,W,1.41,20.81,120511,,,A*55
$GPGGA,181439.000,3948.1801,S,07036.6607,W,1,08,1.3,957.9,M,22.8,M,,0000*5E
$GPGSA,M,3,06,16,18,22,30,03,21,15,,,,,2.7,1.3,2.3*37
$GPRMC,181439.000,A,3948.1801,S,07036.6607,W,0.53,38.07,120511,,,A*50
$GPGGA,181440.000,3948.1798,S,07036.6603,W,1,08,1.3,958.5,M,22.8,M,,0000*58
$GPGSA,M,3,06,16,18,22,30,03,21,15,,,,,2.7,1.3,2.3*37
$GPRMC,181440.000,A,3948.1798,S,07036.6603,W,0.69,28.99,120511,,,A*5A
$GPGGA,181441.000,3948.1800,S,07036.6601,W,1,08,1.3,958.6,M,22.8,M,,0000*56
$GPGSA,M,3,06,16,18,22,30,03,21,15,,,,,2.7,1.3,2.3*37
$GPRMC,181441.000,A,3948.1800,S,07036.6601,W,0.61,78.99,120511,,,A*5A
$GPGGA,181442.000,3948.1803,S,07036.6600,W,1,08,1.3,959.4,M,22.8,M,,0000*54
$GPGSA,M,3,06,16,18,22,30,03,21,15,,,,,2.7,1.3,2.3*37
$GPRMC,181442.000,A,3948.1803,S,07036.6600,W,0.12,356.30,120511,,,A*63
$GPGGA,181443.000,3948.1804,S,07036.6600,W,1,08,1.3,959.7,M,22.8,M,,0000*51
$GPGSA,M,3,06,16,18,22,30,03,21,15,,,,,2.7,1.3,2.3*37
$GPGSV,3,1,12,06,61,224,34,16,61,291,36,18,61,079,39,22,50,010,39*71
$GPGSV,3,2,12,30,49,333,38,03,47,231,28,21,39,123,37,19,18,239,*73
$GPGSV,3,3,12,15,10,118,37,29,03,067,,07,01,215,,26,00,150,*7A
$GPRMC,181443.000,A,3948.1804,S,07036.6600,W,0.41,346.65,120511,,,A*62
$GPGGA,181444.000,3948.1805,S,07036.6602,W,1,08,1.3,960.5,M,22.8,M,,0000*5D
$GPGSA,M,3,06,16,18,22,30,03,21,15,,,,,2.7,1.3,2.3*37
$GPRMC,181444.000,A,3948.1805,S,07036.6602,W,0.58,31.56,120511,,,A*5D
$GPGGA,181445.002,3948.1805,S,07036.6600,W,1,09,1.1,962.1,M,22.8,M,,0000*59
$GPGSA,M,3,06,16,18,22,30,03,21,19,15,,,,2.0,1.1,1.7*3D
$GPRMC,181445.002,A,3948.1805,S,07036.6600,W,0.49,42.21,120511,,,A*58
$GPGGA,181445.999,3948.1804,S,07036.6600,W,1,09,1.1,961.1,M,22.8,M,,0000*50
$GPGSA,M,3,06,16,18,22,30,03,21,19,15,,,,2.0,1.1,1.7*3D
$GPRMC,181445.999,A,3948.1804,S,07036.6600,W,0.43,109.02,120511,,,A*67
$GPGGA,181446.999,3948.1805,S,07036.6599,W,1,09,1.1,961.4,M,22.8,M,,0000*54
$GPGSA,M,3,06,16,18,22,30,03,21,19,15,,,,2.0,1.1,1.7*3D
$GPRMC,181446.999,A,3948.1805,S,07036.6599,W,0.69,31.29,120511,,,A*5D
$GPGGA,181447.998,3948.1806,S,07036.6597,W,1,08,1.3,961.4,M,22.8,M,,0000*5A
$GPGSA,M,3,06,16,18,22,30,03,21,15,,,,,2.7,1.3,2.3*37
$GPGSV,3,1,12,06,61,224,34,16,61,291,34,18,61,079,38,22,50,010,37*7C
$GPGSV,3,2,12,30,49,333,37,03,47,231,26,21,39,123,35,19,18,239,*70
$GPGSV,3,3,12,15,10,118,36,29,03,067,,07,01,215,,26,00,150,*7B
$GPRMC,181447.998,A,3948.1806,S,07036.6597,W,0.71,46.84,120511,,,A*5E
$GPGGA,181449.002,3948.1807,S,07036.6599,W,1,09,1.1,959.9,M,22.8,M,,0000*54
$GPGSA,M,3,06,16,18,22,30,03,21,19,15,,,,2.0,1.1,1.7*3D
$GPRMC,181449.002,A,3948.1807,S,07036.6599,W,0.22,340.01,120511,,,A*6B
$GPGGA,181450.000,3948.1808,S,07036.6598,W,1,09,1.1,959.7,M,22.8,M,,0000*5E
$GPGSA,M,3,06,16,18,22,30,03,21,19,15,,,,2.0,1.1,1.7*3D
$GPRMC,181450.000,A,3948.1808,S,07036.6598,W,0.10,245.06,120511,,,A*6D
$GPGGA,181451.000,3948.1808,S,07036.6599,W,1,07,1.6,959.1,M,22.8,M,,0000*51
$GPGSA,M,3,06,16,18,22,30,21,15,,,,,,2.9,1.6,2.4*38
$GPRMC,181451.000,A,3948.1808,S,07036.6599,W,0.52,38.11,120511,,,A*55
$GPGGA,181451.998,3948.1805,S,07036.6596,W,1,08,1.3,959.1,M,22.8,M,,0000*51
$GPGSA,M,3,06,16,18,22,30,03,21,15,,,,,2.7,1.3,2.3*37
$GPRMC,181451.998,A,3948.1805,S,07036.6596,W,0.34,20.23,120511,,,A*57
$GPGGA,181453.002,3948.1805,S,07036.6598,W,1,07,1.6,958.2,M,22.8,M,,0000*5F
$GPGSA,M,3,06,16,18,22,30,21,15,,,,,,2.9,1.6,2.4*38
$GPGSV,3,1,12,06,61,224,31,16,61,291,36,18,61,079,39,22,50,010,39*74
$GPGSV,3,2,12,30,49,333,38,03,47,231,,21,39,123,35,19,18,239,*7B
$GPGSV,3,3,12,15,10,118,37,29,03,067,,07,01,215,,26,00,150,*7A
$GPRMC,181453.002,A,3948.1805,S,07036.6598,W,0.70,35.12,120511,,,A*57
$GPGGA,181453.998,3948.1806,S,07036.6593,W,1,08,1.2,958.5,M,22.8,M,,0000*51
$GPGSA,M,3,06,16,18,22,30,21,19,15,,,,,2.1,1.2,1.7*3C
$GPRMC,181453.998,A,3948.1806,S,07036.6593,W,0.72,77.64,120511,,,A*50
$GPGGA,181455.000,3948.1807,S,07036.6593,W,1,08,1.2,957.8,M,22.8,M,,0000*5C
$GPGSA,M,3,06,16,18,22,30,21,19,15,,,,,2.1,1.2,1.7*3C
$GPRMC,181455.000,A,3948.1807,S,07036.6593,W,0.28,25.94,120511,,,A*58
$GPGGA,181456.002,3948.1810,S,07036.6591,W,1,07,1.6,957.8,M,22.8,M,,0000*52
$GPGSA,M,3,06,16,18,22,30,21,15,,,,,,2.9,1.6,2.4*38
$GPRMC,181456.002,A,3948.1810,S,07036.6591,W,0.29,84.38,120511,,,A*51
$GPGGA,181456.998,3948.1813,S,07036.6590,W,1,08,1.2,958.3,M,22.8,M,,0000*55
$GPGSA,M,3,06,16,18,22,30,21,19,15,,,,,2.1,1.2,1.7*3C
$GPRMC,181456.998,A,3948.1813,S,07036.6590,W,0.17,94.62,120511,,,A*5A
$GPGGA,181457.999,3948.1809,S,07036.6589,W,1,08,1.2,957.0,M,22.8,M,,0000*5A
$GPGSA,M,3,06,16,18,22,30,21,19,15,,,,,2.1,1.2,1.7*3C
$GPGSV,3,1,12,06,61,224,32,16,61,291,34,18,61,079,38,22,50,010,38*75
$GPGSV,3,2,12,30,49,333,38,03,47,231,,21,39,123,37,19,18,239,27*7C
$GPGSV,3,3,12,15,10,118,37,29,03,067,,07,01,215,,26,00,150,*7A
$GPRMC,181457.999,A,3948.1809,S,07036.6589,W,0.61,11.88,120511,,,A*51
$GPGGA,181459.001,3948.1805,S,07036.6585,W,1,09,1.1,957.3,M,22.8,M,,0000*5D
$GPGSA,M,3,06,16,18,22,30,03,21,19,15,,,,2.0,1.1,1.7*3D
$GPRMC,181459.001,A,3948.1805,S,07036.6585,W,0.27,44.60,120511,,,A*53
$GPGGA,181459.998,3948.1807,S,07036.6584,W,1,08,1.2,958.0,M,22.8,M,,0000*59
$GPGSA,M,3,06,16,18,22,30,21,19,15,,,,,2.1,1.2,1.7*3C
$GPRMC,181459.998,A,3948.1807,S,07036.6584,W,0.20,38.00,120511,,,A*53
$GPGGA,181501.000,3948.1809,S,07036.6583,W,1,08,1.2,958.5,M,22.8,M,,0000*51
$GPGSA,M,3,06,16,18,22,30,21,19,15,,,,,2.1,1.2,1.7*3C
$GPRMC,181501.000,A,3948.1809,S,07036.6583,W,0.63,71.17,120511,,,A*52
$GPGGA,181502.000,3948.1811,S,07036.6580,W,1,08,1.3,959.3,M,22.8,M,,0000*5E
$GPGSA,M,3,06,16,18,22,30,03,21,15,,,,,2.7,1.3,2.3*37
$GPRMC,181502.000,A,3948.1811,S,07036.6580,W,0.33,53.71,120511,,,A*5E
$GPGGA,181503.002,3948.1808,S,07036.6580,W,1,09,1.1,958.3,M,22.8,M,,0000*57
$GPGSA,M,3,06,16,18,22,30,03,21,19,15,,,,2.0,1.1,1.7*3D
$GPGSV,3,1,12,06,61,224,35,16,61,291,36,18,61,079,38,22,50,010,39*71
$GPGSV,3,2,12,30,49,333,37,03,47,231,27,21,39,123,36,19,18,239,25*75
$GPGSV,3,3,12,15,10,118,38,29,03,067,,07,01,215,,26,00,150,*75
$GPRMC,181503.002,A,3948.1808,S,07036.6580,W,1.00,53.38,120511,,,A*59
$GPGGA,181503.998,3948.1809,S,07036.6580,W,1,08,1.3,958.4,M,22.8,M,,0000*58
$GPGSA,M,3,06,16,18,22,30,03,21,15,,,,,2.7,1.3,2.3*37
$GPRMC,181503.998,A,3948.1809,S,07036.6580,W,0.57,49.09,120511,,,A*58
$GPGGA,181505.000,3948.1809,S,07036.6581,W,1,08,1.3,958.3,M,22.8,M,,0000*50
$GPGSA,M,3,06,16,18,22,30,03,21,15,,,,,2.7,1.3,2.3*37
$GPRMC,181505.000,A,3948.1809,S,07036.6581,W,0.30,259.82,120511,,,A*66
$GPGGA,181506.003,3948.1808,S,07036.6579,W,1,07,1.6,958.4,M,22.8,M,,0000*5B
$GPGSA,M,3,06,16,18,22,30,21,15,,,,,,2.9,1.6,2.4*38
$GPRMC,181506.003,A,3948.1808,S,07036.6579,W,0.42,68.26,120511,,,A*5B
$GPGGA,181506.999,3948.1807,S,07036.6580,W,1,07,1.6,958.6,M,22.8,M,,0000*5A
$GPGSA,M,3,06,16,18,22,30,21,15,,,,,,2.9,1.6,2.4*38
$GPRMC,181506.999,A,3948.1807,S,07036.6580,W,0.50,12.59,120511,,,A*5E
$GPGGA,181507.997,3948.1808,S,07036.6577,W,1,08,1.3,959.6,M,22.8,M,,0000*59
$GPGSA,M,3,06,16,18,22,30,03,21,15,,,,,2.7,1.3,2.3*37
$GPGSV,3,1,12,06,61,224,35,16,61,291,37,18,61,079,39,22,50,010,38*70
$GPGSV,3,2,12,30,49,333,37,03,47,231,28,21,39,123,35,19,18,239,*7E
$GPGSV,3,3,12,15,10,118,37,29,03,067,,07,01,215,,26,00,150,*7A
$GPRMC,181507.997,A,3948.1808,S,07036.6577,W,0.38,80.32,120511,,,A*5E
$GPGGA,181509.000,3948.1808,S,07036.6577,W,1,08,1.3,959.0,M,22.8,M,,0000*56
$GPGSA,M,3,06,16,18,22,30,03,21,15,,,,,2.7,1.3,2.3*37
$GPRMC,181509.000,A,3948.1808,S,07036.6577,W,0.32,49.62,120511,,,A*5D
$GPGGA,181510.002,3948.1806,S,07036.6575,W,1,07,1.6,959.0,M,22.8,M,,0000*5A
$GPGSA,M,3,06,16,18,22,30,21,15,,,,,,2.9,1.6,2.4*38
$GPRMC,181510.002,A,3948.1806,S,07036.6575,W,1.05,44.17,120511,,,A*51
$GPGGA,181511.000,3948.1805,S,07036.6575,W,1,07,1.6,958.5,M,22.8,M,,0000*5E
$GPGSA,M,3,06,16,18,22,30,21,15,,,,,,2.9,1.6,2.4*38
$GPRMC,181511.000,A,3948.1805,S,07036.6575,W,0.56,62.04,120511,,,A*50
$GPGGA,181512.000,3948.1806,S,07036.6573,W,1,07,1.6,958.7,M,22.8,M,,0000*5A
$GPGSA,M,3,06,16,18,22,30,21,15,,,,,,2.9,1.6,2.4*38
$GPRMC,181512.000,A,3948.1806,S,07036.6573,W,0.72,61.61,120511,,,A*50
$GPGGA,181513.000,3948.1804,S,07036.6571,W,1,07,1.6,958.5,M,22.8,M,,0000*59
$GPGSA,M,3,06,16,18,22,30,21,15,,,,,,2.9,1.6,2.4*38
$GPGSV,3,1,12,06,61,224,32,16,61,291,34,18,61,079,38,22,50,010,38*75
$GPGSV,3,2,12,30,49,333,37,03,47,231,,21,39,123,31,19,18,239,*70
$GPGSV,3,3,12,15,10,118,37,29,03,067,,07,01,215,,26,00,150,*7A
$GPRMC,181513.000,A,3948.1804,S,07036.6571,W,0.48,22.15,120511,,,A*5C
$GPGGA,181513.998,3948.1802,S,07036.6572,W,1,08,1.3,958.0,M,22.8,M,,0000*5B
$GPGSA,M,3,06,16,18,22,30,03,21,15,,,,,2.7,1.3,2.3*37
$GPRMC,181513.998,A,3948.1802,S,07036.6572,W,0.67,46.36,120511,,,A*5F
$GPGGA,181515.002,3948.1802,S,07036.6568,W,1,09,1.1,958.4,M,22.8,M,,0000*5B
$GPGSA,M,3,06,16,18,22,30,03,21,19,15,,,,2.0,1.1,1.7*3D
$GPRMC,181515.002,A,3948.1802,S,07036.6568,W,0.82,62.86,120511,,,A*5E
$GPGGA,181516.000,3948.1800,S,07036.6563,W,1,09,1.1,958.6,M,22.8,M,,0000*51
$GPGSA,M,3,06,16,18,22,30,03,21,19,15,,,,2.0,1.1,1.7*3D
$GPRMC,181516.000,A,3948.1800,S,07036.6563,W,0.48,23.47,120511,,,A*58
$GPGGA,181516.998,3948.1799,S,07036.6561,W,1,08,1.3,958.2,M,22.8,M,,0000*53
$GPGSA,M,3,06,16,18,22,30,03,21,15,,,,,2.7,1.3,2.3*37
$GPRMC,181516.998,A,3948.1799,S,07036.6561,W,0.58,71.10,120511,,,A*59
$GPGGA,181518.002,3948.1800,S,07036.6558,W,1,07,1.6,958.4,M,22.8,M,,0000*5E
$GPGSA,M,3,06,16,18,22,30,21,15,,,,,,2.9,1.6,2.4*38
$GPGSV,3,1,12,06,61,224,32,16,61,291,37,18,61,079,39,22,50,010,39*76
$GPGSV,3,2,12,30,49,333,37,03,47,231,,21,39,123,37,19,18,239,*76
$GPGSV,3,3,12,15,10,118,38,29,03,067,,07,01,215,,26,00,150,*75
$GPRMC,181518.002,A,3948.1800,S,07036.6558,W,0.72,80.25,120511,,,A*58
$GPGGA,181519.000,3948.1798,S,07036.6556,W,1,09,1.1,958.0,M,22.8,M,,0000*50
$GPGSA,M,3,06,16,18,22,30,03,21,19,15,,,,2.0,1.1,1.7*3D
$GPRMC,181519.000,A,3948.1798,S,07036.6556,W,0.76,41.96,120511,,,A*5A
$GPGGA,181520.000,3948.1798,S,07036.6557,W,1,09,1.1,957.6,M,22.8,M,,0000*52
$GPGSA,M,3,06,16,18,22,30,03,21,19,15,,,,2.0,1.1,1.7*3D
$GPRMC,181520.000,A,3948.1798,S,07036.6557,W,0.25,17.73,120511,,,A*5F
$GPGGA,181520.998,3948.1797,S,07036.6558,W,1,08,1.3,957.7,M,22.8,M,,0000*58
$GPGSA,M,3,06,16,18,22,30,03,21,15,,,,,2.7,1.3,2.3*37
$GPRMC,181520.998,A,3948.1797,S,07036.6558,W,0.96,27.96,120511,,,A*57
$GPGGA,181522.002,3948.1796,S,07036.6560,W,1,09,1.1,956.7,M,22.8,M,,0000*58
$GPGSA,M,3,06,16,18,22,30,03,21,19,15,,,,2.0,1.1,1.7*3D
$GPRMC,181522.002,A,3948.1796,S,07036.6560,W,0.26,15.16,120511,,,A*57
$GPGGA,181522.999,3948.1795,S,07036.6560,W,1,09,1.1,955.9,M,22.8,M,,0000*5D
$GPGSA,M,3,06,16,18,22,30,03,21,19,15,,,,2.0,1.1,1.7*3D
$GPGSV,3,1,12,06,61,224,39,16,61,291,37,18,61,079,39,22,50,010,39*7D
$GPGSV,3,2,12,30,49,333,38,03,47,231,36,21,39,123,36,19,18,239,30*7E
$GPGSV,3,3,12,15,10,118,37,29,03,067,,07,01,215,,26,00,150,*7A
$GPRMC,181522.999,A,3948.1795,S,07036.6560,W,0.51,9.79,120511,,,A*6B
$GPGGA,181523.999,3948.1795,S,07036.6562,W,1,09,1.1,955.4,M,22.8,M,,0000*53
$GPGSA,M,3,06,16,18,22,30,03,21,19,15,,,,2.0,1.1,1.7*3D
$GPRMC,181523.999,A,3948.1795,S,07036.6562,W,0.26,44.06,120511,,,A*59
$GPGGA,181524.999,3948.1793,S,07036.6563,W,1,09,1.1,954.6,M,22.8,M,,0000*50
$GPGSA,M,3,06,16,18,22,30,03,21,19,15,,,,2.0,1.1,1.7*3D
$GPRMC,181524.999,A,3948.1793,S,07036.6563,W,0.54,8.40,120511,,,A*66
$GPGGA,181525.999,3948.1793,S,07036.6562,W,1,09,1.1,954.5,M,22.8,M,,0000*53
$GPGSA,M,3,06,16,18,22,30,03,21,19,15,,,,2.0,1.1,1.7*3D
$GPRMC,181525.999,A,3948.1793,S,07036.6562,W,0.28,54.02,120511,,,A*52
$GPGGA,181527.000,3948.1793,S,07036.6562,W,1,09,1.1,954.4,M,22.8,M,,0000*59
$GPGSA,M,3,06,16,18,22,30,03,21,19,15,,,,2.0,1.1,1.7*3D
$GPRMC,181527.000,A,3948.1793,S,07036.6562,W,0.21,281.37,120511,,,A*6C
$GPGGA,181527.998,3948.1794,S,07036.6563,W,1,08,1.3,954.4,M,22.8,M,,0000*54
$GPGSA,M,3,06,16,18,22,30,03,21,15,,,,,2.7,1.3,2.3*37
$GPGSV,3,1,12,06,61,224,32,16,61,291,32,18,61,079,38,22,50,010,38*73
$GPGSV,3,2,12,30,49,333,36,03,47,231,31,21,39,123,31,19,18,239,*73
$GPGSV,3,3,12,15,10,118,27,29,03,067,,07,01,215,,26,00,150,*7B
$GPRMC,181527.998,A,3948.1794,S,07036.6563,W,0.30,56.46,120511,,,A*5C
$GPGGA,181529.000,3948.1794,S,07036.6563,W,1,08,1.3,954.2,M,22.8,M,,0000*54
$GPGSA,M,3,06,16,18,22,30,03,21,15,,,,,2.7,1.3,2.3*37
$GPRMC,181529.000,A,3948.1794,S,07036.6563,W,0.25,62.74,120511,,,A*58
