$GPGGA,132641.958,,,,,0,00,,,M,0.0,M,,0000*51
$GPGSA,M,1,,,,,,,,,,,,,,,*12
$GPRMC,132641.958,V,,,,,,,180611,,,N*45
$GPGGA,132642.958,,,,,0,00,,,M,0.0,M,,0000*52
$GPGSA,M,1,,,,,,,,,,,,,,,*12
$GPRMC,132642.958,V,,,,,,,180611,,,N*46
$GPGGA,132643.962,,,,,0,00,,,M,0.0,M,,0000*5A
$GPGSA,M,1,,,,,,,,,,,,,,,*12
$GPGSV,3,1,10,21,80,305,43,29,45,127,46,25,43,044,49,31,37,294,36*7D
$GPGSV,3,2,10,18,21,015,,16,13,223,,05,10,136,,06,09,257,*7E
$GPGSV,3,3,10,12,07,045,38,22,00,350,*70
$GPRMC,132643.962,V,,,,,,,180611,,,N*4E
$GPGGA,132644.958,,,,,0,00,,,M,0.0,M,,0000*54
$GPGSA,M,1,,,,,,,,,,,,,,,*12
$GPRMC,132644.958,V,,,,,,,180611,,,N*40
$GPGGA,132645.958,,,,,0,00,,,M,0.0,M,,0000*55
$GPGSA,M,1,,,,,,,,,,,,,,,*12
$GPRMC,132645.958,V,,,,,,,180611,,,N*41
$GPGGA,132646.958,,,,,0,00,,,M,0.0,M,,0000*56
$GPGSA,M,1,,,,,,,,,,,,,,,*12
$GPRMC,132646.958,V,,,,,,,180611,,,N*42
$GPGGA,132647.958,,,,,0,00,,,M,0.0,M,,0000*57
$GPGSA,M,1,,,,,,,,,,,,,,,*12
$GPRMC,132647.958,V,,,,,,,180611,,,N*43
$GPGGA,132648.958,,,,,0,00,,,M,0.0,M,,0000*58
$GPGSA,M,1,,,,,,,,,,,,,,,*12
$GPGSV,3,1,10,21,80,305,44,29,45,127,46,25,43,044,49,31,37,294,35*79
$GPGSV,3,2,10,18,22,015,,16,13,222,,05,10,136,,06,09,257,*7C
$GPGSV,3,3,10,12,07,045,38,22,00,350,*70
$GPRMC,132648.958,V,,,,,,,180611,,,N*4C
$GPGGA,132649.958,,,,,0,00,,,M,0.0,M,,0000*59
$GPGSA,M,1,,,,,,,,,,,,,,,*12
$GPRMC,132649.958,V,,,,,,,180611,,,N*4D
$GPGGA,132650.958,,,,,0,00,,,M,0.0,M,,0000*51
$GPGSA,M,1,,,,,,,,,,,,,,,*12
$GPRMC,132650.958,V,,,,,,,180611,,,N*45
$GPGGA,132651.962,,,,,0,00,,,M,0.0,M,,0000*59
$GPGSA,M,1,,,,,,,,,,,,,,,*12
$GPRMC,132651.962,V,,,,,,,180611,,,N*4D
$GPGGA,132652.958,,,,,0,00,,,M,0.0,M,,0000*53
$GPGSA,M,1,,,,,,,,,,,,,,,*12
$GPRMC,132652.958,V,,,,,,,180611,,,N*47
$GPGGA,132653.958,,,,,0,00,,,M,0.0,M,,0000*52
$GPGSA,M,1,,,,,,,,,,,,,,,*12
$GPGSV,3,1,10,21,80,305,44,29,45,127,46,25,43,044,49,31,37,294,34*78
$GPGSV,3,2,10,18,22,015,,16,13,222,,05,10,136,,06,09,257,*7C
$GPGSV,3,3,10,12,07,045,39,22,00,350,*71
$GPRMC,132653.958,V,,,,,,,180611,,,N*46
$GPGGA,132654.958,,,,,0,00,,,M,0.0,M,,0000*55
$GPGSA,M,1,,,,,,,,,,,,,,,*12
$GPRMC,132654.958,V,,,,,,,180611,,,N*41
$GPGGA,132655.962,,,,,0,00,,,M,0.0,M,,0000*5D
$GPGSA,M,1,,,,,,,,,,,,,,,*12
$GPRMC,132655.962,V,,,,,,,180611,,,N*49
$GPGGA,132656.958,,,,,0,00,,,M,0.0,M,,0000*57
$GPGSA,M,1,,,,,,,,,,,,,,,*12
$GPRMC,132656.958,V,,,,,,,180611,,,N*43
$GPGGA,132657.958,,,,,0,00,,,M,0.0,M,,0000*56
$GPGSA,M,1,,,,,,,,,,,,,,,*12
$GPRMC,132657.958,V,,,,,,,180611,,,N*42
$GPGGA,132658.963,,,,,0,00,,,M,0.0,M,,0000*51
$GPGSA,M,1,,,,,,,,,,,,,,,*12
$GPGSV,3,1,10,21,80,305,44,29,45,127,47,25,43,044,49,31,37,294,34*79
$GPGSV,3,2,10,18,22,015,,16,13,222,,05,10,136,,06,09,257,*7C
$GPGSV,3,3,10,12,07,045,40,22,00,350,*7F
$GPRMC,132658.963,V,,,,,,,180611,,,N*45
$GPGGA,132659.963,,,,,0,00,,,M,0.0,M,,0000*50
$GPGSA,M,1,,,,,,,,,,,,,,,*12
$GPRMC,132659.963,V,,,,,,,180611,,,N*44
$GPGGA,132700.959,,,,,0,00,,,M,0.0,M,,0000*54
$GPGSA,M,1,,,,,,,,,,,,,,,*12
$GPRMC,132700.959,V,,,,,,,180611,,,N*40
$GPGGA,132701.959,,,,,0,00,,,M,0.0,M,,0000*55
$GPGSA,M,1,,,,,,,,,,,,,,,*12
$GPRMC,132701.959,V,,,,,,,180611,,,N*41
$GPGGA,132702.959,,,,,0,00,,,M,0.0,M,,0000*56
$GPGSA,M,1,,,,,,,,,,,,,,,*12
$GPRMC,132702.959,V,,,,,,,180611,,,N*42
$GPGGA,132703.959,,,,,0,00,,,M,0.0,M,,0000*57
$GPGSA,M,1,,,,,,,,,,,,,,,*12
$GPGSV,3,1,10,21,80,304,44,29,45,127,46,25,43,044,49,31,37,294,34*79
$GPGSV,3,2,10,18,22,015,,16,13,222,,05,10,136,,06,09,256,*7D
$GPGSV,3,3,10,12,07,044,40,22,00,350,*7E
$GPRMC,132703.959,V,,,,,,,180611,,,N*43
$GPGGA,132704.959,3254.3700,S,06849.1314,W,1,04,1.8,753.5,M,29.6,M,,0000*51
$GPGSA,M,3,25,21,31,29,,,,,,,,,4.1,1.8,3.7*3B
$GPRMC,132704.959,A,3254.3700,S,06849.1314,W,0.15,324.50,180611,,,A*6C
$GPGGA,132705.959,3254.3700,S,06849.1313,W,1,04,1.8,753.8,M,29.6,M,,0000*5A
$GPGSA,M,3,25,21,31,29,,,,,,,,,4.1,1.8,3.7*3B
$GPRMC,132705.959,A,3254.3700,S,06849.1313,W,0.07,355.69,180611,,,A*65
$GPGGA,132707.000,3254.3699,S,06849.1313,W,1,04,1.8,754.0,M,29.6,M,,0000*53
$GPGSA,M,3,25,21,31,29,,,,,,,,,4.1,1.8,3.7*3B
$GPRMC,132707.000,A,3254.3699,S,06849.1313,W,0.08,9.32,180611,,,A*68
$GPGGA,132708.000,3254.3699,S,06849.1313,W,1,04,1.8,754.1,M,29.6,M,,0000*5D
$GPGSA,M,3,25,21,31,29,,,,,,,,,4.1,1.8,3.7*3B
$GPGSV,3,1,10,21,80,304,43,29,45,127,46,25,43,044,49,31,37,294,34*7E
$GPGSV,3,2,10,18,22,015,,16,13,222,,05,10,136,,06,09,256,*7D
$GPGSV,3,3,10,12,06,044,40,22,00,350,*7F
$GPRMC,132708.000,A,3254.3699,S,06849.1313,W,0.09,355.52,180611,,,A*6A
$GPGGA,132709.000,3254.3699,S,06849.1312,W,1,04,1.8,754.3,M,29.6,M,,0000*5F
$GPGSA,M,3,25,21,31,29,,,,,,,,,4.1,1.8,3.6*3A
$GPRMC,132709.000,A,3254.3699,S,06849.1312,W,0.07,349.79,180611,,,A*60
$GPGGA,132710.000,3254.3699,S,06849.1312,W,1,04,1.8,754.5,M,29.6,M,,0000*51
$GPGSA,M,3,25,21,31,29,,,,,,,,,4.1,1.8,3.6*3A
$GPRMC,132710.000,A,3254.3699,S,06849.1312,W,0.08,351.66,180611,,,A*60
$GPGGA,132711.000,3254.3699,S,06849.1312,W,1,04,1.8,754.6,M,29.6,M,,0000*53
$GPGSA,M,3,25,21,31,29,,,,,,,,,4.1,1.8,3.6*3A
$GPRMC,132711.000,A,3254.3699,S,06849.1312,W,0.07,9.79,180611,,,A*6E
$GPGGA,132712.000,3254.3698,S,06849.1311,W,1,04,1.8,754.7,M,29.6,M,,0000*53
$GPGSA,M,3,25,21,31,29,,,,,,,,,4.1,1.8,3.6*3A
$GPRMC,132712.000,A,3254.3698,S,06849.1311,W,0.08,345.51,180611,,,A*61
$GPGGA,132713.000,3254.3698,S,06849.1311,W,1,04,1.8,754.9,M,29.6,M,,0000*5C
$GPGSA,M,3,25,21,31,29,,,,,,,,,4.1,1.8,3.6*3A
$GPGSV,3,1,10,21,80,304,43,29,45,127,46,25,43,044,49,31,37,294,34*7E
$GPGSV,3,2,10,18,22,015,33,16,13,222,,05,10,136,24,06,09,256,33*7B
$GPGSV,3,3,10,12,06,044,39,22,00,350,*71
$GPRMC,132713.000,A,3254.3698,S,06849.1311,W,0.09,354.86,180611,,,A*6B
$GPGGA,132714.000,3254.3698,S,06849.1311,W,1,04,1.8,755.0,M,29.6,M,,0000*53
$GPGSA,M,3,25,21,31,29,,,,,,,,,4.1,1.8,3.6*3A
$GPRMC,132714.000,A,3254.3698,S,06849.1311,W,0.07,354.42,180611,,,A*6A
$GPGGA,132715.000,3254.3698,S,06849.1310,W,1,04,1.8,755.1,M,29.6,M,,0000*52
$GPGSA,M,3,25,21,31,29,,,,,,,,,4.1,1.8,3.6*3A
$GPRMC,132715.000,A,3254.3698,S,06849.1310,W,0.08,349.76,180611,,,A*6E
$GPGGA,132716.000,3254.3698,S,06849.1310,W,1,04,1.8,755.3,M,29.6,M,,0000*53
$GPGSA,M,3,25,21,31,29,,,,,,,,,4.1,1.8,3.6*3A
$GPRMC,132716.000,A,3254.3698,S,06849.1310,W,0.09,359.13,180611,,,A*6E
$GPGGA,132717.150,3254.3696,S,06849.1310,W,1,04,1.8,755.2,M,29.6,M,,0000*59
$GPGSA,M,3,21,29,25,31,,,,,,,,,4.1,1.8,3.6*3A
$GPRMC,132717.150,A,3254.3696,S,06849.1310,W,0.42,297.81,180611,,,A*62
$GPGGA,132718.002,3254.3698,S,06849.1312,W,1,04,1.8,754.2,M,29.6,M,,0000*5D
$GPGSA,M,3,21,29,25,31,,,,,,,,,4.1,1.8,3.6*3A
$GPRMC,132718.002,A,3254.3698,S,06849.1312,W,0.98,201.04,180611,,,A*62
$GPGGA,132718.998,3254.3697,S,06849.1310,W,1,04,1.8,753.0,M,29.6,M,,0000*5F
$GPGSA,M,3,21,29,25,31,,,,,,,,,4.1,1.8,3.6*3A
$GPGSV,3,1,10,21,80,304,38,29,45,127,39,25,43,044,39,31,37,295,32*7A
$GPGSV,3,2,10,18,22,015,29,16,13,222,,05,10,137,,06,09,256,32*76
$GPGSV,3,3,10,12,06,044,32,22,00,350,*7A
$GPRMC,132718.998,A,3254.3697,S,06849.1310,W,0.15,16.71,180611,,,A*56
$GPGGA,132719.998,3254.3697,S,06849.1310,W,1,04,1.8,752.7,M,29.6,M,,0000*58
$GPGSA,M,3,21,29,25,31,,,,,,,,,4.1,1.8,3.6*3A
$GPRMC,132719.998,A,3254.3697,S,06849.1310,W,0.33,139.59,180611,,,A*65
$GPGGA,132721.000,3254.3701,S,06849.1310,W,1,04,1.8,752.2,M,29.6,M,,0000*50
$GPGSA,M,3,21,29,25,31,,,,,,,,,4.1,1.8,3.6*3A
$GPRMC,132721.000,A,3254.3701,S,06849.1310,W,0.53,234.45,180611,,,A*6D
$GPGGA,132722.000,3254.3702,S,06849.1312,W,1,04,1.8,752.2,M,29.6,M,,0000*52
$GPGSA,M,3,21,29,25,31,,,,,,,,,4.1,1.8,3.6*3A
$GPRMC,132722.000,A,3254.3702,S,06849.1312,W,1.03,216.32,180611,,,A*6B
$GPGGA,132723.000,3254.3704,S,06849.1312,W,1,04,1.8,751.6,M,29.6,M,,0000*52
$GPGSA,M,3,21,29,25,31,,,,,,,,,4.1,1.8,3.6*3A
$GPRMC,132723.000,A,3254.3704,S,06849.1312,W,0.39,214.10,180611,,,A*66
$GPGGA,132724.002,3254.3704,S,06849.1310,W,1,04,1.8,750.8,M,29.6,M,,0000*5A
$GPGSA,M,3,21,29,25,31,,,,,,,,,4.1,1.8,3.6*3A
$GPGSV,3,1,10,21,80,304,38,29,45,127,39,25,43,044,40,31,37,295,33*75
$GPGSV,3,2,10,18,22,015,30,16,13,222,,05,10,137,,06,09,256,33*7F
$GPGSV,3,3,10,12,06,044,36,22,00,350,*7E
$GPRMC,132724.002,A,3254.3704,S,06849.1310,W,0.33,119.99,180611,,,A*64
$GPGGA,132725.001,3254.3702,S,06849.1306,W,1,04,1.8,750.6,M,29.6,M,,0000*57
$GPGSA,M,3,21,29,25,31,,,,,,,,,4.1,1.8,3.6*3A
$GPRMC,132725.001,A,3254.3702,S,06849.1306,W,0.51,116.77,180611,,,A*6C
$GPGGA,132725.998,3254.3703,S,06849.1304,W,1,04,1.8,750.2,M,29.6,M,,0000*59
$GPGSA,M,3,21,29,25,31,,,,,,,,,4.1,1.8,3.6*3A
$GPRMC,132725.998,A,3254.3703,S,06849.1304,W,1.24,190.10,180611,,,A*6A
$GPGGA,132726.999,3254.3708,S,06849.1303,W,1,04,1.8,750.5,M,29.6,M,,0000*50
$GPGSA,M,3,21,29,25,31,,,,,,,,,4.1,1.8,3.6*3A
$GPRMC,132726.999,A,3254.3708,S,06849.1303,W,0.85,168.62,180611,,,A*6C
$GPGGA,132728.001,3254.3709,S,06849.1304,W,1,04,1.8,748.8,M,29.6,M,,0000*54
$GPGSA,M,3,21,29,25,31,,,,,,,,,4.1,1.8,3.6*3A
$GPRMC,132728.001,A,3254.3709,S,06849.1304,W,0.30,198.58,180611,,,A*64
$GPGGA,132728.998,3254.3709,S,06849.1302,W,1,04,1.8,749.3,M,29.6,M,,0000*51
$GPGSA,M,3,21,29,25,31,,,,,,,,,4.1,1.8,3.6*3A
$GPGSV,3,1,10,21,80,304,39,29,45,127,38,25,43,044,40,31,37,295,35*73
$GPGSV,3,2,10,18,22,015,30,16,13,222,,05,10,137,23,06,09,256,31*7C
$GPGSV,3,3,10,12,06,044,35,22,00,350,*7D
$GPRMC,132728.998,A,3254.3709,S,06849.1302,W,0.45,254.16,180611,,,A*60
$GPGGA,132730.002,3254.3711,S,06849.1303,W,1,04,1.8,748.5,M,29.6,M,,0000*5D
$GPGSA,M,3,21,29,25,31,,,,,,,,,4.1,1.8,3.6*3A
$GPRMC,132730.002,A,3254.3711,S,06849.1303,W,0.12,105.13,180611,,,A*6B
$GPGGA,132731.000,3254.3709,S,06849.1298,W,1,04,1.8,749.7,M,29.6,M,,0000*57
$GPGSA,M,3,21,29,25,31,,,,,,,,,4.1,1.8,3.6*3A
$GPRMC,132731.000,A,3254.3709,S,06849.1298,W,0.07,135.28,180611,,,A*6D
$GPGGA,132732.001,3254.3712,S,06849.1300,W,1,04,1.8,748.9,M,29.6,M,,0000*50
$GPGSA,M,3,21,29,25,31,,,,,,,,,4.1,1.8,3.6*3A
$GPRMC,132732.001,A,3254.3712,S,06849.1300,W,0.74,216.83,180611,,,A*62
$GPGGA,132733.000,3254.3712,S,06849.1297,W,1,04,1.8,749.6,M,29.6,M,,0000*51
$GPGSA,M,3,21,29,25,31,,,,,,,,,4.1,1.8,3.6*3A
$GPRMC,132733.000,A,3254.3712,S,06849.1297,W,0.37,155.36,180611,,,A*60
$GPGGA,132734.001,3254.3714,S,06849.1300,W,1,04,1.8,748.7,M,29.6,M,,0000*5E
$GPGSA,M,3,21,29,25,31,,,,,,,,,4.1,1.8,3.6*3A
$GPGSV,3,1,10,21,80,304,37,29,45,127,39,25,43,044,40,31,37,295,34*7D
$GPGSV,3,2,10,18,22,015,30,16,13,222,,05,10,137,29,06,09,256,29*7F
$GPGSV,3,3,10,12,06,044,36,22,00,350,*7E
$GPRMC,132734.001,A,3254.3714,S,06849.1300,W,0.35,199.67,180611,,,A*69
$GPGGA,132734.999,3254.3717,S,06849.1297,W,1,04,1.8,748.9,M,29.6,M,,0000*54
$GPGSA,M,3,21,29,25,31,,,,,,,,,4.1,1.8,3.6*3A
$GPRMC,132734.999,A,3254.3717,S,06849.1297,W,0.53,174.40,180611,,,A*6B
$GPGGA,132735.999,3254.3717,S,06849.1296,W,1,04,1.8,747.8,M,29.6,M,,0000*5A
$GPGSA,M,3,21,29,25,31,,,,,,,,,4.1,1.8,3.6*3A
$GPRMC,132735.999,A,3254.3717,S,06849.1296,W,0.57,148.27,180611,,,A*61
$GPGGA,132736.999,3254.3720,S,06849.1295,W,1,04,1.8,747.6,M,29.6,M,,0000*50
$GPGSA,M,3,21,29,25,31,,,,,,,,,4.1,1.8,3.6*3A
$GPRMC,132736.999,A,3254.3720,S,06849.1295,W,0.40,97.89,180611,,,A*54
$GPGGA,132737.998,3254.3719,S,06849.1288,W,1,04,1.8,747.8,M,29.6,M,,0000*58
$GPGSA,M,3,21,29,25,31,,,,,,,,,4.1,1.8,3.6*3A
$GPRMC,132737.998,A,3254.3719,S,06849.1288,W,0.50,55.97,180611,,,A*52
$GPGGA,132738.998,3254.3718,S,06849.1288,W,1,04,1.8,747.2,M,29.6,M,,0000*5C
$GPGSA,M,3,21,29,25,31,,,,,,,,,4.1,1.8,3.6*3A
$GPGSV,3,1,10,21,80,304,39,29,45,127,38,25,43,044,39,31,37,295,36*7E
$GPGSV,3,2,10,18,22,015,,16,13,222,,05,10,137,,06,09,256,31*7E
$GPGSV,3,3,10,12,06,044,34,22,00,350,*7C
$GPRMC,132738.998,A,3254.3718,S,06849.1288,W,0.24,227.65,180611,,,A*65
$GPGGA,132740.003,3254.3724,S,06849.1292,W,1,04,1.8,746.8,M,29.6,M,,0000*57
$GPGSA,M,3,21,29,25,31,,,,,,,,,4.1,1.8,3.6*3A
$GPRMC,132740.003,A,3254.3724,S,06849.1292,W,0.54,133.23,180611,,,A*66
$GPGGA,132740.998,3254.3726,S,06849.1292,W,1,04,1.8,747.8,M,29.6,M,,0000*5F
$GPGSA,M,3,21,29,25,31,,,,,,,,,4.1,1.8,3.6*3A
$GPRMC,132740.998,A,3254.3726,S,06849.1292,W,0.25,96.49,180611,,,A*5B
$GPGGA,132742.002,3254.3727,S,06849.1291,W,1,04,1.8,745.9,M,29.6,M,,0000*56
$GPGSA,M,3,21,29,25,31,,,,,,,,,4.1,1.8,3.6*3A
$GPRMC,132742.002,A,3254.3727,S,06849.1291,W,1.23,105.25,180611,,,A*67
$GPGGA,132742.996,3254.3727,S,06849.1286,W,1,04,1.8,745.2,M,29.6,M,,0000*5F
$GPGSA,M,3,21,29,25,31,,,,,,,,,4.1,1.8,3.6*3A
$GPRMC,132742.996,A,3254.3727,S,06849.1286,W,0.54,85.45,180611,,,A*5B
$GPGGA,132744.001,3254.3734,S,06849.1288,W,1,04,1.8,743.7,M,29.6,M,,0000*51
$GPGSA,M,3,21,29,25,31,,,,,,,,,4.1,1.8,3.6*3A
$GPGSV,3,1,10,21,80,304,40,29,45,127,37,25,43,044,40,31,37,295,33*74
$GPGSV,3,2,10,18,22,015,26,16,13,222,,05,10,137,25,06,09,256,29*74
$GPGSV,3,3,10,12,06,044,37,22,00,350,*7F
$GPRMC,132744.001,A,3254.3734,S,06849.1288,W,0.36,103.48,180611,,,A*60
$GPGGA,132744.999,3254.3736,S,06849.1290,W,1,04,1.8,742.6,M,29.6,M,,0000*52
$GPGSA,M,3,21,29,25,31,,,,,,,,,4.1,1.8,3.6*3A
$GPRMC,132744.999,A,3254.3736,S,06849.1290,W,0.38,359.09,180611,,,A*65
$GPGGA,132746.001,3254.3734,S,06849.1288,W,1,04,1.8,741.5,M,29.6,M,,0000*53
$GPGSA,M,3,21,29,25,31,,,,,,,,,4.1,1.8,3.6*3A
$GPRMC,132746.001,A,3254.3734,S,06849.1288,W,0.33,203.61,180611,,,A*6F
$GPGGA,132747.001,3254.3738,S,06849.1293,W,1,04,1.8,742.7,M,29.6,M,,0000*55
$GPGSA,M,3,21,29,25,31,,,,,,,,,4.1,1.8,3.6*3A
$GPRMC,132747.001,A,3254.3738,S,06849.1293,W,0.48,254.73,180611,,,A*65
$GPGGA,132748.001,3254.3738,S,06849.1296,W,1,04,1.8,743.4,M,29.6,M,,0000*5D
$GPGSA,M,3,21,29,25,31,,,,,,,,,4.1,1.8,3.6*3A
$GPRMC,132748.001,A,3254.3738,S,06849.1296,W,0.18,54.83,180611,,,A*57
$GPGGA,132748.996,3254.3735,S,06849.1295,W,1,04,1.8,742.5,M,29.6,M,,0000*54
$GPGSA,M,3,21,29,25,31,,,,,,,,,4.1,1.8,3.6*3A
$GPGSV,3,1,10,21,80,304,39,29,45,127,39,25,43,044,40,31,37,295,35*72
$GPGSV,3,2,10,18,22,015,33,16,13,222,,05,10,137,28,06,09,256,33*76
$GPGSV,3,3,10,12,06,044,36,22,00,350,*7E
$GPRMC,132748.996,A,3254.3735,S,06849.1295,W,0.31,224.30,180611,,,A*68
$GPGGA,132750.002,3254.3739,S,06849.1293,W,1,04,1.8,742.2,M,29.6,M,,0000*54
$GPGSA,M,3,21,29,25,31,,,,,,,,,4.1,1.8,3.6*3A
$GPRMC,132750.002,A,3254.3739,S,06849.1293,W,0.64,166.58,180611,,,A*64
$GPGGA,132750.999,3254.3738,S,06849.1289,W,1,04,1.8,742.5,M,29.6,M,,0000*52
$GPGSA,M,3,21,29,25,31,,,,,,,,,4.1,1.8,3.6*3A
$GPRMC,132750.999,A,3254.3738,S,06849.1289,W,0.55,149.77,180611,,,A*67
$GPGGA,132752.000,3254.3736,S,06849.1287,W,1,04,1.8,743.3,M,29.6,M,,0000*5E
$GPGSA,M,3,21,29,25,31,,,,,,,,,4.1,1.8,3.6*3A
$GPRMC,132752.000,A,3254.3736,S,06849.1287,W,0.62,161.26,180611,,,A*66
$GPGGA,132753.000,3254.3736,S,06849.1283,W,1,04,1.8,744.1,M,29.6,M,,0000*5E
$GPGSA,M,3,21,29,25,31,,,,,,,,,4.1,1.8,3.6*3A
$GPRMC,132753.000,A,3254.3736,S,06849.1283,W,0.23,80.51,180611,,,A*58
$GPGGA,132754.000,3254.3736,S,06849.1282,W,1,04,1.8,743.0,M,29.6,M,,0000*5E
$GPGSA,M,3,21,29,25,31,,,,,,,,,4.1,1.8,3.6*3A
$GPGSV,3,1,10,21,80,304,37,29,45,127,39,25,43,044,40,31,37,295,34*7D
$GPGSV,3,2,10,18,22,015,29,16,13,222,,05,10,137,,06,09,256,33*77
$GPGSV,3,3,10,12,06,044,34,22,00,350,*7C
$GPRMC,132754.000,A,3254.3736,S,06849.1282,W,0.87,270.16,180611,,,A*6E
$GPGGA,132754.999,3254.3733,S,06849.1279,W,1,04,1.8,743.7,M,29.6,M,,0000*51
$GPGSA,M,3,21,29,25,31,,,,,,,,,4.1,1.8,3.6*3A
$GPRMC,132754.999,A,3254.3733,S,06849.1279,W,0.24,75.51,180611,,,A*5B
$GPGGA,132755.999,3254.3729,S,06849.1280,W,1,04,1.8,743.1,M,29.6,M,,0000*5B
$GPGSA,M,3,21,29,25,31,,,,,,,,,4.1,1.8,3.6*3A
$GPRMC,132755.999,A,3254.3729,S,06849.1280,W,0.23,344.72,180611,,,A*60
$GPGGA,132757.000,3254.3729,S,06849.1279,W,1,04,1.8,743.2,M,29.6,M,,0000*55
$GPGSA,M,3,21,29,25,31,,,,,,,,,4.1,1.8,3.6*3A
$GPRMC,132757.000,A,3254.3729,S,06849.1279,W,0.25,138.59,180611,,,A*6B
$GPGGA,132758.000,3254.3732,S,06849.1282,W,1,04,1.8,742.6,M,29.6,M,,0000*51
$GPGSA,M,3,21,29,25,31,,,,,,,,,4.1,1.8,3.6*3A
$GPRMC,132758.000,A,3254.3732,S,06849.1282,W,0.70,210.14,180611,,,A*6A
$GPGGA,132759.001,3254.3734,S,06849.1283,W,1,04,1.8,740.6,M,29.6,M,,0000*54
$GPGSA,M,3,21,29,25,31,,,,,,,,,4.1,1.8,3.6*3A
$GPGSV,3,1,10,21,80,304,38,29,45,127,39,25,43,044,40,31,37,295,32*74
$GPGSV,3,2,10,18,22,015,29,16,13,222,,05,10,137,,06,09,256,32*76
$GPGSV,3,3,10,12,06,044,36,22,00,350,*7E
$GPRMC,132759.001,A,3254.3734,S,06849.1283,W,0.61,30.53,180611,,,A*5E
$GPGGA,132759.997,3254.3732,S,06849.1281,W,1,04,1.8,741.1,M,29.6,M,,0000*50
$GPGSA,M,3,21,29,25,31,,,,,,,,,4.1,1.8,3.6*3A
$GPRMC,132759.997,A,3254.3732,S,06849.1281,W,0.96,323.83,180611,,,A*68
$GPGGA,132801.004,3254.3732,S,06849.1286,W,1,04,1.8,740.0,M,29.6,M,,0000*56
$GPGSA,M,3,21,29,25,31,,,,,,,,,4.1,1.8,3.6*3A
$GPRMC,132801.004,A,3254.3732,S,06849.1286,W,0.78,336.51,180611,,,A*65
$GPGGA,132801.998,3254.3733,S,06849.1285,W,1,04,1.8,738.6,M,29.6,M,,0000*51
$GPGSA,M,3,21,29,25,31,,,,,,,,,4.1,1.8,3.6*3A
$GPRMC,132801.998,A,3254.3733,S,06849.1285,W,0.40,122.68,180611,,,A*6D
$GPGGA,132803.000,3254.3729,S,06849.1284,W,1,04,1.8,737.8,M,29.6,M,,0000*50
$GPGSA,M,3,21,29,25,31,,,,,,,,,4.1,1.8,3.6*3A
$GPRMC,132803.000,A,3254.3729,S,06849.1284,W,0.20,108.65,180611,,,A*6E
$GPGGA,132804.002,3254.3723,S,06849.1278,W,1,04,1.8,740.3,M,29.6,M,,0000*57
$GPGSA,M,3,21,29,25,31,,,,,,,,,4.1,1.8,3.6*3A
$GPGSV,3,1,10,21,80,304,37,29,45,127,39,25,43,044,39,31,37,295,34*73
$GPGSV,3,2,10,18,22,015,34,16,13,222,,05,10,137,26,06,09,256,33*7F
$GPGSV,3,3,10,12,06,044,35,22,00,350,*7D
$GPRMC,132804.002,A,3254.3723,S,06849.1278,W,0.69,78.80,180611,,,A*52
$GPGGA,132805.000,3254.3726,S,06849.1279,W,1,04,1.8,739.7,M,29.6,M,,0000*5A
$GPGSA,M,3,21,29,25,31,,,,,,,,,4.1,1.8,3.6*3A
$GPRMC,132805.000,A,3254.3726,S,06849.1279,W,0.48,246.20,180611,,,A*63
$GPGGA,132806.000,3254.3726,S,06849.1280,W,1,04,1.8,741.0,M,29.6,M,,0000*57
$GPGSA,M,3,21,29,25,31,,,,,,,,,4.1,1.8,3.6*3A
$GPRMC,132806.000,A,3254.3726,S,06849.1280,W,0.47,145.45,180611,,,A*6A
$GPGGA,132806.999,3254.3730,S,06849.1282,W,1,04,1.8,743.1,M,29.6,M,,0000*58
$GPGSA,M,3,21,29,25,31,,,,,,,,,4.1,1.8,3.6*3A
$GPRMC,132806.999,A,3254.3730,S,06849.1282,W,0.30,249.05,180611,,,A*6D
$GPGGA,132808.000,3254.3730,S,06849.1280,W,1,04,1.8,744.9,M,29.6,M,,0000*52
$GPGSA,M,3,21,29,25,31,,,,,,,,,4.1,1.8,3.6*3A
$GPRMC,132808.000,A,3254.3730,S,06849.1280,W,0.55,113.58,180611,,,A*6F
$GPGGA,132808.996,3254.3732,S,06849.1280,W,1,04,1.8,745.9,M,29.6,M,,0000*57
$GPGSA,M,3,21,29,25,31,,,,,,,,,4.1,1.8,3.6*3A
$GPGSV,3,1,10,21,80,304,37,29,45,127,39,25,43,044,39,31,37,295,32*75
$GPGSV,3,2,10,18,22,015,34,16,13,222,,05,10,137,27,06,09,256,29*75
$GPGSV,3,3,10,12,06,044,34,22,00,350,*7C
$GPRMC,132808.996,A,3254.3732,S,06849.1280,W,0.73,94.70,180611,,,A*5B
$GPGGA,132810.002,3254.3729,S,06849.1272,W,1,04,1.8,746.6,M,29.6,M,,0000*51
$GPGSA,M,3,21,29,25,31,,,,,,,,,4.1,1.8,3.6*3A
$GPRMC,132810.002,A,3254.3729,S,06849.1272,W,0.28,30.79,180611,,,A*58
$GPGGA,132811.002,3254.3727,S,06849.1269,W,1,04,1.8,748.0,M,29.6,M,,0000*5C
$GPGSA,M,3,21,29,25,31,,,,,,,,,4.1,1.8,3.6*3A
$GPRMC,132811.002,A,3254.3727,S,06849.1269,W,0.20,65.69,180611,,,A*54
$GPGGA,132812.000,3254.3729,S,06849.1264,W,1,04,1.8,747.6,M,29.6,M,,0000*57
$GPGSA,M,3,21,29,25,31,,,,,,,,,4.1,1.8,3.6*3A
$GPRMC,132812.000,A,3254.3729,S,06849.1264,W,0.54,106.60,180611,,,A*68
$GPGGA,132813.000,3254.3730,S,06849.1263,W,1,04,1.8,748.7,M,29.6,M,,0000*57
$GPGSA,M,3,21,29,25,31,,,,,,,,,4.1,1.8,3.6*3A
$GPRMC,132813.000,A,3254.3730,S,06849.1263,W,0.38,118.44,180611,,,A*65
$GPGGA,132813.997,3254.3731,S,06849.1261,W,1,04,1.8,748.9,M,29.6,M,,0000*5D
$GPGSA,M,3,21,29,25,31,,,,,,,,,4.0,1.8,3.6*3B
$GPGSV,3,1,10,21,80,304,38,29,45,127,40,25,43,044,40,31,37,295,32*7A
$GPGSV,3,2,10,18,22,015,35,16,13,222,,05,10,137,,06,09,256,35*7C
$GPGSV,3,3,10,12,06,044,35,22,00,350,*7D
$GPRMC,132813.997,A,3254.3731,S,06849.1261,W,0.91,112.80,180611,,,A*60
$GPGGA,132815.001,3254.3731,S,06849.1261,W,1,04,1.8,745.5,M,29.6,M,,0000*5C
$GPGSA,M,3,21,29,25,31,,,,,,,,,4.0,1.8,3.6*3B
$GPRMC,132815.001,A,3254.3731,S,06849.1261,W,0.61,67.92,180611,,,A*5F
$GPGGA,132816.001,3254.3732,S,06849.1260,W,1,04,1.8,747.6,M,29.6,M,,0000*5C
$GPGSA,M,3,21,29,25,31,,,,,,,,,4.0,1.8,3.6*3B
$GPRMC,132816.001,A,3254.3732,S,06849.1260,W,0.71,100.82,180611,,,A*6E
$GPGGA,132816.998,3254.3734,S,06849.1259,W,1,04,1.8,747.9,M,29.6,M,,0000*56
$GPGSA,M,3,21,29,25,31,,,,,,,,,4.0,1.8,3.6*3B
$GPRMC,132816.998,A,3254.3734,S,06849.1259,W,0.37,112.57,180611,,,A*62
$GPGGA,132818.000,3254.3735,S,06849.1259,W,1,04,1.8,750.0,M,29.6,M,,0000*5E
$GPGSA,M,3,21,29,25,31,,,,,,,,,4.0,1.8,3.6*3B
$GPRMC,132818.000,A,3254.3735,S,06849.1259,W,0.61,67.75,180611,,,A*55
$GPGGA,132819.000,3254.3733,S,06849.1259,W,1,04,1.8,748.7,M,29.6,M,,0000*57
$GPGSA,M,3,21,29,25,31,,,,,,,,,4.0,1.8,3.6*3B
$GPGSV,3,1,10,21,80,304,37,29,45,127,38,25,43,044,40,31,37,295,29*70
$GPGSV,3,2,10,18,22,015,35,16,13,222,,05,10,137,,06,09,256,34*7D
$GPGSV,3,3,10,12,06,044,35,22,00,350,*7D
$GPRMC,132819.000,A,3254.3733,S,06849.1259,W,0.31,86.25,180611,,,A*5D
$GPGGA,132820.001,3254.3734,S,06849.1259,W,1,04,1.8,750.1,M,29.6,M,,0000*54
$GPGSA,M,3,21,29,25,31,,,,,,,,,4.0,1.8,3.6*3B
$GPRMC,132820.001,A,3254.3734,S,06849.1259,W,0.24,35.83,180611,,,A*51
$GPGGA,132820.999,3254.3734,S,06849.1263,W,1,04,1.8,747.9,M,29.6,M,,0000*5B
$GPGSA,M,3,21,29,25,31,,,,,,,,,4.0,1.8,3.6*3B
$GPRMC,132820.999,A,3254.3734,S,06849.1263,W,0.13,154.32,180611,,,A*68
$GPGGA,132821.999,3254.3736,S,06849.1262,W,1,04,1.8,746.7,M,29.6,M,,0000*56
$GPGSA,M,3,21,29,25,31,,,,,,,,,4.0,1.8,3.6*3B
$GPRMC,132821.999,A,3254.3736,S,06849.1262,W,0.36,178.73,180611,,,A*66
$GPGGA,132823.000,3254.3737,S,06849.1263,W,1,04,1.8,743.3,M,29.6,M,,0000*5C
$GPGSA,M,3,21,29,25,31,,,,,,,,,4.0,1.8,3.6*3B
$GPRMC,132823.000,A,3254.3737,S,06849.1263,W,0.16,27.64,180611,,,A*52
$GPGGA,132824.000,3254.3736,S,06849.1261,W,1,04,1.8,742.7,M,29.6,M,,0000*5D
$GPGSA,M,3,21,29,25,31,,,,,,,,,4.0,1.8,3.6*3B
$GPGSV,3,1,10,21,80,304,37,29,45,127,39,25,43,044,40,31,37,295,28*70
$GPGSV,3,2,10,18,22,015,34,16,13,222,,05,10,137,,06,09,256,35*7D
$GPGSV,3,3,10,12,06,044,34,22,00,350,*7C
$GPRMC,132824.000,A,3254.3736,S,06849.1261,W,0.34,82.66,180611,,,A*5B
$GPGGA,132824.999,3254.3734,S,06849.1260,W,1,04,1.8,743.2,M,29.6,M,,0000*53
$GPGSA,M,3,21,29,25,31,,,,,,,,,4.0,1.8,3.6*3B
$GPRMC,132824.999,A,3254.3734,S,06849.1260,W,0.21,221.78,180611,,,A*61
$GPGGA,132825.999,3254.3734,S,06849.1267,W,1,04,1.8,741.7,M,29.6,M,,0000*52
$GPGSA,M,3,21,29,25,31,,,,,,,,,4.0,1.8,3.6*3B
$GPRMC,132825.999,A,3254.3734,S,06849.1267,W,0.57,325.60,180611,,,A*6A
$GPGGA,132826.999,3254.3732,S,06849.1271,W,1,04,1.8,739.9,M,29.6,M,,0000*51
$GPGSA,M,3,21,29,25,31,,,,,,,,,4.0,1.8,3.6*3B
$GPRMC,132826.999,A,3254.3732,S,06849.1271,W,0.16,246.58,180611,,,A*62
$GPGGA,132827.999,3254.3731,S,06849.1270,W,1,04,1.8,740.6,M,29.6,M,,0000*53
$GPGSA,M,3,21,29,25,31,,,,,,,,,4.0,1.8,3.6*3B
$GPRMC,132827.999,A,3254.3731,S,06849.1270,W,0.31,289.85,180611,,,A*67
$GPGGA,132828.999,3254.3729,S,06849.1274,W,1,04,1.8,739.8,M,29.6,M,,0000*51
$GPGSA,M,3,21,29,25,31,,,,,,,,,4.0,1.8,3.6*3B
$GPGSV,3,1,10,21,80,304,38,29,45,127,38,25,43,044,40,31,37,295,29*7F
$GPGSV,3,2,10,18,22,015,34,16,13,222,,05,10,137,,06,09,256,34*7C
$GPGSV,3,3,10,12,06,044,35,22,00,350,*7D
$GPRMC,132828.999,A,3254.3729,S,06849.1274,W,0.55,88.05,180611,,,A*5C
$GPGGA,132829.999,3254.3727,S,06849.1277,W,1,04,1.8,739.4,M,29.6,M,,0000*51
$GPGSA,M,3,21,29,25,31,,,,,,,,,4.0,1.8,3.6*3B
$GPRMC,132829.999,A,3254.3727,S,06849.1277,W,0.53,57.50,180611,,,A*54
$GPGGA,132831.001,3254.3721,S,06849.1281,W,1,04,1.8,738.1,M,29.6,M,,0000*5B
$GPGSA,M,3,21,29,25,31,,,,,,,,,4.0,1.8,3.6*3B
$GPRMC,132831.001,A,3254.3721,S,06849.1281,W,0.62,331.10,180611,,,A*6F
$GPGGA,132831.999,3254.3714,S,06849.1280,W,1,04,1.8,738.7,M,29.6,M,,0000*52
$GPGSA,M,3,21,29,25,31,,,,,,,,,4.0,1.8,3.6*3B
$GPRMC,132831.999,A,3254.3714,S,06849.1280,W,0.30,231.48,180611,,,A*6B
$GPGGA,132832.999,3254.3714,S,06849.1287,W,1,04,1.8,736.1,M,29.6,M,,0000*5E
$GPGSA,M,3,21,29,25,31,,,,,,,,,4.0,1.8,3.6*3B
$GPRMC,132832.999,A,3254.3714,S,06849.1287,W,0.53,269.41,180611,,,A*6E
$GPGGA,132833.998,3254.3710,S,06849.1285,W,1,04,1.8,736.9,M,29.6,M,,0000*50
$GPGSA,M,3,21,29,25,31,,,,,,,,,4.0,1.8,3.6*3B
$GPGSV,3,1,10,21,80,304,37,29,45,127,38,25,43,044,39,31,37,295,27*70
$GPGSV,3,2,10,18,22,015,33,16,13,222,,05,10,137,,06,09,256,34*7B
$GPGSV,3,3,10,12,06,044,34,22,00,350,*7C
$GPRMC,132833.998,A,3254.3710,S,06849.1285,W,0.20,118.74,180611,,,A*6F
$GPGGA,132835.000,3254.3705,S,06849.1282,W,1,04,1.8,741.6,M,29.6,M,,0000*52
$GPGSA,M,3,21,29,25,31,,,,,,,,,4.0,1.8,3.6*3B
$GPRMC,132835.000,A,3254.3705,S,06849.1282,W,0.19,20.74,180611,,,A*52
$GPGGA,132836.002,3254.3705,S,06849.1282,W,0,00,,741.5,M,29.6,M,,0000*72
$GPGSA,M,1,,,,,,,,,,,,,,,*12
$GPRMC,132836.002,V,3254.3705,S,06849.1282,W,,,180611,,,N*72
$GPGGA,132837.000,3254.3704,S,06849.1281,W,0,00,,741.4,M,29.6,M,,0000*72
$GPGSA,M,1,,,,,,,,,,,,,,,*12
$GPRMC,132837.000,V,3254.3704,S,06849.1281,W,,,180611,,,N*73
$GPGGA,132838.000,3254.3704,S,06849.1281,W,0,00,,741.4,M,29.6,M,,0000*7D
$GPGSA,M,1,,,,,,,,,,,,,,,*12
$GPGSV,3,1,10,21,81,301,42,29,45,126,44,25,42,044,48,31,37,295,*7E
$GPGSV,3,2,10,18,22,016,34,16,14,222,,05,10,137,,06,10,256,36*72
$GPGSV,3,3,10,12,06,044,37,22,01,351,*7F
$GPRMC,132838.000,V,3254.3704,S,06849.1281,W,,,180611,,,N*7C
$GPGGA,132839.000,3254.3706,S,06849.1289,W,1,04,1.8,746.8,M,29.6,M,,0000*5F
$GPGSA,M,3,21,29,25,31,,,,,,,,,4.0,1.8,3.6*3B
$GPRMC,132839.000,A,3254.3706,S,06849.1289,W,0.08,35.51,180611,,,A*55
$GPGGA,132840.000,3254.3705,S,06849.1283,W,1,04,1.8,752.7,M,29.6,M,,0000*52
$GPGSA,M,3,21,29,25,31,,,,,,,,,4.0,1.8,3.6*3B
$GPRMC,132840.000,A,3254.3705,S,06849.1283,W,0.19,55.77,180611,,,A*50
$GPGGA,132841.000,3254.3704,S,06849.1279,W,1,04,1.8,757.5,M,29.6,M,,0000*50
$GPGSA,M,3,21,29,25,31,,,,,,,,,4.0,1.8,3.6*3B
$GPRMC,132841.000,A,3254.3704,S,06849.1279,W,0.21,57.75,180611,,,A*5E
$GPGGA,132842.000,3254.3704,S,06849.1274,W,1,04,1.8,761.5,M,29.6,M,,0000*5B
$GPGSA,M,3,21,29,25,31,,,,,,,,,4.0,1.8,3.6*3B
$GPRMC,132842.000,A,3254.3704,S,06849.1274,W,0.26,63.45,180611,,,A*53
$GPGGA,132843.000,3254.3704,S,06849.1276,W,1,04,1.8,763.3,M,29.6,M,,0000*5C
$GPGSA,M,3,21,29,25,31,,,,,,,,,4.0,1.8,3.6*3B
$GPGSV,3,1,10,21,81,301,42,29,45,126,44,25,42,044,48,31,37,295,28*74
$GPGSV,3,2,10,18,22,016,34,16,14,222,24,05,10,137,23,06,10,256,36*75
$GPGSV,3,3,10,12,06,044,36,22,01,351,*7E
$GPRMC,132843.000,A,3254.3704,S,06849.1276,W,0.25,60.61,180611,,,A*56
$GPGGA,132844.000,3254.3704,S,06849.1274,W,1,04,1.8,765.9,M,29.6,M,,0000*55
$GPGSA,M,3,21,29,25,31,,,,,,,,,4.0,1.8,3.6*3B
$GPRMC,132844.000,A,3254.3704,S,06849.1274,W,0.24,61.09,180611,,,A*5D
$GPGGA,132845.000,3254.3703,S,06849.1271,W,1,04,1.8,768.6,M,29.6,M,,0000*54
$GPGSA,M,3,21,29,25,31,,,,,,,,,4.0,1.8,3.6*3B
$GPRMC,132845.000,A,3254.3703,S,06849.1271,W,0.25,62.11,180611,,,A*55
$GPGGA,132846.000,3254.3703,S,06849.1271,W,1,04,1.8,770.2,M,29.6,M,,0000*5A
$GPGSA,M,3,21,29,25,31,,,,,,,,,4.0,1.8,3.6*3B
$GPRMC,132846.000,A,3254.3703,S,06849.1271,W,0.27,63.96,180611,,,A*5A
$GPGGA,132847.000,3254.3703,S,06849.1270,W,1,04,1.8,771.7,M,29.6,M,,0000*5E
$GPGSA,M,3,21,29,25,31,,,,,,,,,4.0,1.8,3.6*3B
$GPRMC,132847.000,A,3254.3703,S,06849.1270,W,0.27,64.49,180611,,,A*5F
$GPGGA,132848.000,3254.3703,S,06849.1268,W,1,04,1.8,773.2,M,29.6,M,,0000*5F
$GPGSA,M,3,21,29,25,31,,,,,,,,,4.0,1.8,3.6*3B
$GPGSV,3,1,10,21,81,301,42,29,45,126,45,25,42,044,48,31,37,295,28*75
$GPGSV,3,2,10,18,22,016,33,16,14,222,25,05,10,137,11,06,10,256,36*72
$GPGSV,3,3,10,12,06,044,36,22,01,351,*7E
$GPRMC,132848.000,A,3254.3703,S,06849.1268,W,0.27,64.74,180611,,,A*57
$GPGGA,132849.000,3254.3702,S,06849.1267,W,1,04,1.8,774.3,M,29.6,M,,0000*56
$GPGSA,M,3,21,29,25,31,,,,,,,,,4.0,1.8,3.6*3B
$GPRMC,132849.000,A,3254.3702,S,06849.1267,W,0.27,64.71,180611,,,A*5D
$GPGGA,132850.000,3254.3702,S,06849.1266,W,1,04,1.8,775.4,M,29.6,M,,0000*59
$GPGSA,M,3,21,29,25,31,,,,,,,,,4.0,1.8,3.6*3B
$GPRMC,132850.000,A,3254.3702,S,06849.1266,W,0.28,62.87,180611,,,A*54
$GPGGA,132851.000,3254.3701,S,06849.1266,W,1,04,1.8,776.0,M,29.6,M,,0000*5C
$GPGSA,M,3,21,29,25,31,,,,,,,,,4.0,1.8,3.6*3B
$GPRMC,132851.000,A,3254.3701,S,06849.1266,W,0.25,60.71,180611,,,A*50
$GPGGA,132852.000,3254.3701,S,06849.1264,W,1,04,1.8,777.7,M,29.6,M,,0000*5B
$GPGSA,M,3,21,29,25,31,,,,,,,,,4.0,1.8,3.6*3B
$GPRMC,132852.000,A,3254.3701,S,06849.1264,W,0.32,67.97,180611,,,A*58
$GPGGA,132853.000,3254.3700,S,06849.1262,W,1,04,1.8,779.0,M,29.6,M,,0000*54
$GPGSA,M,3,21,29,25,31,,,,,,,,,4.0,1.8,3.6*3B
$GPGSV,3,1,10,21,81,301,42,29,45,126,45,25,42,044,48,31,37,295,23*7E
$GPGSV,3,2,10,18,22,016,33,16,14,222,26,05,10,137,,06,10,256,35*72
$GPGSV,3,3,10,12,06,044,37,22,01,351,*7F
$GPRMC,132853.000,A,3254.3700,S,06849.1262,W,0.35,69.74,180611,,,A*5A
$GPGGA,132854.000,3254.3700,S,06849.1260,W,1,04,1.8,780.0,M,29.6,M,,0000*57
$GPGSA,M,3,21,29,25,31,,,,,,,,,4.0,1.8,3.6*3B
$GPRMC,132854.000,A,3254.3700,S,06849.1260,W,0.32,64.86,180611,,,A*58
$GPGGA,132855.000,3254.3699,S,06849.1259,W,1,04,1.8,781.0,M,29.6,M,,0000*5C
$GPGSA,M,3,21,29,25,31,,,,,,,,,4.0,1.8,3.6*3B
$GPRMC,132855.000,A,3254.3699,S,06849.1259,W,0.30,63.85,180611,,,A*54
$GPGGA,132856.000,3254.3699,S,06849.1258,W,1,04,1.8,782.0,M,29.6,M,,0000*5D
$GPGSA,M,3,21,29,25,31,,,,,,,,,4.0,1.8,3.6*3B
$GPRMC,132856.000,A,3254.3699,S,06849.1258,W,0.31,66.06,180611,,,A*59
$GPGGA,132857.000,3254.3699,S,06849.1256,W,1,04,1.8,783.1,M,29.6,M,,0000*52
$GPGSA,M,3,21,29,25,31,,,,,,,,,4.0,1.8,3.6*3B
$GPRMC,132857.000,A,3254.3699,S,06849.1256,W,0.32,65.18,180611,,,A*59
$GPGGA,132858.000,3254.3698,S,06849.1254,W,1,04,1.8,784.1,M,29.6,M,,0000*59
$GPGSA,M,3,21,29,25,31,,,,,,,,,4.0,1.8,3.6*3B
$GPGSV,3,1,10,21,81,301,42,29,45,126,45,25,42,044,48,31,37,295,27*7A
$GPGSV,3,2,10,18,22,016,34,16,14,222,27,05,10,137,,06,10,256,35*74
$GPGSV,3,3,10,12,06,044,37,22,01,351,*7F
$GPRMC,132858.000,A,3254.3698,S,06849.1254,W,0.28,62.97,180611,,,A*5E
$GPGGA,132859.000,3254.3698,S,06849.1252,W,1,04,1.8,785.0,M,29.6,M,,0000*5E
$GPGSA,M,3,21,29,25,31,,,,,,,,,4.0,1.8,3.6*3B
$GPRMC,132859.000,A,3254.3698,S,06849.1252,W,0.25,58.55,180611,,,A*53
$GPGGA,132900.000,3254.3698,S,06849.1251,W,1,04,1.8,786.0,M,29.6,M,,0000*53
$GPGSA,M,3,21,29,25,31,,,,,,,,,4.0,1.8,3.6*3B
$GPRMC,132900.000,A,3254.3698,S,06849.1251,W,0.26,60.82,180611,,,A*5F
$GPGGA,132901.000,3254.3698,S,06849.1249,W,1,04,1.8,787.0,M,29.6,M,,0000*5A
$GPGSA,M,3,21,29,25,31,,,,,,,,,4.0,1.8,3.6*3B
$GPRMC,132901.000,A,3254.3698,S,06849.1249,W,0.26,60.01,180611,,,A*5C
$GPGGA,132902.000,3254.3698,S,06849.1247,W,1,04,1.8,787.9,M,29.6,M,,0000*5E
$GPGSA,M,3,21,29,25,31,,,,,,,,,4.0,1.8,3.6*3B
$GPRMC,132902.000,A,3254.3698,S,06849.1247,W,0.24,58.80,180611,,,A*51
$GPGGA,132903.000,3254.3697,S,06849.1245,W,1,04,1.8,788.9,M,29.6,M,,0000*5D
$GPGSA,M,3,21,29,25,31,,,,,,,,,4.0,1.8,3.6*3B
$GPGSV,3,1,10,21,81,301,41,29,45,126,45,25,42,044,48,31,37,295,31*7E
$GPGSV,3,2,10,18,22,016,34,16,14,222,28,05,10,137,,06,10,256,36*78
$GPGSV,3,3,10,12,06,044,37,22,01,351,*7F
$GPRMC,132903.000,A,3254.3697,S,06849.1245,W,0.24,58.04,180611,,,A*51
$GPGGA,132904.000,3254.3697,S,06849.1242,W,1,05,1.7,790.5,M,29.6,M,,0000*56
$GPGSA,M,3,21,29,25,18,31,,,,,,,,3.5,1.7,3.0*39
$GPRMC,132904.000,A,3254.3697,S,06849.1242,W,0.25,62.10,180611,,,A*5C
$GPGGA,132905.000,3254.3697,S,06849.1240,W,1,05,1.7,791.9,M,29.6,M,,0000*58
$GPGSA,M,3,21,29,25,18,31,,,,,,,,3.5,1.7,3.0*39
$GPRMC,132905.000,A,3254.3697,S,06849.1240,W,0.26,59.48,180611,,,A*59
$GPGGA,132906.000,3254.3697,S,06849.1237,W,1,05,1.7,793.2,M,29.6,M,,0000*52
$GPGSA,M,3,21,29,25,18,31,,,,,,,,3.5,1.7,3.0*39
$GPRMC,132906.000,A,3254.3697,S,06849.1237,W,0.26,60.04,180611,,,A*58
$GPGGA,132907.000,3254.3697,S,06849.1234,W,1,05,1.7,794.4,M,29.6,M,,0000*51
$GPGSA,M,3,21,29,25,18,31,,,,,,,,3.5,1.7,3.0*39
$GPRMC,132907.000,A,3254.3697,S,06849.1234,W,0.26,60.93,180611,,,A*54
$GPGGA,132908.000,3254.3697,S,06849.1232,W,1,05,1.7,795.5,M,29.6,M,,0000*58
$GPGSA,M,3,21,29,25,18,31,,,,,,,,3.5,1.7,3.0*39
$GPGSV,3,1,10,21,81,300,41,29,45,126,44,25,42,044,48,31,37,295,31*7E
$GPGSV,3,2,10,18,22,016,33,16,14,222,29,06,10,256,36,05,10,137,23*7F
$GPGSV,3,3,10,12,06,044,37,22,01,351,*7F
$GPRMC,132908.000,A,3254.3697,S,06849.1232,W,0.26,61.14,180611,,,A*53
$GPGGA,132909.000,3254.3697,S,06849.1230,W,1,05,1.7,796.6,M,29.6,M,,0000*5B
$GPGSA,M,3,21,29,25,18,31,,,,,,,,3.5,1.7,3.0*39
$GPRMC,132909.000,A,3254.3697,S,06849.1230,W,0.26,58.62,180611,,,A*5B
$GPGGA,132910.000,3254.3696,S,06849.1228,W,1,05,1.7,797.6,M,29.6,M,,0000*5A
$GPGSA,M,3,21,29,25,18,31,,,,,,,,3.5,1.7,3.0*39
$GPRMC,132910.000,A,3254.3696,S,06849.1228,W,0.23,61.34,180611,,,A*57
$GPGGA,132910.998,3254.3696,S,06849.1226,W,1,05,1.7,797.5,M,29.6,M,,0000*5F
$GPGSA,M,3,21,29,25,31,18,,,,,,,,3.5,1.7,3.0*39
$GPRMC,132910.998,A,3254.3696,S,06849.1226,W,0.49,124.55,180611,,,A*6A
$GPGGA,132912.002,3254.3697,S,06849.1223,W,1,05,1.7,798.0,M,29.6,M,,0000*59
$GPGSA,M,3,21,29,25,31,18,,,,,,,,3.5,1.7,3.0*39
$GPRMC,132912.002,A,3254.3697,S,06849.1223,W,0.44,127.79,180611,,,A*66
$GPGGA,132912.998,3254.3698,S,06849.1223,W,1,05,1.7,798.0,M,29.6,M,,0000*5C
$GPGSA,M,3,21,29,25,31,18,,,,,,,,3.5,1.7,3.0*39
$GPRMC,132912.998,A,3254.3698,S,06849.1223,W,0.41,158.73,180611,,,A*64
$GPGGA,132914.001,3254.3701,S,06849.1222,W,1,04,3.2,798.2,M,29.6,M,,0000*57
$GPGSA,M,3,21,29,25,18,,,,,,,,,5.4,3.2,4.4*38
$GPGSV,3,1,10,21,81,300,37,29,45,126,39,25,42,044,40,31,37,295,*7F
$GPGSV,3,2,10,18,22,016,30,16,14,222,28,06,10,256,34,05,10,137,*7E
$GPGSV,3,3,10,12,06,044,35,22,01,351,*7D
$GPRMC,132914.001,A,3254.3701,S,06849.1222,W,0.41,114.28,180611,,,A*6D
$GPGGA,132915.002,3254.3702,S,06849.1223,W,1,04,3.2,798.1,M,29.6,M,,0000*54
$GPGSA,M,3,21,29,25,18,,,,,,,,,5.4,3.2,4.4*38
$GPRMC,132915.002,A,3254.3702,S,06849.1223,W,0.58,155.78,180611,,,A*65
$GPGGA,132915.999,3254.3703,S,06849.1216,W,1,05,1.7,798.9,M,29.6,M,,0000*56
$GPGSA,M,3,21,29,25,31,18,,,,,,,,3.5,1.7,3.0*39
$GPRMC,132915.999,A,3254.3703,S,06849.1216,W,0.50,72.76,180611,,,A*5B
$GPGGA,132916.999,3254.3704,S,06849.1216,W,1,04,3.2,799.4,M,29.6,M,,0000*58
$GPGSA,M,3,21,29,25,18,,,,,,,,,5.4,3.2,4.4*38
$GPRMC,132916.999,A,3254.3704,S,06849.1216,W,0.41,218.87,180611,,,A*6F
$GPGGA,132917.997,3254.3705,S,06849.1217,W,0,00,,799.6,M,29.6,M,,0000*7F
$GPGSA,M,1,,,,,,,,,,,,,,,*12
$GPRMC,132917.997,V,3254.3705,S,06849.1217,W,,,180611,,,N*79
$GPGGA,132919.000,3254.3706,S,06849.1217,W,0,00,,799.8,M,29.6,M,,0000*7B
$GPGSA,M,1,,,,,,,,,,,,,,,*12
$GPGSV,3,1,10,21,81,300,37,29,45,125,39,25,42,043,40,31,37,296,*78
$GPGSV,3,2,10,18,23,016,,06,10,256,35,12,06,044,35,16,14,222,29*7E
$GPGSV,3,3,10,05,10,137,27,22,01,351,*7A
$GPRMC,132919.000,V,3254.3706,S,06849.1217,W,,,180611,,,N*73
$GPGGA,132920.000,3254.3707,S,06849.1218,W,0,00,,800.1,M,29.6,M,,0000*79
$GPGSA,M,1,,,,,,,,,,,,,,,*12
$GPRMC,132920.000,V,3254.3707,S,06849.1218,W,,,180611,,,N*77
$GPGGA,132921.000,3254.3725,S,06849.1238,W,1,04,1.8,793.8,M,29.6,M,,0000*54
$GPGSA,M,3,21,29,25,06,,,,,,,,,2.9,1.8,2.2*35
$GPRMC,132921.000,A,3254.3725,S,06849.1238,W,0.33,1.98,180611,,,A*6C
$GPGGA,132922.000,3254.3725,S,06849.1259,W,1,05,1.5,790.6,M,29.6,M,,0000*51
$GPGSA,M,3,21,29,25,06,18,,,,,,,,2.4,1.5,2.0*3E
$GPRMC,132922.000,A,3254.3725,S,06849.1259,W,0.14,11.94,180611,,,A*50
$GPGGA,132923.001,3254.3721,S,06849.1264,W,1,04,1.8,790.4,M,29.6,M,,0000*55
$GPGSA,M,3,21,29,25,06,,,,,,,,,2.9,1.8,2.2*35
$GPRMC,132923.001,A,3254.3721,S,06849.1264,W,0.07,196.98,180611,,,A*6A
$GPGGA,132924.003,3254.3722,S,06849.1266,W,1,04,1.8,790.3,M,29.6,M,,0000*56
$GPGSA,M,3,21,29,25,06,,,,,,,,,2.9,1.8,2.2*35
$GPGSV,3,1,10,21,81,300,37,29,45,125,40,25,42,043,41,31,37,296,*77
$GPGSV,3,2,10,18,23,016,,16,14,222,,06,10,256,35,05,10,137,27*72
$GPGSV,3,3,10,12,06,044,36,22,01,351,*7E
$GPRMC,132924.003,A,3254.3722,S,06849.1266,W,0.08,319.07,180611,,,A*62
$GPGGA,132924.998,3254.3719,S,06849.1263,W,1,04,1.8,789.7,M,29.6,M,,0000*5C
$GPGSA,M,3,21,29,25,06,,,,,,,,,2.9,1.8,2.2*35
$GPRMC,132924.998,A,3254.3719,S,06849.1263,W,0.61,146.96,180611,,,A*6B
$GPGGA,132925.999,3254.3718,S,06849.1264,W,1,04,1.8,789.2,M,29.6,M,,0000*5F
$GPGSA,M,3,21,29,25,06,,,,,,,,,2.9,1.8,2.2*35
$GPRMC,132925.999,A,3254.3718,S,06849.1264,W,0.13,263.99,180611,,,A*63
$GPGGA,132926.999,3254.3718,S,06849.1264,W,1,04,1.8,789.1,M,29.6,M,,0000*5F
$GPGSA,M,3,21,29,25,06,,,,,,,,,2.9,1.8,2.2*35
$GPRMC,132926.999,A,3254.3718,S,06849.1264,W,0.47,121.25,180611,,,A*63
$GPGGA,132928.000,3254.3716,S,06849.1263,W,1,04,1.8,788.6,M,29.6,M,,0000*57
$GPGSA,M,3,21,29,25,06,,,,,,,,,2.9,1.8,2.2*35
$GPRMC,132928.000,A,3254.3716,S,06849.1263,W,0.16,176.56,180611,,,A*6F
$GPGGA,132928.999,3254.3712,S,06849.1260,W,1,04,1.8,787.7,M,29.6,M,,0000*57
$GPGSA,M,3,21,29,25,06,,,,,,,,,2.9,1.8,2.2*35
$GPGSV,3,1,10,21,81,300,37,29,45,125,38,25,42,043,39,31,37,296,*77
$GPGSV,3,2,10,18,23,016,,16,14,222,29,06,10,256,35,05,10,137,28*76
$GPGSV,3,3,10,12,06,044,35,22,01,351,*7D
$GPRMC,132928.999,A,3254.3712,S,06849.1260,W,0.33,135.64,180611,,,A*60
$GPGGA,132929.999,3254.3713,S,06849.1259,W,1,04,1.8,787.3,M,29.6,M,,0000*59
$GPGSA,M,3,21,29,25,06,,,,,,,,,2.9,1.8,2.2*35
$GPRMC,132929.999,A,3254.3713,S,06849.1259,W,0.08,18.63,180611,,,A*5B
$GPGGA,132930.999,3254.3716,S,06849.1260,W,1,04,1.8,786.4,M,29.6,M,,0000*58
$GPGSA,M,3,21,29,25,06,,,,,,,,,2.9,1.8,2.2*35
$GPRMC,132930.999,A,3254.3716,S,06849.1260,W,0.23,323.27,180611,,,A*6E
$GPGGA,132932.000,3254.3717,S,06849.1254,W,1,05,1.6,786.4,M,29.6,M,,0000*5A
$GPGSA,M,3,21,29,25,31,06,,,,,,,,2.7,1.6,2.2*37
$GPRMC,132932.000,A,3254.3717,S,06849.1254,W,0.30,114.88,180611,,,A*62
$GPGGA,132933.000,3254.3716,S,06849.1253,W,1,05,1.6,786.5,M,29.6,M,,0000*5C
$GPGSA,M,3,21,29,25,31,06,,,,,,,,2.7,1.6,2.2*37
$GPGSV,3,1,10,21,81,299,42,29,45,125,43,25,42,043,45,31,37,296,23*72
$GPGSV,3,2,10,18,23,016,,06,10,256,37,12,06,044,37,16,14,222,32*74
$GPGSV,3,3,10,05,10,137,28,22,01,351,*75
$GPRMC,132933.000,A,3254.3716,S,06849.1253,W,0.10,13.09,180611,,,A*58
$GPGGA,132934.000,3254.3709,S,06849.1261,W,1,05,1.6,781.8,M,29.6,M,,0000*5E
$GPGSA,M,3,21,29,25,31,06,,,,,,,,2.7,1.6,2.2*37
$GPRMC,132934.000,A,3254.3709,S,06849.1261,W,0.19,40.72,180611,,,A*53
$GPGGA,132935.000,3254.3711,S,06849.1266,W,1,05,1.6,779.7,M,29.6,M,,0000*59
$GPGSA,M,3,21,29,25,31,06,,,,,,,,2.7,1.6,2.2*37
$GPRMC,132935.000,A,3254.3711,S,06849.1266,W,0.11,31.38,180611,,,A*5C
$GPGGA,132936.000,3254.3711,S,06849.1270,W,1,05,1.6,778.1,M,29.6,M,,0000*5A
$GPGSA,M,3,21,29,25,31,06,,,,,,,,2.7,1.6,2.2*37
$GPRMC,132936.000,A,3254.3711,S,06849.1270,W,0.12,44.79,180611,,,A*5C
$GPGGA,132937.000,3254.3711,S,06849.1273,W,1,05,1.6,776.7,M,29.6,M,,0000*50
$GPGSA,M,3,21,29,25,31,06,,,,,,,,2.7,1.6,2.2*37
$GPRMC,132937.000,A,3254.3711,S,06849.1273,W,0.10,20.23,180611,,,A*51
$GPGGA,132938.000,3254.3712,S,06849.1276,W,1,05,1.6,775.5,M,29.6,M,,0000*58
$GPGSA,M,3,21,29,25,31,06,,,,,,,,2.7,1.6,2.2*37
$GPGSV,3,1,10,21,81,299,42,29,45,125,44,25,42,043,47,31,37,296,26*72
$GPGSV,3,2,10,18,23,016,,06,10,256,38,12,06,044,37,16,14,222,32*7B
$GPGSV,3,3,10,05,10,137,27,22,01,351,*7A
$GPRMC,132938.000,A,3254.3712,S,06849.1276,W,0.11,28.96,180611,,,A*5F
$GPGGA,132939.000,3254.3711,S,06849.1278,W,1,05,1.6,774.1,M,29.6,M,,0000*51
$GPGSA,M,3,21,29,25,31,06,,,,,,,,2.7,1.6,2.2*37
$GPRMC,132939.000,A,3254.3711,S,06849.1278,W,0.11,24.76,180611,,,A*51
$GPGGA,132940.000,3254.3711,S,06849.1280,W,1,05,1.6,773.3,M,29.6,M,,0000*5D
$GPGSA,M,3,21,29,25,31,06,,,,,,,,2.7,1.6,2.2*37
$GPRMC,132940.000,A,3254.3711,S,06849.1280,W,0.11,20.71,180611,,,A*5B
$GPGGA,132941.000,3254.3710,S,06849.1281,W,1,05,1.6,772.2,M,29.6,M,,0000*5C
$GPGSA,M,3,21,29,25,31,06,,,,,,,,2.7,1.6,2.2*37
$GPRMC,132941.000,A,3254.3710,S,06849.1281,W,0.09,9.50,180611,,,A*6B
$GPGGA,132942.000,3254.3710,S,06849.1284,W,1,05,1.6,771.3,M,29.6,M,,0000*58
$GPGSA,M,3,21,29,25,31,06,,,,,,,,2.7,1.6,2.2*37
$GPRMC,132942.000,A,3254.3710,S,06849.1284,W,0.12,20.26,180611,,,A*5D
$GPGGA,132943.000,3254.3709,S,06849.1285,W,1,04,1.8,770.7,M,29.6,M,,0000*5A
$GPGSA,M,3,21,29,25,06,,,,,,,,,2.9,1.8,2.2*35
$GPGSV,3,1,10,21,81,299,43,29,45,125,44,25,42,043,47,31,37,296,*77
$GPGSV,3,2,10,18,23,016,,06,10,256,38,12,06,044,37,16,14,222,32*7B
$GPGSV,3,3,10,05,10,137,21,22,01,351,*7C
$GPRMC,132943.000,A,3254.3709,S,06849.1285,W,0.11,29.44,180611,,,A*5B
$GPGGA,132944.000,3254.3709,S,06849.1287,W,1,05,1.6,770.1,M,29.6,M,,0000*56
$GPGSA,M,3,21,29,25,31,06,,,,,,,,2.7,1.6,2.2*37
$GPRMC,132944.000,A,3254.3709,S,06849.1287,W,0.11,349.01,180611,,,A*6A
$GPGGA,132945.000,3254.3708,S,06849.1288,W,1,06,1.2,769.7,M,29.6,M,,0000*50
$GPGSA,M,3,21,29,25,31,06,18,,,,,,,2.2,1.2,1.8*36
$GPRMC,132945.000,A,3254.3708,S,06849.1288,W,0.13,57.99,180611,,,A*5A
$GPGGA,132946.000,3254.3708,S,06849.1289,W,1,06,1.2,769.2,M,29.6,M,,0000*57
$GPGSA,M,3,21,29,25,31,06,18,,,,,,,2.2,1.2,1.8*36
$GPRMC,132946.000,A,3254.3708,S,06849.1289,W,0.13,18.33,180611,,,A*53
$GPGGA,132947.000,3254.3707,S,06849.1290,W,1,06,1.2,768.7,M,29.6,M,,0000*55
$GPGSA,M,3,21,29,25,31,06,18,,,,,,,2.2,1.2,1.8*36
$GPRMC,132947.000,A,3254.3707,S,06849.1290,W,0.13,18.58,180611,,,A*58
$GPGGA,132947.998,3254.3708,S,06849.1289,W,1,06,1.2,768.3,M,29.6,M,,0000*5E
$GPGSA,M,3,21,29,25,31,18,06,,,,,,,2.2,1.2,1.8*36
$GPRMC,132947.998,A,3254.3708,S,06849.1289,W,0.31,253.75,180611,,,A*65
$GPGGA,132949.001,3254.3710,S,06849.1288,W,1,06,1.2,767.9,M,29.6,M,,0000*54
$GPGSA,M,3,21,29,25,31,18,06,,,,,,,2.2,1.2,1.8*36
$GPGSV,3,1,10,21,81,299,38,29,45,125,39,25,42,043,40,31,37,296,30*75
$GPGSV,3,2,10,18,23,016,25,16,14,222,29,06,10,256,35,05,10,137,*7B
$GPGSV,3,3,10,12,06,044,35,22,01,351,*7D
$GPRMC,132949.001,A,3254.3710,S,06849.1288,W,0.55,153.59,180611,,,A*65
$GPGGA,132950.000,3254.3711,S,06849.1288,W,1,06,1.2,767.6,M,29.6,M,,0000*53
$GPGSA,M,3,21,29,25,31,18,06,,,,,,,2.2,1.2,1.8*36
$GPRMC,132950.000,A,3254.3711,S,06849.1288,W,0.37,63.49,180611,,,A*5A
$GPGGA,132951.000,3254.3712,S,06849.1285,W,1,06,1.2,767.6,M,29.6,M,,0000*5C
$GPGSA,M,3,21,29,25,31,18,06,,,,,,,2.2,1.2,1.8*36
$GPRMC,132951.000,A,3254.3712,S,06849.1285,W,0.63,110.36,180611,,,A*69
$GPGGA,132951.999,3254.3713,S,06849.1284,W,1,05,1.6,767.3,M,29.6,M,,0000*57
$GPGSA,M,3,21,29,25,31,06,,,,,,,,2.7,1.6,2.2*37
$GPRMC,132951.999,A,3254.3713,S,06849.1284,W,0.24,106.39,180611,,,A*6B
$GPGGA,132953.000,3254.3713,S,06849.1283,W,1,06,1.2,767.4,M,29.6,M,,0000*5B
$GPGSA,M,3,21,29,25,31,18,06,,,,,,,2.2,1.2,1.8*36
$GPRMC,132953.000,A,3254.3713,S,06849.1283,W,0.45,22.21,180611,,,A*5E
$GPGGA,132954.001,3254.3713,S,06849.1282,W,1,06,1.2,767.2,M,29.6,M,,0000*5A
$GPGSA,M,3,21,29,25,31,18,06,,,,,,,2.2,1.2,1.8*36
$GPGSV,3,1,10,21,81,299,38,29,45,125,39,25,42,043,39,31,37,296,30*7B
$GPGSV,3,2,10,18,23,016,27,16,14,222,29,06,10,256,35,05,10,137,*79
$GPGSV,3,3,10,12,06,044,35,22,01,351,*7D
$GPRMC,132954.001,A,3254.3713,S,06849.1282,W,0.22,1.34,180611,,,A*6D
$GPGGA,132954.998,3254.3712,S,06849.1281,W,1,05,1.6,766.9,M,29.6,M,,0000*5C
$GPGSA,M,3,21,29,25,31,06,,,,,,,,2.7,1.6,2.2*37
$GPRMC,132954.998,A,3254.3712,S,06849.1281,W,0.35,355.39,180611,,,A*6F
$GPGGA,132956.001,3254.3711,S,06849.1282,W,1,06,1.2,766.7,M,29.6,M,,0000*5E
$GPGSA,M,3,21,29,25,31,18,06,,,,,,,2.2,1.2,1.8*36
$GPRMC,132956.001,A,3254.3711,S,06849.1282,W,0.17,213.22,180611,,,A*6D
$GPGGA,132956.999,3254.3713,S,06849.1278,W,1,06,1.2,766.8,M,29.6,M,,0000*5E
$GPGSA,M,3,21,29,25,31,18,06,,,,,,,2.2,1.2,1.8*36
$GPRMC,132956.999,A,3254.3713,S,06849.1278,W,0.62,116.23,180611,,,A*67
$GPGGA,132958.000,3254.3712,S,06849.1276,W,1,05,1.6,766.1,M,29.6,M,,0000*58
$GPGSA,M,3,21,29,25,31,06,,,,,,,,2.7,1.6,2.2*37
$GPRMC,132958.000,A,3254.3712,S,06849.1276,W,0.47,163.79,180611,,,A*65
$GPGGA,132958.998,3254.3714,S,06849.1274,W,1,06,1.2,766.2,M,29.6,M,,0000*50
$GPGSA,M,3,21,29,25,31,18,06,,,,,,,2.2,1.2,1.8*36
$GPGSV,3,1,10,21,81,299,37,29,45,125,39,25,42,043,40,31,37,296,31*7B
$GPGSV,3,2,10,18,23,016,28,16,14,222,29,06,10,256,35,05,10,137,*76
$GPGSV,3,3,10,12,06,044,35,22,01,351,*7D
$GPRMC,132958.998,A,3254.3714,S,06849.1274,W,0.23,160.92,180611,,,A*6D
$GPGGA,132959.999,3254.3714,S,06849.1274,W,1,05,1.6,766.1,M,29.6,M,,0000*54
$GPGSA,M,3,21,29,25,31,06,,,,,,,,2.7,1.6,2.2*37
$GPRMC,132959.999,A,3254.3714,S,06849.1274,W,0.16,75.78,180611,,,A*5A
$GPGGA,133001.000,3254.3715,S,06849.1271,W,1,06,1.2,766.5,M,29.6,M,,0000*5F
$GPGSA,M,3,21,29,25,31,18,06,,,,,,,2.2,1.2,1.8*36
$GPRMC,133001.000,A,3254.3715,S,06849.1271,W,0.40,165.98,180611,,,A*6F
$GPGGA,133002.000,3254.3714,S,06849.1267,W,1,06,1.2,765.7,M,29.6,M,,0000*5B
$GPGSA,M,3,21,29,25,31,18,06,,,,,,,2.2,1.2,1.8*36
$GPRMC,133002.000,A,3254.3714,S,06849.1267,W,0.63,38.87,180611,,,A*5C
$GPGGA,133003.000,3254.3713,S,06849.1264,W,1,06,1.2,764.5,M,29.6,M,,0000*5D
$GPGSA,M,3,21,29,25,31,18,06,,,,,,,2.2,1.2,1.8*36
$GPGSV,3,1,10,21,81,298,42,29,44,125,44,25,41,043,45,31,36,296,30*75
$GPGSV,3,2,10,18,23,016,28,06,10,255,37,12,05,044,36,16,14,222,30*7D
$GPGSV,3,3,10,05,09,137,26,22,01,351,*73
$GPRMC,133003.000,A,3254.3713,S,06849.1264,W,0.04,82.01,180611,,,A*57
$GPGGA,133004.000,3254.3711,S,06849.1263,W,1,06,1.2,761.7,M,29.6,M,,0000*58
$GPGSA,M,3,21,29,25,31,18,06,,,,,,,2.2,1.2,1.8*36
$GPRMC,133004.000,A,3254.3711,S,06849.1263,W,0.28,283.36,180611,,,A*6C
$GPGGA,133005.000,3254.3709,S,06849.1267,W,1,06,1.2,761.8,M,29.6,M,,0000*5B
$GPGSA,M,3,21,29,25,31,18,06,,,,,,,2.2,1.2,1.8*36
$GPRMC,133005.000,A,3254.3709,S,06849.1267,W,0.06,3.57,180611,,,A*61
$GPGGA,133006.000,3254.3708,S,06849.1270,W,1,06,1.2,761.9,M,29.6,M,,0000*5E
$GPGSA,M,3,21,29,25,31,18,06,,,,,,,2.2,1.2,1.8*36
$GPRMC,133006.000,A,3254.3708,S,06849.1270,W,0.08,19.46,180611,,,A*50
$GPGGA,133007.000,3254.3707,S,06849.1273,W,1,06,1.2,762.0,M,29.6,M,,0000*59
$GPGSA,M,3,21,29,25,31,18,06,,,,,,,2.2,1.2,1.8*36
$GPRMC,133007.000,A,3254.3707,S,06849.1273,W,0.11,43.57,180611,,,A*5A
$GPGGA,133008.000,3254.3705,S,06849.1275,W,1,06,1.2,761.9,M,29.6,M,,0000*58
$GPGSA,M,3,21,29,25,31,18,06,,,,,,,2.2,1.2,1.8*36
$GPGSV,3,1,10,21,81,298,43,29,44,125,45,25,41,043,46,31,36,296,30*76
$GPGSV,3,2,10,18,23,016,29,06,10,255,38,12,05,044,37,16,14,222,31*73
$GPGSV,3,3,10,05,09,137,28,22,01,351,*7D
$GPRMC,133008.000,A,3254.3705,S,06849.1275,W,0.10,34.86,180611,,,A*5C
$GPGGA,133009.000,3254.3704,S,06849.1277,W,1,06,1.2,761.9,M,29.6,M,,0000*5A
$GPGSA,M,3,21,29,25,31,18,06,,,,,,,2.2,1.2,1.8*36
$GPRMC,133009.000,A,3254.3704,S,06849.1277,W,0.11,33.07,180611,,,A*51
$GPGGA,133010.000,3254.3703,S,06849.1279,W,1,06,1.2,761.9,M,29.6,M,,0000*5B
$GPGSA,M,3,21,29,25,31,18,06,,,,,,,2.2,1.2,1.8*36
$GPRMC,133010.000,A,3254.3703,S,06849.1279,W,0.09,37.00,180611,,,A*5A
$GPGGA,133011.000,3254.3702,S,06849.1281,W,1,06,1.2,762.0,M,29.6,M,,0000*56
$GPGSA,M,3,21,29,25,31,18,06,,,,,,,2.2,1.2,1.8*36
$GPRMC,133011.000,A,3254.3702,S,06849.1281,W,0.10,32.58,180611,,,A*5D
$GPGGA,133012.000,3254.3701,S,06849.1283,W,1,06,1.2,762.0,M,29.6,M,,0000*54
$GPGSA,M,3,21,29,25,31,18,06,,,,,,,2.2,1.2,1.8*36
$GPRMC,133012.000,A,3254.3701,S,06849.1283,W,0.10,29.34,180611,,,A*5F
$GPGGA,133013.000,3254.3700,S,06849.1284,W,1,06,1.2,762.1,M,29.6,M,,0000*52
$GPGSA,M,3,21,29,25,31,18,06,,,,,,,2.2,1.2,1.8*36
$GPGSV,3,1,10,21,81,298,43,29,44,125,46,25,41,043,46,31,36,296,30*75
$GPGSV,3,2,10,18,23,016,29,06,10,255,38,12,05,044,37,16,14,222,31*73
$GPGSV,3,3,10,05,09,137,28,22,01,351,*7D
$GPRMC,133013.000,A,3254.3700,S,06849.1284,W,0.09,30.23,180611,,,A*5E
$GPGGA,133014.000,3254.3699,S,06849.1286,W,1,06,1.2,762.1,M,29.6,M,,0000*56
$GPGSA,M,3,21,29,25,31,18,06,,,,,,,2.2,1.2,1.8*36
$GPRMC,133014.000,A,3254.3699,S,06849.1286,W,0.10,38.51,180611,,,A*5F
$GPGGA,133015.000,3254.3698,S,06849.1287,W,1,06,1.2,762.0,M,29.6,M,,0000*56
$GPGSA,M,3,21,29,25,31,18,06,,,,,,,2.2,1.2,1.8*36
$GPRMC,133015.000,A,3254.3698,S,06849.1287,W,0.10,32.69,180611,,,A*5F
$GPGGA,133016.000,3254.3697,S,06849.1288,W,1,06,1.2,762.0,M,29.6,M,,0000*55
$GPGSA,M,3,21,29,25,31,18,06,,,,,,,2.2,1.2,1.8*36
$GPRMC,133016.000,A,3254.3697,S,06849.1288,W,0.09,28.30,180611,,,A*53
$GPGGA,133017.000,3254.3696,S,06849.1289,W,1,06,1.2,761.9,M,29.6,M,,0000*5E
$GPGSA,M,3,21,29,25,31,18,06,,,,,,,2.2,1.2,1.8*36
$GPRMC,133017.000,A,3254.3696,S,06849.1289,W,0.09,37.70,180611,,,A*58
$GPGGA,133018.000,3254.3695,S,06849.1290,W,1,06,1.2,761.7,M,29.6,M,,0000*54
$GPGSA,M,3,21,29,25,31,18,06,,,,,,,2.2,1.2,1.8*36
$GPRMC,133018.000,A,3254.3695,S,06849.1290,W,0.54,59.95,180611,,,A*57
$GPGGA,133018.999,3254.3695,S,06849.1290,W,1,05,1.6,761.8,M,29.6,M,,0000*55
$GPGSA,M,3,21,29,25,31,06,,,,,,,,2.7,1.6,2.2*37
$GPGSV,3,1,10,21,81,298,38,29,44,125,40,25,41,043,40,31,36,296,28*70
$GPGSV,3,2,10,18,23,016,,16,14,222,28,06,10,255,35,05,09,137,28*7C
$GPGSV,3,3,10,12,05,044,36,22,01,351,*7D
$GPRMC,133018.999,A,3254.3695,S,06849.1290,W,0.09,268.14,180611,,,A*6F
$GPGGA,133019.998,3254.3696,S,06849.1290,W,1,06,1.2,762.4,M,29.6,M,,0000*5E
$GPGSA,M,3,21,29,25,31,18,06,,,,,,,2.2,1.2,1.8*36
$GPRMC,133019.998,A,3254.3696,S,06849.1290,W,0.22,121.51,180611,,,A*6A
$GPGGA,133021.001,3254.3694,S,06849.1290,W,1,06,1.2,762.5,M,29.6,M,,0000*5F
$GPGSA,M,3,21,29,25,31,18,06,,,,,,,2.2,1.2,1.8*36
$GPRMC,133021.001,A,3254.3694,S,06849.1290,W,0.62,16.42,180611,,,A*59
$GPGGA,133021.999,3254.3693,S,06849.1288,W,1,06,1.2,762.3,M,29.6,M,,0000*5F
$GPGSA,M,3,21,29,25,31,18,06,,,,,,,2.2,1.2,1.8*36
$GPRMC,133021.999,A,3254.3693,S,06849.1288,W,0.54,88.57,180611,,,A*59
$GPGGA,133023.001,3254.3693,S,06849.1288,W,1,05,1.6,762.0,M,29.6,M,,0000*51
$GPGSA,M,3,21,29,25,31,06,,,,,,,,2.7,1.6,2.2*37
$GPRMC,133023.001,A,3254.3693,S,06849.1288,W,0.28,152.80,180611,,,A*64
$GPGGA,133024.000,3254.3692,S,06849.1288,W,1,05,1.6,761.9,M,29.6,M,,0000*5C
$GPGSA,M,3,21,29,25,31,06,,,,,,,,2.7,1.6,2.2*37
$GPGSV,3,1,10,21,81,298,39,29,44,125,40,25,41,043,40,31,36,296,29*70
$GPGSV,3,2,10,18,23,016,,16,14,222,,06,10,255,36,05,09,137,30*7C
$GPGSV,3,3,10,12,05,044,35,22,01,351,*7E
$GPRMC,133024.000,A,3254.3692,S,06849.1288,W,0.55,352.48,180611,,,A*6F
$GPGGA,133025.000,3254.3690,S,06849.1291,W,1,05,1.6,761.8,M,29.6,M,,0000*56
$GPGSA,M,3,21,29,25,31,06,,,,,,,,2.7,1.6,2.2*37
$GPRMC,133025.000,A,3254.3690,S,06849.1291,W,0.94,288.37,180611,,,A*67
$GPGGA,133026.000,3254.3690,S,06849.1290,W,1,05,1.6,761.7,M,29.6,M,,0000*5B
$GPGSA,M,3,21,29,25,31,06,,,,,,,,2.7,1.6,2.2*37
$GPRMC,133026.000,A,3254.3690,S,06849.1290,W,0.47,97.29,180611,,,A*58
$GPGGA,133026.999,3254.3690,S,06849.1288,W,1,05,1.6,761.8,M,29.6,M,,0000*54
$GPGSA,M,3,21,29,25,31,06,,,,,,,,2.7,1.6,2.2*37
$GPRMC,133026.999,A,3254.3690,S,06849.1288,W,0.40,52.75,180611,,,A*5F
$GPGGA,133027.998,3254.3689,S,06849.1286,W,1,05,1.6,762.4,M,29.6,M,,0000*5D
$GPGSA,M,3,21,29,25,31,06,,,,,,,,2.7,1.6,2.2*37
$GPRMC,133027.998,A,3254.3689,S,06849.1286,W,0.33,290.19,180611,,,A*6B
$GPGGA,133029.002,3254.3688,S,06849.1287,W,1,05,1.6,762.4,M,29.6,M,,0000*59
$GPGSA,M,3,21,29,25,31,06,,,,,,,,2.7,1.6,2.2*37
$GPGSV,3,1,10,21,81,298,38,29,44,125,39,25,41,043,40,31,36,296,30*77
$GPGSV,3,2,10,18,23,016,,16,14,222,,06,10,255,35,05,09,137,31*7E
$GPGSV,3,3,10,12,05,044,35,22,01,351,*7E
$GPRMC,133029.002,A,3254.3688,S,06849.1287,W,0.26,207.39,180611,,,A*67
$GPGGA,133029.999,3254.3688,S,06849.1283,W,1,05,1.6,762.0,M,29.6,M,,0000*52
$GPGSA,M,3,21,29,25,31,06,,,,,,,,2.7,1.6,2.2*37
$GPRMC,133029.999,A,3254.3688,S,06849.1283,W,0.59,58.66,180611,,,A*52
$GPGGA,133031.000,3254.3689,S,06849.1282,W,1,05,1.6,762.2,M,29.6,M,,0000*50
$GPGSA,M,3,21,29,25,31,06,,,,,,,,2.7,1.6,2.2*37
$GPRMC,133031.000,A,3254.3689,S,06849.1282,W,0.50,216.84,180611,,,A*6F
$GPGGA,133031.999,3254.3689,S,06849.1282,W,1,05,1.6,761.9,M,29.6,M,,0000*51
$GPGSA,M,3,21,29,25,31,06,,,,,,,,2.7,1.6,2.2*37
$GPRMC,133031.999,A,3254.3689,S,06849.1282,W,0.37,61.24,180611,,,A*5F
$GPGGA,133032.999,3254.3689,S,06849.1280,W,1,05,1.6,761.6,M,29.6,M,,0000*5F
$GPGSA,M,3,21,29,25,31,06,,,,,,,,2.7,1.6,2.2*37
$GPRMC,133032.999,A,3254.3689,S,06849.1280,W,0.35,44.84,180611,,,A*51
$GPGGA,133033.999,3254.3687,S,06849.1280,W,1,05,1.6,761.7,M,29.6,M,,0000*51
$GPGSA,M,3,21,29,25,31,06,,,,,,,,2.7,1.6,2.2*37
$GPGSV,3,1,10,21,81,298,39,29,44,125,40,25,41,043,40,31,36,296,31*79
$GPGSV,3,2,10,18,23,016,,16,14,222,,06,10,255,35,05,09,137,29*77
$GPGSV,3,3,10,12,05,044,36,22,01,351,*7D
$GPRMC,133033.999,A,3254.3687,S,06849.1280,W,0.50,29.33,180611,,,A*5A
$GPGGA,133034.999,3254.3686,S,06849.1278,W,1,05,1.6,761.1,M,29.6,M,,0000*56
$GPGSA,M,3,21,29,25,31,06,,,,,,,,2.7,1.6,2.2*37
$GPRMC,133034.999,A,3254.3686,S,06849.1278,W,0.16,139.59,180611,,,A*65
$GPGGA,133036.000,3254.3685,S,06849.1276,W,1,05,1.6,760.9,M,29.6,M,,0000*59
$GPGSA,M,3,21,29,25,31,06,,,,,,,,2.7,1.6,2.2*37
$GPRMC,133036.000,A,3254.3685,S,06849.1276,W,0.28,5.49,180611,,,A*61
$GPGGA,133037.000,3254.3685,S,06849.1275,W,1,05,1.6,760.5,M,29.6,M,,0000*57
$GPGSA,M,3,21,29,25,31,06,,,,,,,,2.7,1.6,2.2*37
$GPRMC,133037.000,A,3254.3685,S,06849.1275,W,0.28,248.79,180611,,,A*6B
$GPGGA,133037.999,3254.3686,S,06849.1272,W,1,05,1.6,760.0,M,29.6,M,,0000*5F
$GPGSA,M,3,21,29,25,31,06,,,,,,,,2.7,1.6,2.2*37
$GPRMC,133037.999,A,3254.3686,S,06849.1272,W,0.57,130.52,180611,,,A*6B
$GPGGA,133038.999,3254.3687,S,06849.1271,W,1,05,1.6,759.9,M,29.6,M,,0000*51
$GPGSA,M,3,21,29,25,31,06,,,,,,,,2.7,1.6,2.2*37
$GPGSV,3,1,10,21,81,298,39,29,44,125,40,25,41,043,40,31,36,296,32*7A
$GPGSV,3,2,10,18,23,016,,16,14,222,,06,10,255,34,05,09,137,30*7E
$GPGSV,3,3,10,12,05,044,35,22,01,351,*7E
$GPRMC,133038.999,A,3254.3687,S,06849.1271,W,0.06,15.98,180611,,,A*52
$GPGGA,133039.999,3254.3688,S,06849.1270,W,1,05,1.6,760.0,M,29.6,M,,0000*5D
$GPGSA,M,3,21,29,25,31,06,,,,,,,,2.7,1.6,2.2*37
$GPRMC,133039.999,A,3254.3688,S,06849.1270,W,0.19,84.90,180611,,,A*53
$GPGGA,133040.999,3254.3689,S,06849.1271,W,1,05,1.6,759.7,M,29.6,M,,0000*5E
$GPGSA,M,3,21,29,25,31,06,,,,,,,,2.7,1.6,2.2*37
$GPRMC,133040.999,A,3254.3689,S,06849.1271,W,0.58,130.64,180611,,,A*6D
$GPGGA,133042.001,3254.3690,S,06849.1268,W,1,05,1.6,760.2,M,29.6,M,,0000*5B
$GPGSA,M,3,21,29,25,31,06,,,,,,,,2.7,1.6,2.2*37
$GPRMC,133042.001,A,3254.3690,S,06849.1268,W,0.57,131.05,180611,,,A*6E
$GPGGA,133042.998,3254.3690,S,06849.1268,W,1,05,1.6,759.6,M,29.6,M,,0000*5C
$GPGSA,M,3,21,29,25,31,06,,,,,,,,2.7,1.6,2.2*37
$GPRMC,133042.998,A,3254.3690,S,06849.1268,W,0.39,58.51,180611,,,A*50
$GPGGA,133044.000,3254.3689,S,06849.1265,W,1,05,1.6,759.0,M,29.6,M,,0000*51
$GPGSA,M,3,21,29,25,31,06,,,,,,,,2.7,1.6,2.2*37
$GPGSV,3,1,10,21,81,298,39,29,44,125,40,25,41,043,41,31,36,296,33*7A
$GPGSV,3,2,10,18,23,016,,16,14,222,,06,10,255,35,05,09,137,28*76
$GPGSV,3,3,10,12,05,044,34,22,01,351,*7F
$GPRMC,133044.000,A,3254.3689,S,06849.1265,W,0.46,23.41,180611,,,A*5E
$GPGGA,133045.000,3254.3687,S,06849.1267,W,1,05,1.6,758.5,M,29.6,M,,0000*58
$GPGSA,M,3,21,29,25,31,06,,,,,,,,2.7,1.6,2.2*37
$GPRMC,133045.000,A,3254.3687,S,06849.1267,W,0.22,38.94,180611,,,A*53
$GPGGA,133046.000,3254.3687,S,06849.1264,W,1,05,1.6,759.1,M,29.6,M,,0000*5D
$GPGSA,M,3,21,29,25,31,06,,,,,,,,2.7,1.6,2.2*37
$GPRMC,133046.000,A,3254.3687,S,06849.1264,W,0.40,44.74,180611,,,A*52
$GPGGA,133047.000,3254.3687,S,06849.1264,W,1,05,1.6,759.1,M,29.6,M,,0000*5C
$GPGSA,M,3,21,29,25,31,06,,,,,,,,2.7,1.6,2.2*37
$GPRMC,133047.000,A,3254.3687,S,06849.1264,W,0.32,127.39,180611,,,A*6B
$GPGGA,133048.000,3254.3689,S,06849.1261,W,1,05,1.6,758.6,M,29.6,M,,0000*5E
$GPGSA,M,3,21,29,25,31,06,,,,,,,,2.7,1.6,2.2*37
$GPRMC,133048.000,A,3254.3689,S,06849.1261,W,0.19,142.03,180611,,,A*6C
$GPGGA,133049.000,3254.3688,S,06849.1262,W,1,05,1.6,758.5,M,29.6,M,,0000*5E
$GPGSA,M,3,21,29,25,31,06,,,,,,,,2.7,1.6,2.2*37
$GPGSV,3,1,10,21,81,298,38,29,44,125,39,25,41,043,39,31,36,296,32*7B
$GPGSV,3,2,10,18,23,016,,16,14,222,,06,10,255,34,05,09,137,29*76
$GPGSV,3,3,10,12,05,044,34,22,01,351,*7F
$GPRMC,133049.000,A,3254.3688,S,06849.1262,W,0.44,94.57,180611,,,A*5C
$GPGGA,133050.000,3254.3691,S,06849.1259,W,1,05,1.6,758.2,M,29.6,M,,0000*51
$GPGSA,M,3,21,29,25,31,06,,,,,,,,2.7,1.6,2.2*37
$GPRMC,133050.000,A,3254.3691,S,06849.1259,W,0.48,110.60,180611,,,A*61
$GPGGA,133051.000,3254.3688,S,06849.1257,W,1,05,1.6,757.6,M,29.6,M,,0000*5D
$GPGSA,M,3,21,29,25,31,06,,,,,,,,2.7,1.6,2.2*37
$GPRMC,133051.000,A,3254.3688,S,06849.1257,W,0.27,77.91,180611,,,A*51
$GPGGA,133052.000,3254.3692,S,06849.1256,W,1,05,1.6,757.5,M,29.6,M,,0000*57
$GPGSA,M,3,21,29,25,31,06,,,,,,,,2.7,1.6,2.2*37
$GPRMC,133052.000,A,3254.3692,S,06849.1256,W,0.15,122.33,180611,,,A*60
$GPGGA,133053.000,3254.3693,S,06849.1254,W,1,05,1.6,757.1,M,29.6,M,,0000*51
$GPGSA,M,3,21,29,25,31,06,,,,,,,,2.7,1.6,2.2*37
$GPRMC,133053.000,A,3254.3693,S,06849.1254,W,0.15,197.18,180611,,,A*65
$GPGGA,133054.000,3254.3691,S,06849.1253,W,1,05,1.6,756.7,M,29.6,M,,0000*54
$GPGSA,M,3,21,29,25,31,06,,,,,,,,2.7,1.6,2.2*37
$GPGSV,3,1,10,21,81,298,38,29,44,125,40,25,41,043,40,31,36,296,32*7B
$GPGSV,3,2,10,18,23,016,,16,14,222,,06,10,255,35,05,09,137,29*77
$GPGSV,3,3,10,12,05,044,34,22,01,351,*7F
$GPRMC,133054.000,A,3254.3691,S,06849.1253,W,0.38,58.05,180611,,,A*56
$GPGGA,133055.000,3254.3693,S,06849.1254,W,1,05,1.6,757.3,M,29.6,M,,0000*55
$GPGSA,M,3,21,29,25,31,06,,,,,,,,2.7,1.6,2.2*37
$GPRMC,133055.000,A,3254.3693,S,06849.1254,W,0.44,21.68,180611,,,A*5C
$GPGGA,133056.000,3254.3694,S,06849.1252,W,1,05,1.6,757.0,M,29.6,M,,0000*54
$GPGSA,M,3,21,29,25,31,06,,,,,,,,2.7,1.6,2.2*37
$GPRMC,133056.000,A,3254.3694,S,06849.1252,W,0.20,45.76,180611,,,A*51
$GPGGA,133057.000,3254.3694,S,06849.1254,W,1,05,1.6,756.4,M,29.6,M,,0000*56
$GPGSA,M,3,21,29,25,31,06,,,,,,,,2.7,1.6,2.2*37
$GPRMC,133057.000,A,3254.3694,S,06849.1254,W,0.11,65.54,180611,,,A*56
$GPGGA,133058.000,3254.3696,S,06849.1255,W,1,05,1.6,757.4,M,29.6,M,,0000*5B
$GPGSA,M,3,21,29,25,31,06,,,,,,,,2.7,1.6,2.2*37
$GPRMC,133058.000,A,3254.3696,S,06849.1255,W,0.08,59.87,180611,,,A*53
$GPGGA,133059.000,3254.3695,S,06849.1254,W,1,05,1.6,756.5,M,29.6,M,,0000*58
$GPGSA,M,3,21,29,25,31,06,,,,,,,,2.7,1.6,2.2*37
$GPGSV,3,1,10,21,81,298,38,29,44,125,39,25,41,043,40,31,36,296,31*76
$GPGSV,3,2,10,18,23,016,,16,14,222,,06,10,255,36,05,09,137,29*74
$GPGSV,3,3,10,12,05,044,34,22,01,351,*7F
$GPRMC,133059.000,A,3254.3695,S,06849.1254,W,0.93,162.31,180611,,,A*66
$GPGGA,133059.999,3254.3696,S,06849.1251,W,1,05,1.6,756.5,M,29.6,M,,0000*57
$GPGSA,M,3,21,29,25,31,06,,,,,,,,2.7,1.6,2.2*37
$GPRMC,133059.999,A,3254.3696,S,06849.1251,W,0.20,161.50,180611,,,A*65
$GPGGA,133100.999,3254.3695,S,06849.1253,W,1,05,1.6,756.3,M,29.6,M,,0000*5D
$GPGSA,M,3,21,29,25,31,06,,,,,,,,2.7,1.6,2.2*37
$GPRMC,133100.999,A,3254.3695,S,06849.1253,W,0.31,299.43,180611,,,A*6F
$GPGGA,133102.000,3254.3695,S,06849.1250,W,1,05,1.6,755.1,M,29.6,M,,0000*54
$GPGSA,M,3,21,29,25,31,06,,,,,,,,2.7,1.6,2.2*37
$GPRMC,133102.000,A,3254.3695,S,06849.1250,W,0.32,83.34,180611,,,A*5D
$GPGGA,133102.999,3254.3696,S,06849.1248,W,1,05,1.6,755.2,M,29.6,M,,0000*54
$GPGSA,M,3,21,29,25,31,06,,,,,,,,2.7,1.6,2.2*37
$GPRMC,133102.999,A,3254.3696,S,06849.1248,W,0.25,192.48,180611,,,A*62
$GPGGA,133104.000,3254.3696,S,06849.1250,W,1,05,1.6,755.4,M,29.6,M,,0000*54
$GPGSA,M,3,21,29,25,31,06,,,,,,,,2.7,1.6,2.2*37
$GPGSV,3,1,10,21,81,298,39,29,44,125,40,25,41,043,40,31,36,296,32*7A
$GPGSV,3,2,10,18,23,016,,16,14,222,,06,10,255,36,05,09,137,29*74
$GPGSV,3,3,10,12,05,044,32,22,01,351,*79
$GPRMC,133104.000,A,3254.3696,S,06849.1250,W,0.22,209.06,180611,,,A*68
$GPGGA,133104.999,3254.3697,S,06849.1246,W,1,05,1.6,754.8,M,29.6,M,,0000*56
$GPGSA,M,3,21,29,25,31,06,,,,,,,,2.7,1.6,2.2*37
$GPRMC,133104.999,A,3254.3697,S,06849.1246,W,0.24,102.00,180611,,,A*6F
$GPGGA,133106.001,3254.3691,S,06849.1243,W,1,05,1.6,754.0,M,29.6,M,,0000*57
$GPGSA,M,3,21,29,25,31,06,,,,,,,,2.7,1.6,2.2*37
$GPRMC,133106.001,A,3254.3691,S,06849.1243,W,0.23,27.98,180611,,,A*56
$GPGGA,133106.998,3254.3692,S,06849.1242,W,1,05,1.6,753.7,M,29.6,M,,0000*5C
$GPGSA,M,3,21,29,25,31,06,,,,,,,,2.7,1.6,2.2*37
$GPRMC,133106.998,A,3254.3692,S,06849.1242,W,0.49,180.36,180611,,,A*69
$GPGGA,133108.000,3254.3693,S,06849.1240,W,1,05,1.6,753.3,M,29.6,M,,0000*5D
$GPGSA,M,3,21,29,25,31,06,,,,,,,,2.7,1.6,2.2*37
$GPRMC,133108.000,A,3254.3693,S,06849.1240,W,0.29,118.89,180611,,,A*6F
